#BESTPOSA,FILE,0,32.0,FINESTEERING,2316,563922.050,02000800,cdba,17139;SOL_COMPUTED,INS_PPP,17.60145382059,78.12662671870,526.5997,-76.2000,WGS84,0.0733,0.0852,0.0812,"TSTR",12.000,0.000,35,33,33,32,10,00,7f,30*24faefff
#BESTPOSA,FILE,0,32.0,FINESTEERING,2316,563922.150,02000800,cdba,17139;SOL_COMPUTED,INS_PPP,17.60145382149,78.12662671791,526.5997,-76.2000,WGS84,0.0733,0.0852,0.0812,"TSTR",12.000,0.000,35,33,33,32,10,00,7f,30*a0abfb96
#BESTPOSA,FILE,0,33.0,FINESTEERING,2316,563922.200,02000800,cdba,17139;SOL_COMPUTED,INS_PPP,17.60145382154,78.12662671702,526.5997,-76.2000,WGS84,0.0733,0.0852,0.0812,"TSTR",12.000,0.000,35,33,33,32,10,00,7f,30*66631b1c
#BESTPOSA,FILE,0,33.0,FINESTEERING,2316,563922.250,02000800,cdba,17139;SOL_COMPUTED,INS_PPP,17.60145382224,78.12662671597,526.5997,-76.2000,WGS84,0.0733,0.0852,0.0812,"TSTR",12.000,0.000,35,33,33,32,10,00,7f,30*4d9e525c
#BESTPOSA,FILE,0,33.0,FINESTEERING,2316,563922.350,02000800,cdba,17139;SOL_COMPUTED,INS_PPP,17.60145382209,78.12662671480,526.5996,-76.2000,WGS84,0.0733,0.0852,0.0812,"TSTR",12.000,0.000,35,33,33,32,10,00,7f,30*7d21c90c
#BESTPOSA,FILE,0,33.0,FINESTEERING,2316,563922.400,02000800,cdba,17139;SOL_COMPUTED,INS_PPP,17.60145382192,78.12662671492,526.5997,-76.2000,WGS84,0.0733,0.0852,0.0812,"TSTR",12.000,0.000,35,33,33,32,10,00,7f,30*d8cf702d
#BESTPOSA,FILE,0,33.0,FINESTEERING,2316,563922.500,02000800,cdba,17139;SOL_COMPUTED,INS_PPP,17.60145382262,78.12662671500,526.5997,-76.2000,WGS84,0.0733,0.0852,0.0812,"TSTR",12.000,0.000,35,33,33,32,10,00,7f,30*29cc7a82
#BESTPOSA,FILE,0,33.0,FINESTEERING,2316,563922.650,02000800,cdba,17139;SOL_COMPUTED,INS_PPP,17.60145382133,78.12662671192,526.5997,-76.2000,WGS84,0.0733,0.0852,0.0812,"TSTR",12.000,0.000,35,33,33,32,10,00,7f,30*49be297a
#BESTPOSA,FILE,0,33.0,FINESTEERING,2316,563922.750,02000800,cdba,17139;SOL_COMPUTED,INS_PPP,17.60145382139,78.12662671027,526.5996,-76.2000,WGS84,0.0733,0.0852,0.0812,"TSTR",12.000,0.000,35,33,33,32,10,00,7f,30*1e3d25f3
#BESTPOSA,FILE,0,33.0,FINESTEERING,2316,563922.800,02000800,cdba,17139;SOL_COMPUTED,INS_PPP,17.60145382071,78.12662671059,526.5996,-76.2000,WGS84,0.0733,0.0852,0.0812,"TSTR",12.000,0.000,35,33,33,32,10,00,7f,30*bcea3a9a
#BESTPOSA,FILE,0,33.0,FINESTEERING,2316,563922.850,02000800,cdba,17139;SOL_COMPUTED,INS_PPP,17.60145382056,78.12662671092,526.5996,-76.2000,WGS84,0.0733,0.0852,0.0812,"TSTR",12.000,0.000,35,33,33,32,10,00,7f,30*45285831
#BESTPOSA,FILE,0,33.0,FINESTEERING,2316,563923.150,02000800,cdba,17139;SOL_COMPUTED,INS_PPP,17.60145382112,78.12662670467,526.5996,-76.2000,WGS84,0.0742,0.0860,0.0816,"TSTR",13.000,0.000,35,33,33,32,10,00,7f,30*c5ecb64f
#BESTPOSA,FILE,0,33.5,FINESTEERING,2316,563923.200,02000800,cdba,17139;SOL_COMPUTED,INS_PPP,17.60145382140,78.12662670508,526.5996,-76.2000,WGS84,0.0742,0.0860,0.0816,"TSTR",13.000,0.000,35,33,33,32,10,00,7f,30*947560b1
#BESTPOSA,FILE,0,33.5,FINESTEERING,2316,563923.300,02000800,cdba,17139;SOL_COMPUTED,INS_PPP,17.60145382109,78.12662670531,526.5997,-76.2000,WGS84,0.0742,0.0860,0.0816,"TSTR",13.000,0.000,35,33,33,32,10,00,7f,30*899911ad
#BESTPOSA,FILE,0,33.5,FINESTEERING,2316,563923.400,02000800,cdba,17139;SOL_COMPUTED,INS_PPP,17.60145382421,78.12662670182,526.5998,-76.2000,WGS84,0.0742,0.0860,0.0816,"TSTR",13.000,0.000,35,33,33,32,10,00,7f,30*beef8150
#BESTPOSA,FILE,0,33.5,FINESTEERING,2316,563923.450,02000800,cdba,17139;SOL_COMPUTED,INS_PPP,17.60145382478,78.12662670081,526.5999,-76.2000,WGS84,0.0742,0.0860,0.0816,"TSTR",13.000,0.000,35,33,33,32,10,00,7f,30*2da35986
#BESTPOSA,FILE,0,33.5,FINESTEERING,2316,563923.600,02000800,cdba,17139;SOL_COMPUTED,INS_PPP,17.60145382271,78.12662670383,526.5999,-76.2000,WGS84,0.0742,0.0860,0.0816,"TSTR",13.000,0.000,35,33,33,32,10,00,7f,30*1ff211dc
#BESTPOSA,FILE,0,33.5,FINESTEERING,2316,563923.650,02000800,cdba,17139;SOL_COMPUTED,INS_PPP,17.60145382509,78.12662670291,526.6001,-76.2000,WGS84,0.0742,0.0860,0.0816,"TSTR",13.000,0.000,35,33,33,32,10,00,7f,30*c372b04d
#BESTPOSA,FILE,0,33.5,FINESTEERING,2316,563923.700,02000800,cdba,17139;SOL_COMPUTED,INS_PPP,17.60145382577,78.12662669928,526.6001,-76.2000,WGS84,0.0742,0.0860,0.0816,"TSTR",13.000,0.000,35,33,33,32,10,00,7f,30*60c3a6e3
#BESTPOSA,FILE,0,33.5,FINESTEERING,2316,563924.000,02000800,cdba,17139;SOL_COMPUTED,INS_PPP,17.60145382497,78.12662670031,526.6002,-76.2000,WGS84,0.0742,0.0860,0.0816,"TSTR",13.000,0.000,35,33,33,32,10,00,7f,30*bf1690e8
#BESTPOSA,FILE,0,33.5,FINESTEERING,2316,563924.050,02000800,cdba,17139;SOL_COMPUTED,INS_PPP,17.60145382447,78.12662670290,526.6002,-76.2000,WGS84,0.0751,0.0867,0.0820,"TSTR",14.000,0.000,35,33,33,32,10,00,7f,30*66197409
#BESTPOSA,FILE,0,33.5,FINESTEERING,2316,563924.150,02000800,cdba,17139;SOL_COMPUTED,INS_PPP,17.60145382170,78.12662670473,526.6004,-76.2000,WGS84,0.0751,0.0867,0.0820,"TSTR",14.000,0.000,35,33,33,32,10,00,7f,30*8ee2fc22
#BESTPOSA,FILE,0,33.5,FINESTEERING,2316,563924.200,02000800,cdba,17139;SOL_COMPUTED,INS_PPP,17.60145382132,78.12662670185,526.6003,-76.2000,WGS84,0.0751,0.0867,0.0820,"TSTR",14.000,0.000,35,33,33,32,10,00,7f,30*f0335bbd
#BESTPOSA,FILE,0,33.5,FINESTEERING,2316,563924.250,02000800,cdba,17139;SOL_COMPUTED,INS_PPP,17.60145382239,78.12662670172,526.6002,-76.2000,WGS84,0.0751,0.0867,0.0820,"TSTR",14.000,0.000,35,33,33,32,10,00,7f,30*14d839e3
#BESTPOSA,FILE,0,33.5,FINESTEERING,2316,563924.300,02000800,cdba,17139;SOL_COMPUTED,INS_PPP,17.60145382428,78.12662670310,526.6002,-76.2000,WGS84,0.0751,0.0867,0.0820,"TSTR",14.000,0.000,35,33,33,32,10,00,7f,30*39e5842e
#BESTPOSA,FILE,0,33.5,FINESTEERING,2316,563924.450,02000800,cdba,17139;SOL_COMPUTED,INS_PPP,17.60145382283,78.12662670304,526.6001,-76.2000,WGS84,0.0751,0.0867,0.0820,"TSTR",14.000,0.000,35,33,33,32,10,00,7f,30*74d9e24a
#BESTPOSA,FILE,0,33.5,FINESTEERING,2316,563924.650,02000800,cdba,17139;SOL_COMPUTED,INS_PPP,17.60145382462,78.12662670201,526.6002,-76.2000,WGS84,0.0751,0.0867,0.0820,"TSTR",14.000,0.000,35,33,33,32,10,00,7f,30*78bcb503
#BESTPOSA,FILE,0,33.5,FINESTEERING,2316,563924.700,02000800,cdba,17139;SOL_COMPUTED,INS_PPP,17.60145382432,78.12662670194,526.6001,-76.2000,WGS84,0.0751,0.0867,0.0820,"TSTR",14.000,0.000,35,33,33,32,10,00,7f,30*270ca961
#BESTPOSA,FILE,0,33.5,FINESTEERING,2316,563924.750,02000800,cdba,17139;SOL_COMPUTED,INS_PPP,17.60145382402,78.12662670259,526.6001,-76.2000,WGS84,0.0751,0.0867,0.0820,"TSTR",14.000,0.000,35,33,33,32,10,00,7f,30*cd43be2f
#BESTPOSA,FILE,0,33.5,FINESTEERING,2316,563924.800,02000800,cdba,17139;SOL_COMPUTED,INS_PPP,17.60145382426,78.12662670309,526.6001,-76.2000,WGS84,0.0751,0.0867,0.0820,"TSTR",14.000,0.000,35,33,33,32,10,00,7f,30*47d25e5d
#BESTPOSA,FILE,0,33.5,FINESTEERING,2316,563924.950,02000800,cdba,17139;SOL_COMPUTED,INS_PPP,17.60145382446,78.12662670098,526.6002,-76.2000,WGS84,0.0751,0.0867,0.0820,"TSTR",14.000,0.000,35,33,33,32,10,00,7f,30*b34057b0
#BESTPOSA,FILE,0,33.0,FINESTEERING,2316,563925.100,02000800,cdba,17139;SOL_COMPUTED,INS_PPP,17.60145382541,78.12662670224,526.6001,-76.2000,WGS84,0.0759,0.0874,0.0823,"TSTR",15.000,0.000,34,33,33,32,10,00,7f,30*dd7829e4
#BESTPOSA,FILE,0,33.0,FINESTEERING,2316,563925.150,02000800,cdba,17139;SOL_COMPUTED,INS_PPP,17.60145382504,78.12662670233,526.6002,-76.2000,WGS84,0.0759,0.0874,0.0823,"TSTR",15.000,0.000,34,33,33,32,10,00,7f,30*808c3e55
#BESTPOSA,FILE,0,33.0,FINESTEERING,2316,563925.200,02000800,cdba,17139;SOL_COMPUTED,INS_PPP,17.60145382488,78.12662670196,526.6002,-76.2000,WGS84,0.0759,0.0874,0.0823,"TSTR",15.000,0.000,34,33,33,32,10,00,7f,30*48474d49
#BESTPOSA,FILE,0,33.0,FINESTEERING,2316,563925.250,02000800,cdba,17139;SOL_COMPUTED,INS_PPP,17.60145382670,78.12662670161,526.6001,-76.2000,WGS84,0.0759,0.0874,0.0823,"TSTR",15.000,0.000,34,33,33,32,10,00,7f,30*32a21873
#BESTPOSA,FILE,0,33.0,FINESTEERING,2316,563925.300,02000800,cdba,17139;SOL_COMPUTED,INS_PPP,17.60145382930,78.12662670204,526.6001,-76.2000,WGS84,0.0759,0.0874,0.0823,"TSTR",15.000,0.000,34,33,33,32,10,00,7f,30*67e2324f
#BESTPOSA,FILE,0,33.0,FINESTEERING,2316,563925.350,02000800,cdba,17139;SOL_COMPUTED,INS_PPP,17.60145382957,78.12662670200,526.6001,-76.2000,WGS84,0.0759,0.0874,0.0823,"TSTR",15.000,0.000,34,33,33,32,10,00,7f,30*35029524
#BESTPOSA,FILE,0,33.0,FINESTEERING,2316,563925.500,02000800,cdba,17139;SOL_COMPUTED,INS_PPP,17.60145382581,78.12662670433,526.5998,-76.2000,WGS84,0.0759,0.0874,0.0823,"TSTR",15.000,0.000,34,33,33,32,10,00,7f,30*9ad00ba5
#BESTPOSA,FILE,0,33.0,FINESTEERING,2316,563925.550,02000800,cdba,17139;SOL_COMPUTED,INS_PPP,17.60145382834,78.12662670494,526.5999,-76.2000,WGS84,0.0759,0.0874,0.0823,"TSTR",15.000,0.000,34,33,33,32,10,00,7f,30*5028c1fe
#BESTPOSA,FILE,0,33.0,FINESTEERING,2316,563925.600,02000800,cdba,17139;SOL_COMPUTED,INS_PPP,17.60145383015,78.12662670435,526.5999,-76.2000,WGS84,0.0759,0.0874,0.0823,"TSTR",15.000,0.000,34,33,33,32,10,00,7f,30*cc96b204
#BESTPOSA,FILE,0,33.0,FINESTEERING,2316,563925.650,02000800,cdba,17139;SOL_COMPUTED,INS_PPP,17.60145382812,78.12662670553,526.5998,-76.2000,WGS84,0.0759,0.0874,0.0823,"TSTR",15.000,0.000,34,33,33,32,10,00,7f,30*714ffa05
#BESTPOSA,FILE,0,33.0,FINESTEERING,2316,563925.700,02000800,cdba,17139;SOL_COMPUTED,INS_PPP,17.60145382830,78.12662670836,526.5997,-76.2000,WGS84,0.0759,0.0874,0.0823,"TSTR",15.000,0.000,34,33,33,32,10,00,7f,30*0ce8f809
#BESTPOSA,FILE,0,33.0,FINESTEERING,2316,563925.750,02000800,cdba,17139;SOL_COMPUTED,INS_PPP,17.60145383115,78.12662670898,526.5999,-76.2000,WGS84,0.0759,0.0874,0.0823,"TSTR",15.000,0.000,34,33,33,32,10,00,7f,30*14994297
#BESTPOSA,FILE,0,33.0,FINESTEERING,2316,563925.800,02000800,cdba,17139;SOL_COMPUTED,INS_PPP,17.60145383217,78.12662670640,526.6003,-76.2000,WGS84,0.0759,0.0874,0.0823,"TSTR",15.000,0.000,34,33,33,32,10,00,7f,30*c24f17d5
#BESTPOSA,FILE,0,33.0,FINESTEERING,2316,563925.850,02000800,cdba,17139;SOL_COMPUTED,INS_PPP,17.60145383644,78.12662670212,526.6008,-76.2000,WGS84,0.0759,0.0874,0.0823,"TSTR",15.000,0.000,34,33,33,32,10,00,7f,30*70c1788a
#BESTPOSA,FILE,0,33.0,FINESTEERING,2316,563925.900,02000800,cdba,17139;SOL_COMPUTED,INS_PPP,17.60145384141,78.12662669612,526.6012,-76.2000,WGS84,0.0759,0.0874,0.0823,"TSTR",15.000,0.000,34,33,33,32,10,00,7f,30*14764e58
#BESTPOSA,FILE,0,33.0,FINESTEERING,2316,563925.950,02000800,cdba,17139;SOL_COMPUTED,INS_PPP,17.60145384324,78.12662669238,526.6013,-76.2000,WGS84,0.0759,0.0874,0.0823,"TSTR",15.000,0.000,34,33,33,32,10,00,7f,30*88ad3ef3
#BESTPOSA,FILE,0,33.0,FINESTEERING,2316,563926.000,02000800,cdba,17139;SOL_COMPUTED,INS_PPP,17.60145384124,78.12662669200,526.6012,-76.2000,WGS84,0.0759,0.0874,0.0823,"TSTR",15.000,0.000,34,33,33,32,10,00,7f,30*0e77a7ef
#BESTPOSA,FILE,0,33.0,FINESTEERING,2316,563926.050,02000800,cdba,17139;SOL_COMPUTED,INS_PPP,17.60145384066,78.12662669411,526.6010,-76.2000,WGS84,0.0766,0.0881,0.0826,"TSTR",16.000,0.000,34,33,33,32,10,00,7f,30*cb5f6736
#BESTPOSA,FILE,0,32.0,FINESTEERING,2316,563926.100,02000800,cdba,17139;SOL_COMPUTED,INS_PPP,17.60145384079,78.12662669876,526.6009,-76.2000,WGS84,0.0766,0.0881,0.0826,"TSTR",16.000,0.000,34,33,33,32,10,00,7f,30*5c3cb814
#BESTPOSA,FILE,0,32.0,FINESTEERING,2316,563926.150,02000800,cdba,17139;SOL_COMPUTED,INS_PPP,17.60145384028,78.12662670409,526.6009,-76.2000,WGS84,0.0766,0.0881,0.0826,"TSTR",16.000,0.000,34,33,33,32,10,00,7f,30*8417c7ee
#BESTPOSA,FILE,0,32.0,FINESTEERING,2316,563926.200,02000800,cdba,17139;SOL_COMPUTED,INS_PPP,17.60145383763,78.12662670923,526.6010,-76.2000,WGS84,0.0766,0.0881,0.0826,"TSTR",16.000,0.000,34,33,33,32,10,00,7f,30*fa2ebdce
#BESTPOSA,FILE,0,32.0,FINESTEERING,2316,563926.250,02000800,cdba,17139;SOL_COMPUTED,INS_PPP,17.60145383479,78.12662671307,526.6009,-76.2000,WGS84,0.0766,0.0881,0.0826,"TSTR",16.000,0.000,34,33,33,32,10,00,7f,30*6db8dab3
#BESTPOSA,FILE,0,32.0,FINESTEERING,2316,563926.300,02000800,cdba,17139;SOL_COMPUTED,INS_PPP,17.60145383376,78.12662671540,526.6009,-76.2000,WGS84,0.0766,0.0881,0.0826,"TSTR",16.000,0.000,34,33,33,32,10,00,7f,30*5d5740eb
#BESTPOSA,FILE,0,32.0,FINESTEERING,2316,563926.350,02000800,cdba,17139;SOL_COMPUTED,INS_PPP,17.60145383288,78.12662671707,526.6009,-76.2000,WGS84,0.0766,0.0881,0.0826,"TSTR",16.000,0.000,34,33,33,32,10,00,7f,30*fe2a3bcf
#BESTPOSA,FILE,0,32.0,FINESTEERING,2316,563926.400,02000800,cdba,17139;SOL_COMPUTED,INS_PPP,17.60145383374,78.12662671939,526.6009,-76.2000,WGS84,0.0766,0.0881,0.0826,"TSTR",16.000,0.000,34,33,33,32,10,00,7f,30*c224414b
#BESTPOSA,FILE,0,32.0,FINESTEERING,2316,563926.450,02000800,cdba,17139;SOL_COMPUTED,INS_PPP,17.60145383394,78.12662672102,526.6009,-76.2000,WGS84,0.0766,0.0881,0.0826,"TSTR",16.000,0.000,34,33,33,32,10,00,7f,30*8f70bc0c
#BESTPOSA,FILE,0,32.0,FINESTEERING,2316,563926.500,02000800,cdba,17139;SOL_COMPUTED,INS_PPP,17.60145383267,78.12662672105,526.6008,-76.2000,WGS84,0.0766,0.0881,0.0826,"TSTR",16.000,0.000,34,33,33,32,10,00,7f,30*7eacf9bb
#BESTPOSA,FILE,0,32.0,FINESTEERING,2316,563926.550,02000800,cdba,17139;SOL_COMPUTED,INS_PPP,17.60145383072,78.12662672052,526.6007,-76.2000,WGS84,0.0766,0.0881,0.0826,"TSTR",16.000,0.000,34,33,33,32,10,00,7f,30*d5792c60
#BESTPOSA,FILE,0,32.0,FINESTEERING,2316,563926.600,02000800,cdba,17139;SOL_COMPUTED,INS_PPP,17.60145382971,78.12662672104,526.6006,-76.2000,WGS84,0.0766,0.0881,0.0826,"TSTR",16.000,0.000,34,33,33,32,10,00,7f,30*a997a1d9
#BESTPOSA,FILE,0,32.0,FINESTEERING,2316,563926.650,02000800,cdba,17139;SOL_COMPUTED,INS_PPP,17.60145383007,78.12662672273,526.6006,-76.2000,WGS84,0.0766,0.0881,0.0826,"TSTR",16.000,0.000,34,33,33,32,10,00,7f,30*6a37d61f
#BESTPOSA,FILE,0,32.0,FINESTEERING,2316,563926.700,02000800,cdba,17139;SOL_COMPUTED,INS_PPP,17.60145382951,78.12662672479,526.6005,-76.2000,WGS84,0.0766,0.0881,0.0826,"TSTR",16.000,0.000,34,33,33,32,10,00,7f,30*d7803a89
#BESTPOSA,FILE,0,32.0,FINESTEERING,2316,563926.750,02000800,cdba,17139;SOL_COMPUTED,INS_PPP,17.60145382931,78.12662672639,526.6005,-76.2000,WGS84,0.0766,0.0881,0.0826,"TSTR",16.000,0.000,34,33,33,32,10,00,7f,30*5cbb42cc
#BESTPOSA,FILE,0,32.0,FINESTEERING,2316,563926.800,02000800,cdba,17139;SOL_COMPUTED,INS_PPP,17.60145382808,78.12662672762,526.6004,-76.2000,WGS84,0.0766,0.0881,0.0826,"TSTR",16.000,0.000,34,33,33,32,10,00,7f,30*5746669a
#BESTPOSA,FILE,0,32.0,FINESTEERING,2316,563926.850,02000800,cdba,17139;SOL_COMPUTED,INS_PPP,17.60145382733,78.12662672846,526.6003,-76.2000,WGS84,0.0766,0.0881,0.0826,"TSTR",16.000,0.000,34,33,33,32,10,00,7f,30*c6851dde
#BESTPOSA,FILE,0,32.0,FINESTEERING,2316,563926.900,02000800,cdba,17139;SOL_COMPUTED,INS_PPP,17.60145382584,78.12662672906,526.6003,-76.2000,WGS84,0.0766,0.0881,0.0826,"TSTR",16.000,0.000,34,33,33,32,10,00,7f,30*26360e5a
#BESTPOSA,FILE,0,32.0,FINESTEERING,2316,563926.950,02000800,cdba,17139;SOL_COMPUTED,INS_PPP,17.60145382576,78.12662672964,526.6002,-76.2000,WGS84,0.0766,0.0881,0.0826,"TSTR",16.000,0.000,34,33,33,32,10,00,7f,30*83af5eda
#BESTPOSA,FILE,0,32.0,FINESTEERING,2316,563927.000,02000800,cdba,17139;SOL_COMPUTED,INS_PPP,17.60145382585,78.12662673027,526.6002,-76.2000,WGS84,0.0766,0.0881,0.0826,"TSTR",16.000,0.000,34,33,33,32,10,00,7f,30*a3be5298
#BESTPOSA,FILE,0,32.0,FINESTEERING,2316,563927.050,02000800,cdba,17139;SOL_COMPUTED,INS_PPP,17.60145382501,78.12662672985,526.6001,-76.2000,WGS84,0.0774,0.0888,0.0829,"TSTR",17.000,0.000,34,33,33,32,10,00,7f,30*bb7f4573
#BESTPOSA,FILE,0,22.5,FINESTEERING,2316,563927.100,02000800,cdba,17139;SOL_COMPUTED,INS_PPP,17.60145382437,78.12662672829,526.6000,-76.2000,WGS84,0.0774,0.0888,0.0829,"TSTR",17.000,0.000,34,33,33,32,10,00,7f,30*bb736b18
#BESTPOSA,FILE,0,22.5,FINESTEERING,2316,563927.150,02000800,cdba,17139;SOL_COMPUTED,INS_PPP,17.60145382307,78.12662672733,526.5998,-76.2000,WGS84,0.0774,0.0888,0.0829,"TSTR",17.000,0.000,34,33,33,32,10,00,7f,30*a82faccb
#BESTPOSA,FILE,0,22.5,FINESTEERING,2316,563927.200,02000800,cdba,17139;SOL_COMPUTED,INS_PPP,17.60145382197,78.12662672770,526.5996,-76.2000,WGS84,0.0774,0.0888,0.0829,"TSTR",17.000,0.000,34,33,33,32,10,00,7f,30*75c56724
#BESTPOSA,FILE,0,22.5,FINESTEERING,2316,563927.250,02000800,cdba,17139;SOL_COMPUTED,INS_PPP,17.60145382123,78.12662672682,526.5994,-76.2000,WGS84,0.0774,0.0888,0.0829,"TSTR",17.000,0.000,34,33,33,32,10,00,7f,30*b1a2bb2f
#BESTPOSA,FILE,0,22.5,FINESTEERING,2316,563927.300,02000800,cdba,17139;SOL_COMPUTED,INS_PPP,17.60145382167,78.12662672594,526.5994,-76.2000,WGS84,0.0774,0.0888,0.0829,"TSTR",17.000,0.000,34,33,33,32,10,00,7f,30*aedc31b4
#BESTPOSA,FILE,0,22.5,FINESTEERING,2316,563927.350,02000800,cdba,17139;SOL_COMPUTED,INS_PPP,17.60145382285,78.12662672522,526.5994,-76.2000,WGS84,0.0774,0.0888,0.0829,"TSTR",17.000,0.000,34,33,33,32,10,00,7f,30*2545a43d
#BESTPOSA,FILE,0,22.5,FINESTEERING,2316,563927.400,02000800,cdba,17139;SOL_COMPUTED,INS_PPP,17.60145382280,78.12662672404,526.5994,-76.2000,WGS84,0.0774,0.0888,0.0829,"TSTR",17.000,0.000,34,33,33,32,10,00,7f,30*3ce60f64
#BESTPOSA,FILE,0,22.5,FINESTEERING,2316,563927.450,02000800,cdba,17139;SOL_COMPUTED,INS_PPP,17.60145382312,78.12662672299,526.5994,-76.2000,WGS84,0.0774,0.0888,0.0829,"TSTR",17.000,0.000,34,33,33,32,10,00,7f,30*032ba47a
#BESTPOSA,FILE,0,22.5,FINESTEERING,2316,563927.500,02000800,cdba,17139;SOL_COMPUTED,INS_PPP,17.60145382249,78.12662672093,526.5993,-76.2000,WGS84,0.0774,0.0888,0.0829,"TSTR",17.000,0.000,34,33,33,32,10,00,7f,30*5816e7f0
#BESTPOSA,FILE,0,22.5,FINESTEERING,2316,563927.550,02000800,cdba,17139;SOL_COMPUTED,INS_PPP,17.60145382272,78.12662671935,526.5992,-76.2000,WGS84,0.0774,0.0888,0.0829,"TSTR",17.000,0.000,34,33,33,32,10,00,7f,30*114ab58c
#BESTPOSA,FILE,0,22.5,FINESTEERING,2316,563927.600,02000800,cdba,17139;SOL_COMPUTED,INS_PPP,17.60145382173,78.12662671883,526.5991,-76.2000,WGS84,0.0774,0.0888,0.0829,"TSTR",17.000,0.000,34,33,33,32,10,00,7f,30*9f21474d
#BESTPOSA,FILE,0,22.5,FINESTEERING,2316,563927.650,02000800,cdba,17139;SOL_COMPUTED,INS_PPP,17.60145382109,78.12662671858,526.5990,-76.2000,WGS84,0.0774,0.0888,0.0829,"TSTR",17.000,0.000,34,33,33,32,10,00,7f,30*f3ea75a3
#BESTPOSA,FILE,0,22.5,FINESTEERING,2316,563927.700,02000800,cdba,17139;SOL_COMPUTED,INS_PPP,17.60145382113,78.12662671875,526.5990,-76.2000,WGS84,0.0774,0.0888,0.0829,"TSTR",17.000,0.000,34,33,33,32,10,00,7f,30*4c9c435a
#BESTPOSA,FILE,0,22.5,FINESTEERING,2316,563927.750,02000800,cdba,17139;SOL_COMPUTED,INS_PPP,17.60145382066,78.12662671865,526.5989,-76.2000,WGS84,0.0774,0.0888,0.0829,"TSTR",17.000,0.000,34,33,33,32,10,00,7f,30*c8256427
#BESTPOSA,FILE,0,22.5,FINESTEERING,2316,563927.800,02000800,cdba,17139;SOL_COMPUTED,INS_PPP,17.60145382092,78.12662671738,526.5988,-76.2000,WGS84,0.0774,0.0888,0.0829,"TSTR",17.000,0.000,34,33,33,32,10,00,7f,30*39a88a5d
#BESTPOSA,FILE,0,22.5,FINESTEERING,2316,563927.850,02000800,cdba,17139;SOL_COMPUTED,INS_PPP,17.60145382072,78.12662671564,526.5987,-76.2000,WGS84,0.0774,0.0888,0.0829,"TSTR",17.000,0.000,34,33,33,32,10,00,7f,30*0c51a2f8
#BESTPOSA,FILE,0,22.5,FINESTEERING,2316,563927.900,02000800,cdba,17139;SOL_COMPUTED,INS_PPP,17.60145382134,78.12662671382,526.5987,-76.2000,WGS84,0.0774,0.0888,0.0829,"TSTR",17.000,0.000,34,33,33,32,10,00,7f,30*fb389077
#BESTPOSA,FILE,0,22.5,FINESTEERING,2316,563927.950,02000800,cdba,17139;SOL_COMPUTED,INS_PPP,17.60145382175,78.12662671220,526.5987,-76.2000,WGS84,0.0774,0.0888,0.0829,"TSTR",17.000,0.000,34,33,33,32,10,00,7f,30*3ab7728f
#BESTPOSA,FILE,0,22.5,FINESTEERING,2316,563928.000,02000800,cdba,17139;SOL_COMPUTED,INS_PPP,17.60145382272,78.12662671091,526.5988,-76.2000,WGS84,0.0774,0.0888,0.0829,"TSTR",17.000,0.000,34,33,33,32,10,00,7f,30*2fed8864
#BESTPOSA,FILE,0,22.5,FINESTEERING,2316,563928.050,02000800,cdba,17139;SOL_COMPUTED,INS_PPP,17.60145382379,78.12662670992,526.5988,-76.2000,WGS84,0.0783,0.0895,0.0833,"TSTR",8.000,0.000,34,33,33,32,10,00,7f,30*5fc2c831
#BESTPOSA,FILE,0,22.5,FINESTEERING,2316,563928.100,02000800,cdba,17139;SOL_COMPUTED,INS_PPP,17.60145382367,78.12662670995,526.5988,-76.2000,WGS84,0.0783,0.0895,0.0833,"TSTR",8.000,0.000,34,33,33,32,10,00,7f,30*8968f7db
#BESTPOSA,FILE,0,30.0,FINESTEERING,2316,563928.150,02000800,cdba,17139;SOL_COMPUTED,INS_PPP,17.60145382412,78.12662670994,526.5989,-76.2000,WGS84,0.0783,0.0895,0.0833,"TSTR",8.000,0.000,34,33,33,32,10,00,7f,30*3f70110e
#BESTPOSA,FILE,0,30.0,FINESTEERING,2316,563928.200,02000800,cdba,17139;SOL_COMPUTED,INS_PPP,17.60145382456,78.12662670935,526.5990,-76.2000,WGS84,0.0783,0.0895,0.0833,"TSTR",8.000,0.000,34,33,33,32,10,00,7f,30*f9e2cb40
#BESTPOSA,FILE,0,30.0,FINESTEERING,2316,563928.250,02000800,cdba,17139;SOL_COMPUTED,INS_PPP,17.60145382547,78.12662670877,526.5990,-76.2000,WGS84,0.0783,0.0895,0.0833,"TSTR",8.000,0.000,34,33,33,32,10,00,7f,30*275c6c7f
#BESTPOSA,FILE,0,30.0,FINESTEERING,2316,563928.300,02000800,cdba,17139;SOL_COMPUTED,INS_PPP,17.60145382632,78.12662670838,526.5991,-76.2000,WGS84,0.0783,0.0895,0.0833,"TSTR",8.000,0.000,34,33,33,32,10,00,7f,30*0be6324f
#BESTPOSA,FILE,0,30.0,FINESTEERING,2316,563928.350,02000800,cdba,17139;SOL_COMPUTED,INS_PPP,17.60145382686,78.12662670824,526.5993,-76.2000,WGS84,0.0783,0.0895,0.0833,"TSTR",8.000,0.000,34,33,33,32,10,00,7f,30*8bacfaa2
#BESTPOSA,FILE,0,30.0,FINESTEERING,2316,563928.400,02000800,cdba,17139;SOL_COMPUTED,INS_PPP,17.60145380372,78.12662671083,526.5990,-76.2000,WGS84,0.0783,0.0895,0.0833,"TSTR",8.000,0.000,34,33,33,32,10,00,7f,30*cba7d43f
#BESTPOSA,FILE,0,30.0,FINESTEERING,2316,563928.450,02000800,cdba,17139;SOL_COMPUTED,INS_PPP,17.60145380703,78.12662670655,526.5989,-76.2000,WGS84,0.0783,0.0895,0.0833,"TSTR",8.000,0.000,34,33,33,32,10,00,7f,30*a78b7797
#BESTPOSA,FILE,0,30.0,FINESTEERING,2316,563928.500,02000800,cdba,17139;SOL_COMPUTED,INS_PPP,17.60145381322,78.12662670635,526.5994,-76.2000,WGS84,0.0783,0.0895,0.0833,"TSTR",8.000,0.000,34,33,33,32,10,00,7f,30*f4ff2dbd
#BESTPOSA,FILE,0,30.0,FINESTEERING,2316,563928.550,02000800,cdba,17139;SOL_COMPUTED,INS_PPP,17.60145382022,78.12662670738,526.5998,-76.2000,WGS84,0.0783,0.0895,0.0833,"TSTR",8.000,0.000,34,33,33,32,10,00,7f,30*0892e4c3
#BESTPOSA,FILE,0,30.0,FINESTEERING,2316,563928.600,02000800,cdba,17139;SOL_COMPUTED,INS_PPP,17.60145382561,78.12662670547,526.6003,-76.2000,WGS84,0.0783,0.0895,0.0833,"TSTR",8.000,0.000,34,33,33,32,10,00,7f,30*bdea077d
#BESTPOSA,FILE,0,30.0,FINESTEERING,2316,563928.650,02000800,cdba,17139;SOL_COMPUTED,INS_PPP,17.60145382695,78.12662670358,526.6006,-76.2000,WGS84,0.0783,0.0895,0.0833,"TSTR",8.000,0.000,34,33,33,32,10,00,7f,30*74b48a9b
#BESTPOSA,FILE,0,30.0,FINESTEERING,2316,563928.700,02000800,cdba,17139;SOL_COMPUTED,INS_PPP,17.60145382834,78.12662670212,526.6004,-76.2000,WGS84,0.0783,0.0895,0.0833,"TSTR",8.000,0.000,34,33,33,32,10,00,7f,30*aaa92005
#BESTPOSA,FILE,0,30.0,FINESTEERING,2316,563928.750,02000800,cdba,17139;SOL_COMPUTED,INS_PPP,17.60145382935,78.12662670148,526.6002,-76.2000,WGS84,0.0783,0.0895,0.0833,"TSTR",8.000,0.000,34,33,33,32,10,00,7f,30*cdb47189
#BESTPOSA,FILE,0,30.0,FINESTEERING,2316,563928.800,02000800,cdba,17139;SOL_COMPUTED,INS_PPP,17.60145382613,78.12662670147,526.6001,-76.2000,WGS84,0.0783,0.0895,0.0833,"TSTR",8.000,0.000,34,33,33,32,10,00,7f,30*d6d1f021
#BESTPOSA,FILE,0,30.0,FINESTEERING,2316,563928.850,02000800,cdba,17139;SOL_COMPUTED,INS_PPP,17.60145382553,78.12662670130,526.6002,-76.2000,WGS84,0.0783,0.0895,0.0833,"TSTR",8.000,0.000,34,33,33,32,10,00,7f,30*c2c5fdb2
#BESTPOSA,FILE,0,30.0,FINESTEERING,2316,563928.900,02000800,cdba,17139;SOL_COMPUTED,INS_PPP,17.60145382480,78.12662670058,526.6003,-76.2000,WGS84,0.0783,0.0895,0.0833,"TSTR",8.000,0.000,34,33,33,32,10,00,7f,30*3b60fa48
#BESTPOSA,FILE,0,30.0,FINESTEERING,2316,563928.950,02000800,cdba,17139;SOL_COMPUTED,INS_PPP,17.60145382265,78.12662670036,526.6005,-76.2000,WGS84,0.0783,0.0895,0.0833,"TSTR",8.000,0.000,34,33,33,32,10,00,7f,30*21b5e482
#BESTPOSA,FILE,0,30.0,FINESTEERING,2316,563929.000,02000800,cdba,17139;SOL_COMPUTED,INS_PPP,17.60145382127,78.12662669895,526.6005,-76.2000,WGS84,0.0783,0.0895,0.0833,"TSTR",8.000,0.000,34,33,33,32,10,00,7f,30*7ac01bfe
#BESTPOSA,FILE,0,30.0,FINESTEERING,2316,563929.050,02000800,cdba,17139;SOL_COMPUTED,INS_PPP,17.60145382018,78.12662669779,526.6004,-76.2000,WGS84,0.0791,0.0902,0.0837,"TSTR",9.000,0.000,34,33,33,32,10,00,7f,30*db318a68
#BESTPOSA,FILE,0,24.5,FINESTEERING,2316,563929.100,02000800,cdba,17139;SOL_COMPUTED,INS_PPP,17.60145381877,78.12662669827,526.6004,-76.2000,WGS84,0.0791,0.0902,0.0837,"TSTR",9.000,0.000,34,33,33,32,10,00,7f,30*d03fcc5a
#BESTPOSA,FILE,0,24.5,FINESTEERING,2316,563929.150,02000800,cdba,17139;SOL_COMPUTED,INS_PPP,17.60145381828,78.12662669913,526.6004,-76.2000,WGS84,0.0791,0.0902,0.0837,"TSTR",9.000,0.000,34,33,33,32,10,00,7f,30*bb05c495
#BESTPOSA,FILE,0,24.5,FINESTEERING,2316,563929.200,02000800,cdba,17139;SOL_COMPUTED,INS_PPP,17.60145381701,78.12662669943,526.6004,-76.2000,WGS84,0.0791,0.0902,0.0837,"TSTR",9.000,0.000,34,33,33,32,10,00,7f,30*72a417c5
#BESTPOSA,FILE,0,24.5,FINESTEERING,2316,563929.250,02000800,cdba,17139;SOL_COMPUTED,INS_PPP,17.60145381625,78.12662669950,526.6003,-76.2000,WGS84,0.0791,0.0902,0.0837,"TSTR",9.000,0.000,34,33,33,32,10,00,7f,30*039d3d95
#BESTPOSA,FILE,0,24.5,FINESTEERING,2316,563929.300,02000800,cdba,17139;SOL_COMPUTED,INS_PPP,17.60145381569,78.12662669935,526.6003,-76.2000,WGS84,0.0791,0.0902,0.0837,"TSTR",9.000,0.000,34,33,33,32,10,00,7f,30*a0e68916
#BESTPOSA,FILE,0,24.5,FINESTEERING,2316,563929.350,02000800,cdba,17139;SOL_COMPUTED,INS_PPP,17.60145381502,78.12662669915,526.6002,-76.2000,WGS84,0.0791,0.0902,0.0837,"TSTR",9.000,0.000,34,33,33,32,10,00,7f,30*357690b2
#BESTPOSA,FILE,0,24.5,FINESTEERING,2316,563929.400,02000800,cdba,17139;SOL_COMPUTED,INS_PPP,17.60145381505,78.12662669907,526.6002,-76.2000,WGS84,0.0791,0.0902,0.0837,"TSTR",9.000,0.000,34,33,33,32,10,00,7f,30*9637bdc5
#BESTPOSA,FILE,0,24.5,FINESTEERING,2316,563929.450,02000800,cdba,17139;SOL_COMPUTED,INS_PPP,17.60145381390,78.12662669915,526.6002,-76.2000,WGS84,0.0791,0.0902,0.0837,"TSTR",9.000,0.000,34,33,33,32,10,00,7f,30*a8a247b4
#BESTPOSA,FILE,0,24.5,FINESTEERING,2316,563929.500,02000800,cdba,17139;SOL_COMPUTED,INS_PPP,17.60145381329,78.12662669943,526.6002,-76.2000,WGS84,0.0791,0.0902,0.0837,"TSTR",9.000,0.000,34,33,33,32,10,00,7f,30*c1e6e872
#BESTPOSA,FILE,0,24.5,FINESTEERING,2316,563929.550,02000800,cdba,17139;SOL_COMPUTED,INS_PPP,17.60145381214,78.12662669901,526.6001,-76.2000,WGS84,0.0791,0.0902,0.0837,"TSTR",9.000,0.000,34,33,33,32,10,00,7f,30*ca7bce7f
#BESTPOSA,FILE,0,24.5,FINESTEERING,2316,563929.600,02000800,cdba,17139;SOL_COMPUTED,INS_PPP,17.60145381136,78.12662669867,526.6000,-76.2000,WGS84,0.0791,0.0902,0.0837,"TSTR",9.000,0.000,34,33,33,32,10,00,7f,30*f8f18549
#BESTPOSA,FILE,0,24.5,FINESTEERING,2316,563929.650,02000800,cdba,17139;SOL_COMPUTED,INS_PPP,17.60145381094,78.12662669810,526.5999,-76.2000,WGS84,0.0791,0.0902,0.0837,"TSTR",9.000,0.000,34,33,33,32,10,00,7f,30*afd8f62f
#BESTPOSA,FILE,0,24.5,FINESTEERING,2316,563929.700,02000800,cdba,17139;SOL_COMPUTED,INS_PPP,17.60145381012,78.12662669722,526.5999,-76.2000,WGS84,0.0791,0.0902,0.0837,"TSTR",9.000,0.000,34,33,33,32,10,00,7f,30*c898287c
#BESTPOSA,FILE,0,24.5,FINESTEERING,2316,563929.750,02000800,cdba,17139;SOL_COMPUTED,INS_PPP,17.60145380933,78.12662669752,526.5999,-76.2000,WGS84,0.0791,0.0902,0.0837,"TSTR",9.000,0.000,34,33,33,32,10,00,7f,30*2d8e1d87
#BESTPOSA,FILE,0,24.5,FINESTEERING,2316,563929.800,02000800,cdba,17139;SOL_COMPUTED,INS_PPP,17.60145380804,78.12662669740,526.5998,-76.2000,WGS84,0.0791,0.0902,0.0837,"TSTR",9.000,0.000,34,33,33,32,10,00,7f,30*4c9f58e0
#BESTPOSA,FILE,0,24.5,FINESTEERING,2316,563929.850,02000800,cdba,17139;SOL_COMPUTED,INS_PPP,17.60145380708,78.12662669699,526.5998,-76.2000,WGS84,0.0791,0.0902,0.0837,"TSTR",9.000,0.000,34,33,33,32,10,00,7f,30*7112c66b
#BESTPOSA,FILE,0,24.5,FINESTEERING,2316,563929.900,02000800,cdba,17139;SOL_COMPUTED,INS_PPP,17.60145380738,78.12662669652,526.5997,-76.2000,WGS84,0.0791,0.0902,0.0837,"TSTR",9.000,0.000,34,33,33,32,10,00,7f,30*a99f912e
#BESTPOSA,FILE,0,24.5,FINESTEERING,2316,563929.950,02000800,cdba,17139;SOL_COMPUTED,INS_PPP,17.60145380619,78.12662669755,526.5998,-76.2000,WGS84,0.0791,0.0902,0.0837,"TSTR",9.000,0.000,34,33,33,32,10,00,7f,30*6f01540b
#BESTPOSA,FILE,0,24.5,FINESTEERING,2316,563930.000,02000800,cdba,17139;SOL_COMPUTED,INS_PPP,17.60145380552,78.12662669835,526.5998,-76.2000,WGS84,0.0791,0.0902,0.0837,"TSTR",9.000,0.000,34,33,33,32,10,00,7f,30*8ed009a9
#BESTPOSA,FILE,0,24.5,FINESTEERING,2316,563930.050,02000800,cdba,17139;SOL_COMPUTED,INS_PPP,17.60145380544,78.12662669601,526.5996,-76.2000,WGS84,0.0799,0.0910,0.0841,"TSTR",10.000,0.000,34,33,33,32,10,00,7f,30*eb98d000
#BESTPOSA,FILE,0,24.5,FINESTEERING,2316,563930.100,02000800,cdba,17139;SOL_COMPUTED,INS_PPP,17.60145380626,78.12662669238,526.5993,-76.2000,WGS84,0.0799,0.0910,0.0841,"TSTR",10.000,0.000,34,33,33,32,10,00,7f,30*eecdd508
#BESTPOSA,FILE,0,30.5,FINESTEERING,2316,563930.150,02000800,cdba,17139;SOL_COMPUTED,INS_PPP,17.60145380778,78.12662669086,526.5993,-76.2000,WGS84,0.0799,0.0910,0.0841,"TSTR",10.000,0.000,34,33,33,32,10,00,7f,30*b52419e5
#BESTPOSA,FILE,0,30.5,FINESTEERING,2316,563930.200,02000800,cdba,17139;SOL_COMPUTED,INS_PPP,17.60145380930,78.12662668838,526.5990,-76.2000,WGS84,0.0799,0.0910,0.0841,"TSTR",10.000,0.000,34,33,33,32,10,00,7f,30*d3fb216d
#BESTPOSA,FILE,0,30.5,FINESTEERING,2316,563930.250,02000800,cdba,17139;SOL_COMPUTED,INS_PPP,17.60145380866,78.12662668524,526.5984,-76.2000,WGS84,0.0799,0.0910,0.0841,"TSTR",10.000,0.000,34,33,33,32,10,00,7f,30*4879fd1b
#BESTPOSA,FILE,0,30.5,FINESTEERING,2316,563930.300,02000800,cdba,17139;SOL_COMPUTED,INS_PPP,17.60145381073,78.12662667716,526.5969,-76.2000,WGS84,0.0799,0.0910,0.0841,"TSTR",10.000,0.000,34,33,33,32,10,00,7f,30*795cb997
#BESTPOSA,FILE,0,30.5,FINESTEERING,2316,563930.350,02000800,cdba,17139;SOL_COMPUTED,INS_PPP,17.60145381101,78.12662667724,526.5962,-76.2000,WGS84,0.0799,0.0910,0.0841,"TSTR",10.000,0.000,34,33,33,32,10,00,7f,30*dd2daa5b
#BESTPOSA,FILE,0,30.5,FINESTEERING,2316,563930.400,02000800,cdba,17139;SOL_COMPUTED,INS_PPP,17.60145381274,78.12662667569,526.5956,-76.2000,WGS84,0.0799,0.0910,0.0841,"TSTR",10.000,0.000,34,33,33,32,10,00,7f,30*3d9316b3
#BESTPOSA,FILE,0,30.5,FINESTEERING,2316,563930.450,02000800,cdba,17139;SOL_COMPUTED,INS_PPP,17.60145381052,78.12662667167,526.5946,-76.2000,WGS84,0.0799,0.0910,0.0841,"TSTR",10.000,0.000,34,33,33,32,10,00,7f,30*c5dd2a96
#BESTPOSA,FILE,0,30.5,FINESTEERING,2316,563930.500,02000800,cdba,17139;SOL_COMPUTED,INS_PPP,17.60145380972,78.12662666686,526.5932,-76.2000,WGS84,0.0799,0.0910,0.0841,"TSTR",10.000,0.000,34,33,33,32,10,00,7f,30*01ded6cf
#BESTPOSA,FILE,0,30.5,FINESTEERING,2316,563930.550,02000800,cdba,17139;SOL_COMPUTED,INS_PPP,17.60145380710,78.12662665850,526.5910,-76.2000,WGS84,0.0799,0.0910,0.0841,"TSTR",10.000,0.000,34,33,33,32,10,00,7f,30*0dfae18b
#BESTPOSA,FILE,0,30.5,FINESTEERING,2316,563930.600,02000800,cdba,17139;SOL_COMPUTED,INS_PPP,17.60145380120,78.12662664213,526.5878,-76.2000,WGS84,0.0799,0.0910,0.0841,"TSTR",10.000,0.000,34,33,33,32,10,00,7f,30*5b5bc352
#BESTPOSA,FILE,0,30.5,FINESTEERING,2316,563930.650,02000800,cdba,17139;SOL_COMPUTED,INS_PPP,17.60145378993,78.12662662383,526.5841,-76.2000,WGS84,0.0799,0.0910,0.0841,"TSTR",10.000,0.000,34,33,33,32,10,00,7f,30*b8314a2d
#BESTPOSA,FILE,0,30.5,FINESTEERING,2316,563930.700,02000800,cdba,17139;SOL_COMPUTED,INS_PPP,17.60145377255,78.12662661465,526.5806,-76.2000,WGS84,0.0799,0.0910,0.0841,"TSTR",10.000,0.000,34,33,33,32,10,00,7f,30*bcecbfc5
#BESTPOSA,FILE,0,30.5,FINESTEERING,2316,563930.750,02000800,cdba,17139;SOL_COMPUTED,INS_PPP,17.60145375138,78.12662661041,526.5776,-76.2000,WGS84,0.0799,0.0910,0.0841,"TSTR",10.000,0.000,34,33,33,32,10,00,7f,30*7e4ca054
#BESTPOSA,FILE,0,30.5,FINESTEERING,2316,563930.800,02000800,cdba,17139;SOL_COMPUTED,INS_PPP,17.60145372913,78.12662660834,526.5756,-76.2000,WGS84,0.0799,0.0910,0.0841,"TSTR",10.000,0.000,34,33,33,32,10,00,7f,30*aaf67474
#BESTPOSA,FILE,0,30.5,FINESTEERING,2316,563930.850,02000800,cdba,17139;SOL_COMPUTED,INS_PPP,17.60145371405,78.12662661187,526.5751,-76.2000,WGS84,0.0799,0.0910,0.0841,"TSTR",10.000,0.000,34,33,33,32,10,00,7f,30*17771e63
#BESTPOSA,FILE,0,30.5,FINESTEERING,2316,563930.900,02000800,cdba,17139;SOL_COMPUTED,INS_PPP,17.60145370574,78.12662662210,526.5761,-76.2000,WGS84,0.0799,0.0910,0.0841,"TSTR",10.000,0.000,34,33,33,32,10,00,7f,30*2ef74957
#BESTPOSA,FILE,0,30.5,FINESTEERING,2316,563930.950,02000800,cdba,17139;SOL_COMPUTED,INS_PPP,17.60145370196,78.12662663789,526.5782,-76.2000,WGS84,0.0799,0.0910,0.0841,"TSTR",10.000,0.000,34,33,33,32,10,00,7f,30*d67bb947
#BESTPOSA,FILE,0,30.5,FINESTEERING,2316,563931.000,02000800,cdba,17139;SOL_COMPUTED,INS_PPP,17.60145370080,78.12662665153,526.5807,-76.2000,WGS84,0.0799,0.0910,0.0841,"TSTR",10.000,0.000,34,33,33,32,10,00,7f,30*c9afd4f1
#BESTPOSA,FILE,0,30.5,FINESTEERING,2316,563931.050,02000800,cdba,17139;SOL_COMPUTED,INS_PPP,17.60145370076,78.12662665735,526.5830,-76.2000,WGS84,0.0688,0.0807,0.0783,"TSTR",11.000,0.000,34,33,33,32,10,00,7f,30*adba0ed8
#BESTPOSA,FILE,0,29.0,FINESTEERING,2316,563931.100,02000800,cdba,17139;SOL_COMPUTED,INS_PPP,17.60145370017,78.12662665955,526.5848,-76.2000,WGS84,0.0688,0.0807,0.0783,"TSTR",11.000,0.000,34,33,33,32,10,00,7f,30*13407ada
#BESTPOSA,FILE,0,29.0,FINESTEERING,2316,563931.150,02000800,cdba,17139;SOL_COMPUTED,INS_PPP,17.60145369635,78.12662666136,526.5856,-76.2000,WGS84,0.0688,0.0807,0.0783,"TSTR",11.000,0.000,34,33,33,32,10,00,7f,30*7e4259f7
#BESTPOSA,FILE,0,29.0,FINESTEERING,2316,563931.200,02000800,cdba,17139;SOL_COMPUTED,INS_PPP,17.60145368858,78.12662666252,526.5856,-76.2000,WGS84,0.0688,0.0807,0.0783,"TSTR",11.000,0.000,34,33,33,32,10,00,7f,30*d167e9fb
#BESTPOSA,FILE,0,29.0,FINESTEERING,2316,563931.250,02000800,cdba,17139;SOL_COMPUTED,INS_PPP,17.60145367988,78.12662666271,526.5851,-76.2000,WGS84,0.0688,0.0807,0.0783,"TSTR",11.000,0.000,34,33,33,32,10,00,7f,30*ec6139c4
#BESTPOSA,FILE,0,29.0,FINESTEERING,2316,563931.300,02000800,cdba,17139;SOL_COMPUTED,INS_PPP,17.60145367064,78.12662666316,526.5845,-76.2000,WGS84,0.0688,0.0807,0.0783,"TSTR",11.000,0.000,34,33,33,32,10,00,7f,30*3340e86f
#BESTPOSA,FILE,0,29.0,FINESTEERING,2316,563931.350,02000800,cdba,17139;SOL_COMPUTED,INS_PPP,17.60145366242,78.12662666334,526.5838,-76.2000,WGS84,0.0688,0.0807,0.0783,"TSTR",11.000,0.000,34,33,33,32,10,00,7f,30*5a60a878
#BESTPOSA,FILE,0,29.0,FINESTEERING,2316,563931.400,02000800,cdba,17139;SOL_COMPUTED,INS_PPP,17.60145365743,78.12662666444,526.5834,-76.2000,WGS84,0.0688,0.0807,0.0783,"TSTR",11.000,0.000,34,33,33,32,10,00,7f,30*1fc64a2d
#BESTPOSA,FILE,0,29.0,FINESTEERING,2316,563931.450,02000800,cdba,17139;SOL_COMPUTED,INS_PPP,17.60145365440,78.12662667631,526.5836,-76.2000,WGS84,0.0688,0.0807,0.0783,"TSTR",11.000,0.000,34,33,33,32,10,00,7f,30*d69805da
#BESTPOSA,FILE,0,29.0,FINESTEERING,2316,563931.500,02000800,cdba,17139;SOL_COMPUTED,INS_PPP,17.60145365450,78.12662668453,526.5841,-76.2000,WGS84,0.0688,0.0807,0.0783,"TSTR",11.000,0.000,34,33,33,32,10,00,7f,30*2e4fdaca
#BESTPOSA,FILE,0,29.0,FINESTEERING,2316,563931.550,02000800,cdba,17139;SOL_COMPUTED,INS_PPP,17.60145365178,78.12662668045,526.5845,-76.2000,WGS84,0.0688,0.0807,0.0783,"TSTR",11.000,0.000,34,33,33,32,10,00,7f,30*26a12016
#BESTPOSA,FILE,0,29.0,FINESTEERING,2316,563931.600,02000800,cdba,17139;SOL_COMPUTED,INS_PPP,17.60145365047,78.12662667301,526.5849,-76.2000,WGS84,0.0688,0.0807,0.0783,"TSTR",11.000,0.000,34,33,33,32,10,00,7f,30*760161a8
#BESTPOSA,FILE,0,29.0,FINESTEERING,2316,563931.650,02000800,cdba,17139;SOL_COMPUTED,INS_PPP,17.60145364928,78.12662667149,526.5853,-76.2000,WGS84,0.0688,0.0807,0.0783,"TSTR",11.000,0.000,34,33,33,32,10,00,7f,30*a85baf8c
#BESTPOSA,FILE,0,29.0,FINESTEERING,2316,563931.700,02000800,cdba,17139;SOL_COMPUTED,INS_PPP,17.60145365044,78.12662667439,526.5858,-76.2000,WGS84,0.0688,0.0807,0.0783,"TSTR",11.000,0.000,34,33,33,32,10,00,7f,30*0d7e7ec2
#BESTPOSA,FILE,0,29.0,FINESTEERING,2316,563931.750,02000800,cdba,17139;SOL_COMPUTED,INS_PPP,17.60145365259,78.12662667523,526.5862,-76.2000,WGS84,0.0688,0.0807,0.0783,"TSTR",11.000,0.000,34,33,33,32,10,00,7f,30*7f40bf13
#BESTPOSA,FILE,0,29.0,FINESTEERING,2316,563931.800,02000800,cdba,17139;SOL_COMPUTED,INS_PPP,17.60145365633,78.12662667393,526.5866,-76.2000,WGS84,0.0688,0.0807,0.0783,"TSTR",11.000,0.000,34,33,33,32,10,00,7f,30*82437e95
#BESTPOSA,FILE,0,29.0,FINESTEERING,2316,563931.850,02000800,cdba,17139;SOL_COMPUTED,INS_PPP,17.60145365905,78.12662667463,526.5867,-76.2000,WGS84,0.0688,0.0807,0.0783,"TSTR",11.000,0.000,34,33,33,32,10,00,7f,30*8c7f7957
#BESTPOSA,FILE,0,29.0,FINESTEERING,2316,563931.900,02000800,cdba,17139;SOL_COMPUTED,INS_PPP,17.60145366888,78.12662667837,526.5862,-76.2000,WGS84,0.0688,0.0807,0.0783,"TSTR",11.000,0.000,34,33,33,32,10,00,7f,30*a8356aa4
#BESTPOSA,FILE,0,29.0,FINESTEERING,2316,563931.950,02000800,cdba,17139;SOL_COMPUTED,INS_PPP,17.60145369749,78.12662668149,526.5845,-76.2000,WGS84,0.0688,0.0807,0.0783,"TSTR",11.000,0.000,34,33,33,32,10,00,7f,30*a6175105
#BESTPOSA,FILE,0,29.0,FINESTEERING,2316,563932.000,02000800,cdba,17139;SOL_COMPUTED,INS_PPP,17.60145373997,78.12662668194,526.5824,-76.2000,WGS84,0.0688,0.0807,0.0783,"TSTR",11.000,0.000,34,33,33,32,10,00,7f,30*40954527
#BESTPOSA,FILE,0,29.0,FINESTEERING,2316,563932.050,02000800,cdba,17139;SOL_COMPUTED,INS_PPP,17.60145381289,78.12662668178,526.5803,-76.2000,WGS84,0.0627,0.0745,0.0743,"TSTR",12.000,0.000,34,33,33,32,10,00,7f,30*59cae770
#BESTPOSA,FILE,0,29.0,FINESTEERING,2316,563932.100,02000800,cdba,17139;SOL_COMPUTED,INS_PPP,17.60145391054,78.12662668383,526.5790,-76.2000,WGS84,0.0627,0.0745,0.0743,"TSTR",12.000,0.000,34,33,33,32,10,00,7f,30*97890aad
#BESTPOSA,FILE,0,29.0,FINESTEERING,2316,563932.150,02000800,cdba,17139;SOL_COMPUTED,INS_PPP,17.60145403785,78.12662668948,526.5783,-76.2000,WGS84,0.0627,0.0745,0.0743,"TSTR",12.000,0.000,34,33,33,32,10,00,7f,30*14ea3b7e
#BESTPOSA,FILE,0,29.0,FINESTEERING,2316,563932.200,02000800,cdba,17139;SOL_COMPUTED,INS_PPP,17.60145419210,78.12662669674,526.5781,-76.2000,WGS84,0.0627,0.0745,0.0743,"TSTR",12.000,0.000,34,33,33,32,10,00,7f,30*4c6942f9
#BESTPOSA,FILE,0,29.0,FINESTEERING,2316,563932.250,02000800,cdba,17139;SOL_COMPUTED,INS_PPP,17.60145436900,78.12662671091,526.5783,-76.2000,WGS84,0.0627,0.0745,0.0743,"TSTR",12.000,0.000,34,33,33,32,10,00,7f,30*1925c62c
#BESTPOSA,FILE,0,29.0,FINESTEERING,2316,563932.300,02000800,cdba,17139;SOL_COMPUTED,INS_PPP,17.60145457091,78.12662673193,526.5791,-76.2000,WGS84,0.0627,0.0745,0.0743,"TSTR",12.000,0.000,34,33,33,32,10,00,7f,30*0af9a9cd
#BESTPOSA,FILE,0,29.0,FINESTEERING,2316,563932.350,02000800,cdba,17139;SOL_COMPUTED,INS_PPP,17.60145479298,78.12662675338,526.5797,-76.2000,WGS84,0.0627,0.0745,0.0743,"TSTR",12.000,0.000,34,33,33,32,10,00,7f,30*1e5b1816
#BESTPOSA,FILE,0,29.0,FINESTEERING,2316,563932.400,02000800,cdba,17139;SOL_COMPUTED,INS_PPP,17.60145503922,78.12662677661,526.5803,-76.2000,WGS84,0.0627,0.0745,0.0743,"TSTR",12.000,0.000,34,33,33,32,10,00,7f,30*50a9cdf5
#BESTPOSA,FILE,0,29.0,FINESTEERING,2316,563932.450,02000800,cdba,17139;SOL_COMPUTED,INS_PPP,17.60145531112,78.12662680241,526.5805,-76.2000,WGS84,0.0627,0.0745,0.0743,"TSTR",12.000,0.000,34,33,33,32,10,00,7f,30*09ddcf4a
#BESTPOSA,FILE,0,29.0,FINESTEERING,2316,563932.500,02000800,cdba,17139;SOL_COMPUTED,INS_PPP,17.60145560924,78.12662682493,526.5801,-76.2000,WGS84,0.0627,0.0745,0.0743,"TSTR",12.000,0.000,34,33,33,32,10,00,7f,30*a3214c72
#BESTPOSA,FILE,0,29.0,FINESTEERING,2316,563932.550,02000800,cdba,17139;SOL_COMPUTED,INS_PPP,17.60145593381,78.12662684712,526.5788,-76.2000,WGS84,0.0627,0.0745,0.0743,"TSTR",12.000,0.000,34,33,33,32,10,00,7f,30*5d23a669
#BESTPOSA,FILE,0,29.0,FINESTEERING,2316,563932.600,02000800,cdba,17139;SOL_COMPUTED,INS_PPP,17.60145628363,78.12662687612,526.5772,-76.2000,WGS84,0.0627,0.0745,0.0743,"TSTR",12.000,0.000,34,33,33,32,10,00,7f,30*d5428b98
#BESTPOSA,FILE,0,29.0,FINESTEERING,2316,563932.650,02000800,cdba,17139;SOL_COMPUTED,INS_PPP,17.60145665885,78.12662690933,526.5751,-76.2000,WGS84,0.0627,0.0745,0.0743,"TSTR",12.000,0.000,34,33,33,32,10,00,7f,30*342a2595
#BESTPOSA,FILE,0,29.0,FINESTEERING,2316,563932.700,02000800,cdba,17139;SOL_COMPUTED,INS_PPP,17.60145707483,78.12662694837,526.5730,-76.2000,WGS84,0.0627,0.0745,0.0743,"TSTR",12.000,0.000,34,33,33,32,10,00,7f,30*0eeebbf2
#BESTPOSA,FILE,0,29.0,FINESTEERING,2316,563932.750,02000800,cdba,17139;SOL_COMPUTED,INS_PPP,17.60145752617,78.12662699348,526.5709,-76.2000,WGS84,0.0627,0.0745,0.0743,"TSTR",12.000,0.000,34,33,33,32,10,00,7f,30*d0b903b9
#BESTPOSA,FILE,0,29.0,FINESTEERING,2316,563932.800,02000800,cdba,17139;SOL_COMPUTED,INS_PPP,17.60145802051,78.12662704444,526.5697,-76.2000,WGS84,0.0627,0.0745,0.0743,"TSTR",12.000,0.000,34,33,33,32,10,00,7f,30*5a9a6df9
#BESTPOSA,FILE,0,29.0,FINESTEERING,2316,563932.850,02000800,cdba,17139;SOL_COMPUTED,INS_PPP,17.60145855339,78.12662709689,526.5690,-76.2000,WGS84,0.0627,0.0745,0.0743,"TSTR",12.000,0.000,34,33,33,32,10,00,7f,30*eca40237
#BESTPOSA,FILE,0,29.0,FINESTEERING,2316,563932.900,02000800,cdba,17139;SOL_COMPUTED,INS_PPP,17.60145912401,78.12662715475,526.5691,-76.2000,WGS84,0.0627,0.0745,0.0743,"TSTR",12.000,0.000,34,33,33,32,10,00,7f,30*81558f98
#BESTPOSA,FILE,0,29.0,FINESTEERING,2316,563932.950,02000800,cdba,17139;SOL_COMPUTED,INS_PPP,17.60145972716,78.12662721502,526.5699,-76.2000,WGS84,0.0627,0.0745,0.0743,"TSTR",12.000,0.000,34,33,33,32,10,00,7f,30*49ec61d3
#BESTPOSA,FILE,0,29.0,FINESTEERING,2316,563933.000,02000800,cdba,17139;SOL_COMPUTED,INS_PPP,17.60146035134,78.12662727612,526.5711,-76.2000,WGS84,0.0627,0.0745,0.0743,"TSTR",12.000,0.000,34,33,33,32,10,00,7f,30*3760b4c3
#BESTPOSA,FILE,0,29.0,FINESTEERING,2316,563933.050,02000800,cdba,17139;SOL_COMPUTED,INS_PPP,17.60146099039,78.12662733610,526.5725,-76.2000,WGS84,0.0601,0.0715,0.0721,"TSTR",13.000,0.000,34,33,33,32,10,00,7f,30*1e235cc3
#BESTPOSA,FILE,0,28.5,FINESTEERING,2316,563933.100,02000800,cdba,17139;SOL_COMPUTED,INS_PPP,17.60146163858,78.12662739469,526.5735,-76.2000,WGS84,0.0601,0.0715,0.0721,"TSTR",13.000,0.000,34,33,33,32,10,00,7f,30*db0260fb
#BESTPOSA,FILE,0,28.5,FINESTEERING,2316,563933.150,02000800,cdba,17139;SOL_COMPUTED,INS_PPP,17.60146229314,78.12662745773,526.5736,-76.2000,WGS84,0.0601,0.0715,0.0721,"TSTR",13.000,0.000,34,33,33,32,10,00,7f,30*fa869ce9
#BESTPOSA,FILE,0,28.5,FINESTEERING,2316,563933.200,02000800,cdba,17139;SOL_COMPUTED,INS_PPP,17.60146295781,78.12662752826,526.5720,-76.2000,WGS84,0.0601,0.0715,0.0721,"TSTR",13.000,0.000,34,33,33,32,10,00,7f,30*54a82616
#BESTPOSA,FILE,0,28.5,FINESTEERING,2316,563933.250,02000800,cdba,17139;SOL_COMPUTED,INS_PPP,17.60146364254,78.12662760651,526.5686,-76.2000,WGS84,0.0601,0.0715,0.0721,"TSTR",13.000,0.000,34,33,33,32,10,00,7f,30*a4fd9dd4
#BESTPOSA,FILE,0,28.5,FINESTEERING,2316,563933.300,02000800,cdba,17139;SOL_COMPUTED,INS_PPP,17.60146435185,78.12662768961,526.5644,-76.2000,WGS84,0.0601,0.0715,0.0721,"TSTR",13.000,0.000,34,33,33,32,10,00,7f,30*d83e5fe1
#BESTPOSA,FILE,0,28.5,FINESTEERING,2316,563933.350,02000800,cdba,17139;SOL_COMPUTED,INS_PPP,17.60146509148,78.12662777369,526.5607,-76.2000,WGS84,0.0601,0.0715,0.0721,"TSTR",13.000,0.000,34,33,33,32,10,00,7f,30*56418ad2
#BESTPOSA,FILE,0,28.5,FINESTEERING,2316,563933.400,02000800,cdba,17139;SOL_COMPUTED,INS_PPP,17.60146586282,78.12662784964,526.5589,-76.2000,WGS84,0.0601,0.0715,0.0721,"TSTR",13.000,0.000,34,33,33,32,10,00,7f,30*c54e941e
#BESTPOSA,FILE,0,28.5,FINESTEERING,2316,563933.450,02000800,cdba,17139;SOL_COMPUTED,INS_PPP,17.60146666495,78.12662790934,526.5596,-76.2000,WGS84,0.0601,0.0715,0.0721,"TSTR",13.000,0.000,34,33,33,32,10,00,7f,30*432ab2ff
#BESTPOSA,FILE,0,28.5,FINESTEERING,2316,563933.500,02000800,cdba,17139;SOL_COMPUTED,INS_PPP,17.60146749184,78.12662795367,526.5624,-76.2000,WGS84,0.0601,0.0715,0.0721,"TSTR",13.000,0.000,34,33,33,32,10,00,7f,30*61e8adc6
#BESTPOSA,FILE,0,28.5,FINESTEERING,2316,563933.550,02000800,cdba,17139;SOL_COMPUTED,INS_PPP,17.60146833254,78.12662799010,526.5661,-76.2000,WGS84,0.0601,0.0715,0.0721,"TSTR",13.000,0.000,34,33,33,32,10,00,7f,30*cde7c10e
#BESTPOSA,FILE,0,28.5,FINESTEERING,2316,563933.600,02000800,cdba,17139;SOL_COMPUTED,INS_PPP,17.60146918280,78.12662802889,526.5698,-76.2000,WGS84,0.0601,0.0715,0.0721,"TSTR",13.000,0.000,34,33,33,32,10,00,7f,30*2ac10609
#BESTPOSA,FILE,0,28.5,FINESTEERING,2316,563933.650,02000800,cdba,17139;SOL_COMPUTED,INS_PPP,17.60147004474,78.12662807602,526.5724,-76.2000,WGS84,0.0601,0.0715,0.0721,"TSTR",13.000,0.000,34,33,33,32,10,00,7f,30*5fdf1b01
#BESTPOSA,FILE,0,28.5,FINESTEERING,2316,563933.700,02000800,cdba,17139;SOL_COMPUTED,INS_PPP,17.60147092425,78.12662812431,526.5727,-76.2000,WGS84,0.0601,0.0715,0.0721,"TSTR",13.000,0.000,34,33,33,32,10,00,7f,30*0f445108
#BESTPOSA,FILE,0,28.5,FINESTEERING,2316,563933.750,02000800,cdba,17139;SOL_COMPUTED,INS_PPP,17.60147182819,78.12662817101,526.5711,-76.2000,WGS84,0.0601,0.0715,0.0721,"TSTR",13.000,0.000,34,33,33,32,10,00,7f,30*28e9f821
#BESTPOSA,FILE,0,28.5,FINESTEERING,2316,563933.800,02000800,cdba,17139;SOL_COMPUTED,INS_PPP,17.60147276188,78.12662822464,526.5686,-76.2000,WGS84,0.0601,0.0715,0.0721,"TSTR",13.000,0.000,34,33,33,32,10,00,7f,30*85fdf1a5
#BESTPOSA,FILE,0,28.5,FINESTEERING,2316,563933.850,02000800,cdba,17139;SOL_COMPUTED,INS_PPP,17.60147373646,78.12662828408,526.5652,-76.2000,WGS84,0.0601,0.0715,0.0721,"TSTR",13.000,0.000,34,33,33,32,10,00,7f,30*5d45681c
#BESTPOSA,FILE,0,28.5,FINESTEERING,2316,563933.900,02000800,cdba,17139;SOL_COMPUTED,INS_PPP,17.60147475495,78.12662835586,526.5617,-76.2000,WGS84,0.0601,0.0715,0.0721,"TSTR",13.000,0.000,34,33,33,32,10,00,7f,30*4aae6f4d
#BESTPOSA,FILE,0,28.5,FINESTEERING,2316,563933.950,02000800,cdba,17139;SOL_COMPUTED,INS_PPP,17.60147582390,78.12662843308,526.5593,-76.2000,WGS84,0.0601,0.0715,0.0721,"TSTR",13.000,0.000,34,33,33,32,10,00,7f,30*53e7dc46
#BESTPOSA,FILE,0,28.5,FINESTEERING,2316,563934.000,02000800,cdba,17139;SOL_COMPUTED,INS_PPP,17.60147694300,78.12662850541,526.5590,-76.2000,WGS84,0.0601,0.0715,0.0721,"TSTR",13.000,0.000,34,33,33,32,10,00,7f,30*839ccef2
#BESTPOSA,FILE,0,28.5,FINESTEERING,2316,563934.050,02000800,cdba,17139;SOL_COMPUTED,INS_PPP,17.60147810543,78.12662857620,526.5602,-76.2000,WGS84,0.0601,0.0718,0.0714,"TSTR",14.000,0.000,34,33,33,32,10,00,7f,30*9fe305de
#BESTPOSA,FILE,0,28.5,FINESTEERING,2316,563934.100,02000800,cdba,17139;SOL_COMPUTED,INS_PPP,17.60147930302,78.12662864082,526.5623,-76.2000,WGS84,0.0601,0.0718,0.0714,"TSTR",14.000,0.000,34,33,33,32,10,00,7f,30*04c5d8f0
#BESTPOSA,FILE,0,29.0,FINESTEERING,2316,563934.150,02000800,cdba,17139;SOL_COMPUTED,INS_PPP,17.60148053440,78.12662870352,526.5647,-76.2000,WGS84,0.0601,0.0718,0.0714,"TSTR",14.000,0.000,34,33,33,32,10,00,7f,30*039920e4
#BESTPOSA,FILE,0,29.0,FINESTEERING,2316,563934.200,02000800,cdba,17139;SOL_COMPUTED,INS_PPP,17.60148180740,78.12662876218,526.5663,-76.2000,WGS84,0.0601,0.0718,0.0714,"TSTR",14.000,0.000,34,33,33,32,10,00,7f,30*f5994184
#BESTPOSA,FILE,0,29.0,FINESTEERING,2316,563934.250,02000800,cdba,17139;SOL_COMPUTED,INS_PPP,17.60148312259,78.12662881055,526.5668,-76.2000,WGS84,0.0601,0.0718,0.0714,"TSTR",14.000,0.000,34,33,33,32,10,00,7f,30*88709070
#BESTPOSA,FILE,0,29.0,FINESTEERING,2316,563934.300,02000800,cdba,17139;SOL_COMPUTED,INS_PPP,17.60148449421,78.12662886261,526.5665,-76.2000,WGS84,0.0601,0.0718,0.0714,"TSTR",14.000,0.000,34,33,33,32,10,00,7f,30*e6897a51
#BESTPOSA,FILE,0,29.0,FINESTEERING,2316,563934.350,02000800,cdba,17139;SOL_COMPUTED,INS_PPP,17.60148592563,78.12662893692,526.5664,-76.2000,WGS84,0.0601,0.0718,0.0714,"TSTR",14.000,0.000,34,33,33,32,10,00,7f,30*806c2545
#BESTPOSA,FILE,0,29.0,FINESTEERING,2316,563934.400,02000800,cdba,17139;SOL_COMPUTED,INS_PPP,17.60148742164,78.12662902347,526.5664,-76.2000,WGS84,0.0601,0.0718,0.0714,"TSTR",14.000,0.000,34,33,33,32,10,00,7f,30*90a94333
#BESTPOSA,FILE,0,29.0,FINESTEERING,2316,563934.450,02000800,cdba,17139;SOL_COMPUTED,INS_PPP,17.60148897896,78.12662911405,526.5671,-76.2000,WGS84,0.0601,0.0718,0.0714,"TSTR",14.000,0.000,34,33,33,32,10,00,7f,30*ad2ec6c9
#BESTPOSA,FILE,0,29.0,FINESTEERING,2316,563934.500,02000800,cdba,17139;SOL_COMPUTED,INS_PPP,17.60149059103,78.12662921076,526.5691,-76.2000,WGS84,0.0601,0.0718,0.0714,"TSTR",14.000,0.000,34,33,33,32,10,00,7f,30*8c8ae7a1
#BESTPOSA,FILE,0,29.0,FINESTEERING,2316,563934.550,02000800,cdba,17139;SOL_COMPUTED,INS_PPP,17.60149225458,78.12662930639,526.5720,-76.2000,WGS84,0.0601,0.0718,0.0714,"TSTR",14.000,0.000,34,33,33,32,10,00,7f,30*93b8f305
#BESTPOSA,FILE,0,29.0,FINESTEERING,2316,563934.600,02000800,cdba,17139;SOL_COMPUTED,INS_PPP,17.60149396626,78.12662939861,526.5748,-76.2000,WGS84,0.0601,0.0718,0.0714,"TSTR",14.000,0.000,34,33,33,32,10,00,7f,30*37dc501a
#BESTPOSA,FILE,0,29.0,FINESTEERING,2316,563934.650,02000800,cdba,17139;SOL_COMPUTED,INS_PPP,17.60149572408,78.12662948377,526.5770,-76.2000,WGS84,0.0601,0.0718,0.0714,"TSTR",14.000,0.000,34,33,33,32,10,00,7f,30*2b1ccf8a
#BESTPOSA,FILE,0,29.0,FINESTEERING,2316,563934.700,02000800,cdba,17139;SOL_COMPUTED,INS_PPP,17.60149752748,78.12662956557,526.5785,-76.2000,WGS84,0.0601,0.0718,0.0714,"TSTR",14.000,0.000,34,33,33,32,10,00,7f,30*6da14e37
#BESTPOSA,FILE,0,29.0,FINESTEERING,2316,563934.750,02000800,cdba,17139;SOL_COMPUTED,INS_PPP,17.60149937463,78.12662965040,526.5793,-76.2000,WGS84,0.0601,0.0718,0.0714,"TSTR",14.000,0.000,34,33,33,32,10,00,7f,30*085e2164
#BESTPOSA,FILE,0,29.0,FINESTEERING,2316,563934.800,02000800,cdba,17139;SOL_COMPUTED,INS_PPP,17.60150127988,78.12662973896,526.5795,-76.2000,WGS84,0.0601,0.0718,0.0714,"TSTR",14.000,0.000,34,33,33,32,10,00,7f,30*1fb033e1
#BESTPOSA,FILE,0,29.0,FINESTEERING,2316,563934.850,02000800,cdba,17139;SOL_COMPUTED,INS_PPP,17.60150324242,78.12662982439,526.5803,-76.2000,WGS84,0.0601,0.0718,0.0714,"TSTR",14.000,0.000,34,33,33,32,10,00,7f,30*5ba5e904
#BESTPOSA,FILE,0,29.0,FINESTEERING,2316,563934.900,02000800,cdba,17139;SOL_COMPUTED,INS_PPP,17.60150526799,78.12662990358,526.5815,-76.2000,WGS84,0.0601,0.0718,0.0714,"TSTR",14.000,0.000,34,33,33,32,10,00,7f,30*f66e8e5a
#BESTPOSA,FILE,0,29.0,FINESTEERING,2316,563934.950,02000800,cdba,17139;SOL_COMPUTED,INS_PPP,17.60150734561,78.12662998442,526.5836,-76.2000,WGS84,0.0601,0.0718,0.0714,"TSTR",14.000,0.000,34,33,33,32,10,00,7f,30*85bbe85a
#BESTPOSA,FILE,0,29.0,FINESTEERING,2316,563935.000,02000800,cdba,17139;SOL_COMPUTED,INS_PPP,17.60150947378,78.12663007601,526.5854,-76.2000,WGS84,0.0601,0.0718,0.0714,"TSTR",14.000,0.000,34,33,33,32,10,00,7f,30*be3a385b
#BESTPOSA,FILE,0,29.0,FINESTEERING,2316,563935.050,02000800,cdba,17139;SOL_COMPUTED,INS_PPP,17.60151164153,78.12663015212,526.5878,-76.2000,WGS84,0.0618,0.0749,0.0721,"TSTR",15.000,0.000,34,33,33,32,10,00,7f,30*02cf8aa4
#BESTPOSA,FILE,0,28.0,FINESTEERING,2316,563935.100,02000800,cdba,17139;SOL_COMPUTED,INS_PPP,17.60151385486,78.12663021467,526.5901,-76.2000,WGS84,0.0618,0.0749,0.0721,"TSTR",15.000,0.000,34,33,33,32,10,00,7f,30*92380e0c
#BESTPOSA,FILE,0,28.0,FINESTEERING,2316,563935.150,02000800,cdba,17139;SOL_COMPUTED,INS_PPP,17.60151610803,78.12663026834,526.5922,-76.2000,WGS84,0.0618,0.0749,0.0721,"TSTR",15.000,0.000,34,33,33,32,10,00,7f,30*27a997ad
#BESTPOSA,FILE,0,28.0,FINESTEERING,2316,563935.200,02000800,cdba,17139;SOL_COMPUTED,INS_PPP,17.60151839977,78.12663030041,526.5940,-76.2000,WGS84,0.0618,0.0749,0.0721,"TSTR",15.000,0.000,34,33,33,32,10,00,7f,30*93f2c54b
#BESTPOSA,FILE,0,28.0,FINESTEERING,2316,563935.250,02000800,cdba,17139;SOL_COMPUTED,INS_PPP,17.60152073411,78.12663033006,526.5958,-76.2000,WGS84,0.0618,0.0749,0.0721,"TSTR",15.000,0.000,34,33,33,32,10,00,7f,30*c6e22a11
#BESTPOSA,FILE,0,28.0,FINESTEERING,2316,563935.300,02000800,cdba,17139;SOL_COMPUTED,INS_PPP,17.60152311429,78.12663034607,526.5982,-76.2000,WGS84,0.0618,0.0749,0.0721,"TSTR",15.000,0.000,34,33,33,32,10,00,7f,30*e732d589
#BESTPOSA,FILE,0,28.0,FINESTEERING,2316,563935.350,02000800,cdba,17139;SOL_COMPUTED,INS_PPP,17.60152551353,78.12663035362,526.6031,-76.2000,WGS84,0.0618,0.0749,0.0721,"TSTR",15.000,0.000,34,33,33,32,10,00,7f,30*256da035
#BESTPOSA,FILE,0,28.0,FINESTEERING,2316,563935.400,02000800,cdba,17139;SOL_COMPUTED,INS_PPP,17.60152791881,78.12663035078,526.6094,-76.2000,WGS84,0.0618,0.0749,0.0721,"TSTR",15.000,0.000,34,33,33,32,10,00,7f,30*4faa730c
#BESTPOSA,FILE,0,28.0,FINESTEERING,2316,563935.450,02000800,cdba,17139;SOL_COMPUTED,INS_PPP,17.60153033627,78.12663034290,526.6160,-76.2000,WGS84,0.0618,0.0749,0.0721,"TSTR",15.000,0.000,34,33,33,32,10,00,7f,30*a6a83fbd
#BESTPOSA,FILE,0,28.0,FINESTEERING,2316,563935.500,02000800,cdba,17139;SOL_COMPUTED,INS_PPP,17.60153273936,78.12663033880,526.6220,-76.2000,WGS84,0.0618,0.0749,0.0721,"TSTR",15.000,0.000,34,33,33,32,10,00,7f,30*c008815e
#BESTPOSA,FILE,0,28.0,FINESTEERING,2316,563935.550,02000800,cdba,17139;SOL_COMPUTED,INS_PPP,17.60153513365,78.12663032711,526.6266,-76.2000,WGS84,0.0618,0.0749,0.0721,"TSTR",15.000,0.000,34,33,33,32,10,00,7f,30*7664c173
#BESTPOSA,FILE,0,28.0,FINESTEERING,2316,563935.600,02000800,cdba,17139;SOL_COMPUTED,INS_PPP,17.60153751118,78.12663032050,526.6294,-76.2000,WGS84,0.0618,0.0749,0.0721,"TSTR",15.000,0.000,34,33,33,32,10,00,7f,30*475a0b6f
#BESTPOSA,FILE,0,28.0,FINESTEERING,2316,563935.650,02000800,cdba,17139;SOL_COMPUTED,INS_PPP,17.60153987071,78.12663031039,526.6306,-76.2000,WGS84,0.0618,0.0749,0.0721,"TSTR",15.000,0.000,34,33,33,32,10,00,7f,30*5ccbb5bc
#BESTPOSA,FILE,0,28.0,FINESTEERING,2316,563935.700,02000800,cdba,17139;SOL_COMPUTED,INS_PPP,17.60154221697,78.12663029323,526.6314,-76.2000,WGS84,0.0618,0.0749,0.0721,"TSTR",15.000,0.000,34,33,33,32,10,00,7f,30*b8dacc7e
#BESTPOSA,FILE,0,28.0,FINESTEERING,2316,563935.750,02000800,cdba,17139;SOL_COMPUTED,INS_PPP,17.60154455769,78.12663026303,526.6318,-76.2000,WGS84,0.0618,0.0749,0.0721,"TSTR",15.000,0.000,34,33,33,32,10,00,7f,30*b7ee156e
#BESTPOSA,FILE,0,28.0,FINESTEERING,2316,563935.800,02000800,cdba,17139;SOL_COMPUTED,INS_PPP,17.60154689941,78.12663022321,526.6324,-76.2000,WGS84,0.0618,0.0749,0.0721,"TSTR",15.000,0.000,34,33,33,32,10,00,7f,30*4cdb7d1d
#BESTPOSA,FILE,0,28.0,FINESTEERING,2316,563935.850,02000800,cdba,17139;SOL_COMPUTED,INS_PPP,17.60154924303,78.12663017487,526.6338,-76.2000,WGS84,0.0618,0.0749,0.0721,"TSTR",15.000,0.000,34,33,33,32,10,00,7f,30*8aa6d720
#BESTPOSA,FILE,0,28.0,FINESTEERING,2316,563935.900,02000800,cdba,17139;SOL_COMPUTED,INS_PPP,17.60155158718,78.12663011140,526.6356,-76.2000,WGS84,0.0618,0.0749,0.0721,"TSTR",15.000,0.000,34,33,33,32,10,00,7f,30*f347be95
#BESTPOSA,FILE,0,28.0,FINESTEERING,2316,563935.950,02000800,cdba,17139;SOL_COMPUTED,INS_PPP,17.60155392644,78.12663004152,526.6376,-76.2000,WGS84,0.0618,0.0749,0.0721,"TSTR",15.000,0.000,34,33,33,32,10,00,7f,30*d2d22cce
#BESTPOSA,FILE,0,28.0,FINESTEERING,2316,563936.000,02000800,cdba,17139;SOL_COMPUTED,INS_PPP,17.60155626359,78.12662997838,526.6399,-76.2000,WGS84,0.0618,0.0749,0.0721,"TSTR",15.000,0.000,34,33,33,32,10,00,7f,30*52b777c9
#BESTPOSA,FILE,0,28.0,FINESTEERING,2316,563936.050,02000800,cdba,17139;SOL_COMPUTED,INS_PPP,17.60155859283,78.12662990260,526.6423,-76.2000,WGS84,0.0645,0.0819,0.0740,"TSTR",16.000,0.000,31,29,29,28,10,00,7f,30*825ac4aa
#BESTPOSA,FILE,0,27.0,FINESTEERING,2316,563936.100,02000800,cdba,17139;SOL_COMPUTED,INS_PPP,17.60156091747,78.12662981676,526.6451,-76.2000,WGS84,0.0645,0.0819,0.0740,"TSTR",16.000,0.000,31,29,29,28,10,00,7f,30*34ec2591
#BESTPOSA,FILE,0,27.0,FINESTEERING,2316,563936.150,02000800,cdba,17139;SOL_COMPUTED,INS_PPP,17.60156324007,78.12662973402,526.6483,-76.2000,WGS84,0.0645,0.0819,0.0740,"TSTR",16.000,0.000,31,29,29,28,10,00,7f,30*3b7aebb0
#BESTPOSA,FILE,0,27.0,FINESTEERING,2316,563936.200,02000800,cdba,17139;SOL_COMPUTED,INS_PPP,17.60156556238,78.12662964451,526.6517,-76.2000,WGS84,0.0645,0.0819,0.0740,"TSTR",16.000,0.000,31,29,29,28,10,00,7f,30*9d61a99c
#BESTPOSA,FILE,0,27.0,FINESTEERING,2316,563936.250,02000800,cdba,17139;SOL_COMPUTED,INS_PPP,17.60156787524,78.12662954092,526.6549,-76.2000,WGS84,0.0645,0.0819,0.0740,"TSTR",16.000,0.000,31,29,29,28,10,00,7f,30*23d19b2a
#BESTPOSA,FILE,0,27.0,FINESTEERING,2316,563936.300,02000800,cdba,17139;SOL_COMPUTED,INS_PPP,17.60157017943,78.12662943177,526.6571,-76.2000,WGS84,0.0645,0.0819,0.0740,"TSTR",16.000,0.000,31,29,29,28,10,00,7f,30*930e0b78
#BESTPOSA,FILE,0,27.0,FINESTEERING,2316,563936.350,02000800,cdba,17139;SOL_COMPUTED,INS_PPP,17.60157247293,78.12662932291,526.6595,-76.2000,WGS84,0.0645,0.0819,0.0740,"TSTR",16.000,0.000,31,29,29,28,10,00,7f,30*db126a49
#BESTPOSA,FILE,0,27.0,FINESTEERING,2316,563936.400,02000800,cdba,17139;SOL_COMPUTED,INS_PPP,17.60157476610,78.12662920763,526.6617,-76.2000,WGS84,0.0645,0.0819,0.0740,"TSTR",16.000,0.000,31,29,29,28,10,00,7f,30*9da1c7e5
#BESTPOSA,FILE,0,27.0,FINESTEERING,2316,563936.450,02000800,cdba,17139;SOL_COMPUTED,INS_PPP,17.60157705246,78.12662909385,526.6646,-76.2000,WGS84,0.0645,0.0819,0.0740,"TSTR",16.000,0.000,31,29,29,28,10,00,7f,30*af3fa50b
#BESTPOSA,FILE,0,27.0,FINESTEERING,2316,563936.500,02000800,cdba,17139;SOL_COMPUTED,INS_PPP,17.60157933767,78.12662896968,526.6672,-76.2000,WGS84,0.0645,0.0819,0.0740,"TSTR",16.000,0.000,31,29,29,28,10,00,7f,30*7aa99d3d
#BESTPOSA,FILE,0,27.0,FINESTEERING,2316,563936.550,02000800,cdba,17139;SOL_COMPUTED,INS_PPP,17.60158161432,78.12662883996,526.6697,-76.2000,WGS84,0.0645,0.0819,0.0740,"TSTR",16.000,0.000,31,29,29,28,10,00,7f,30*d93034c5
#BESTPOSA,FILE,0,27.0,FINESTEERING,2316,563936.600,02000800,cdba,17139;SOL_COMPUTED,INS_PPP,17.60158388386,78.12662870912,526.6725,-76.2000,WGS84,0.0645,0.0819,0.0740,"TSTR",16.000,0.000,31,29,29,28,10,00,7f,30*be22409e
#BESTPOSA,FILE,0,27.0,FINESTEERING,2316,563936.650,02000800,cdba,17139;SOL_COMPUTED,INS_PPP,17.60158615362,78.12662856516,526.6747,-76.2000,WGS84,0.0645,0.0819,0.0740,"TSTR",16.000,0.000,31,29,29,28,10,00,7f,30*e327c320
#BESTPOSA,FILE,0,27.0,FINESTEERING,2316,563936.700,02000800,cdba,17139;SOL_COMPUTED,INS_PPP,17.60158842189,78.12662841722,526.6768,-76.2000,WGS84,0.0645,0.0819,0.0740,"TSTR",16.000,0.000,31,29,29,28,10,00,7f,30*6458327e
#BESTPOSA,FILE,0,27.0,FINESTEERING,2316,563936.750,02000800,cdba,17139;SOL_COMPUTED,INS_PPP,17.60159068440,78.12662826710,526.6794,-76.2000,WGS84,0.0645,0.0819,0.0740,"TSTR",16.000,0.000,31,29,29,28,10,00,7f,30*2c6dfcfd
#BESTPOSA,FILE,0,27.0,FINESTEERING,2316,563936.800,02000800,cdba,17139;SOL_COMPUTED,INS_PPP,17.60159294316,78.12662810797,526.6821,-76.2000,WGS84,0.0645,0.0819,0.0740,"TSTR",16.000,0.000,31,29,29,28,10,00,7f,30*ad429b15
#BESTPOSA,FILE,0,27.0,FINESTEERING,2316,563936.850,02000800,cdba,17139;SOL_COMPUTED,INS_PPP,17.60159519594,78.12662794698,526.6852,-76.2000,WGS84,0.0645,0.0819,0.0740,"TSTR",16.000,0.000,31,29,29,28,10,00,7f,30*f386f9e7
#BESTPOSA,FILE,0,27.0,FINESTEERING,2316,563936.900,02000800,cdba,17139;SOL_COMPUTED,INS_PPP,17.60159744064,78.12662778984,526.6888,-76.2000,WGS84,0.0645,0.0819,0.0740,"TSTR",16.000,0.000,31,29,29,28,10,00,7f,30*5e454950
#BESTPOSA,FILE,0,27.0,FINESTEERING,2316,563936.950,02000800,cdba,17139;SOL_COMPUTED,INS_PPP,17.60159968045,78.12662763448,526.6923,-76.2000,WGS84,0.0645,0.0819,0.0740,"TSTR",16.000,0.000,31,29,29,28,10,00,7f,30*7416303b
#BESTPOSA,FILE,0,27.0,FINESTEERING,2316,563937.000,02000800,cdba,17139;SOL_COMPUTED,INS_PPP,17.60160191001,78.12662746899,526.6961,-76.2000,WGS84,0.0645,0.0819,0.0740,"TSTR",16.000,0.000,31,29,29,28,10,00,7f,30*5e1553b1
#BESTPOSA,FILE,0,27.0,FINEBACKUPSTEERING,2316,563937.050,02000800,cdba,17139;SOL_COMPUTED,INS_PPP,17.60160412924,78.12662730045,526.7001,-76.2000,WGS84,0.0670,0.0880,0.0766,"TSTR",17.000,0.000,29,28,28,27,10,00,7f,30*4e8095a0
#BESTPOSA,FILE,0,27.0,FINEBACKUPSTEERING,2316,563937.100,02000800,cdba,17139;SOL_COMPUTED,INS_PPP,17.60160634333,78.12662713557,526.7044,-76.2000,WGS84,0.0670,0.0880,0.0766,"TSTR",17.000,0.000,29,28,28,27,10,00,7f,30*bf58ef54
#BESTPOSA,FILE,0,28.5,FINEBACKUPSTEERING,2316,563937.150,02000800,cdba,17139;SOL_COMPUTED,INS_PPP,17.60160854813,78.12662697121,526.7082,-76.2000,WGS84,0.0670,0.0880,0.0766,"TSTR",17.000,0.000,29,28,28,27,10,00,7f,30*0a8e8221
