#BESTVELA,FILE,0,32.0,FINESTEERING,2316,563921.950,02000800,10a2,17139;SOL_COMPUTED,INS_PPP,0.000,11.000,0.0017,166.606931,0.0007,0*5af70ff1
#BESTVELA,FILE,0,32.0,FINESTEERING,2316,563922.000,02000800,10a2,17139;SOL_COMPUTED,INS_PPP,0.000,11.000,0.0009,64.774207,-0.0008,0*14ae3437
#BESTVELA,FILE,0,32.0,FINESTEERING,2316,563922.200,02000800,10a2,17139;SOL_COMPUTED,INS_PPP,0.000,12.000,0.0019,201.744091,-0.0003,0*ec1c5036
#BESTVELA,FILE,0,33.0,FINESTEERING,2316,563922.250,02000800,10a2,17139;SOL_COMPUTED,INS_PPP,0.000,12.000,0.0006,244.997368,-0.0008,0*29b743da
#BESTVELA,FILE,0,33.0,FINESTEERING,2316,563922.550,02000800,10a2,17139;SOL_COMPUTED,INS_PPP,0.000,12.000,0.0031,188.324796,-0.0005,0*e532033c
#BESTVELA,FILE,0,33.0,FINESTEERING,2316,563922.650,02000800,10a2,17139;SOL_COMPUTED,INS_PPP,0.000,12.000,0.0035,205.939969,0.0015,0*53e22fb0
#BESTVELA,FILE,0,33.0,FINESTEERING,2316,563922.750,02000800,10a2,17139;SOL_COMPUTED,INS_PPP,0.000,12.000,0.0016,171.788150,-0.0011,0*aac6eeae
#BESTVELA,FILE,0,33.0,FINESTEERING,2316,563922.850,02000800,10a2,17139;SOL_COMPUTED,INS_PPP,0.000,12.000,0.0033,149.167231,0.0022,0*97eb8459
#BESTVELA,FILE,0,33.0,FINESTEERING,2316,563922.900,02000800,10a2,17139;SOL_COMPUTED,INS_PPP,0.000,12.000,0.0043,172.273830,-0.0006,0*a8227e79
#BESTVELA,FILE,0,33.0,FINESTEERING,2316,563922.950,02000800,10a2,17139;SOL_COMPUTED,INS_PPP,0.000,12.000,0.0011,207.939004,-0.0005,0*68de2669
#BESTVELA,FILE,0,33.0,FINESTEERING,2316,563923.000,02000800,10a2,17139;SOL_COMPUTED,INS_PPP,0.000,12.000,0.0035,253.690583,0.0006,0*69eeb44c
#BESTVELA,FILE,0,33.0,FINESTEERING,2316,563923.050,02000800,10a2,17139;SOL_COMPUTED,INS_PPP,0.000,13.000,0.0018,265.822721,-0.0001,0*2d807dfa
#BESTVELA,FILE,0,33.0,FINESTEERING,2316,563923.200,02000800,10a2,17139;SOL_COMPUTED,INS_PPP,0.000,13.000,0.0024,128.118726,0.0017,0*f0ab4dbd
#BESTVELA,FILE,0,33.5,FINESTEERING,2316,563923.250,02000800,10a2,17139;SOL_COMPUTED,INS_PPP,0.000,13.000,0.0031,156.854261,0.0018,0*40623a20
#BESTVELA,FILE,0,33.5,FINESTEERING,2316,563923.450,02000800,10a2,17139;SOL_COMPUTED,INS_PPP,0.000,13.000,0.0028,225.641246,0.0016,0*26850200
#BESTVELA,FILE,0,33.5,FINESTEERING,2316,563923.500,02000800,10a2,17139;SOL_COMPUTED,INS_PPP,0.000,13.000,0.0081,157.763960,-0.0027,0*249bf2c5
#BESTVELA,FILE,0,33.5,FINESTEERING,2316,563923.600,02000800,10a2,17139;SOL_COMPUTED,INS_PPP,0.000,13.000,0.0016,64.429748,0.0047,0*2b127615
#BESTVELA,FILE,0,33.5,FINESTEERING,2316,563923.650,02000800,10a2,17139;SOL_COMPUTED,INS_PPP,0.000,13.000,0.0037,291.943920,0.0041,0*d51c72ba
#BESTVELA,FILE,0,33.5,FINESTEERING,2316,563923.700,02000800,10a2,17139;SOL_COMPUTED,INS_PPP,0.000,13.000,0.0086,255.564607,-0.0010,0*e8dd0050
#BESTVELA,FILE,0,33.5,FINESTEERING,2316,563923.750,02000800,10a2,17139;SOL_COMPUTED,INS_PPP,0.000,13.000,0.0069,218.699159,-0.0026,0*41af40d1
#BESTVELA,FILE,0,33.5,FINESTEERING,2316,563923.850,02000800,10a2,17139;SOL_COMPUTED,INS_PPP,0.000,13.000,0.0032,134.475656,0.0033,0*4fdc0c05
#BESTVELA,FILE,0,33.5,FINESTEERING,2316,563924.200,02000800,10a2,17139;SOL_COMPUTED,INS_PPP,0.000,14.000,0.0070,271.401898,-0.0008,0*8b536a09
#BESTVELA,FILE,0,33.5,FINESTEERING,2316,563924.250,02000800,10a2,17139;SOL_COMPUTED,INS_PPP,0.000,14.000,0.0021,354.868119,-0.0009,0*715a0df7
#BESTVELA,FILE,0,33.5,FINESTEERING,2316,563924.300,02000800,10a2,17139;SOL_COMPUTED,INS_PPP,0.000,14.000,0.0030,63.886812,0.0018,0*f6042eff
#BESTVELA,FILE,0,33.5,FINESTEERING,2316,563924.500,02000800,10a2,17139;SOL_COMPUTED,INS_PPP,0.000,14.000,0.0030,250.616014,0.0009,0*5c8e851b
#BESTVELA,FILE,0,33.5,FINESTEERING,2316,563924.550,02000800,10a2,17139;SOL_COMPUTED,INS_PPP,0.000,14.000,0.0022,344.287074,0.0017,0*5871b55c
#BESTVELA,FILE,0,33.5,FINESTEERING,2316,563924.650,02000800,10a2,17139;SOL_COMPUTED,INS_PPP,0.000,14.000,0.0025,204.338296,0.0016,0*6911bfa8
#BESTVELA,FILE,0,33.5,FINESTEERING,2316,563924.800,02000800,10a2,17139;SOL_COMPUTED,INS_PPP,0.000,14.000,0.0013,176.432772,0.0028,0*ef2d53ce
#BESTVELA,FILE,0,33.5,FINESTEERING,2316,563924.850,02000800,10a2,17139;SOL_COMPUTED,INS_PPP,0.000,14.000,0.0023,253.993934,0.0041,0*161abdb4
#BESTVELA,FILE,0,33.5,FINESTEERING,2316,563925.000,02000800,10a2,17139;SOL_COMPUTED,INS_PPP,0.000,14.000,0.0012,199.405138,0.0003,0*67ea8d9f
#BESTVELA,FILE,0,33.5,FINESTEERING,2316,563925.050,02000800,10a2,17139;SOL_COMPUTED,INS_PPP,0.000,15.000,0.0004,270.005821,0.0030,0*89d5c487
#BESTVELA,FILE,0,33.0,FINESTEERING,2316,563925.100,02000800,10a2,17139;SOL_COMPUTED,INS_PPP,0.000,15.000,0.0013,150.985564,0.0025,0*86ce61d6
#BESTVELA,FILE,0,33.0,FINESTEERING,2316,563925.150,02000800,10a2,17139;SOL_COMPUTED,INS_PPP,0.000,15.000,0.0023,210.138724,0.0017,0*82861bb6
#BESTVELA,FILE,0,33.0,FINESTEERING,2316,563925.200,02000800,10a2,17139;SOL_COMPUTED,INS_PPP,0.000,15.000,0.0036,221.055900,0.0015,0*390e66ce
#BESTVELA,FILE,0,33.0,FINESTEERING,2316,563925.300,02000800,10a2,17139;SOL_COMPUTED,INS_PPP,0.000,15.000,0.0029,6.538407,0.0016,0*a1724bbe
#BESTVELA,FILE,0,33.0,FINESTEERING,2316,563925.350,02000800,10a2,17139;SOL_COMPUTED,INS_PPP,0.000,15.000,0.0047,201.998478,0.0037,0*953f391a
#BESTVELA,FILE,0,33.0,FINESTEERING,2316,563925.400,02000800,10a2,17139;SOL_COMPUTED,INS_PPP,0.000,15.000,0.0093,175.261458,-0.0009,0*4053d8c0
#BESTVELA,FILE,0,33.0,FINESTEERING,2316,563925.500,02000800,10a2,17139;SOL_COMPUTED,INS_PPP,0.000,15.000,0.0033,351.351418,0.0027,0*5399ea4e
#BESTVELA,FILE,0,33.0,FINESTEERING,2316,563925.550,02000800,10a2,17139;SOL_COMPUTED,INS_PPP,0.000,15.000,0.0017,351.560061,0.0034,0*9f6f54d5
#BESTVELA,FILE,0,33.0,FINESTEERING,2316,563925.600,02000800,10a2,17139;SOL_COMPUTED,INS_PPP,0.000,15.000,0.0017,308.168711,-0.0008,0*3bcecb79
#BESTVELA,FILE,0,33.0,FINESTEERING,2316,563925.650,02000800,10a2,17139;SOL_COMPUTED,INS_PPP,0.000,15.000,0.0050,148.131778,-0.0022,0*3aae9d85
#BESTVELA,FILE,0,33.0,FINESTEERING,2316,563925.700,02000800,10a2,17139;SOL_COMPUTED,INS_PPP,0.000,15.000,0.0056,91.900006,0.0017,0*52b91a30
#BESTVELA,FILE,0,33.0,FINESTEERING,2316,563925.750,02000800,10a2,17139;SOL_COMPUTED,INS_PPP,0.000,15.000,0.0026,327.784716,0.0098,0*b1acf60b
#BESTVELA,FILE,0,33.0,FINESTEERING,2316,563925.800,02000800,10a2,17139;SOL_COMPUTED,INS_PPP,0.000,15.000,0.0090,295.040799,0.0111,0*0b568054
#BESTVELA,FILE,0,33.0,FINESTEERING,2316,563925.850,02000800,10a2,17139;SOL_COMPUTED,INS_PPP,0.000,15.000,0.0179,328.570724,0.0100,0*e6f3d13c
#BESTVELA,FILE,0,33.0,FINESTEERING,2316,563925.900,02000800,10a2,17139;SOL_COMPUTED,INS_PPP,0.000,15.000,0.0142,293.011717,0.0073,0*9dac69e6
#BESTVELA,FILE,0,33.0,FINESTEERING,2316,563925.950,02000800,10a2,17139;SOL_COMPUTED,INS_PPP,0.000,15.000,0.0079,265.696533,0.0003,0*633b4280
#BESTVELA,FILE,0,33.0,FINESTEERING,2316,563926.000,02000800,10a2,17139;SOL_COMPUTED,INS_PPP,0.000,15.000,0.0023,166.637216,-0.0047,0*6307037b
#BESTVELA,FILE,0,33.0,FINESTEERING,2316,563926.050,02000800,10a2,17139;SOL_COMPUTED,INS_PPP,0.000,16.000,0.0034,89.413774,-0.0010,0*dcd58d2c
#BESTVELA,FILE,0,32.0,FINESTEERING,2316,563926.100,02000800,10a2,17139;SOL_COMPUTED,INS_PPP,0.000,16.000,0.0079,87.116993,0.0037,0*f17109b9
#BESTVELA,FILE,0,32.0,FINESTEERING,2316,563926.150,02000800,10a2,17139;SOL_COMPUTED,INS_PPP,0.000,16.000,0.0097,90.368120,0.0033,0*503c1993
#BESTVELA,FILE,0,32.0,FINESTEERING,2316,563926.200,02000800,10a2,17139;SOL_COMPUTED,INS_PPP,0.000,16.000,0.0097,125.803685,0.0026,0*3f3eff0b
#BESTVELA,FILE,0,32.0,FINESTEERING,2316,563926.250,02000800,10a2,17139;SOL_COMPUTED,INS_PPP,0.000,16.000,0.0076,142.636443,0.0021,0*3875a3fa
#BESTVELA,FILE,0,32.0,FINESTEERING,2316,563926.300,02000800,10a2,17139;SOL_COMPUTED,INS_PPP,0.000,16.000,0.0025,63.565172,0.0018,0*812835d0
#BESTVELA,FILE,0,32.0,FINESTEERING,2316,563926.350,02000800,10a2,17139;SOL_COMPUTED,INS_PPP,0.000,16.000,0.0026,122.949354,0.0032,0*dc860012
#BESTVELA,FILE,0,32.0,FINESTEERING,2316,563926.400,02000800,10a2,17139;SOL_COMPUTED,INS_PPP,0.000,16.000,0.0034,86.373845,0.0041,0*44e13bfa
#BESTVELA,FILE,0,32.0,FINESTEERING,2316,563926.450,02000800,10a2,17139;SOL_COMPUTED,INS_PPP,0.000,16.000,0.0008,126.232802,0.0028,0*eb6aafe4
#BESTVELA,FILE,0,32.0,FINESTEERING,2316,563926.500,02000800,10a2,17139;SOL_COMPUTED,INS_PPP,0.000,16.000,0.0035,231.747118,-0.0013,0*101ccc6e
#BESTVELA,FILE,0,32.0,FINESTEERING,2316,563926.550,02000800,10a2,17139;SOL_COMPUTED,INS_PPP,0.000,16.000,0.0055,211.471901,0.0007,0*6c281ec5
#BESTVELA,FILE,0,32.0,FINESTEERING,2316,563926.600,02000800,10a2,17139;SOL_COMPUTED,INS_PPP,0.000,16.000,0.0024,177.447740,0.0019,0*b53d33a3
#BESTVELA,FILE,0,32.0,FINESTEERING,2316,563926.650,02000800,10a2,17139;SOL_COMPUTED,INS_PPP,0.000,16.000,0.0027,54.405729,0.0023,0*fd252fa4
#BESTVELA,FILE,0,32.0,FINESTEERING,2316,563926.700,02000800,10a2,17139;SOL_COMPUTED,INS_PPP,0.000,16.000,0.0024,107.270845,0.0012,0*b510d5ad
#BESTVELA,FILE,0,32.0,FINESTEERING,2316,563926.750,02000800,10a2,17139;SOL_COMPUTED,INS_PPP,0.000,16.000,0.0027,139.098878,0.0025,0*38d4961a
#BESTVELA,FILE,0,32.0,FINESTEERING,2316,563926.800,02000800,10a2,17139;SOL_COMPUTED,INS_PPP,0.000,16.000,0.0032,167.561366,0.0012,0*a3ddf19c
#BESTVELA,FILE,0,32.0,FINESTEERING,2316,563926.850,02000800,10a2,17139;SOL_COMPUTED,INS_PPP,0.000,16.000,0.0002,271.310118,0.0007,0*910ae50c
#BESTVELA,FILE,0,32.0,FINESTEERING,2316,563926.900,02000800,10a2,17139;SOL_COMPUTED,INS_PPP,0.000,16.000,0.0014,186.947439,0.0004,0*f3b3f3dc
#BESTVELA,FILE,0,32.0,FINESTEERING,2316,563926.950,02000800,10a2,17139;SOL_COMPUTED,INS_PPP,0.000,16.000,0.0002,345.134486,0.0011,0*4d22426d
#BESTVELA,FILE,0,32.0,FINESTEERING,2316,563927.000,02000800,10a2,17139;SOL_COMPUTED,INS_PPP,0.000,16.000,0.0003,351.209951,0.0023,0*a0fd4a09
#BESTVELA,FILE,0,32.0,FINESTEERING,2316,563927.050,02000800,10a2,17139;SOL_COMPUTED,INS_PPP,0.000,17.000,0.0025,164.786205,-0.0008,0*28ab0d2d
#BESTVELA,FILE,0,22.5,FINESTEERING,2316,563927.100,02000800,10a2,17139;SOL_COMPUTED,INS_PPP,0.000,17.000,0.0033,178.393618,-0.0015,0*9445c550
#BESTVELA,FILE,0,22.5,FINESTEERING,2316,563927.150,02000800,10a2,17139;SOL_COMPUTED,INS_PPP,0.000,17.000,0.0053,161.514148,-0.0023,0*b52fa79a
#BESTVELA,FILE,0,22.5,FINESTEERING,2316,563927.200,02000800,10a2,17139;SOL_COMPUTED,INS_PPP,0.000,17.000,0.0060,134.788159,-0.0035,0*e801b4d2
#BESTVELA,FILE,0,22.5,FINESTEERING,2316,563927.250,02000800,10a2,17139;SOL_COMPUTED,INS_PPP,0.000,17.000,0.0032,171.375806,-0.0017,0*ab901538
#BESTVELA,FILE,0,22.5,FINESTEERING,2316,563927.300,02000800,10a2,17139;SOL_COMPUTED,INS_PPP,0.000,17.000,0.0012,119.826383,0.0019,0*ea695795
#BESTVELA,FILE,0,22.5,FINESTEERING,2316,563927.350,02000800,10a2,17139;SOL_COMPUTED,INS_PPP,0.000,17.000,0.0023,68.108464,0.0030,0*9b04913f
#BESTVELA,FILE,0,22.5,FINESTEERING,2316,563927.400,02000800,10a2,17139;SOL_COMPUTED,INS_PPP,0.000,17.000,0.0016,165.527115,0.0005,0*db8bb0e2
#BESTVELA,FILE,0,22.5,FINESTEERING,2316,563927.450,02000800,10a2,17139;SOL_COMPUTED,INS_PPP,0.000,17.000,0.0017,165.814316,-0.0003,0*ce368f05
#BESTVELA,FILE,0,22.5,FINESTEERING,2316,563927.500,02000800,10a2,17139;SOL_COMPUTED,INS_PPP,0.000,17.000,0.0043,199.096455,-0.0011,0*b5783efd
#BESTVELA,FILE,0,22.5,FINESTEERING,2316,563927.550,02000800,10a2,17139;SOL_COMPUTED,INS_PPP,0.000,17.000,0.0008,161.675036,-0.0022,0*ecbbe5d4
#BESTVELA,FILE,0,22.5,FINESTEERING,2316,563927.600,02000800,10a2,17139;SOL_COMPUTED,INS_PPP,0.000,17.000,0.0035,142.554019,-0.0012,0*726fb729
#BESTVELA,FILE,0,22.5,FINESTEERING,2316,563927.650,02000800,10a2,17139;SOL_COMPUTED,INS_PPP,0.000,17.000,0.0046,142.891030,-0.0002,0*3304e5da
#BESTVELA,FILE,0,22.5,FINESTEERING,2316,563927.700,02000800,10a2,17139;SOL_COMPUTED,INS_PPP,0.000,17.000,0.0039,132.011389,0.0003,0*f566721a
#BESTVELA,FILE,0,22.5,FINESTEERING,2316,563927.750,02000800,10a2,17139;SOL_COMPUTED,INS_PPP,0.000,17.000,0.0036,144.145073,-0.0011,0*58876afb
#BESTVELA,FILE,0,22.5,FINESTEERING,2316,563927.800,02000800,10a2,17139;SOL_COMPUTED,INS_PPP,0.000,17.000,0.0012,198.950438,-0.0004,0*55374cf3
#BESTVELA,FILE,0,22.5,FINESTEERING,2316,563927.850,02000800,10a2,17139;SOL_COMPUTED,INS_PPP,0.000,17.000,0.0028,205.647210,0.0016,0*4f95c4b9
#BESTVELA,FILE,0,22.5,FINESTEERING,2316,563927.900,02000800,10a2,17139;SOL_COMPUTED,INS_PPP,0.000,17.000,0.0015,266.272532,0.0014,0*06ee80d4
#BESTVELA,FILE,0,22.5,FINESTEERING,2316,563927.950,02000800,10a2,17139;SOL_COMPUTED,INS_PPP,0.000,17.000,0.0014,234.590173,0.0022,0*cc916a22
#BESTVELA,FILE,0,22.5,FINESTEERING,2316,563928.000,02000800,10a2,17139;SOL_COMPUTED,INS_PPP,0.000,17.000,0.0004,274.413057,0.0019,0*b6df5b1f
#BESTVELA,FILE,0,22.5,FINESTEERING,2316,563928.050,02000800,10a2,17139;SOL_COMPUTED,INS_PPP,0.000,8.000,0.0005,328.824801,0.0007,0*2e7ae250
#BESTVELA,FILE,0,22.5,FINESTEERING,2316,563928.100,02000800,10a2,17139;SOL_COMPUTED,INS_PPP,0.000,8.000,0.0019,176.445366,-0.0005,0*c9f7ff23
#BESTVELA,FILE,0,30.0,FINESTEERING,2316,563928.150,02000800,10a2,17139;SOL_COMPUTED,INS_PPP,0.000,8.000,0.0018,190.366379,0.0011,0*7a688eee
#BESTVELA,FILE,0,30.0,FINESTEERING,2316,563928.200,02000800,10a2,17139;SOL_COMPUTED,INS_PPP,0.000,8.000,0.0020,213.685466,0.0007,0*6c01bdf8
#BESTVELA,FILE,0,30.0,FINESTEERING,2316,563928.250,02000800,10a2,17139;SOL_COMPUTED,INS_PPP,0.000,8.000,0.0013,307.579539,0.0005,0*faf5e344
#BESTVELA,FILE,0,30.0,FINESTEERING,2316,563928.300,02000800,10a2,17139;SOL_COMPUTED,INS_PPP,0.000,8.000,0.0008,311.554741,0.0018,0*67dd2ad8
#BESTVELA,FILE,0,30.0,FINESTEERING,2316,563928.350,02000800,10a2,17139;SOL_COMPUTED,INS_PPP,0.000,8.000,0.0020,177.308946,0.0027,0*c560ac51
#BESTVELA,FILE,0,30.0,FINESTEERING,2316,563928.400,02000800,10a2,17139;SOL_COMPUTED,INS_PPP,0.000,8.000,0.0674,173.709361,-0.0305,0*e4997a95
#BESTVELA,FILE,0,30.0,FINESTEERING,2316,563928.450,02000800,10a2,17139;SOL_COMPUTED,INS_PPP,0.000,8.000,0.0620,173.518740,0.0339,0*e685717c
#BESTVELA,FILE,0,30.0,FINESTEERING,2316,563928.500,02000800,10a2,17139;SOL_COMPUTED,INS_PPP,0.000,8.000,0.0556,169.786600,0.0545,0*4e46efa3
#BESTVELA,FILE,0,30.0,FINESTEERING,2316,563928.550,02000800,10a2,17139;SOL_COMPUTED,INS_PPP,0.000,8.000,0.0325,166.335921,0.0370,0*07479d17
#BESTVELA,FILE,0,30.0,FINESTEERING,2316,563928.600,02000800,10a2,17139;SOL_COMPUTED,INS_PPP,0.000,8.000,0.0088,182.230259,0.0252,0*0f8649b9
#BESTVELA,FILE,0,30.0,FINESTEERING,2316,563928.650,02000800,10a2,17139;SOL_COMPUTED,INS_PPP,0.000,8.000,0.0093,200.315306,0.0304,0*2c0dc49b
#BESTVELA,FILE,0,30.0,FINESTEERING,2316,563928.700,02000800,10a2,17139;SOL_COMPUTED,INS_PPP,0.000,8.000,0.0055,341.914376,0.0159,0*ee21d57c
#BESTVELA,FILE,0,30.0,FINESTEERING,2316,563928.750,02000800,10a2,17139;SOL_COMPUTED,INS_PPP,0.000,8.000,0.0186,352.552916,0.0060,0*c4708fec
#BESTVELA,FILE,0,30.0,FINESTEERING,2316,563928.800,02000800,10a2,17139;SOL_COMPUTED,INS_PPP,0.000,8.000,0.0112,348.239095,0.0087,0*72debb98
#BESTVELA,FILE,0,30.0,FINESTEERING,2316,563928.850,02000800,10a2,17139;SOL_COMPUTED,INS_PPP,0.000,8.000,0.0136,350.550905,0.0087,0*1f83ad5f
#BESTVELA,FILE,0,30.0,FINESTEERING,2316,563928.900,02000800,10a2,17139;SOL_COMPUTED,INS_PPP,0.000,8.000,0.0172,345.597310,0.0013,0*f64b5062
#BESTVELA,FILE,0,30.0,FINESTEERING,2316,563928.950,02000800,10a2,17139;SOL_COMPUTED,INS_PPP,0.000,8.000,0.0159,344.551787,-0.0046,0*85debe4e
#BESTVELA,FILE,0,30.0,FINESTEERING,2316,563929.000,02000800,10a2,17139;SOL_COMPUTED,INS_PPP,0.000,8.000,0.0162,340.127805,-0.0065,0*7cbca6de
#BESTVELA,FILE,0,30.0,FINESTEERING,2316,563929.050,02000800,10a2,17139;SOL_COMPUTED,INS_PPP,0.000,9.000,0.0131,338.185762,-0.0070,0*73960b08
#BESTVELA,FILE,0,24.5,FINESTEERING,2316,563929.100,02000800,10a2,17139;SOL_COMPUTED,INS_PPP,0.000,9.000,0.0070,344.583644,-0.0051,0*c3bebb6a
#BESTVELA,FILE,0,24.5,FINESTEERING,2316,563929.150,02000800,10a2,17139;SOL_COMPUTED,INS_PPP,0.000,9.000,0.0065,354.887026,-0.0031,0*f91ff042
#BESTVELA,FILE,0,24.5,FINESTEERING,2316,563929.200,02000800,10a2,17139;SOL_COMPUTED,INS_PPP,0.000,9.000,0.0025,313.216427,-0.0034,0*18b30b88
#BESTVELA,FILE,0,24.5,FINESTEERING,2316,563929.250,02000800,10a2,17139;SOL_COMPUTED,INS_PPP,0.000,9.000,0.0022,284.002852,-0.0040,0*1abc03f2
#BESTVELA,FILE,0,24.5,FINESTEERING,2316,563929.300,02000800,10a2,17139;SOL_COMPUTED,INS_PPP,0.000,9.000,0.0022,284.113898,-0.0033,0*ad971cd1
#BESTVELA,FILE,0,24.5,FINESTEERING,2316,563929.350,02000800,10a2,17139;SOL_COMPUTED,INS_PPP,0.000,9.000,0.0019,268.882675,-0.0024,0*9ffb5db8
#BESTVELA,FILE,0,24.5,FINESTEERING,2316,563929.400,02000800,10a2,17139;SOL_COMPUTED,INS_PPP,0.000,9.000,0.0021,309.623992,-0.0010,0*2d0b594a
#BESTVELA,FILE,0,24.5,FINESTEERING,2316,563929.450,02000800,10a2,17139;SOL_COMPUTED,INS_PPP,0.000,9.000,0.0021,232.321268,-0.0014,0*e2a1d9fc
#BESTVELA,FILE,0,24.5,FINESTEERING,2316,563929.500,02000800,10a2,17139;SOL_COMPUTED,INS_PPP,0.000,9.000,0.0013,244.762422,-0.0018,0*d1af703b
#BESTVELA,FILE,0,24.5,FINESTEERING,2316,563929.550,02000800,10a2,17139;SOL_COMPUTED,INS_PPP,0.000,9.000,0.0038,231.455444,-0.0024,0*4c19085a
#BESTVELA,FILE,0,24.5,FINESTEERING,2316,563929.600,02000800,10a2,17139;SOL_COMPUTED,INS_PPP,0.000,9.000,0.0028,242.485742,-0.0025,0*2ee56c46
#BESTVELA,FILE,0,24.5,FINESTEERING,2316,563929.650,02000800,10a2,17139;SOL_COMPUTED,INS_PPP,0.000,9.000,0.0026,265.477212,-0.0030,0*e150fde8
#BESTVELA,FILE,0,24.5,FINESTEERING,2316,563929.700,02000800,10a2,17139;SOL_COMPUTED,INS_PPP,0.000,9.000,0.0052,220.160393,-0.0020,0*879e066a
#BESTVELA,FILE,0,24.5,FINESTEERING,2316,563929.750,02000800,10a2,17139;SOL_COMPUTED,INS_PPP,0.000,9.000,0.0044,185.383303,-0.0009,0*6919d739
#BESTVELA,FILE,0,24.5,FINESTEERING,2316,563929.800,02000800,10a2,17139;SOL_COMPUTED,INS_PPP,0.000,9.000,0.0059,195.751387,-0.0011,0*e11c4a63
#BESTVELA,FILE,0,24.5,FINESTEERING,2316,563929.850,02000800,10a2,17139;SOL_COMPUTED,INS_PPP,0.000,9.000,0.0063,201.779645,-0.0006,0*034d85dd
#BESTVELA,FILE,0,24.5,FINESTEERING,2316,563929.900,02000800,10a2,17139;SOL_COMPUTED,INS_PPP,0.000,9.000,0.0027,215.987399,-0.0003,0*f6b945be
#BESTVELA,FILE,0,24.5,FINESTEERING,2316,563929.950,02000800,10a2,17139;SOL_COMPUTED,INS_PPP,0.000,9.000,0.0063,162.783947,0.0005,0*52663d85
#BESTVELA,FILE,0,24.5,FINESTEERING,2316,563930.000,02000800,10a2,17139;SOL_COMPUTED,INS_PPP,0.000,9.000,0.0074,173.063432,0.0014,0*5eba3b60
#BESTVELA,FILE,0,24.5,FINESTEERING,2316,563930.050,02000800,10a2,17139;SOL_COMPUTED,INS_PPP,0.000,10.000,0.0092,237.017230,-0.0039,0*09d401de
#BESTVELA,FILE,0,24.5,FINESTEERING,2316,563930.100,02000800,10a2,17139;SOL_COMPUTED,INS_PPP,0.000,10.000,0.0100,269.959434,-0.0030,0*7b40cb66
#BESTVELA,FILE,0,30.5,FINESTEERING,2316,563930.150,02000800,10a2,17139;SOL_COMPUTED,INS_PPP,0.000,10.000,0.0035,277.244969,-0.0000,0*d2b4e7f6
#BESTVELA,FILE,0,30.5,FINESTEERING,2316,563930.200,02000800,10a2,17139;SOL_COMPUTED,INS_PPP,0.000,10.000,0.0075,287.065215,-0.0126,0*dc0fbc7c
#BESTVELA,FILE,0,30.5,FINESTEERING,2316,563930.250,02000800,10a2,17139;SOL_COMPUTED,INS_PPP,0.000,10.000,0.0077,238.087784,-0.0216,0*5fab30ae
#BESTVELA,FILE,0,30.5,FINESTEERING,2316,563930.300,02000800,10a2,17139;SOL_COMPUTED,INS_PPP,0.000,10.000,0.0215,268.668763,-0.0158,0*735df0a5
#BESTVELA,FILE,0,30.5,FINESTEERING,2316,563930.350,02000800,10a2,17139;SOL_COMPUTED,INS_PPP,0.000,10.000,0.0015,300.354752,-0.0045,0*d63571b5
#BESTVELA,FILE,0,30.5,FINESTEERING,2316,563930.400,02000800,10a2,17139;SOL_COMPUTED,INS_PPP,0.000,10.000,0.0013,308.393590,-0.0080,0*39738870
#BESTVELA,FILE,0,30.5,FINESTEERING,2316,563930.450,02000800,10a2,17139;SOL_COMPUTED,INS_PPP,0.000,10.000,0.0091,261.810527,-0.0205,0*f67bc5d4
#BESTVELA,FILE,0,30.5,FINESTEERING,2316,563930.500,02000800,10a2,17139;SOL_COMPUTED,INS_PPP,0.000,10.000,0.0150,277.389817,-0.0296,0*96f363a7
#BESTVELA,FILE,0,30.5,FINESTEERING,2316,563930.550,02000800,10a2,17139;SOL_COMPUTED,INS_PPP,0.000,10.000,0.0243,266.400442,-0.0468,0*8ffffff7
#BESTVELA,FILE,0,30.5,FINESTEERING,2316,563930.600,02000800,10a2,17139;SOL_COMPUTED,INS_PPP,0.000,10.000,0.0387,258.427953,-0.0745,0*2826f6fc
#BESTVELA,FILE,0,30.5,FINESTEERING,2316,563930.650,02000800,10a2,17139;SOL_COMPUTED,INS_PPP,0.000,10.000,0.0427,239.388306,-0.0779,0*6b85136f
#BESTVELA,FILE,0,30.5,FINESTEERING,2316,563930.700,02000800,10a2,17139;SOL_COMPUTED,INS_PPP,0.000,10.000,0.0442,205.187507,-0.0714,0*0d78cd42
#BESTVELA,FILE,0,30.5,FINESTEERING,2316,563930.750,02000800,10a2,17139;SOL_COMPUTED,INS_PPP,0.000,10.000,0.0497,196.078422,-0.0601,0*c0ee9bb8
#BESTVELA,FILE,0,30.5,FINESTEERING,2316,563930.800,02000800,10a2,17139;SOL_COMPUTED,INS_PPP,0.000,10.000,0.0500,190.133497,-0.0308,0*9a8b7039
#BESTVELA,FILE,0,30.5,FINESTEERING,2316,563930.850,02000800,10a2,17139;SOL_COMPUTED,INS_PPP,0.000,10.000,0.0363,167.175720,0.0051,0*e1247af5
#BESTVELA,FILE,0,30.5,FINESTEERING,2316,563930.900,02000800,10a2,17139;SOL_COMPUTED,INS_PPP,0.000,10.000,0.0333,128.629445,0.0332,0*be93de01
#BESTVELA,FILE,0,30.5,FINESTEERING,2316,563930.950,02000800,10a2,17139;SOL_COMPUTED,INS_PPP,0.000,10.000,0.0359,107.490621,0.0487,0*df26be12
#BESTVELA,FILE,0,30.5,FINESTEERING,2316,563931.000,02000800,10a2,17139;SOL_COMPUTED,INS_PPP,0.000,10.000,0.0265,99.194267,0.0507,0*b38f0340
#BESTVELA,FILE,0,30.5,FINESTEERING,2316,563931.050,02000800,10a2,17139;SOL_COMPUTED,INS_PPP,0.000,11.000,0.0080,123.503819,0.0380,0*65127ce7
#BESTVELA,FILE,0,29.0,FINESTEERING,2316,563931.100,02000800,10a2,17139;SOL_COMPUTED,INS_PPP,0.000,11.000,0.0113,196.201970,0.0177,0*ef357120
#BESTVELA,FILE,0,29.0,FINESTEERING,2316,563931.150,02000800,10a2,17139;SOL_COMPUTED,INS_PPP,0.000,11.000,0.0203,182.760402,0.0009,0*02b9ee1e
#BESTVELA,FILE,0,29.0,FINESTEERING,2316,563931.200,02000800,10a2,17139;SOL_COMPUTED,INS_PPP,0.000,11.000,0.0276,185.222829,-0.0122,0*a82e51d8
#BESTVELA,FILE,0,29.0,FINESTEERING,2316,563931.250,02000800,10a2,17139;SOL_COMPUTED,INS_PPP,0.000,11.000,0.0269,189.898176,-0.0183,0*00833ad0
#BESTVELA,FILE,0,29.0,FINESTEERING,2316,563931.300,02000800,10a2,17139;SOL_COMPUTED,INS_PPP,0.000,11.000,0.0279,187.938972,-0.0210,0*7b73fcd5
#BESTVELA,FILE,0,29.0,FINESTEERING,2316,563931.350,02000800,10a2,17139;SOL_COMPUTED,INS_PPP,0.000,11.000,0.0282,187.528834,-0.0190,0*cedcfb09
#BESTVELA,FILE,0,29.0,FINESTEERING,2316,563931.400,02000800,10a2,17139;SOL_COMPUTED,INS_PPP,0.000,11.000,0.0211,183.459054,-0.0084,0*23b2f5f1
#BESTVELA,FILE,0,29.0,FINESTEERING,2316,563931.450,02000800,10a2,17139;SOL_COMPUTED,INS_PPP,0.000,11.000,0.0424,116.839354,-0.0016,0*3bb840c4
#BESTVELA,FILE,0,29.0,FINESTEERING,2316,563931.500,02000800,10a2,17139;SOL_COMPUTED,INS_PPP,0.000,11.000,0.0037,359.137253,0.0065,0*dc373394
#BESTVELA,FILE,0,29.0,FINESTEERING,2316,563931.550,02000800,10a2,17139;SOL_COMPUTED,INS_PPP,0.000,11.000,0.0195,266.484539,0.0016,0*051e0219
#BESTVELA,FILE,0,29.0,FINESTEERING,2316,563931.600,02000800,10a2,17139;SOL_COMPUTED,INS_PPP,0.000,11.000,0.0189,261.507325,-0.0024,0*41339a89
#BESTVELA,FILE,0,29.0,FINESTEERING,2316,563931.650,02000800,10a2,17139;SOL_COMPUTED,INS_PPP,0.000,11.000,0.0085,212.154467,-0.0009,0*732f31dc
#BESTVELA,FILE,0,29.0,FINESTEERING,2316,563931.700,02000800,10a2,17139;SOL_COMPUTED,INS_PPP,0.000,11.000,0.0018,190.249107,-0.0016,0*3d35a2fb
#BESTVELA,FILE,0,29.0,FINESTEERING,2316,563931.750,02000800,10a2,17139;SOL_COMPUTED,INS_PPP,0.000,11.000,0.0078,283.583018,-0.0036,0*beb7c76e
#BESTVELA,FILE,0,29.0,FINESTEERING,2316,563931.800,02000800,10a2,17139;SOL_COMPUTED,INS_PPP,0.000,11.000,0.0112,296.086971,-0.0034,0*1f3ffea9
#BESTVELA,FILE,0,29.0,FINESTEERING,2316,563931.850,02000800,10a2,17139;SOL_COMPUTED,INS_PPP,0.000,11.000,0.0138,348.803304,-0.0154,0*d80536a0
#BESTVELA,FILE,0,29.0,FINESTEERING,2316,563931.900,02000800,10a2,17139;SOL_COMPUTED,INS_PPP,0.000,11.000,0.0217,16.313763,-0.0212,0*9fa9a01f
#BESTVELA,FILE,0,29.0,FINESTEERING,2316,563931.950,02000800,10a2,17139;SOL_COMPUTED,INS_PPP,0.000,11.000,0.0740,3.217391,-0.0485,0*3b598b13
#BESTVELA,FILE,0,29.0,FINESTEERING,2316,563932.000,02000800,10a2,17139;SOL_COMPUTED,INS_PPP,0.000,11.000,0.1110,357.919776,-0.0466,0*60faaada
#BESTVELA,FILE,0,29.0,FINESTEERING,2316,563932.050,02000800,10a2,17139;SOL_COMPUTED,INS_PPP,0.000,12.000,0.1738,358.122419,-0.0459,0*35b6264c
#BESTVELA,FILE,0,29.0,FINESTEERING,2316,563932.100,02000800,10a2,17139;SOL_COMPUTED,INS_PPP,0.000,12.000,0.2372,1.021713,-0.0214,0*5b76b6dd
#BESTVELA,FILE,0,29.0,FINESTEERING,2316,563932.150,02000800,10a2,17139;SOL_COMPUTED,INS_PPP,0.000,12.000,0.2923,2.504049,-0.0128,0*99af57f3
#BESTVELA,FILE,0,29.0,FINESTEERING,2316,563932.200,02000800,10a2,17139;SOL_COMPUTED,INS_PPP,0.000,12.000,0.3561,2.589873,-0.0027,0*eef0e489
#BESTVELA,FILE,0,29.0,FINESTEERING,2316,563932.250,02000800,10a2,17139;SOL_COMPUTED,INS_PPP,0.000,12.000,0.3979,4.287287,0.0019,0*f255f16e
#BESTVELA,FILE,0,29.0,FINESTEERING,2316,563932.300,02000800,10a2,17139;SOL_COMPUTED,INS_PPP,0.000,12.000,0.4519,5.680507,0.0060,0*c086d509
#BESTVELA,FILE,0,29.0,FINESTEERING,2316,563932.350,02000800,10a2,17139;SOL_COMPUTED,INS_PPP,0.000,12.000,0.4980,5.362400,0.0037,0*036d8ff2
#BESTVELA,FILE,0,29.0,FINESTEERING,2316,563932.400,02000800,10a2,17139;SOL_COMPUTED,INS_PPP,0.000,12.000,0.5422,5.272201,0.0075,0*25d91031
#BESTVELA,FILE,0,29.0,FINESTEERING,2316,563932.450,02000800,10a2,17139;SOL_COMPUTED,INS_PPP,0.000,12.000,0.5951,5.447536,0.0122,0*8d4e6f6c
#BESTVELA,FILE,0,29.0,FINESTEERING,2316,563932.500,02000800,10a2,17139;SOL_COMPUTED,INS_PPP,0.000,12.000,0.6598,4.350978,0.0041,0*0b12a39e
#BESTVELA,FILE,0,29.0,FINESTEERING,2316,563932.550,02000800,10a2,17139;SOL_COMPUTED,INS_PPP,0.000,12.000,0.7300,3.807921,-0.0024,0*bb69a381
#BESTVELA,FILE,0,29.0,FINESTEERING,2316,563932.600,02000800,10a2,17139;SOL_COMPUTED,INS_PPP,0.000,12.000,0.8127,4.377042,-0.0236,0*a67b0417
#BESTVELA,FILE,0,29.0,FINESTEERING,2316,563932.650,02000800,10a2,17139;SOL_COMPUTED,INS_PPP,0.000,12.000,0.8611,5.008134,-0.0286,0*fb2e8905
#BESTVELA,FILE,0,29.0,FINESTEERING,2316,563932.700,02000800,10a2,17139;SOL_COMPUTED,INS_PPP,0.000,12.000,0.9493,5.404811,-0.0382,0*231e0d75
#BESTVELA,FILE,0,29.0,FINESTEERING,2316,563932.750,02000800,10a2,17139;SOL_COMPUTED,INS_PPP,0.000,12.000,1.0308,5.646672,-0.0365,0*2fc359c0
#BESTVELA,FILE,0,29.0,FINESTEERING,2316,563932.800,02000800,10a2,17139;SOL_COMPUTED,INS_PPP,0.000,12.000,1.1189,5.617458,-0.0346,0*c8fff302
#BESTVELA,FILE,0,29.0,FINESTEERING,2316,563932.850,02000800,10a2,17139;SOL_COMPUTED,INS_PPP,0.000,12.000,1.2090,5.393615,-0.0265,0*05cdaa9d
#BESTVELA,FILE,0,29.0,FINESTEERING,2316,563932.900,02000800,10a2,17139;SOL_COMPUTED,INS_PPP,0.000,12.000,1.2688,5.711385,-0.0101,0*36d459e3
#BESTVELA,FILE,0,29.0,FINESTEERING,2316,563932.950,02000800,10a2,17139;SOL_COMPUTED,INS_PPP,0.000,12.000,1.3391,5.605427,0.0099,0*498f2a95
#BESTVELA,FILE,0,29.0,FINESTEERING,2316,563933.000,02000800,10a2,17139;SOL_COMPUTED,INS_PPP,0.000,12.000,1.3918,5.429003,0.0156,0*5977cade
#BESTVELA,FILE,0,29.0,FINESTEERING,2316,563933.050,02000800,10a2,17139;SOL_COMPUTED,INS_PPP,0.000,13.000,1.4279,5.060700,0.0169,0*9e5713bf
#BESTVELA,FILE,0,28.5,FINESTEERING,2316,563933.100,02000800,10a2,17139;SOL_COMPUTED,INS_PPP,0.000,13.000,1.4556,4.813432,-0.0000,0*ca8aaaf7
#BESTVELA,FILE,0,28.5,FINESTEERING,2316,563933.150,02000800,10a2,17139;SOL_COMPUTED,INS_PPP,0.000,13.000,1.4775,5.384849,-0.0317,0*64d5bbe0
#BESTVELA,FILE,0,28.5,FINESTEERING,2316,563933.200,02000800,10a2,17139;SOL_COMPUTED,INS_PPP,0.000,13.000,1.5085,5.995969,-0.0690,0*6f1f8339
#BESTVELA,FILE,0,28.5,FINESTEERING,2316,563933.250,02000800,10a2,17139;SOL_COMPUTED,INS_PPP,0.000,13.000,1.5587,6.198317,-0.1047,0*35bb1422
#BESTVELA,FILE,0,28.5,FINESTEERING,2316,563933.300,02000800,10a2,17139;SOL_COMPUTED,INS_PPP,0.000,13.000,1.6083,6.337199,-0.1057,0*20e0eefe
#BESTVELA,FILE,0,28.5,FINESTEERING,2316,563933.350,02000800,10a2,17139;SOL_COMPUTED,INS_PPP,0.000,13.000,1.6671,6.150386,-0.0734,0*78099d8c
#BESTVELA,FILE,0,28.5,FINESTEERING,2316,563933.400,02000800,10a2,17139;SOL_COMPUTED,INS_PPP,0.000,13.000,1.7274,5.165017,-0.0233,0*8e30bb72
#BESTVELA,FILE,0,28.5,FINESTEERING,2316,563933.450,02000800,10a2,17139;SOL_COMPUTED,INS_PPP,0.000,13.000,1.7838,3.642697,0.0295,0*8cb3d4a4
#BESTVELA,FILE,0,28.5,FINESTEERING,2316,563933.500,02000800,10a2,17139;SOL_COMPUTED,INS_PPP,0.000,13.000,1.8332,2.893191,0.0685,0*8f05573b
#BESTVELA,FILE,0,28.5,FINESTEERING,2316,563933.550,02000800,10a2,17139;SOL_COMPUTED,INS_PPP,0.000,13.000,1.8687,2.589304,0.0725,0*77b559f4
#BESTVELA,FILE,0,28.5,FINESTEERING,2316,563933.600,02000800,10a2,17139;SOL_COMPUTED,INS_PPP,0.000,13.000,1.8918,2.592455,0.0603,0*02c8ad3f
#BESTVELA,FILE,0,28.5,FINESTEERING,2316,563933.650,02000800,10a2,17139;SOL_COMPUTED,INS_PPP,0.000,13.000,1.9260,2.988773,0.0295,0*ee1291b8
#BESTVELA,FILE,0,28.5,FINESTEERING,2316,563933.700,02000800,10a2,17139;SOL_COMPUTED,INS_PPP,0.000,13.000,1.9781,2.978867,-0.0254,0*d75612fe
#BESTVELA,FILE,0,28.5,FINESTEERING,2316,563933.750,02000800,10a2,17139;SOL_COMPUTED,INS_PPP,0.000,13.000,2.0387,2.820747,-0.0519,0*ab90c9cb
#BESTVELA,FILE,0,28.5,FINESTEERING,2316,563933.800,02000800,10a2,17139;SOL_COMPUTED,INS_PPP,0.000,13.000,2.1092,3.187393,-0.0665,0*ca07f019
#BESTVELA,FILE,0,28.5,FINESTEERING,2316,563933.850,02000800,10a2,17139;SOL_COMPUTED,INS_PPP,0.000,13.000,2.1995,3.427431,-0.0830,0*837707d9
#BESTVELA,FILE,0,28.5,FINESTEERING,2316,563933.900,02000800,10a2,17139;SOL_COMPUTED,INS_PPP,0.000,13.000,2.2920,4.007670,-0.0726,0*dda3f3c3
#BESTVELA,FILE,0,28.5,FINESTEERING,2316,563933.950,02000800,10a2,17139;SOL_COMPUTED,INS_PPP,0.000,13.000,2.4009,3.887060,-0.0358,0*dc433e4e
#BESTVELA,FILE,0,28.5,FINESTEERING,2316,563934.000,02000800,10a2,17139;SOL_COMPUTED,INS_PPP,0.000,13.000,2.5099,3.394545,0.0067,0*2d1171c7
#BESTVELA,FILE,0,28.5,FINESTEERING,2316,563934.050,02000800,10a2,17139;SOL_COMPUTED,INS_PPP,0.000,14.000,2.6073,3.356869,0.0275,0*93bf71fe
#BESTVELA,FILE,0,28.5,FINESTEERING,2316,563934.100,02000800,10a2,17139;SOL_COMPUTED,INS_PPP,0.000,14.000,2.6873,3.162909,0.0373,0*20387cc1
#BESTVELA,FILE,0,29.0,FINESTEERING,2316,563934.150,02000800,10a2,17139;SOL_COMPUTED,INS_PPP,0.000,14.000,2.7605,3.044105,0.0389,0*d895da0d
#BESTVELA,FILE,0,29.0,FINESTEERING,2316,563934.200,02000800,10a2,17139;SOL_COMPUTED,INS_PPP,0.000,14.000,2.8584,2.740383,0.0180,0*46a53289
#BESTVELA,FILE,0,29.0,FINESTEERING,2316,563934.250,02000800,10a2,17139;SOL_COMPUTED,INS_PPP,0.000,14.000,2.9602,2.286279,-0.0004,0*6dd76297
#BESTVELA,FILE,0,29.0,FINESTEERING,2316,563934.300,02000800,10a2,17139;SOL_COMPUTED,INS_PPP,0.000,14.000,3.0941,2.345491,-0.0072,0*93960254
#BESTVELA,FILE,0,29.0,FINESTEERING,2316,563934.350,02000800,10a2,17139;SOL_COMPUTED,INS_PPP,0.000,14.000,3.2305,3.074660,-0.0044,0*609516b6
#BESTVELA,FILE,0,29.0,FINESTEERING,2316,563934.400,02000800,10a2,17139;SOL_COMPUTED,INS_PPP,0.000,14.000,3.3692,3.482464,0.0063,0*d9709f73
#BESTVELA,FILE,0,29.0,FINESTEERING,2316,563934.450,02000800,10a2,17139;SOL_COMPUTED,INS_PPP,0.000,14.000,3.5052,3.408518,0.0228,0*d76edf84
#BESTVELA,FILE,0,29.0,FINESTEERING,2316,563934.500,02000800,10a2,17139;SOL_COMPUTED,INS_PPP,0.000,14.000,3.6276,3.366125,0.0482,0*faf72fac
#BESTVELA,FILE,0,29.0,FINESTEERING,2316,563934.550,02000800,10a2,17139;SOL_COMPUTED,INS_PPP,0.000,14.000,3.7436,3.241949,0.0560,0*5be0a2ce
#BESTVELA,FILE,0,29.0,FINESTEERING,2316,563934.600,02000800,10a2,17139;SOL_COMPUTED,INS_PPP,0.000,14.000,3.8530,3.061396,0.0458,0*bc9e8342
#BESTVELA,FILE,0,29.0,FINESTEERING,2316,563934.650,02000800,10a2,17139;SOL_COMPUTED,INS_PPP,0.000,14.000,3.9545,2.800442,0.0307,0*20f1fe4f
#BESTVELA,FILE,0,29.0,FINESTEERING,2316,563934.700,02000800,10a2,17139;SOL_COMPUTED,INS_PPP,0.000,14.000,4.0587,2.632879,0.0117,0*87ecf5ce
#BESTVELA,FILE,0,29.0,FINESTEERING,2316,563934.750,02000800,10a2,17139;SOL_COMPUTED,INS_PPP,0.000,14.000,4.1511,2.617401,-0.0071,0*dad03ede
#BESTVELA,FILE,0,29.0,FINESTEERING,2316,563934.800,02000800,10a2,17139;SOL_COMPUTED,INS_PPP,0.000,14.000,4.2670,2.659013,0.0065,0*4face1b4
#BESTVELA,FILE,0,29.0,FINESTEERING,2316,563934.850,02000800,10a2,17139;SOL_COMPUTED,INS_PPP,0.000,14.000,4.3953,2.465759,0.0181,0*3b36e3ab
#BESTVELA,FILE,0,29.0,FINESTEERING,2316,563934.900,02000800,10a2,17139;SOL_COMPUTED,INS_PPP,0.000,14.000,4.5312,2.204910,0.0239,0*e5c99264
#BESTVELA,FILE,0,29.0,FINESTEERING,2316,563934.950,02000800,10a2,17139;SOL_COMPUTED,INS_PPP,0.000,14.000,4.6466,2.249313,0.0423,0*d92671e7
#BESTVELA,FILE,0,29.0,FINESTEERING,2316,563935.000,02000800,10a2,17139;SOL_COMPUTED,INS_PPP,0.000,14.000,4.7545,2.472222,0.0397,0*61dc0692
#BESTVELA,FILE,0,29.0,FINESTEERING,2316,563935.050,02000800,10a2,17139;SOL_COMPUTED,INS_PPP,0.000,15.000,4.8448,2.229994,0.0448,0*7d4b3344
#BESTVELA,FILE,0,28.0,FINESTEERING,2316,563935.100,02000800,10a2,17139;SOL_COMPUTED,INS_PPP,0.000,15.000,4.9347,1.938520,0.0476,0*e46f93d5
#BESTVELA,FILE,0,28.0,FINESTEERING,2316,563935.150,02000800,10a2,17139;SOL_COMPUTED,INS_PPP,0.000,15.000,5.0268,1.612771,0.0315,0*b4071a70
#BESTVELA,FILE,0,28.0,FINESTEERING,2316,563935.200,02000800,10a2,17139;SOL_COMPUTED,INS_PPP,0.000,15.000,5.1176,1.111211,0.0209,0*725455c5
#BESTVELA,FILE,0,28.0,FINESTEERING,2316,563935.250,02000800,10a2,17139;SOL_COMPUTED,INS_PPP,0.000,15.000,5.2023,1.050375,0.0270,0*557d4656
#BESTVELA,FILE,0,28.0,FINESTEERING,2316,563935.300,02000800,10a2,17139;SOL_COMPUTED,INS_PPP,0.000,15.000,5.2650,0.777978,0.0721,0*480b3a19
#BESTVELA,FILE,0,28.0,FINESTEERING,2316,563935.350,02000800,10a2,17139;SOL_COMPUTED,INS_PPP,0.000,15.000,5.3227,0.459248,0.1172,0*7416b741
#BESTVELA,FILE,0,28.0,FINESTEERING,2316,563935.400,02000800,10a2,17139;SOL_COMPUTED,INS_PPP,0.000,15.000,5.3159,0.229926,0.1274,0*ebc4c7ef
#BESTVELA,FILE,0,28.0,FINESTEERING,2316,563935.450,02000800,10a2,17139;SOL_COMPUTED,INS_PPP,0.000,15.000,5.3452,0.081028,0.1123,0*1b443d3a
#BESTVELA,FILE,0,28.0,FINESTEERING,2316,563935.500,02000800,10a2,17139;SOL_COMPUTED,INS_PPP,0.000,15.000,5.3307,0.207835,0.0899,0*bae92e8b
#BESTVELA,FILE,0,28.0,FINESTEERING,2316,563935.550,02000800,10a2,17139;SOL_COMPUTED,INS_PPP,0.000,15.000,5.2835,0.062383,0.0638,0*ea0e6c10
#BESTVELA,FILE,0,28.0,FINESTEERING,2316,563935.600,02000800,10a2,17139;SOL_COMPUTED,INS_PPP,0.000,15.000,5.2598,0.134372,0.0221,0*00ef30b8
#BESTVELA,FILE,0,28.0,FINESTEERING,2316,563935.650,02000800,10a2,17139;SOL_COMPUTED,INS_PPP,0.000,15.000,5.2267,0.086048,0.0019,0*5e1844b1
#BESTVELA,FILE,0,28.0,FINESTEERING,2316,563935.700,02000800,10a2,17139;SOL_COMPUTED,INS_PPP,0.000,15.000,5.1912,359.875352,-0.0168,0*125c0a3b
#BESTVELA,FILE,0,28.0,FINESTEERING,2316,563935.750,02000800,10a2,17139;SOL_COMPUTED,INS_PPP,0.000,15.000,5.1646,359.635671,-0.0007,0*0ee41513
#BESTVELA,FILE,0,28.0,FINESTEERING,2316,563935.800,02000800,10a2,17139;SOL_COMPUTED,INS_PPP,0.000,15.000,5.1654,359.363048,0.0066,0*db5d583d
#BESTVELA,FILE,0,28.0,FINESTEERING,2316,563935.850,02000800,10a2,17139;SOL_COMPUTED,INS_PPP,0.000,15.000,5.1663,359.136472,0.0324,0*e3c86c92
#BESTVELA,FILE,0,28.0,FINESTEERING,2316,563935.900,02000800,10a2,17139;SOL_COMPUTED,INS_PPP,0.000,15.000,5.1775,358.834808,0.0275,0*7dcad290
#BESTVELA,FILE,0,28.0,FINESTEERING,2316,563935.950,02000800,10a2,17139;SOL_COMPUTED,INS_PPP,0.000,15.000,5.1637,358.717911,0.0362,0*6fdda6f4
#BESTVELA,FILE,0,28.0,FINESTEERING,2316,563936.000,02000800,10a2,17139;SOL_COMPUTED,INS_PPP,0.000,15.000,5.1620,358.850344,0.0378,0*658718eb
#BESTVELA,FILE,0,28.0,FINESTEERING,2316,563936.050,02000800,10a2,17139;SOL_COMPUTED,INS_PPP,0.000,16.000,5.1625,358.858868,0.0335,0*d0403a5f
#BESTVELA,FILE,0,27.0,FINESTEERING,2316,563936.100,02000800,10a2,17139;SOL_COMPUTED,INS_PPP,0.000,16.000,5.1412,358.787742,0.0454,0*40374018
#BESTVELA,FILE,0,27.0,FINESTEERING,2316,563936.150,02000800,10a2,17139;SOL_COMPUTED,INS_PPP,0.000,16.000,5.1260,358.890789,0.0470,0*d86ea78d
#BESTVELA,FILE,0,27.0,FINESTEERING,2316,563936.200,02000800,10a2,17139;SOL_COMPUTED,INS_PPP,0.000,16.000,5.1128,358.717514,0.0649,0*39d255c9
#BESTVELA,FILE,0,27.0,FINESTEERING,2316,563936.250,02000800,10a2,17139;SOL_COMPUTED,INS_PPP,0.000,16.000,5.0866,358.372431,0.0551,0*08ad6e8b
#BESTVELA,FILE,0,27.0,FINESTEERING,2316,563936.300,02000800,10a2,17139;SOL_COMPUTED,INS_PPP,0.000,16.000,5.0697,358.275181,0.0442,0*1b8d3ea8
#BESTVELA,FILE,0,27.0,FINESTEERING,2316,563936.350,02000800,10a2,17139;SOL_COMPUTED,INS_PPP,0.000,16.000,5.0505,358.234319,0.0459,0*cc35fdda
#BESTVELA,FILE,0,27.0,FINESTEERING,2316,563936.400,02000800,10a2,17139;SOL_COMPUTED,INS_PPP,0.000,16.000,5.0465,358.055885,0.0536,0*e92ac652
#BESTVELA,FILE,0,27.0,FINESTEERING,2316,563936.450,02000800,10a2,17139;SOL_COMPUTED,INS_PPP,0.000,16.000,5.0418,358.047001,0.0685,0*e132d133
#BESTVELA,FILE,0,27.0,FINESTEERING,2316,563936.500,02000800,10a2,17139;SOL_COMPUTED,INS_PPP,0.000,16.000,5.0398,357.797296,0.0590,0*0d4f60fd
#BESTVELA,FILE,0,27.0,FINESTEERING,2316,563936.550,02000800,10a2,17139;SOL_COMPUTED,INS_PPP,0.000,16.000,5.0256,357.654953,0.0526,0*df7894aa
#BESTVELA,FILE,0,27.0,FINESTEERING,2316,563936.600,02000800,10a2,17139;SOL_COMPUTED,INS_PPP,0.000,16.000,5.0048,357.632521,0.0671,0*025fc957
#BESTVELA,FILE,0,27.0,FINESTEERING,2316,563936.650,02000800,10a2,17139;SOL_COMPUTED,INS_PPP,0.000,16.000,4.9970,357.319671,0.0670,0*1c816d9b
#BESTVELA,FILE,0,27.0,FINESTEERING,2316,563936.700,02000800,10a2,17139;SOL_COMPUTED,INS_PPP,0.000,16.000,5.0062,357.141565,0.0675,0*4a071a23
#BESTVELA,FILE,0,27.0,FINESTEERING,2316,563936.750,02000800,10a2,17139;SOL_COMPUTED,INS_PPP,0.000,16.000,5.0160,357.031475,0.0706,0*0edc3b5b
#BESTVELA,FILE,0,27.0,FINESTEERING,2316,563936.800,02000800,10a2,17139;SOL_COMPUTED,INS_PPP,0.000,16.000,5.0137,356.783390,0.0633,0*09dda2d5
#BESTVELA,FILE,0,27.0,FINESTEERING,2316,563936.850,02000800,10a2,17139;SOL_COMPUTED,INS_PPP,0.000,16.000,5.0067,356.734856,0.0719,0*18842711
#BESTVELA,FILE,0,27.0,FINESTEERING,2316,563936.900,02000800,10a2,17139;SOL_COMPUTED,INS_PPP,0.000,16.000,4.9926,356.806643,0.0659,0*85a26cca
#BESTVELA,FILE,0,27.0,FINESTEERING,2316,563936.950,02000800,10a2,17139;SOL_COMPUTED,INS_PPP,0.000,16.000,4.9748,356.850026,0.0602,0*28038624
#BESTVELA,FILE,0,27.0,FINESTEERING,2316,563937.000,02000800,10a2,17139;SOL_COMPUTED,INS_PPP,0.000,16.000,4.9392,356.547718,0.0803,0*2829192d
#BESTVELA,FILE,0,27.0,FINEBACKUPSTEERING,2316,563937.050,02000800,10a2,17139;SOL_COMPUTED,INS_PPP,0.000,17.000,4.9095,356.571146,0.0879,0*9c08e07a
#BESTVELA,FILE,0,27.0,FINEBACKUPSTEERING,2316,563937.100,02000800,10a2,17139;SOL_COMPUTED,INS_PPP,0.000,17.000,4.9012,356.566769,0.0829,0*98d7375b
#BESTVELA,FILE,0,28.5,FINEBACKUPSTEERING,2316,563937.150,02000800,10a2,17139;SOL_COMPUTED,INS_PPP,0.000,17.000,4.8984,356.535251,0.0623,0*08b87879
#BESTVELA,FILE,0,28.5,FINEBACKUPSTEERING,2316,563937.200,02000800,10a2,17139;SOL_COMPUTED,INS_PPP,0.000,17.000,4.8801,356.414386,0.0451,0*855236b9
#BESTVELA,FILE,0,28.5,FINEBACKUPSTEERING,2316,563937.250,02000800,10a2,17139;SOL_COMPUTED,INS_PPP,0.000,17.000,4.8930,356.311407,0.0143,0*736c9633
#BESTVELA,FILE,0,28.5,FINEBACKUPSTEERING,2316,563937.300,02000800,10a2,17139;SOL_COMPUTED,INS_PPP,0.000,17.000,4.9425,356.114300,-0.0158,0*bb43e242
#BESTVELA,FILE,0,28.5,FINEBACKUPSTEERING,2316,563937.350,02000800,10a2,17139;SOL_COMPUTED,INS_PPP,0.000,17.000,4.9630,356.042620,-0.0249,0*31192849
#BESTVELA,FILE,0,28.5,FINEBACKUPSTEERING,2316,563937.400,02000800,10a2,17139;SOL_COMPUTED,INS_PPP,0.000,17.000,5.0353,356.164702,-0.0281,0*e2555dab
#BESTVELA,FILE,0,28.5,FINEBACKUPSTEERING,2316,563937.450,02000800,10a2,17139;SOL_COMPUTED,INS_PPP,0.000,17.000,5.1096,356.026659,-0.0275,0*41d4f54e
#BESTVELA,FILE,0,28.5,FINEBACKUPSTEERING,2316,563937.500,02000800,10a2,17139;SOL_COMPUTED,INS_PPP,0.000,17.000,5.1710,355.938297,0.0224,0*e71b32f0
#BESTVELA,FILE,0,28.5,FINEBACKUPSTEERING,2316,563937.550,02000800,10a2,17139;SOL_COMPUTED,INS_PPP,0.000,17.000,5.2457,355.961406,0.0558,0*bd4fb9a8
#BESTVELA,FILE,0,28.5,FINEBACKUPSTEERING,2316,563937.600,02000800,10a2,17139;SOL_COMPUTED,INS_PPP,0.000,17.000,5.2679,356.211808,0.0744,0*64c42ecf
#BESTVELA,FILE,0,28.5,FINEBACKUPSTEERING,2316,563937.650,02000800,10a2,17139;SOL_COMPUTED,INS_PPP,0.000,17.000,5.2907,356.383240,0.0919,0*05acd745
#BESTVELA,FILE,0,28.5,FINEBACKUPSTEERING,2316,563937.700,02000800,10a2,17139;SOL_COMPUTED,INS_PPP,0.000,17.000,5.2969,356.523912,0.0803,0*9da7bba7
#BESTVELA,FILE,0,28.5,FINEBACKUPSTEERING,2316,563937.750,02000800,10a2,17139;SOL_COMPUTED,INS_PPP,0.000,17.000,5.2977,356.648915,0.0628,0*b30648cf
#BESTVELA,FILE,0,28.5,FINEBACKUPSTEERING,2316,563937.800,02000800,10a2,17139;SOL_COMPUTED,INS_PPP,0.000,17.000,5.3083,356.745391,0.0318,0*e5624526
#BESTVELA,FILE,0,28.5,FINEBACKUPSTEERING,2316,563937.850,02000800,10a2,17139;SOL_COMPUTED,INS_PPP,0.000,17.000,5.3190,356.895856,0.0429,0*d6d64968
#BESTVELA,FILE,0,28.5,FINEBACKUPSTEERING,2316,563937.900,02000800,10a2,17139;SOL_COMPUTED,INS_PPP,0.000,17.000,5.3594,356.819234,0.0223,0*acb3ee2d
#BESTVELA,FILE,0,28.5,FINEBACKUPSTEERING,2316,563937.950,02000800,10a2,17139;SOL_COMPUTED,INS_PPP,0.000,17.000,5.4088,356.691264,0.0117,0*9e457898
#BESTVELA,FILE,0,28.5,FINEBACKUPSTEERING,2316,563938.000,02000800,10a2,17139;SOL_COMPUTED,INS_PPP,0.000,17.000,5.4539,356.760447,0.0076,0*e8b908d3
#BESTVELA,FILE,0,28.5,FINEBACKUPSTEERING,2316,563938.050,02000800,10a2,17139;SOL_COMPUTED,INS_PPP,0.000,18.000,5.5011,356.760032,0.0268,0*b9e6bb35
#BESTVELA,FILE,0,28.5,FINEBACKUPSTEERING,2316,563938.100,02000800,10a2,17139;SOL_COMPUTED,INS_PPP,0.000,18.000,5.5508,356.859908,0.0458,0*ebaa432a
#BESTVELA,FILE,0,28.5,FINEBACKUPSTEERING,2316,563938.150,02000800,10a2,17139;SOL_COMPUTED,INS_PPP,0.000,18.000,5.6208,356.800290,0.0600,0*83beb9ba
#BESTVELA,FILE,0,28.5,FINEBACKUPSTEERING,2316,563938.200,02000800,10a2,17139;SOL_COMPUTED,INS_PPP,0.000,18.000,5.6849,356.853469,0.0772,0*46e4e294
#BESTVELA,FILE,0,28.5,FINEBACKUPSTEERING,2316,563938.250,02000800,10a2,17139;SOL_COMPUTED,INS_PPP,0.000,18.000,5.7402,357.083872,0.1057,0*cce6e169
#BESTVELA,FILE,0,28.5,FINEBACKUPSTEERING,2316,563938.300,02000800,10a2,17139;SOL_COMPUTED,INS_PPP,0.000,18.000,5.8058,357.158834,0.1045,0*0fa437ef
#BESTVELA,FILE,0,28.5,FINEBACKUPSTEERING,2316,563938.350,02000800,10a2,17139;SOL_COMPUTED,INS_PPP,0.000,18.000,5.8611,357.280924,0.0918,0*4482532e
#BESTVELA,FILE,0,28.5,FINEBACKUPSTEERING,2316,563938.400,02000800,10a2,17139;SOL_COMPUTED,INS_PPP,0.000,18.000,5.9054,357.467587,0.0950,0*a2e55cbf
#BESTVELA,FILE,0,28.5,FINEBACKUPSTEERING,2316,563938.450,02000800,10a2,17139;SOL_COMPUTED,INS_PPP,0.000,18.000,5.9566,357.780883,0.0898,0*b2826346
#BESTVELA,FILE,0,28.5,FINEBACKUPSTEERING,2316,563938.500,02000800,10a2,17139;SOL_COMPUTED,INS_PPP,0.000,18.000,6.0270,357.747126,0.0768,0*d548b0e5
#BESTVELA,FILE,0,28.5,FINEBACKUPSTEERING,2316,563938.550,02000800,10a2,17139;SOL_COMPUTED,INS_PPP,0.000,18.000,6.0894,357.865889,0.0469,0*e3794413
#BESTVELA,FILE,0,28.5,FINEBACKUPSTEERING,2316,563938.600,02000800,10a2,17139;SOL_COMPUTED,INS_PPP,0.000,18.000,6.1385,357.835211,0.0457,0*7353a0bf
#BESTVELA,FILE,0,28.5,FINEBACKUPSTEERING,2316,563938.650,02000800,10a2,17139;SOL_COMPUTED,INS_PPP,0.000,18.000,6.1820,357.875869,0.0173,0*ac28e82d
#BESTVELA,FILE,0,28.5,FINEBACKUPSTEERING,2316,563938.700,02000800,10a2,17139;SOL_COMPUTED,INS_PPP,0.000,18.000,6.2174,357.958213,0.0416,0*53d83c12
#BESTVELA,FILE,0,28.5,FINEBACKUPSTEERING,2316,563938.750,02000800,10a2,17139;SOL_COMPUTED,INS_PPP,0.000,18.000,6.2708,358.116120,0.0422,0*09f68eda
#BESTVELA,FILE,0,28.5,FINEBACKUPSTEERING,2316,563938.800,02000800,10a2,17139;SOL_COMPUTED,INS_PPP,0.000,18.000,6.3280,358.000528,0.0245,0*4b9c426c
#BESTVELA,FILE,0,28.5,FINEBACKUPSTEERING,2316,563938.850,02000800,10a2,17139;SOL_COMPUTED,INS_PPP,0.000,18.000,6.3715,358.158517,0.0163,0*0aedde45
#BESTVELA,FILE,0,28.5,FINEBACKUPSTEERING,2316,563938.900,02000800,10a2,17139;SOL_COMPUTED,INS_PPP,0.000,18.000,6.4200,358.294775,0.0245,0*373f6efe
#BESTVELA,FILE,0,28.5,FINEBACKUPSTEERING,2316,563938.950,02000800,10a2,17139;SOL_COMPUTED,INS_PPP,0.000,18.000,6.4658,358.482713,0.0319,0*bf87c666
#BESTVELA,FILE,0,28.5,FINEBACKUPSTEERING,2316,563939.000,02000800,10a2,17139;SOL_COMPUTED,INS_PPP,0.000,18.000,6.5303,358.674499,0.0352,0*d5ee8c3b
#BESTVELA,FILE,0,28.5,FINEBACKUPSTEERING,2316,563939.050,02000800,10a2,17139;SOL_COMPUTED,INS_PPP,0.000,19.000,6.5872,358.820261,0.0455,0*c6ff0e9b
#BESTVELA,FILE,0,30.0,FINEBACKUPSTEERING,2316,563939.100,02000800,10a2,17139;SOL_COMPUTED,INS_PPP,0.000,19.000,6.6422,358.904902,0.0391,0*8e339e8a
#BESTVELA,FILE,0,30.0,FINEBACKUPSTEERING,2316,563939.150,02000800,10a2,17139;SOL_COMPUTED,INS_PPP,0.000,19.000,6.6944,358.915388,0.0503,0*786a81f1
#BESTVELA,FILE,0,30.0,FINEBACKUPSTEERING,2316,563939.200,02000800,10a2,17139;SOL_COMPUTED,INS_PPP,0.000,19.000,6.7398,358.756318,0.0652,0*63c1ebb3
#BESTVELA,FILE,0,30.0,FINEBACKUPSTEERING,2316,563939.250,02000800,10a2,17139;SOL_COMPUTED,INS_PPP,0.000,19.000,6.8027,358.776573,0.0917,0*3060c8bb
#BESTVELA,FILE,0,30.0,FINEBACKUPSTEERING,2316,563939.300,02000800,10a2,17139;SOL_COMPUTED,INS_PPP,0.000,19.000,6.8679,358.937846,0.0939,0*68d561b9
#BESTVELA,FILE,0,30.0,FINEBACKUPSTEERING,2316,563939.350,02000800,10a2,17139;SOL_COMPUTED,INS_PPP,0.000,19.000,6.9268,359.013357,0.0925,0*40a539b3
#BESTVELA,FILE,0,30.0,FINEBACKUPSTEERING,2316,563939.400,02000800,10a2,17139;SOL_COMPUTED,INS_PPP,0.000,19.000,6.9821,358.932486,0.0896,0*7c3d4de4
#BESTVELA,FILE,0,30.0,FINEBACKUPSTEERING,2316,563939.450,02000800,10a2,17139;SOL_COMPUTED,INS_PPP,0.000,19.000,7.0423,358.828773,0.0775,0*4f843955
#BESTVELA,FILE,0,30.0,FINEBACKUPSTEERING,2316,563939.500,02000800,10a2,17139;SOL_COMPUTED,INS_PPP,0.000,19.000,7.1001,358.762146,0.0911,0*3b3579b1
#BESTVELA,FILE,0,30.0,FINEBACKUPSTEERING,2316,563939.550,02000800,10a2,17139;SOL_COMPUTED,INS_PPP,0.000,19.000,7.1635,358.737094,0.0638,0*083e4dc8
#BESTVELA,FILE,0,30.0,FINEBACKUPSTEERING,2316,563939.600,02000800,10a2,17139;SOL_COMPUTED,INS_PPP,0.000,19.000,7.2059,358.797437,0.0531,0*994ce4bc
#BESTVELA,FILE,0,30.0,FINEBACKUPSTEERING,2316,563939.650,02000800,10a2,17139;SOL_COMPUTED,INS_PPP,0.000,19.000,7.2546,358.753265,0.0575,0*be66debc
#BESTVELA,FILE,0,30.0,FINEBACKUPSTEERING,2316,563939.700,02000800,10a2,17139;SOL_COMPUTED,INS_PPP,0.000,19.000,7.3152,358.619823,0.0540,0*a6cbe9ce
#BESTVELA,FILE,0,30.0,FINEBACKUPSTEERING,2316,563939.750,02000800,10a2,17139;SOL_COMPUTED,INS_PPP,0.000,19.000,7.3849,358.590399,0.0546,0*8fe899f9
#BESTVELA,FILE,0,30.0,FINEBACKUPSTEERING,2316,563939.800,02000800,10a2,17139;SOL_COMPUTED,INS_PPP,0.000,19.000,7.4603,358.555290,0.0508,0*e4f7148e
#BESTVELA,FILE,0,30.0,FINEBACKUPSTEERING,2316,563939.850,02000800,10a2,17139;SOL_COMPUTED,INS_PPP,0.000,19.000,7.5095,358.948335,0.0578,0*52ec0c29
#BESTVELA,FILE,0,30.0,FINEBACKUPSTEERING,2316,563939.900,02000800,10a2,17139;SOL_COMPUTED,INS_PPP,0.000,19.000,7.5585,358.974942,0.0613,0*32fdb431
#BESTVELA,FILE,0,30.0,FINEBACKUPSTEERING,2316,563939.950,02000800,10a2,17139;SOL_COMPUTED,INS_PPP,0.000,19.000,7.6211,359.214651,0.0645,0*75a615f3
#BESTVELA,FILE,0,30.0,FINEBACKUPSTEERING,2316,563940.000,02000800,10a2,17139;SOL_COMPUTED,INS_PPP,0.000,19.000,7.6969,359.095284,0.0814,0*392091a4
#BESTVELA,FILE,0,30.0,FINEBACKUPSTEERING,2316,563940.050,02000800,10a2,17139;SOL_COMPUTED,INS_PPP,0.000,10.000,7.7794,358.902644,0.0752,0*0e21158c
#BESTVELA,FILE,0,30.0,FINEBACKUPSTEERING,2316,563940.100,02000800,10a2,17139;SOL_COMPUTED,INS_PPP,0.000,10.000,7.8331,359.141802,0.0590,0*39f6fcc6
#BESTVELA,FILE,0,32.5,FINEBACKUPSTEERING,2316,563940.150,02000800,10a2,17139;SOL_COMPUTED,INS_PPP,0.000,10.000,7.8835,359.099465,0.0570,0*54690af5
#BESTVELA,FILE,0,32.5,FINEBACKUPSTEERING,2316,563940.200,02000800,10a2,17139;SOL_COMPUTED,INS_PPP,0.000,10.000,7.9200,359.219674,0.0796,0*ba866e08
#BESTVELA,FILE,0,32.5,FINEBACKUPSTEERING,2316,563940.250,02000800,10a2,17139;SOL_COMPUTED,INS_PPP,0.000,10.000,7.9710,359.241727,0.0853,0*3829ca25
#BESTVELA,FILE,0,32.5,FINEBACKUPSTEERING,2316,563940.300,02000800,10a2,17139;SOL_COMPUTED,INS_PPP,0.000,10.000,8.0503,358.949260,0.0586,0*e70ea899
#BESTVELA,FILE,0,32.5,FINEBACKUPSTEERING,2316,563940.350,02000800,10a2,17139;SOL_COMPUTED,INS_PPP,0.000,10.000,8.0800,359.274060,0.0711,0*94a519f5
#BESTVELA,FILE,0,32.5,FINEBACKUPSTEERING,2316,563940.400,02000800,10a2,17139;SOL_COMPUTED,INS_PPP,0.000,10.000,8.1602,359.155213,0.0583,0*59322013
#BESTVELA,FILE,0,32.5,FINEBACKUPSTEERING,2316,563940.450,02000800,10a2,17139;SOL_COMPUTED,INS_PPP,0.000,10.000,8.2069,358.997482,0.0234,0*c621333f
#BESTVELA,FILE,0,32.5,FINEBACKUPSTEERING,2316,563940.500,02000800,10a2,17139;SOL_COMPUTED,INS_PPP,0.000,10.000,8.2400,359.169060,0.0945,0*113a7954
#BESTVELA,FILE,0,32.5,FINEBACKUPSTEERING,2316,563940.550,02000800,10a2,17139;SOL_COMPUTED,INS_PPP,0.000,10.000,8.3488,359.114797,0.0764,0*20886450
#BESTVELA,FILE,0,32.5,FINEBACKUPSTEERING,2316,563940.600,02000800,10a2,17139;SOL_COMPUTED,INS_PPP,0.000,10.000,8.3928,358.668392,0.0399,0*7e4de77a
#BESTVELA,FILE,0,32.5,FINEBACKUPSTEERING,2316,563940.650,02000800,10a2,17139;SOL_COMPUTED,INS_PPP,0.000,10.000,8.4582,358.843730,0.0916,0*8cc5f5fb
#BESTVELA,FILE,0,32.5,FINEBACKUPSTEERING,2316,563940.700,02000800,10a2,17139;SOL_COMPUTED,INS_PPP,0.000,10.000,8.5559,358.686718,0.0595,0*77555589
#BESTVELA,FILE,0,32.5,FINEBACKUPSTEERING,2316,563940.750,02000800,10a2,17139;SOL_COMPUTED,INS_PPP,0.000,10.000,8.5966,358.740640,0.0740,0*59f26ec3
#BESTVELA,FILE,0,32.5,FINEBACKUPSTEERING,2316,563940.800,02000800,10a2,17139;SOL_COMPUTED,INS_PPP,0.000,10.000,8.6637,358.986521,0.0577,0*267a48af
#BESTVELA,FILE,0,32.5,FINEBACKUPSTEERING,2316,563940.850,02000800,10a2,17139;SOL_COMPUTED,INS_PPP,0.000,10.000,8.7253,358.979659,0.0827,0*2b5387e1
#BESTVELA,FILE,0,32.5,FINEBACKUPSTEERING,2316,563940.900,02000800,10a2,17139;SOL_COMPUTED,INS_PPP,0.000,10.000,8.7752,359.045015,0.1334,0*3e842599
#BESTVELA,FILE,0,32.5,FINEBACKUPSTEERING,2316,563940.950,02000800,10a2,17139;SOL_COMPUTED,INS_PPP,0.000,10.000,8.8248,359.504945,0.0901,0*01f1561d
#BESTVELA,FILE,0,32.5,FINEBACKUPSTEERING,2316,563941.000,02000800,10a2,17139;SOL_COMPUTED,INS_PPP,0.000,10.000,8.8680,359.773445,0.0991,0*f09b018d
#BESTVELA,FILE,0,32.5,FINESTEERING,2316,563941.050,02000800,10a2,17139;SOL_COMPUTED,INS_PPP,0.000,11.000,8.9138,359.520519,0.0728,0*ecf518e8
#BESTVELA,FILE,0,25.5,FINESTEERING,2316,563941.100,02000800,10a2,17139;SOL_COMPUTED,INS_PPP,0.000,11.000,9.0034,359.203203,0.0845,0*b00b715e
#BESTVELA,FILE,0,25.5,FINESTEERING,2316,563941.150,02000800,10a2,17139;SOL_COMPUTED,INS_PPP,0.000,11.000,9.1384,358.769129,0.0316,0*d454fdd8
#BESTVELA,FILE,0,25.5,FINESTEERING,2316,563941.200,02000800,10a2,17139;SOL_COMPUTED,INS_PPP,0.000,11.000,9.1623,359.051364,0.0054,0*1894d4bb
#BESTVELA,FILE,0,25.5,FINESTEERING,2316,563941.250,02000800,10a2,17139;SOL_COMPUTED,INS_PPP,0.000,11.000,9.1730,359.565591,0.0919,0*6f48529b
#BESTVELA,FILE,0,25.5,FINESTEERING,2316,563941.300,02000800,10a2,17139;SOL_COMPUTED,INS_PPP,0.000,11.000,9.1818,359.489095,0.1387,0*d8812751
#BESTVELA,FILE,0,25.5,FINESTEERING,2316,563941.350,02000800,10a2,17139;SOL_COMPUTED,INS_PPP,0.000,11.000,9.1869,359.179543,0.1009,0*8eb22291
#BESTVELA,FILE,0,25.5,FINESTEERING,2316,563941.400,02000800,10a2,17139;SOL_COMPUTED,INS_PPP,0.000,11.000,9.1873,359.009996,0.0757,0*aaeac517
#BESTVELA,FILE,0,25.5,FINESTEERING,2316,563941.450,02000800,10a2,17139;SOL_COMPUTED,INS_PPP,0.000,11.000,9.1531,358.863446,-0.0048,0*d4a6b4e5
#BESTVELA,FILE,0,25.5,FINESTEERING,2316,563941.500,02000800,10a2,17139;SOL_COMPUTED,INS_PPP,0.000,11.000,9.0726,358.983122,-0.0206,0*4aadc0eb
#BESTVELA,FILE,0,25.5,FINESTEERING,2316,563941.550,02000800,10a2,17139;SOL_COMPUTED,INS_PPP,0.000,11.000,9.0219,359.028182,-0.0107,0*57c6391e
#BESTVELA,FILE,0,25.5,FINESTEERING,2316,563941.600,02000800,10a2,17139;SOL_COMPUTED,INS_PPP,0.000,11.000,8.9896,359.089572,-0.0131,0*cc3470db
#BESTVELA,FILE,0,25.5,FINESTEERING,2316,563941.650,02000800,10a2,17139;SOL_COMPUTED,INS_PPP,0.000,11.000,8.9635,359.305553,-0.0170,0*fc8e536f
#BESTVELA,FILE,0,25.5,FINESTEERING,2316,563941.700,02000800,10a2,17139;SOL_COMPUTED,INS_PPP,0.000,11.000,8.9442,359.405380,0.0079,0*f36fd0eb
#BESTVELA,FILE,0,25.5,FINESTEERING,2316,563941.750,02000800,10a2,17139;SOL_COMPUTED,INS_PPP,0.000,11.000,8.9180,359.311124,0.0378,0*f14c5aab
#BESTVELA,FILE,0,25.5,FINESTEERING,2316,563941.800,02000800,10a2,17139;SOL_COMPUTED,INS_PPP,0.000,11.000,8.9267,359.020709,0.0573,0*abb96d28
#BESTVELA,FILE,0,25.5,FINESTEERING,2316,563941.850,02000800,10a2,17139;SOL_COMPUTED,INS_PPP,0.000,11.000,8.9387,359.056586,0.0472,0*ba816eb7
#BESTVELA,FILE,0,25.5,FINESTEERING,2316,563941.900,02000800,10a2,17139;SOL_COMPUTED,INS_PPP,0.000,11.000,8.9307,359.223920,0.0685,0*5b72f7cd
#BESTVELA,FILE,0,25.5,FINESTEERING,2316,563941.950,02000800,10a2,17139;SOL_COMPUTED,INS_PPP,0.000,11.000,8.9359,359.127463,0.0671,0*975bfab1
#BESTVELA,FILE,0,25.5,FINESTEERING,2316,563942.000,02000800,10a2,17139;SOL_COMPUTED,INS_PPP,0.000,11.000,8.9347,359.148853,0.0692,0*7edf9525
#BESTVELA,FILE,0,25.5,FINESTEERING,2316,563942.050,02000800,10a2,17139;SOL_COMPUTED,INS_PPP,0.000,12.000,8.9397,359.058446,0.0833,0*8d9c9cf5
#BESTVELA,FILE,0,25.5,FINESTEERING,2316,563942.100,02000800,10a2,17139;SOL_COMPUTED,INS_PPP,0.000,12.000,8.9141,358.979194,0.0639,0*0937ac4a
#BESTVELA,FILE,0,27.5,FINESTEERING,2316,563942.150,02000800,10a2,17139;SOL_COMPUTED,INS_PPP,0.000,12.000,8.8761,359.051463,0.0552,0*2e76c064
#BESTVELA,FILE,0,27.5,FINESTEERING,2316,563942.200,02000800,10a2,17139;SOL_COMPUTED,INS_PPP,0.000,12.000,8.8410,359.008096,0.0810,0*5283c520
#BESTVELA,FILE,0,27.5,FINESTEERING,2316,563942.250,02000800,10a2,17139;SOL_COMPUTED,INS_PPP,0.000,12.000,8.8148,359.200917,0.0291,0*0cbc7fb8
#BESTVELA,FILE,0,27.5,FINESTEERING,2316,563942.300,02000800,10a2,17139;SOL_COMPUTED,INS_PPP,0.000,12.000,8.7721,359.270162,0.0087,0*e51bbbe4
#BESTVELA,FILE,0,27.5,FINESTEERING,2316,563942.350,02000800,10a2,17139;SOL_COMPUTED,INS_PPP,0.000,12.000,8.7161,359.261566,-0.0183,0*2bf35216
#BESTVELA,FILE,0,27.5,FINESTEERING,2316,563942.400,02000800,10a2,17139;SOL_COMPUTED,INS_PPP,0.000,12.000,8.6829,359.196837,0.0084,0*18256bfb
#BESTVELA,FILE,0,27.5,FINESTEERING,2316,563942.450,02000800,10a2,17139;SOL_COMPUTED,INS_PPP,0.000,12.000,8.6641,359.032390,0.0239,0*c2584573
#BESTVELA,FILE,0,27.5,FINESTEERING,2316,563942.500,02000800,10a2,17139;SOL_COMPUTED,INS_PPP,0.000,12.000,8.6530,359.108231,0.0272,0*e107792f
#BESTVELA,FILE,0,27.5,FINESTEERING,2316,563942.550,02000800,10a2,17139;SOL_COMPUTED,INS_PPP,0.000,12.000,8.6503,359.156767,0.0410,0*8fe16650
#BESTVELA,FILE,0,27.5,FINESTEERING,2316,563942.600,02000800,10a2,17139;SOL_COMPUTED,INS_PPP,0.000,12.000,8.6424,359.173804,0.0561,0*8e8347ba
#BESTVELA,FILE,0,27.5,FINESTEERING,2316,563942.650,02000800,10a2,17139;SOL_COMPUTED,INS_PPP,0.000,12.000,8.6364,359.098719,0.0256,0*cd8c54a3
#BESTVELA,FILE,0,27.5,FINESTEERING,2316,563942.700,02000800,10a2,17139;SOL_COMPUTED,INS_PPP,0.000,12.000,8.6337,359.206690,0.0531,0*0bd95781
#BESTVELA,FILE,0,27.5,FINESTEERING,2316,563942.750,02000800,10a2,17139;SOL_COMPUTED,INS_PPP,0.000,12.000,8.6333,359.178797,0.0528,0*46e213c9
#BESTVELA,FILE,0,27.5,FINESTEERING,2316,563942.800,02000800,10a2,17139;SOL_COMPUTED,INS_PPP,0.000,12.000,8.6119,359.495590,0.0691,0*95c026f7
#BESTVELA,FILE,0,27.5,FINESTEERING,2316,563942.850,02000800,10a2,17139;SOL_COMPUTED,INS_PPP,0.000,12.000,8.6185,359.220268,0.0982,0*afd0a1a0
#BESTVELA,FILE,0,27.5,FINESTEERING,2316,563942.900,02000800,10a2,17139;SOL_COMPUTED,INS_PPP,0.000,12.000,8.6150,359.403493,0.1189,0*98b87149
#BESTVELA,FILE,0,27.5,FINESTEERING,2316,563942.950,02000800,10a2,17139;SOL_COMPUTED,INS_PPP,0.000,12.000,8.6430,359.538047,0.1491,0*f383c9b7
#BESTVELA,FILE,0,27.5,FINESTEERING,2316,563943.000,02000800,10a2,17139;SOL_COMPUTED,INS_PPP,0.000,12.000,8.6842,359.388738,0.1012,0*e3da75cf
#BESTVELA,FILE,0,27.5,FINESTEERING,2316,563943.050,02000800,10a2,17139;SOL_COMPUTED,INS_PPP,0.000,13.000,8.6780,359.395153,0.0991,0*5e53aaa8
#BESTVELA,FILE,0,26.5,FINESTEERING,2316,563943.100,02000800,10a2,17139;SOL_COMPUTED,INS_PPP,0.000,13.000,8.6760,359.318808,0.1106,0*8535f6eb
#BESTVELA,FILE,0,26.5,FINESTEERING,2316,563943.150,02000800,10a2,17139;SOL_COMPUTED,INS_PPP,0.000,13.000,8.6801,359.180632,0.1249,0*f92261ab
#BESTVELA,FILE,0,26.5,FINESTEERING,2316,563943.200,02000800,10a2,17139;SOL_COMPUTED,INS_PPP,0.000,13.000,8.7191,359.086934,0.0903,0*e4cf92df
#BESTVELA,FILE,0,26.5,FINESTEERING,2316,563943.250,02000800,10a2,17139;SOL_COMPUTED,INS_PPP,0.000,13.000,8.7374,359.128178,0.0373,0*baecf5bc
#BESTVELA,FILE,0,26.5,FINESTEERING,2316,563943.300,02000800,10a2,17139;SOL_COMPUTED,INS_PPP,0.000,13.000,8.7222,359.046743,0.0466,0*e01f17c1
#BESTVELA,FILE,0,26.5,FINESTEERING,2316,563943.350,02000800,10a2,17139;SOL_COMPUTED,INS_PPP,0.000,13.000,8.7322,358.898687,0.0203,0*556b1779
#BESTVELA,FILE,0,26.5,FINESTEERING,2316,563943.400,02000800,10a2,17139;SOL_COMPUTED,INS_PPP,0.000,13.000,8.7286,358.979698,0.0126,0*7d1856ac
#BESTVELA,FILE,0,26.5,FINESTEERING,2316,563943.450,02000800,10a2,17139;SOL_COMPUTED,INS_PPP,0.000,13.000,8.7175,358.922246,-0.0034,0*065e46bd
#BESTVELA,FILE,0,26.5,FINESTEERING,2316,563943.500,02000800,10a2,17139;SOL_COMPUTED,INS_PPP,0.000,13.000,8.7062,358.872660,0.0067,0*7e1b5918
#BESTVELA,FILE,0,26.5,FINESTEERING,2316,563943.550,02000800,10a2,17139;SOL_COMPUTED,INS_PPP,0.000,13.000,8.7077,358.984399,0.0248,0*98c1f9f2
#BESTVELA,FILE,0,26.5,FINESTEERING,2316,563943.600,02000800,10a2,17139;SOL_COMPUTED,INS_PPP,0.000,13.000,8.7115,358.990330,0.0091,0*a0746610
#BESTVELA,FILE,0,26.5,FINESTEERING,2316,563943.650,02000800,10a2,17139;SOL_COMPUTED,INS_PPP,0.000,13.000,8.6895,359.084585,0.0561,0*0a8c2ac9
#BESTVELA,FILE,0,26.5,FINESTEERING,2316,563943.700,02000800,10a2,17139;SOL_COMPUTED,INS_PPP,0.000,13.000,8.7090,359.208581,0.0888,0*5ca0920f
#BESTVELA,FILE,0,26.5,FINESTEERING,2316,563943.750,02000800,10a2,17139;SOL_COMPUTED,INS_PPP,0.000,13.000,8.7416,359.040508,0.1087,0*518d6f6d
#BESTVELA,FILE,0,26.5,FINESTEERING,2316,563943.800,02000800,10a2,17139;SOL_COMPUTED,INS_PPP,0.000,13.000,8.7738,359.168246,0.1015,0*83108183
#BESTVELA,FILE,0,26.5,FINESTEERING,2316,563943.850,02000800,10a2,17139;SOL_COMPUTED,INS_PPP,0.000,13.000,8.7831,359.115150,0.0958,0*88a155fc
#BESTVELA,FILE,0,26.5,FINESTEERING,2316,563943.900,02000800,10a2,17139;SOL_COMPUTED,INS_PPP,0.000,13.000,8.7924,359.031571,0.0946,0*52fcad38
#BESTVELA,FILE,0,26.5,FINESTEERING,2316,563943.950,02000800,10a2,17139;SOL_COMPUTED,INS_PPP,0.000,13.000,8.7982,358.942207,0.0905,0*d8187f1f
#BESTVELA,FILE,0,26.5,FINESTEERING,2316,563944.000,02000800,10a2,17139;SOL_COMPUTED,INS_PPP,0.000,13.000,8.7976,358.905202,0.0628,0*3fef550c
#BESTVELA,FILE,0,26.5,FINESTEERING,2316,563944.050,02000800,10a2,17139;SOL_COMPUTED,INS_PPP,0.000,14.000,8.7834,359.203342,0.0683,0*0acf3a3e
#BESTVELA,FILE,0,23.5,FINESTEERING,2316,563944.100,02000800,10a2,17139;SOL_COMPUTED,INS_PPP,0.000,14.000,8.7692,359.533209,0.0479,0*da42652c
#BESTVELA,FILE,0,23.5,FINESTEERING,2316,563944.150,02000800,10a2,17139;SOL_COMPUTED,INS_PPP,0.000,14.000,8.7492,359.211120,0.0426,0*dd02b8cb
#BESTVELA,FILE,0,23.5,FINESTEERING,2316,563944.200,02000800,10a2,17139;SOL_COMPUTED,INS_PPP,0.000,14.000,8.7385,358.840279,0.0311,0*c26a9514
#BESTVELA,FILE,0,23.5,FINESTEERING,2316,563944.250,02000800,10a2,17139;SOL_COMPUTED,INS_PPP,0.000,14.000,8.7532,358.903364,0.0539,0*40ee21c1
#BESTVELA,FILE,0,23.5,FINESTEERING,2316,563944.300,02000800,10a2,17139;SOL_COMPUTED,INS_PPP,0.000,14.000,8.7714,358.863710,0.0801,0*b64f3d98
#BESTVELA,FILE,0,23.5,FINESTEERING,2316,563944.350,02000800,10a2,17139;SOL_COMPUTED,INS_PPP,0.000,14.000,8.7665,358.863915,0.0830,0*d4d03017
#BESTVELA,FILE,0,23.5,FINESTEERING,2316,563944.400,02000800,10a2,17139;SOL_COMPUTED,INS_PPP,0.000,14.000,8.7455,358.949356,0.0984,0*7cbef27a
#BESTVELA,FILE,0,23.5,FINESTEERING,2316,563944.450,02000800,10a2,17139;SOL_COMPUTED,INS_PPP,0.000,14.000,8.7226,358.629410,0.0851,0*3ce7ea42
#BESTVELA,FILE,0,23.5,FINESTEERING,2316,563944.500,02000800,10a2,17139;SOL_COMPUTED,INS_PPP,0.000,14.000,8.6686,358.542487,0.0986,0*32acbac7
#BESTVELA,FILE,0,23.5,FINESTEERING,2316,563944.550,02000800,10a2,17139;SOL_COMPUTED,INS_PPP,0.000,14.000,8.6483,358.606882,-0.0307,0*893fd12e
