#CORRIMUDATAA,FILE,0,32.0,FINESTEERING,2316,563922.200,02000800,e5fc,17139;2316,563922.200000000,-0.0000002512705827,-0.0000192391674785,0.0000002033864884,-0.0006333790193300,0.0000695469973703,-0.0010422355365439*4f4003c4
#CORRIMUDATAA,FILE,0,33.0,FINESTEERING,2316,563922.250,02000800,e5fc,17139;2316,563922.250000000,-0.0000101896373843,-0.0000188748263457,0.0000040376547774,-0.0002897473714436,0.0001275502009296,-0.0003492381292702*64712a9d
#CORRIMUDATAA,FILE,0,33.0,FINESTEERING,2316,563922.300,02000800,e5fc,17139;2316,563922.300000000,-0.0000004386747866,-0.0000213164930820,0.0000010771061113,0.0003455236197749,-0.0002016153363882,-0.0003389709801928*b35c19fc
#CORRIMUDATAA,FILE,0,33.0,FINESTEERING,2316,563922.350,02000800,e5fc,17139;2316,563922.350000000,0.0000115207554264,0.0000051052725712,0.0000022687080637,0.0006007889870837,-0.0003186699049364,0.0003395911750991*e4be1298
#CORRIMUDATAA,FILE,0,33.0,FINESTEERING,2316,563922.400,02000800,e5fc,17139;2316,563922.400000000,0.0000032312936266,0.0000195930576029,0.0000020547813656,0.0003408850854332,-0.0001339713533243,0.0013328471939589*41faad0c
#CORRIMUDATAA,FILE,0,33.0,FINESTEERING,2316,563922.450,02000800,e5fc,17139;2316,563922.450000000,-0.0000113478365424,0.0000304002733309,0.0000109919901055,0.0001901205662059,0.0001298383014593,-0.0003926645450863*1fd05dfa
#CORRIMUDATAA,FILE,0,33.0,FINESTEERING,2316,563922.500,02000800,e5fc,17139;2316,563922.500000000,-0.0000187798475350,0.0000177371604922,0.0000107683729058,-0.0002897423797871,0.0000087402509391,-0.0007903289734848*adeaa364
#CORRIMUDATAA,FILE,0,33.0,FINESTEERING,2316,563922.750,02000800,e5fc,17139;2316,563922.750000000,0.0000029973510159,-0.0000014131932326,0.0000058263748424,0.0005262689602892,0.0000475401338591,-0.0003771936110555*a3ee3563
#CORRIMUDATAA,FILE,0,33.0,FINESTEERING,2316,563922.800,02000800,e5fc,17139;2316,563922.800000000,0.0000139122220707,0.0000241780845520,-0.0000047872738718,0.0010247594062106,-0.0002045828645330,0.0012500072093269*da5e853b
#CORRIMUDATAA,FILE,0,33.0,FINESTEERING,2316,563922.900,02000800,e5fc,17139;2316,563922.900000000,0.0000185480158280,0.0000417670699456,0.0000045688962874,-0.0007239902722643,-0.0003573865835998,-0.0005049475233956*fbedf1d2
#CORRIMUDATAA,FILE,0,33.0,FINESTEERING,2316,563922.950,02000800,e5fc,17139;2316,563922.950000000,-0.0000059278749851,0.0000227989635304,0.0000082410185008,-0.0010067221616380,0.0005249000955865,-0.0006625794309134*f631308a
#CORRIMUDATAA,FILE,0,33.0,FINESTEERING,2316,563923.000,02000800,e5fc,17139;2316,563923.000000000,-0.0000121551133869,-0.0000281950315282,0.0000174382604877,-0.0007833497527530,0.0007999509113708,0.0003708363192972*43c946c0
#CORRIMUDATAA,FILE,0,33.0,FINESTEERING,2316,563923.100,02000800,e5fc,17139;2316,563923.100000000,-0.0000259478115626,-0.0000134041235508,0.0000140855848260,0.0009691711326278,-0.0007039921464387,0.0009998017072196*d51f032f
#CORRIMUDATAA,FILE,0,33.5,FINESTEERING,2316,563923.300,02000800,e5fc,17139;2316,563923.300000000,0.0000073683550551,0.0000027693474466,0.0000206613367394,-0.0022152216917978,0.0005897594144506,-0.0004757949500065*aaad60d2
#CORRIMUDATAA,FILE,0,33.5,FINESTEERING,2316,563923.400,02000800,e5fc,17139;2316,563923.400000000,-0.0000329204599285,-0.0000928636765838,0.0000232936900213,0.0004764571145700,0.0001887573190963,0.0019125375007510*1a32f97a
#CORRIMUDATAA,FILE,0,33.5,FINESTEERING,2316,563923.500,02000800,e5fc,17139;2316,563923.500000000,0.0000454851219859,0.0000756508348025,-0.0000212800754373,0.0031902402220454,-0.0024800355809279,-0.0030608805177727*c9184e4b
#CORRIMUDATAA,FILE,0,33.5,FINESTEERING,2316,563923.550,02000800,e5fc,17139;2316,563923.550000000,0.0000450914620569,0.0000255545808057,0.0000074487012209,0.0017586863170365,0.0010862398602050,-0.0007179851178154*f82b67b6
#CORRIMUDATAA,FILE,0,33.5,FINESTEERING,2316,563923.600,02000800,e5fc,17139;2316,563923.600000000,-0.0000034528194660,0.0000627961827035,0.0000190626699899,-0.0020944465343222,0.0034478443672115,0.0043299703586448*58bd4e60
#CORRIMUDATAA,FILE,0,33.5,FINESTEERING,2316,563923.650,02000800,e5fc,17139;2316,563923.650000000,-0.0000421873975311,0.0000302809337672,0.0000213946784493,-0.0017558708757567,0.0004263086418530,0.0019544867377233*8e65c9e7
#CORRIMUDATAA,FILE,0,33.5,FINESTEERING,2316,563923.800,02000800,e5fc,17139;2316,563923.800000000,0.0000430241793418,-0.0000038210444051,-0.0000257475554409,0.0025208132403334,0.0012703611207849,0.0025657455419669*7872bd94
#CORRIMUDATAA,FILE,0,33.5,FINESTEERING,2316,563923.850,02000800,e5fc,17139;2316,563923.850000000,0.0000346470011264,0.0000170956039600,0.0000108686854256,0.0016884039377112,0.0022818108707603,0.0015233553286304*d5e3617b
#CORRIMUDATAA,FILE,0,33.5,FINESTEERING,2316,563923.900,02000800,e5fc,17139;2316,563923.900000000,-0.0000117139588686,0.0001133140460070,0.0000107472596207,-0.0017667741152387,0.0007204241998673,-0.0012480924089053*49df9bcc
#CORRIMUDATAA,FILE,0,33.5,FINESTEERING,2316,563924.050,02000800,e5fc,17139;2316,563924.050000000,0.0000217013700360,0.0000976802851937,0.0000039005053980,0.0023460282731420,-0.0006195791934985,0.0013273300204112*b982f0f0
#CORRIMUDATAA,FILE,0,33.5,FINESTEERING,2316,563924.100,02000800,e5fc,17139;2316,563924.100000000,0.0000394598770194,0.0001441570740228,0.0000678781777763,-0.0015845043510272,-0.0017622949592178,0.0016468421849688*cdfeb733
#CORRIMUDATAA,FILE,0,33.5,FINESTEERING,2316,563924.200,02000800,e5fc,17139;2316,563924.200000000,0.0000318681117826,-0.0000811441501055,-0.0000026786136092,-0.0017523112890019,0.0024402451500344,-0.0021322740135970*ba2e851e
#CORRIMUDATAA,FILE,0,33.5,FINESTEERING,2316,563924.300,02000800,e5fc,17139;2316,563924.300000000,-0.0000441794392140,0.0000551506799230,-0.0000063994222072,0.0027489231254053,0.0003863287557447,0.0014148441122054*cdde51da
#CORRIMUDATAA,FILE,0,33.5,FINESTEERING,2316,563924.350,02000800,e5fc,17139;2316,563924.350000000,-0.0000269903941644,0.0000346065664720,0.0000248707464214,0.0004352403807926,-0.0015760775361908,0.0007325199296642*657375aa
#CORRIMUDATAA,FILE,0,33.5,FINESTEERING,2316,563924.500,02000800,e5fc,17139;2316,563924.500000000,0.0000005802569791,-0.0000462598523062,-0.0000030563453205,0.0003809858436026,0.0013851745113307,-0.0002560460899657*3e87c1f0
#CORRIMUDATAA,FILE,0,33.5,FINESTEERING,2316,563924.800,02000800,e5fc,17139;2316,563924.800000000,-0.0000125326572629,0.0000296439220355,0.0000115715953907,-0.0000153507292995,0.0000214113165714,0.0020223493088882*a480f4ce
#CORRIMUDATAA,FILE,0,33.5,FINESTEERING,2316,563924.850,02000800,e5fc,17139;2316,563924.850000000,-0.0000101044996579,-0.0000097266412066,0.0000001727475757,-0.0008461168730047,0.0001818537515276,0.0020955860432310*6b1f4616
#CORRIMUDATAA,FILE,0,33.5,FINESTEERING,2316,563924.900,02000800,e5fc,17139;2316,563924.900000000,-0.0000007438364943,-0.0000241994521918,-0.0000107813029247,-0.0006804005656412,-0.0002419073629098,-0.0007309974486395*09404411
#CORRIMUDATAA,FILE,0,33.5,FINESTEERING,2316,563924.950,02000800,e5fc,17139;2316,563924.950000000,-0.0000011160802157,-0.0000191666221257,0.0000041976296611,0.0004956054791470,-0.0010367030718601,-0.0024532405827684*fa1f0838
#CORRIMUDATAA,FILE,0,33.5,FINESTEERING,2316,563925.000,02000800,e5fc,17139;2316,563925.000000000,-0.0000165928087828,-0.0000158718935445,0.0000127766600783,0.0008895623701792,0.0010036388569822,-0.0009249877869636*be8129a2
#CORRIMUDATAA,FILE,0,33.0,FINESTEERING,2316,563925.100,02000800,e5fc,17139;2316,563925.100000000,0.0000339254178890,0.0000403434333339,-0.0000049251804821,0.0002454759821203,-0.0014334548065107,0.0017224999512296*bafdd110
#CORRIMUDATAA,FILE,0,33.0,FINESTEERING,2316,563925.200,02000800,e5fc,17139;2316,563925.200000000,-0.0000061595766538,-0.0000089229895797,0.0000090973689990,-0.0014175364189317,0.0008518496143116,-0.0009398954076904*d427b487
#CORRIMUDATAA,FILE,0,33.0,FINESTEERING,2316,563925.250,02000800,e5fc,17139;2316,563925.250000000,0.0000164714327051,-0.0000015391932812,0.0000017727502349,-0.0000598568276051,0.0032519256104368,-0.0020278641708041*61175b1f
#CORRIMUDATAA,FILE,0,33.0,FINESTEERING,2316,563925.350,02000800,e5fc,17139;2316,563925.350000000,-0.0000410702795935,-0.0000336118393503,0.0000150252075796,-0.0005918069787604,-0.0050576952735869,0.0027828923895263*7df8a1b1
#CORRIMUDATAA,FILE,0,33.0,FINESTEERING,2316,563925.500,02000800,e5fc,17139;2316,563925.500000000,0.0000224799481535,-0.0000030636302358,0.0000591149515204,-0.0009314083786565,0.0040225292522023,0.0045195936663505*50cee72e
#CORRIMUDATAA,FILE,0,33.0,FINESTEERING,2316,563925.550,02000800,e5fc,17139;2316,563925.550000000,-0.0000643565380913,0.0000378416262601,0.0000286975647484,-0.0025210731931936,-0.0000602987838927,0.0020674861315530*71591d2c
#CORRIMUDATAA,FILE,0,33.0,FINESTEERING,2316,563925.600,02000800,e5fc,17139;2316,563925.600000000,-0.0000642006370736,0.0000022840882871,-0.0000122836997902,0.0010735063544415,-0.0025999052684121,-0.0021824417371376*d4d18159
#CORRIMUDATAA,FILE,0,33.0,FINESTEERING,2316,563925.650,02000800,e5fc,17139;2316,563925.650000000,0.0000352228474347,0.0000219424609559,-0.0000169462472082,0.0013885444754972,-0.0014099281956787,-0.0025362271884532*b32bffbc
#CORRIMUDATAA,FILE,0,33.0,FINESTEERING,2316,563925.700,02000800,e5fc,17139;2316,563925.700000000,0.0000612283455320,0.0001268087980153,-0.0000074471152385,0.0003189667541481,0.0027920268360865,0.0011496466197177*52388b49
#CORRIMUDATAA,FILE,0,33.0,FINESTEERING,2316,563925.750,02000800,e5fc,17139;2316,563925.750000000,-0.0000614387602393,0.0000801635713749,0.0000136771574122,-0.0006212384124324,-0.0009681559706891,0.0055161629651182*363c8256
#CORRIMUDATAA,FILE,0,33.0,FINESTEERING,2316,563925.800,02000800,e5fc,17139;2316,563925.800000000,-0.0000995255661504,-0.0000778741899342,-0.0000162655302954,-0.0031763050889133,-0.0032336222621705,0.0063647017884270*4f47a347
#CORRIMUDATAA,FILE,0,33.0,FINESTEERING,2316,563925.850,02000800,e5fc,17139;2316,563925.850000000,-0.0001731758846444,-0.0001724547464062,-0.0000717221874246,-0.0021125840098566,0.0043177010496858,0.0009196392756612*95cc0d23
#CORRIMUDATAA,FILE,0,33.0,FINESTEERING,2316,563925.900,02000800,e5fc,17139;2316,563925.900000000,-0.0002694554536172,-0.0002665206717148,-0.0000594516144536,0.0004106556627576,0.0006868311566359,-0.0031237735270591*b757eb64
#CORRIMUDATAA,FILE,0,33.0,FINESTEERING,2316,563925.950,02000800,e5fc,17139;2316,563925.950000000,-0.0001273813875449,-0.0002455625000359,0.0000105527394459,0.0014855580626006,-0.0039870564067891,-0.0046500195818108*785b771d
#CORRIMUDATAA,FILE,0,33.0,FINESTEERING,2316,563926.000,02000800,e5fc,17139;2316,563926.000000000,0.0000132789994583,-0.0000895661608979,0.0000205482106301,0.0028565930695379,-0.0006447326615116,-0.0061534111665470*d557e522
#CORRIMUDATAA,FILE,0,33.0,FINESTEERING,2316,563926.050,02000800,e5fc,17139;2316,563926.050000000,0.0000324259688515,0.0000225520421197,-0.0000013886249298,0.0018420098715464,0.0030328928699565,-0.0005665309718561*9e2656a3
#CORRIMUDATAA,FILE,0,32.0,FINESTEERING,2316,563926.100,02000800,e5fc,17139;2316,563926.100000000,0.0000228427565450,0.0001138109160964,-0.0000261870881318,0.0014554785136342,0.0015322241661811,0.0036306556278057*f6cd1a78
#CORRIMUDATAA,FILE,0,32.0,FINESTEERING,2316,563926.150,02000800,e5fc,17139;2316,563926.150000000,-0.0000102349907714,0.0001392586085622,0.0000218699824719,0.0022207866455947,-0.0023608635437884,0.0026855183110451*7a2dd902
#CORRIMUDATAA,FILE,0,32.0,FINESTEERING,2316,563926.200,02000800,e5fc,17139;2316,563926.200000000,-0.0000402436941424,0.0001291878495966,0.0001119567234492,-0.0002601142630470,-0.0029939391520092,0.0000823108228734*e0a36fa5
#CORRIMUDATAA,FILE,0,32.0,FINESTEERING,2316,563926.250,02000800,e5fc,17139;2316,563926.250000000,0.0000198583079715,0.0001399793817725,0.0001070753290687,-0.0029818686879186,0.0005559036061872,-0.0021070663901544*15f82a6c
#CORRIMUDATAA,FILE,0,32.0,FINESTEERING,2316,563926.300,02000800,e5fc,17139;2316,563926.300000000,0.0000556743117564,0.0001235882275980,0.0000178769664313,-0.0021100319466724,0.0024214157095802,0.0001480966150122*d266c165
#CORRIMUDATAA,FILE,0,32.0,FINESTEERING,2316,563926.350,02000800,e5fc,17139;2316,563926.350000000,0.0000022362782418,0.0000643199352597,-0.0000423641224040,0.0000781708919501,0.0005940709147232,0.0020287229003863*0b95252c
#CORRIMUDATAA,FILE,0,32.0,FINESTEERING,2316,563926.400,02000800,e5fc,17139;2316,563926.400000000,-0.0000634278491651,0.0000407919786224,-0.0000161068858118,0.0012501485488020,-0.0000771988573066,0.0004664549001595*c62052dd
#CORRIMUDATAA,FILE,0,32.0,FINESTEERING,2316,563926.450,02000800,e5fc,17139;2316,563926.450000000,-0.0000652242246191,0.0000259778462138,0.0000333485607023,-0.0002949425271330,-0.0000375375483871,-0.0013594840815238*4a3da08b
#CORRIMUDATAA,FILE,0,32.0,FINESTEERING,2316,563926.500,02000800,e5fc,17139;2316,563926.500000000,0.0000125753446712,-0.0000150754870996,0.0000308448703835,-0.0019192461659138,-0.0009613822334919,-0.0019215700407672*9fba5e89
#CORRIMUDATAA,FILE,0,32.0,FINESTEERING,2316,563926.550,02000800,e5fc,17139;2316,563926.550000000,0.0000368345329761,-0.0000431777027600,-0.0000075750756000,-0.0006944985305258,-0.0008132317208096,-0.0001806341600027*2ae8843a
#CORRIMUDATAA,FILE,0,32.0,FINESTEERING,2316,563926.600,02000800,e5fc,17139;2316,563926.600000000,0.0000299614436090,-0.0000238373693169,-0.0000178251943007,0.0010646201458535,0.0004828096724710,0.0007633286691432*70eceb64
#CORRIMUDATAA,FILE,0,32.0,FINESTEERING,2316,563926.650,02000800,e5fc,17139;2316,563926.650000000,-0.0000273357770063,0.0000128160332838,0.0000032166855042,0.0013418364741290,0.0013889011209402,0.0008129945202494*025ca367
#CORRIMUDATAA,FILE,0,32.0,FINESTEERING,2316,563926.700,02000800,e5fc,17139;2316,563926.700000000,-0.0000193011576480,0.0000327362519703,0.0000189845349195,0.0002235674842599,0.0005644735938155,0.0002157511531901*6e9d8af9
#CORRIMUDATAA,FILE,0,32.0,FINESTEERING,2316,563926.750,02000800,e5fc,17139;2316,563926.750000000,-0.0000283604633068,0.0000150455463298,0.0000154365217855,-0.0000547564140045,-0.0011723479501628,0.0001329823300948*8422f9f6
#CORRIMUDATAA,FILE,0,32.0,FINESTEERING,2316,563926.800,02000800,e5fc,17139;2316,563926.800000000,0.0000098846576982,0.0000084188608288,0.0000112602258234,-0.0005999595107929,-0.0007383923040565,-0.0010373179048239*12f818b8
#CORRIMUDATAA,FILE,0,32.0,FINESTEERING,2316,563926.850,02000800,e5fc,17139;2316,563926.850000000,0.0000138723318839,0.0000112028070925,-0.0000022101348587,-0.0007783133328153,-0.0000069741390697,-0.0002470829138079*016d29ca
#CORRIMUDATAA,FILE,0,32.0,FINESTEERING,2316,563926.900,02000800,e5fc,17139;2316,563926.900000000,0.0000114509085352,0.0000009222904892,-0.0000118556927183,-0.0001112238737755,0.0002135672931057,0.0002183289177201*cc7b2885
#CORRIMUDATAA,FILE,0,32.0,FINESTEERING,2316,563926.950,02000800,e5fc,17139;2316,563926.950000000,-0.0000119872238277,-0.0000217707848689,0.0000077923913656,0.0005131799990188,0.0009761029827188,-0.0001730888150914*8c91d95b
#CORRIMUDATAA,FILE,0,32.0,FINESTEERING,2316,563927.000,02000800,e5fc,17139;2316,563927.000000000,-0.0000272223347996,-0.0000273915542582,0.0000137597163562,-0.0000713266248559,-0.0000999038496839,0.0015081411305085*5ebb2ab5
#CORRIMUDATAA,FILE,0,32.0,FINESTEERING,2316,563927.050,02000800,e5fc,17139;2316,563927.050000000,0.0000068041855743,0.0000054665483150,0.0000063681150294,-0.0001162959593945,-0.0010873698070327,-0.0012354764651962*b5e095f5
#CORRIMUDATAA,FILE,0,22.5,FINESTEERING,2316,563927.100,02000800,e5fc,17139;2316,563927.100000000,0.0000271692823280,-0.0000003068634235,-0.0000104562923868,0.0003211610342865,-0.0004983721998272,-0.0014615169745976*9553c40f
#CORRIMUDATAA,FILE,0,22.5,FINESTEERING,2316,563927.150,02000800,e5fc,17139;2316,563927.150000000,0.0000658041172579,0.0000108332550500,-0.0000122035550502,0.0003802771973027,0.0003737952143145,-0.0010475025864014*9bab6f4e
#CORRIMUDATAA,FILE,0,22.5,FINESTEERING,2316,563927.200,02000800,e5fc,17139;2316,563927.200000000,0.0000818617113030,0.0000655118865413,0.0000127924809651,0.0012283950803622,0.0002103272708418,-0.0011150246259384*985a1aff
#CORRIMUDATAA,FILE,0,22.5,FINESTEERING,2316,563927.250,02000800,e5fc,17139;2316,563927.250000000,0.0000705006922181,0.0000474375951162,0.0000300721617636,-0.0008366103462526,0.0007276449538935,0.0001469476104371*57a9de0e
#CORRIMUDATAA,FILE,0,22.5,FINESTEERING,2316,563927.300,02000800,e5fc,17139;2316,563927.300000000,0.0000505065101847,0.0000232550009679,0.0000020091781024,-0.0010283424253461,0.0006520344430139,0.0030968736273562*180852a3
#CORRIMUDATAA,FILE,0,22.5,FINESTEERING,2316,563927.350,02000800,e5fc,17139;2316,563927.350000000,-0.0000225138476067,0.0000272968839960,-0.0000077228757501,0.0009084766529443,-0.0006123077475738,0.0018341481884850*e6936bf0
#CORRIMUDATAA,FILE,0,22.5,FINESTEERING,2316,563927.400,02000800,e5fc,17139;2316,563927.400000000,-0.0000220984990945,-0.0000031357619379,0.0000142358926292,0.0002808559836079,-0.0006649797033767,0.0000814769699651*5672ff95
#CORRIMUDATAA,FILE,0,22.5,FINESTEERING,2316,563927.450,02000800,e5fc,17139;2316,563927.450000000,-0.0000188599252525,0.0000016750514513,0.0000104907773039,-0.0009056340223736,-0.0001037482863462,-0.0012752316244611*d9b82336
#CORRIMUDATAA,FILE,0,22.5,FINESTEERING,2316,563927.500,02000800,e5fc,17139;2316,563927.500000000,0.0000247810006443,-0.0000104418370566,-0.0000039151728625,-0.0004026174736636,-0.0001269779988242,-0.0015434934370539*bc673e5f
#CORRIMUDATAA,FILE,0,22.5,FINESTEERING,2316,563927.550,02000800,e5fc,17139;2316,563927.550000000,0.0000336608209106,-0.0000234715156586,-0.0000061932215115,0.0004094666891707,0.0000486910223513,-0.0008605066920684*ddf4ed5b
#CORRIMUDATAA,FILE,0,22.5,FINESTEERING,2316,563927.600,02000800,e5fc,17139;2316,563927.600000000,0.0000280785416366,0.0000218877866993,0.0000063372547934,0.0009588822219725,-0.0003209119314048,0.0009446885201859*eb354f96
#CORRIMUDATAA,FILE,0,22.5,FINESTEERING,2316,563927.650,02000800,e5fc,17139;2316,563927.650000000,0.0000278351155695,0.0000209447558355,0.0000180486783668,0.0010027324370481,0.0004220810681252,0.0007693653126007*88aa45c5
#CORRIMUDATAA,FILE,0,22.5,FINESTEERING,2316,563927.700,02000800,e5fc,17139;2316,563927.700000000,0.0000167059292936,0.0000362397041541,0.0000221602618291,0.0000280522460635,0.0002030046982064,-0.0000920148002896*d2fc83cf
#CORRIMUDATAA,FILE,0,22.5,FINESTEERING,2316,563927.750,02000800,e5fc,17139;2316,563927.750000000,0.0000310360492260,0.0000550253474851,0.0000039681843190,-0.0009084703867066,-0.0000357607795385,-0.0007704005633956*9476328d
#CORRIMUDATAA,FILE,0,22.5,FINESTEERING,2316,563927.800,02000800,e5fc,17139;2316,563927.800000000,0.0000128656116148,0.0000173881283637,-0.0000013086138784,-0.0006042877759291,-0.0001061710967347,0.0001434955790540*7f941414
#CORRIMUDATAA,FILE,0,22.5,FINESTEERING,2316,563927.850,02000800,e5fc,17139;2316,563927.850000000,-0.0000011398769402,-0.0000203329822416,-0.0000010656367531,-0.0005673694391745,-0.0002550018119804,0.0013735857552471*981f8b27
#CORRIMUDATAA,FILE,0,22.5,FINESTEERING,2316,563927.900,02000800,e5fc,17139;2316,563927.900000000,-0.0000072681968050,-0.0000192951494409,-0.0000003505754812,-0.0001503248247562,0.0000512777570932,0.0005260558292475*3c7dfd79
#CORRIMUDATAA,FILE,0,22.5,FINESTEERING,2316,563927.950,02000800,e5fc,17139;2316,563927.950000000,-0.0000229303043793,-0.0000252395369821,0.0000045704182618,0.0002897837027555,0.0004054145816872,0.0006637481185295*c3d23b37
#CORRIMUDATAA,FILE,0,22.5,FINESTEERING,2316,563928.000,02000800,e5fc,17139;2316,563928.000000000,-0.0000361946701868,-0.0000104819519014,-0.0000051526285734,-0.0002801445348873,-0.0001350829044434,-0.0000912667708623*c3becc12
#CORRIMUDATAA,FILE,0,22.5,FINESTEERING,2316,563928.050,02000800,e5fc,17139;2316,563928.050000000,-0.0000409481269702,-0.0000054770602409,-0.0000063558065614,0.0006136470656393,-0.0003700818758529,-0.0007403840565185*b2abf866
#CORRIMUDATAA,FILE,0,22.5,FINESTEERING,2316,563928.100,02000800,e5fc,17139;2316,563928.100000000,-0.0000064140412453,-0.0000020235611105,0.0000095125281521,0.0003737594336058,-0.0001467255265849,-0.0002624274581860*a7e1a787
#CORRIMUDATAA,FILE,0,30.0,FINESTEERING,2316,563928.150,02000800,e5fc,17139;2316,563928.150000000,-0.0000127747983043,0.0000094913429496,0.0000091916982075,-0.0004818263040894,-0.0002691318475340,0.0005040762715188*3c5045e6
#CORRIMUDATAA,FILE,0,30.0,FINESTEERING,2316,563928.200,02000800,e5fc,17139;2316,563928.200000000,-0.0000117075042595,-0.0000077534800737,0.0000045887160190,-0.0001747189110104,0.0000498481571173,-0.0006749872527176*0ca9bb1a
#CORRIMUDATAA,FILE,0,30.0,FINESTEERING,2316,563928.250,02000800,e5fc,17139;2316,563928.250000000,-0.0000112699825207,-0.0000137826575606,-0.0000032765127281,-0.0003607622918594,0.0003586510327834,0.0001683760044401*c06e201d
#CORRIMUDATAA,FILE,0,30.0,FINESTEERING,2316,563928.300,02000800,e5fc,17139;2316,563928.300000000,-0.0000406153750334,-0.0000023657925066,0.0000002459690900,0.0000884515328546,-0.0001945475715619,0.0014598448287629*018658f5
#CORRIMUDATAA,FILE,0,30.0,FINESTEERING,2316,563928.350,02000800,e5fc,17139;2316,563928.350000000,-0.0000598461530229,-0.0000072308922810,0.0000059574734666,0.0006840926655713,-0.0006647416918350,0.0007515519491299*629d834d
#CORRIMUDATAA,FILE,0,30.0,FINESTEERING,2316,563928.400,02000800,e5fc,17139;2316,563928.400000000,0.0006773423649570,0.0001241940114542,0.0000080340392243,-0.0002903615277741,0.0038684211146338,-0.0122735859056638*cc48f29a
#CORRIMUDATAA,FILE,0,30.0,FINESTEERING,2316,563928.450,02000800,e5fc,17139;2316,563928.450000000,0.0000160587582535,-0.0001769202536512,-0.0000226514872718,0.0010061854808596,-0.0035545678855075,0.0201960857657112*8106123b
#CORRIMUDATAA,FILE,0,30.0,FINESTEERING,2316,563928.500,02000800,e5fc,17139;2316,563928.500000000,-0.0003468416908039,-0.0000641419550933,0.0000037786105283,-0.0016541902546815,-0.0058139703509202,0.0144488776845015*f0ac25da
#CORRIMUDATAA,FILE,0,30.0,FINESTEERING,2316,563928.550,02000800,e5fc,17139;2316,563928.550000000,-0.0003429558412995,0.0001046853066814,0.0000210480056869,0.0024371201955103,0.0015494710388500,-0.0052936784845466*2f513039
#CORRIMUDATAA,FILE,0,30.0,FINESTEERING,2316,563928.600,02000800,e5fc,17139;2316,563928.600000000,-0.0001842177698698,-0.0000499751621700,0.0000129295472578,-0.0008887830963477,0.0010985729700635,-0.0054548100704987*381ed3b0
#CORRIMUDATAA,FILE,0,30.0,FINESTEERING,2316,563928.650,02000800,e5fc,17139;2316,563928.650000000,-0.0001675563183988,-0.0000586317920075,-0.0000107044500599,-0.0034705821003664,-0.0009007796466726,-0.0054557740908207*40779ad9
#CORRIMUDATAA,FILE,0,30.0,FINESTEERING,2316,563928.700,02000800,e5fc,17139;2316,563928.700000000,0.0000114441869170,-0.0000048062450254,-0.0000149822468664,0.0016372283781698,0.0012186546734985,-0.0115031052020936*2864400a
#CORRIMUDATAA,FILE,0,30.0,FINESTEERING,2316,563928.750,02000800,e5fc,17139;2316,563928.750000000,0.0000517543241444,0.0000115358681206,0.0000212281287112,0.0010331351987684,0.0017907176959186,-0.0042113111292714*94a80c05
#CORRIMUDATAA,FILE,0,30.0,FINESTEERING,2316,563928.800,02000800,e5fc,17139;2316,563928.800000000,0.0000988669749577,0.0000309325688195,0.0000281570888717,-0.0005386748548033,0.0004962633583253,0.0030283308772642*6a93ea3c
#CORRIMUDATAA,FILE,0,30.0,FINESTEERING,2316,563928.850,02000800,e5fc,17139;2316,563928.850000000,0.0000560074067778,0.0000217052124314,-0.0000033866361856,0.0005470956541797,-0.0011503432632008,0.0030510174679514*60d7d762
#CORRIMUDATAA,FILE,0,30.0,FINESTEERING,2316,563928.900,02000800,e5fc,17139;2316,563928.900000000,0.0000277908103528,0.0000023939938145,-0.0000079408612153,-0.0001550926868120,-0.0012349087288779,0.0001247411418157*cd43cc97
#CORRIMUDATAA,FILE,0,30.0,FINESTEERING,2316,563928.950,02000800,e5fc,17139;2316,563928.950000000,0.0000355819379716,0.0000216248625119,0.0000069659218229,-0.0006916689124774,0.0002721070457189,-0.0007364035719606*947d64ba
#CORRIMUDATAA,FILE,0,30.0,FINESTEERING,2316,563929.000,02000800,e5fc,17139;2316,563929.000000000,0.0000187228664206,-0.0000156779838457,0.0000097957851480,-0.0007194902584646,0.0006312202016510,-0.0018524835305325*9dc7a73f
#CORRIMUDATAA,FILE,0,30.0,FINESTEERING,2316,563929.050,02000800,e5fc,17139;2316,563929.050000000,0.0000175871337090,-0.0000400704657533,0.0000058379185200,-0.0000474566358323,-0.0001751936993577,-0.0002964687012884*6a32ff6d
#CORRIMUDATAA,FILE,0,24.5,FINESTEERING,2316,563929.100,02000800,e5fc,17139;2316,563929.100000000,0.0000155135962642,0.0000058099671899,0.0000005384357170,0.0007398299237951,0.0000918709309750,0.0017250455333909*2839437a
#CORRIMUDATAA,FILE,0,24.5,FINESTEERING,2316,563929.150,02000800,e5fc,17139;2316,563929.150000000,-0.0000002568658572,0.0000238829944883,0.0000034695997027,0.0009910512999110,0.0001199094267019,0.0019261686632303*f4b1638a
#CORRIMUDATAA,FILE,0,24.5,FINESTEERING,2316,563929.200,02000800,e5fc,17139;2316,563929.200000000,-0.0000093149065747,-0.0000004049952263,0.0000060338731602,-0.0001832082044553,-0.0005490283972792,-0.0000507028864129*2196759a
#CORRIMUDATAA,FILE,0,24.5,FINESTEERING,2316,563929.250,02000800,e5fc,17139;2316,563929.250000000,0.0000078168440454,0.0000085679977963,-0.0000022935299445,-0.0010036655335192,-0.0002467889676383,-0.0002890502017653*7e704693
#CORRIMUDATAA,FILE,0,24.5,FINESTEERING,2316,563929.300,02000800,e5fc,17139;2316,563929.300000000,-0.0000044842628756,-0.0000040107261394,0.0000047531579392,0.0003504593778999,0.0000069861446461,-0.0001299398245833*1759c927
#CORRIMUDATAA,FILE,0,24.5,FINESTEERING,2316,563929.350,02000800,e5fc,17139;2316,563929.350000000,-0.0000000456833214,-0.0000182158013389,0.0000119506107665,-0.0001275706952879,0.0001409991538895,-0.0001796472101962*4925c5cb
#CORRIMUDATAA,FILE,0,24.5,FINESTEERING,2316,563929.400,02000800,e5fc,17139;2316,563929.400000000,-0.0000081173118205,0.0000006656627082,-0.0000016821254674,-0.0000796764629444,-0.0000021394728312,0.0006809454789362*e5465a9b
#CORRIMUDATAA,FILE,0,24.5,FINESTEERING,2316,563929.450,02000800,e5fc,17139;2316,563929.450000000,0.0000046357441933,-0.0000007091334676,-0.0000089788386211,0.0006060586606592,-0.0003856364788614,0.0009886091559570*1aac6860
#CORRIMUDATAA,FILE,0,24.5,FINESTEERING,2316,563929.500,02000800,e5fc,17139;2316,563929.500000000,-0.0000006533502444,-0.0000054010835782,-0.0000007415737525,0.0002293820714884,-0.0001212714632739,-0.0003293984265344*ed24354e
#CORRIMUDATAA,FILE,0,24.5,FINESTEERING,2316,563929.550,02000800,e5fc,17139;2316,563929.550000000,0.0000078837057703,-0.0000189698884076,0.0000083213120411,-0.0004664485780109,-0.0001692068107962,-0.0010690523916322*74628dd3
#CORRIMUDATAA,FILE,0,24.5,FINESTEERING,2316,563929.600,02000800,e5fc,17139;2316,563929.600000000,0.0000195623445400,-0.0000157963160888,-0.0000093441740462,-0.0008095274619663,0.0001617428580833,-0.0002408247463462*8ea5ddb9
#CORRIMUDATAA,FILE,0,24.5,FINESTEERING,2316,563929.650,02000800,e5fc,17139;2316,563929.650000000,0.0000133966126502,-0.0000197979592847,-0.0000140528904104,0.0005555907566158,0.0008441097453092,0.0004495111874439*fbbeccb6
#CORRIMUDATAA,FILE,0,24.5,FINESTEERING,2316,563929.700,02000800,e5fc,17139;2316,563929.700000000,-0.0000079028122083,-0.0000580165621086,-0.0000061659671728,-0.0003381423864471,-0.0004720177990328,0.0006072911751208*8d57d7d8
#CORRIMUDATAA,FILE,0,24.5,FINESTEERING,2316,563929.750,02000800,e5fc,17139;2316,563929.750000000,-0.0000067642169195,0.0000034096566993,-0.0000012278173298,0.0002577946521725,-0.0010230486099393,0.0010668618016124*79412f4d
#CORRIMUDATAA,FILE,0,24.5,FINESTEERING,2316,563929.800,02000800,e5fc,17139;2316,563929.800000000,-0.0000059427309362,-0.0000048150935663,0.0000259978740651,0.0007247297118365,0.0000083207453821,-0.0002857504115590*2edaf07b
#CORRIMUDATAA,FILE,0,24.5,FINESTEERING,2316,563929.850,02000800,e5fc,17139;2316,563929.850000000,0.0000120809600390,-0.0000152491952564,0.0000104995178586,-0.0013688187040973,0.0004670048638811,-0.0005724697209978*06a5e98f
#CORRIMUDATAA,FILE,0,24.5,FINESTEERING,2316,563929.900,02000800,e5fc,17139;2316,563929.900000000,-0.0000090641324087,-0.0000026360061431,-0.0000166651241417,-0.0001831702291266,0.0005519707133915,0.0003213918393668*8bdebd2a
#CORRIMUDATAA,FILE,0,24.5,FINESTEERING,2316,563929.950,02000800,e5fc,17139;2316,563929.950000000,-0.0000150225175614,0.0000321976176466,0.0000010506013209,0.0014463956443239,-0.0003356695883478,0.0014575501533642*07f4322b
#CORRIMUDATAA,FILE,0,24.5,FINESTEERING,2316,563930.000,02000800,e5fc,17139;2316,563930.000000000,-0.0000339495831501,0.0000305054693180,0.0000339108462507,0.0006190313822701,-0.0008060426462522,-0.0001318150480424*c2c87317
#CORRIMUDATAA,FILE,0,24.5,FINESTEERING,2316,563930.050,02000800,e5fc,17139;2316,563930.050000000,0.0000368923875963,-0.0000689063580955,0.0000283974490107,-0.0016758890932280,0.0002087828670654,-0.0044553148639940*4b000446
#CORRIMUDATAA,FILE,0,24.5,FINESTEERING,2316,563930.100,02000800,e5fc,17139;2316,563930.100000000,0.0000772207186455,-0.0001498368006021,-0.0000313727493519,-0.0038609988731354,0.0017539366217079,-0.0011945149313383*2de8b8a2
#CORRIMUDATAA,FILE,0,30.5,FINESTEERING,2316,563930.150,02000800,e5fc,17139;2316,563930.150000000,0.0000131910303038,-0.0000562845920733,-0.0000632955440519,0.0014814962707794,-0.0000775581640363,0.0038697788740192*c128670f
#CORRIMUDATAA,FILE,0,30.5,FINESTEERING,2316,563930.200,02000800,e5fc,17139;2316,563930.200000000,0.0000357604110432,-0.0001177240441414,0.0000075000413920,0.0030095490951155,0.0018686913392585,-0.0066725635787164*a1ece0ee
#CORRIMUDATAA,FILE,0,30.5,FINESTEERING,2316,563930.250,02000800,e5fc,17139;2316,563930.250000000,0.0001233380756343,-0.0002184627903652,0.0000195562579886,0.0008829439727256,0.0012432976253408,-0.0048111438652823*c01da94c
#CORRIMUDATAA,FILE,0,30.5,FINESTEERING,2316,563930.300,02000800,e5fc,17139;2316,563930.300000000,0.0001069583288735,-0.0004892254209079,0.0000160249725104,-0.0028466873724811,0.0008698912209971,-0.0153555613056928*e15a49c4
#CORRIMUDATAA,FILE,0,30.5,FINESTEERING,2316,563930.350,02000800,e5fc,17139;2316,563930.350000000,0.0003032623121756,0.0000330225211284,-0.0001231836594451,-0.0062253874074047,0.0019763653658708,0.0129848193095480*bcbb024d
#CORRIMUDATAA,FILE,0,30.5,FINESTEERING,2316,563930.400,02000800,e5fc,17139;2316,563930.400000000,0.0001351958958991,-0.0000619038824388,0.0000081207501905,0.0123496376225427,-0.0029591552013249,0.0027711250730231*136f9a44
#CORRIMUDATAA,FILE,0,30.5,FINESTEERING,2316,563930.450,02000800,e5fc,17139;2316,563930.450000000,0.0002227606627536,-0.0003888001249847,0.0001486667065887,0.0021804117912054,-0.0001582907620643,-0.0060126118217173*f57c7e5d
#CORRIMUDATAA,FILE,0,30.5,FINESTEERING,2316,563930.500,02000800,e5fc,17139;2316,563930.500000000,0.0003428055669715,-0.0003927259869809,0.0001370018375489,-0.0059184371379381,0.0051272243423573,-0.0112120396159052*5c64c08d
#CORRIMUDATAA,FILE,0,30.5,FINESTEERING,2316,563930.550,02000800,e5fc,17139;2316,563930.550000000,0.0005884991688657,-0.0002937259605804,0.0000070724314275,-0.0083368532026901,0.0029150942565661,-0.0149354008099926*8329a339
#CORRIMUDATAA,FILE,0,30.5,FINESTEERING,2316,563930.600,02000800,e5fc,17139;2316,563930.600000000,0.0008690377791012,-0.0005414047581894,-0.0000778730484885,-0.0024454085027253,-0.0010165791637291,-0.0203317236478652*dc655b20
#CORRIMUDATAA,FILE,0,30.5,FINESTEERING,2316,563930.650,02000800,e5fc,17139;2316,563930.650000000,0.0010317976234145,-0.0009181632557181,0.0000051993451242,0.0049754137658051,-0.0066331944641804,-0.0097334561208899*77318071
#CORRIMUDATAA,FILE,0,30.5,FINESTEERING,2316,563930.700,02000800,e5fc,17139;2316,563930.700000000,0.0010799219977416,-0.0007032052539444,0.0001701586779201,0.0066697501570497,-0.0106880695155030,0.0038338778203008*76dc4dcf
#CORRIMUDATAA,FILE,0,30.5,FINESTEERING,2316,563930.750,02000800,e5fc,17139;2316,563930.750000000,0.0010267236209074,-0.0003182795321824,0.0002193839148378,0.0007580115419847,-0.0118181566863526,0.0074865321940787*12cc6c12
#CORRIMUDATAA,FILE,0,30.5,FINESTEERING,2316,563930.800,02000800,e5fc,17139;2316,563930.800000000,0.0009007787061265,0.0000266275636920,-0.0000398619270994,-0.0075318335659615,-0.0061581933190813,0.0213333617217997*6f60010d
#CORRIMUDATAA,FILE,0,30.5,FINESTEERING,2316,563930.850,02000800,e5fc,17139;2316,563930.850000000,0.0005337850099854,0.0004112241117439,-0.0003128007537776,-0.0004937263590031,-0.0008888713635784,0.0306158669674341*fbe17e7f
#CORRIMUDATAA,FILE,0,30.5,FINESTEERING,2316,563930.900,02000800,e5fc,17139;2316,563930.900000000,0.0000143893229598,0.0005958604113958,-0.0002728376064900,0.0098488210086420,0.0008320203178467,0.0300864343448720*630bc9e9
#CORRIMUDATAA,FILE,0,30.5,FINESTEERING,2316,563930.950,02000800,e5fc,17139;2316,563930.950000000,-0.0004329597462838,0.0007244455661152,-0.0000047879968683,0.0066532469006998,0.0010550535194564,0.0204718264467577*7207e4f0
#CORRIMUDATAA,FILE,0,30.5,FINESTEERING,2316,563931.000,02000800,e5fc,17139;2316,563931.000000000,-0.0006807904110018,0.0006782676847959,0.0002031186676442,0.0001369378279968,0.0005684826231638,0.0086931168550061*a9d9fe3a
#CORRIMUDATAA,FILE,0,30.5,FINESTEERING,2316,563931.050,02000800,e5fc,17139;2316,563931.050000000,-0.0007063821230248,0.0002995896102842,0.0001981260300814,-0.0043397660557785,0.0006822075139789,-0.0054662459028927*68371ab7
#CORRIMUDATAA,FILE,0,29.0,FINESTEERING,2316,563931.100,02000800,e5fc,17139;2316,563931.100000000,-0.0005424586101828,0.0000397029545065,0.0000583801561571,-0.0068676505159332,0.0004886301103792,-0.0163643896911568*6722773b
#CORRIMUDATAA,FILE,0,29.0,FINESTEERING,2316,563931.150,02000800,e5fc,17139;2316,563931.150000000,-0.0003110556570327,0.0000717985447757,-0.0000761076110661,-0.0021286884144438,-0.0004984130698619,-0.0189662588379911*a719f292
#CORRIMUDATAA,FILE,0,29.0,FINESTEERING,2316,563931.200,02000800,e5fc,17139;2316,563931.200000000,-0.0000160280459026,0.0000865709980381,-0.0000802310029185,0.0011017676752868,0.0006530120705510,-0.0166704437996809*fe57f86c
#CORRIMUDATAA,FILE,0,29.0,FINESTEERING,2316,563931.250,02000800,e5fc,17139;2316,563931.250000000,0.0002154358105200,0.0000506285919574,-0.0000531040826117,-0.0003945430897351,0.0022789995428788,-0.0090263387846616*88d2dde5
#CORRIMUDATAA,FILE,0,29.0,FINESTEERING,2316,563931.300,02000800,e5fc,17139;2316,563931.300000000,0.0003370406017456,0.0000283700110009,-0.0000203402511545,0.0010306458785566,0.0033696025822786,-0.0027534972088149*553cc304
#CORRIMUDATAA,FILE,0,29.0,FINESTEERING,2316,563931.350,02000800,e5fc,17139;2316,563931.350000000,0.0003672721468547,-0.0000253771748799,0.0000221450228299,0.0012878819200787,0.0019761432372955,0.0002959880714980*f2190888
#CORRIMUDATAA,FILE,0,29.0,FINESTEERING,2316,563931.400,02000800,e5fc,17139;2316,563931.400000000,0.0002587590041368,-0.0000794120416782,0.0000648707619330,0.0020351436010846,0.0003771800960608,0.0059682286064906*0c9896ea
#CORRIMUDATAA,FILE,0,29.0,FINESTEERING,2316,563931.450,02000800,e5fc,17139;2316,563931.450000000,0.0000196261147224,0.0000656341295506,0.0001284188777626,0.0161354868564521,0.0014092675892887,0.0102958065916695*dc19d656
#CORRIMUDATAA,FILE,0,29.0,FINESTEERING,2316,563931.500,02000800,e5fc,17139;2316,563931.500000000,0.0000438046895349,0.0004567839160667,0.0001473652681810,-0.0167215429193402,0.0000302216394759,0.0030781114979789*dd2d7ba4
#CORRIMUDATAA,FILE,0,29.0,FINESTEERING,2316,563931.550,02000800,e5fc,17139;2316,563931.550000000,0.0000237400817151,0.0001788437565447,-0.0002470710079663,-0.0152858776381851,-0.0000270015734651,0.0003929759486443*eed53a83
#CORRIMUDATAA,FILE,0,29.0,FINESTEERING,2316,563931.600,02000800,e5fc,17139;2316,563931.600000000,0.0000362352315993,-0.0001895349408575,-0.0002621779913739,0.0038103172516114,0.0018437940177748,0.0001623701333447*0c4c0362
#CORRIMUDATAA,FILE,0,29.0,FINESTEERING,2316,563931.650,02000800,e5fc,17139;2316,563931.650000000,-0.0000069545567183,-0.0002904597178258,0.0000232291679957,0.0106814242850536,0.0016903174611576,0.0017609238466518*e06d2fed
#CORRIMUDATAA,FILE,0,29.0,FINESTEERING,2316,563931.700,02000800,e5fc,17139;2316,563931.700000000,-0.0000478693245325,-0.0001579597873736,0.0002479454759152,0.0044873965076699,0.0019219034351436,0.0005621568773397*a7e942d8
#CORRIMUDATAA,FILE,0,29.0,FINESTEERING,2316,563931.750,02000800,e5fc,17139;2316,563931.750000000,-0.0000738424182632,-0.0001142103407568,0.0001570939896530,-0.0051549596279885,0.0022119064353666,-0.0011251224903144*b0c224c8
#CORRIMUDATAA,FILE,0,29.0,FINESTEERING,2316,563931.800,02000800,e5fc,17139;2316,563931.800000000,-0.0000514823888757,-0.0000984477901148,-0.0001013783431572,-0.0057325433090256,0.0026224669130780,-0.0016900253363377*376b81fd
#CORRIMUDATAA,FILE,0,29.0,FINESTEERING,2316,563931.850,02000800,e5fc,17139;2316,563931.850000000,0.0001739035825530,-0.0000019329543555,-0.0001988634984433,0.0004207964949768,0.0120403380829625,-0.0050041219062999*1ab4c60b
#CORRIMUDATAA,FILE,0,29.0,FINESTEERING,2316,563931.900,02000800,e5fc,17139;2316,563931.900000000,0.0003944133512208,0.0000570151208852,-0.0000933135179165,0.0048169857241131,0.0264244429224042,-0.0134292316249118*62b6e66a
#CORRIMUDATAA,FILE,0,29.0,FINESTEERING,2316,563931.950,02000800,e5fc,17139;2316,563931.950000000,0.0009315115380529,-0.0000217942581950,0.0000543517968163,0.0002060232648797,0.0515511780719795,-0.0205878439719656*c89fec1d
#CORRIMUDATAA,FILE,0,29.0,FINESTEERING,2316,563932.000,02000800,e5fc,17139;2316,563932.000000000,0.0013168328145928,-0.0001929974586547,0.0001232552419400,-0.0031534256845661,0.0479195027815387,-0.0073159223694447*b0ed40a0
#CORRIMUDATAA,FILE,0,29.0,FINESTEERING,2316,563932.050,02000800,e5fc,17139;2316,563932.050000000,0.0013227293870289,-0.0003376134867924,-0.0000239884971765,-0.0068807866554729,0.0555969096187302,0.0014668951524899*7924d7a0
#CORRIMUDATAA,FILE,0,29.0,FINESTEERING,2316,563932.100,02000800,e5fc,17139;2316,563932.100000000,0.0011582645841154,-0.0003331912216391,-0.0000686581508322,-0.0009003646721626,0.0532720832131944,0.0169108130351933*e1cacf46
#CORRIMUDATAA,FILE,0,29.0,FINESTEERING,2316,563932.150,02000800,e5fc,17139;2316,563932.150000000,0.0006705299519249,-0.0003900210572428,-0.0000384206834862,0.0037085150441023,0.0498559550234687,0.0140992012016522*c84bff79
#CORRIMUDATAA,FILE,0,29.0,FINESTEERING,2316,563932.200,02000800,e5fc,17139;2316,563932.200000000,0.0003758863570152,-0.0005733557125723,0.0001366960128744,0.0023890673929060,0.0533483934945109,0.0116773493675569*f988c775
#CORRIMUDATAA,FILE,0,29.0,FINESTEERING,2316,563932.250,02000800,e5fc,17139;2316,563932.250000000,0.0000764352423433,-0.0004410233569741,0.0001789845784868,-0.0012182795853307,0.0473169418502888,0.0084828508582919*754cab19
#CORRIMUDATAA,FILE,0,29.0,FINESTEERING,2316,563932.300,02000800,e5fc,17139;2316,563932.300000000,0.0000154729825120,-0.0001160744277536,0.0001602492585446,0.0004536795869224,0.0535096617171543,0.0091963232682724*c4c7c21c
#CORRIMUDATAA,FILE,0,29.0,FINESTEERING,2316,563932.350,02000800,e5fc,17139;2316,563932.350000000,0.0000033790447194,-0.0001685763040078,0.0001341509940986,0.0029297073292468,0.0484429901829804,-0.0004152647598786*c709239b
#CORRIMUDATAA,FILE,0,29.0,FINESTEERING,2316,563932.400,02000800,e5fc,17139;2316,563932.400000000,-0.0000678321660759,-0.0002236037666825,0.0000510990258799,-0.0041622737550216,0.0501621102178883,-0.0006256876996600*fef0ca09
#CORRIMUDATAA,FILE,0,29.0,FINESTEERING,2316,563932.450,02000800,e5fc,17139;2316,563932.450000000,-0.0000465372878831,-0.0000194452341356,-0.0000204264179660,-0.0055808769888985,0.0534619197566862,-0.0067493780493094*b62ba185
#CORRIMUDATAA,FILE,0,29.0,FINESTEERING,2316,563932.500,02000800,e5fc,17139;2316,563932.500000000,0.0001317026032873,-0.0001141186424346,-0.0000260839479506,-0.0023842489458543,0.0598059560862214,-0.0124742343520508*d4316e51
#CORRIMUDATAA,FILE,0,29.0,FINESTEERING,2316,563932.550,02000800,e5fc,17139;2316,563932.550000000,0.0003875738992053,-0.0003568653891773,0.0000501274080912,-0.0006045100217493,0.0652607832305276,-0.0165824002737653*25251dee
#CORRIMUDATAA,FILE,0,29.0,FINESTEERING,2316,563932.600,02000800,e5fc,17139;2316,563932.600000000,0.0008896452949372,-0.0002805615952623,0.0001647825262315,0.0002220634373955,0.0789076393285630,-0.0097008882637045*d8c098ae
#CORRIMUDATAA,FILE,0,29.0,FINESTEERING,2316,563932.650,02000800,e5fc,17139;2316,563932.650000000,0.0011163661698873,-0.0002974897069487,0.0003530590587164,0.0063613665177014,0.0738175811250237,-0.0075645635507516*94777c35
#CORRIMUDATAA,FILE,0,29.0,FINESTEERING,2316,563932.700,02000800,e5fc,17139;2316,563932.700000000,0.0013078668323684,-0.0003750040360971,0.0005450700373076,0.0023816488882003,0.0887208422879851,0.0002169590143336*48932280
#CORRIMUDATAA,FILE,0,29.0,FINESTEERING,2316,563932.750,02000800,e5fc,17139;2316,563932.750000000,0.0013442176390767,-0.0002243985640999,0.0006804125493263,0.0005117866970486,0.0823228598387814,0.0024422020674065*5abab9dd
#CORRIMUDATAA,FILE,0,29.0,FINESTEERING,2316,563932.800,02000800,e5fc,17139;2316,563932.800000000,0.0010508955842207,-0.0000386453340413,0.0006265701565780,-0.0046048343244487,0.0807315722594079,0.0160371218500514*24815869
#CORRIMUDATAA,FILE,0,29.0,FINESTEERING,2316,563932.850,02000800,e5fc,17139;2316,563932.850000000,0.0007712902085208,0.0000561320943895,0.0005521073298765,-0.0056874415929111,0.0787709272609682,0.0094313187378468*203e82bb
#CORRIMUDATAA,FILE,0,29.0,FINESTEERING,2316,563932.900,02000800,e5fc,17139;2316,563932.900000000,0.0002263919057027,0.0001277269433968,0.0005691687762413,0.0006126687470399,0.0658904525514049,0.0153535805292313*81f8373c
#CORRIMUDATAA,FILE,0,29.0,FINESTEERING,2316,563932.950,02000800,e5fc,17139;2316,563932.950000000,-0.0001498954336509,0.0000156889913289,0.0008502247117189,0.0049516258477324,0.0544322768654048,0.0138821219291424*6dde7d21
#CORRIMUDATAA,FILE,0,29.0,FINESTEERING,2316,563933.000,02000800,e5fc,17139;2316,563933.000000000,-0.0005000929557686,-0.0001196743270084,0.0010637366259192,0.0011909732504545,0.0376737820111985,0.0064164487083549*d06d0940
#CORRIMUDATAA,FILE,0,29.0,FINESTEERING,2316,563933.050,02000800,e5fc,17139;2316,563933.050000000,-0.0006638106208580,-0.0000846333729309,0.0012215166723433,-0.0068000096970425,0.0274255388208805,0.0018987451687456*6e76e57b
#CORRIMUDATAA,FILE,0,28.5,FINESTEERING,2316,563933.100,02000800,e5fc,17139;2316,563933.100000000,-0.0005305326178187,0.0000767069110598,0.0012578553729156,-0.0064418117115335,0.0262592401519520,-0.0104772403271833*49bc2dbe
#CORRIMUDATAA,FILE,0,28.5,FINESTEERING,2316,563933.150,02000800,e5fc,17139;2316,563933.150000000,-0.0000537592881593,0.0001665160095520,0.0013305256650143,0.0044821654747040,0.0393912949591563,-0.0209851415783380*e7e7cbc3
#CORRIMUDATAA,FILE,0,28.5,FINESTEERING,2316,563933.200,02000800,e5fc,17139;2316,563933.200000000,0.0007959627661711,0.0003383592672577,0.0016086455221278,0.0065391295018860,0.0555156681923818,-0.0342555537962225*58f4012e
#CORRIMUDATAA,FILE,0,28.5,FINESTEERING,2316,563933.250,02000800,e5fc,17139;2316,563933.250000000,0.0016971207381659,0.0007519390751019,0.0018498325346953,0.0014262524124532,0.0695393112702771,-0.0386647839138036*56f23a5a
#CORRIMUDATAA,FILE,0,28.5,FINESTEERING,2316,563933.300,02000800,e5fc,17139;2316,563933.300000000,0.0022328714235341,0.0010501430159953,0.0019188756630964,-0.0030020955674685,0.0665425391715288,-0.0171439100450063*1a3fc400
#CORRIMUDATAA,FILE,0,28.5,FINESTEERING,2316,563933.350,02000800,e5fc,17139;2316,563933.350000000,0.0021448521874377,0.0010475066961393,0.0019953817171226,0.0022100199230071,0.0523334220796407,0.0152617066434003*98ab49b4
#CORRIMUDATAA,FILE,0,28.5,FINESTEERING,2316,563933.400,02000800,e5fc,17139;2316,563933.400000000,0.0013396382071777,0.0005952312403693,0.0020533600511018,-0.0066619263430189,0.0370790854324150,0.0413618569985461*38caeada
#CORRIMUDATAA,FILE,0,28.5,FINESTEERING,2316,563933.450,02000800,e5fc,17139;2316,563933.450000000,0.0001520002925449,0.0000836996380001,0.0018728446291483,-0.0280015677998694,0.0269486412706389,0.0517399036250486*7d0cdcea
#CORRIMUDATAA,FILE,0,28.5,FINESTEERING,2316,563933.500,02000800,e5fc,17139;2316,563933.500000000,-0.0008942566903955,-0.0005007183060829,0.0015603930006903,-0.0173935773582701,0.0212275540298085,0.0427040393714359*4767f319
#CORRIMUDATAA,FILE,0,28.5,FINESTEERING,2316,563933.550,02000800,e5fc,17139;2316,563933.550000000,-0.0014081035679810,-0.0012587086580766,0.0016433092947555,0.0041655681470937,0.0235931306086338,0.0211267934070998*b89a831c
#CORRIMUDATAA,FILE,0,28.5,FINESTEERING,2316,563933.600,02000800,e5fc,17139;2316,563933.600000000,-0.0014495593532972,-0.0015355398965643,0.0019479401883982,0.0026220269383953,0.0313807533262091,-0.0023646162603271*fbae0a56
#CORRIMUDATAA,FILE,0,28.5,FINESTEERING,2316,563933.650,02000800,e5fc,17139;2316,563933.650000000,-0.0009284765473658,-0.0010933385970578,0.0020563474553856,-0.0062671028749482,0.0478625359884866,-0.0254117960199250*78bf8cf8
#CORRIMUDATAA,FILE,0,28.5,FINESTEERING,2316,563933.700,02000800,e5fc,17139;2316,563933.700000000,0.0000198637827350,-0.0006338794949454,0.0018603618918590,-0.0059687396427348,0.0695646487147035,-0.0495141697273904*9e4a3cb9
#CORRIMUDATAA,FILE,0,28.5,FINESTEERING,2316,563933.750,02000800,e5fc,17139;2316,563933.750000000,0.0009696423139720,-0.0006690760205480,0.0015670591535162,-0.0030082468879700,0.0808577915157939,-0.0369064740753630*d00505e7
#CORRIMUDATAA,FILE,0,28.5,FINESTEERING,2316,563933.800,02000800,e5fc,17139;2316,563933.800000000,0.0017538996649069,-0.0004259285199573,0.0014017274684829,-0.0041961121394846,0.0898781889088413,-0.0182047125587088*564ce2e1
#CORRIMUDATAA,FILE,0,28.5,FINESTEERING,2316,563933.850,02000800,e5fc,17139;2316,563933.850000000,0.0021960213303655,-0.0001297393020694,0.0014794704511283,0.0015865472778099,0.0991272577067919,-0.0194439358960196*f273ff3b
#CORRIMUDATAA,FILE,0,28.5,FINESTEERING,2316,563933.900,02000800,e5fc,17139;2316,563933.900000000,0.0022746130768653,0.0001287485480400,0.0017102878530764,0.0089766983725552,0.0968218753322113,-0.0033310047037756*a7af50f9
#CORRIMUDATAA,FILE,0,28.5,FINESTEERING,2316,563933.950,02000800,e5fc,17139;2316,563933.950000000,0.0018387797402064,0.0003987812992151,0.0017911620792933,-0.0011703792126429,0.0869189608482754,0.0220021867060918*1ee1337d
#CORRIMUDATAA,FILE,0,28.5,FINESTEERING,2316,563934.000,02000800,e5fc,17139;2316,563934.000000000,0.0008106126636462,0.0003418940017472,0.0013599274144870,-0.0145561331994388,0.0726641483511856,0.0404076660743729*fc64f192
#CORRIMUDATAA,FILE,0,28.5,FINESTEERING,2316,563934.050,02000800,e5fc,17139;2316,563934.050000000,-0.0001715522239373,0.0005725403996556,0.0007812477643335,-0.0149262870494487,0.0694500430405454,0.0280179028190955*1e5528f0
#CORRIMUDATAA,FILE,0,28.5,FINESTEERING,2316,563934.100,02000800,e5fc,17139;2316,563934.100000000,-0.0006551048077757,0.0004799114390820,0.0005113821798169,-0.0039112694682705,0.0733008529215846,0.0154774922406992*31a35636
#CORRIMUDATAA,FILE,0,29.0,FINESTEERING,2316,563934.150,02000800,e5fc,17139;2316,563934.150000000,-0.0006566216492398,0.0001950172745958,0.0004820294438161,-0.0018445798258966,0.0824567390453128,0.0056171565370570*dc42dd10
#CORRIMUDATAA,FILE,0,29.0,FINESTEERING,2316,563934.200,02000800,e5fc,17139;2316,563934.200000000,-0.0002837156538918,0.0000068292965832,0.0004461268115114,-0.0037545901663219,0.1015467826816867,-0.0161881560426401*4a949375
#CORRIMUDATAA,FILE,0,29.0,FINESTEERING,2316,563934.250,02000800,e5fc,17139;2316,563934.250000000,0.0003936794139573,-0.0006987925634982,0.0003087210835632,-0.0042889394810933,0.1189542282393668,-0.0190405610016021*53036ec6
#CORRIMUDATAA,FILE,0,29.0,FINESTEERING,2316,563934.300,02000800,e5fc,17139;2316,563934.300000000,0.0009847167021314,-0.0008427605460081,0.0001289161168110,-0.0095746336740723,0.1340540221061823,-0.0201404853700009*459d32e9
#CORRIMUDATAA,FILE,0,29.0,FINESTEERING,2316,563934.350,02000800,e5fc,17139;2316,563934.350000000,0.0011392697088551,0.0002191788911829,-0.0000306484861756,-0.0014976108877164,0.1352944235403392,-0.0030977829222386*cf10913c
#CORRIMUDATAA,FILE,0,29.0,FINESTEERING,2316,563934.400,02000800,e5fc,17139;2316,563934.400000000,0.0008061911785680,0.0007212626521165,0.0000892210261788,0.0149905150370511,0.1295496853737637,0.0019030289935480*49975206
#CORRIMUDATAA,FILE,0,29.0,FINESTEERING,2316,563934.450,02000800,e5fc,17139;2316,563934.450000000,0.0002988966787848,0.0006475483924802,0.0003250680129186,0.0063221219644691,0.1175896836783528,0.0117952126990814*43e109a9
#CORRIMUDATAA,FILE,0,29.0,FINESTEERING,2316,563934.500,02000800,e5fc,17139;2316,563934.500000000,-0.0003373619505111,0.0008859134937744,0.0005662577150959,-0.0075312783938731,0.1052312206413913,0.0216748932836407*12f1de77
#CORRIMUDATAA,FILE,0,29.0,FINESTEERING,2316,563934.550,02000800,e5fc,17139;2316,563934.550000000,-0.0008185530816479,0.0009548387915499,0.0008981326911477,-0.0090036498413599,0.1049834678976503,0.0158622661428671*ad18cea2
#CORRIMUDATAA,FILE,0,29.0,FINESTEERING,2316,563934.600,02000800,e5fc,17139;2316,563934.600000000,-0.0009664943573173,0.0008222375936738,0.0012394806581896,-0.0027858455149202,0.1089347169927489,-0.0040792337915749*4bcc1529
#CORRIMUDATAA,FILE,0,29.0,FINESTEERING,2316,563934.650,02000800,e5fc,17139;2316,563934.650000000,-0.0007888190795731,0.0002045617721158,0.0016618310005429,-0.0022387647505418,0.1127714216308954,-0.0114073138977081*a22e0fdc
#CORRIMUDATAA,FILE,0,29.0,FINESTEERING,2316,563934.700,02000800,e5fc,17139;2316,563934.700000000,-0.0002929002456129,-0.0000631272217085,0.0020458504248365,-0.0081803923374342,0.1189759327281918,-0.0155212130617212*ba243052
#CORRIMUDATAA,FILE,0,29.0,FINESTEERING,2316,563934.750,02000800,e5fc,17139;2316,563934.750000000,0.0003330219344260,0.0000614988537225,0.0024212065902621,-0.0087988016108427,0.1244108520309900,-0.0162187878554022*aac92b02
#CORRIMUDATAA,FILE,0,29.0,FINESTEERING,2316,563934.800,02000800,e5fc,17139;2316,563934.800000000,0.0006136847526122,0.0003819815440596,0.0026883210973109,-0.0079219779482285,0.1250860522061750,-0.0116946101056214*daeda240
#CORRIMUDATAA,FILE,0,29.0,FINESTEERING,2316,563934.850,02000800,e5fc,17139;2316,563934.850000000,0.0005972864019991,0.0005162883090555,0.0028263567545628,-0.0133078739999485,0.1191135556110668,0.0108290122919735*9177faa2
#CORRIMUDATAA,FILE,0,29.0,FINESTEERING,2316,563934.900,02000800,e5fc,17139;2316,563934.900000000,0.0000277866929235,0.0004595275575675,0.0027403757408829,-0.0154045283153217,0.1147768364860721,0.0036114952756898*27180abb
#CORRIMUDATAA,FILE,0,29.0,FINESTEERING,2316,563934.950,02000800,e5fc,17139;2316,563934.950000000,-0.0004447510081968,0.0005718831930962,0.0025616696549203,-0.0136675318182007,0.1086677566809117,0.0169172763625672*07b99d75
#CORRIMUDATAA,FILE,0,29.0,FINESTEERING,2316,563935.000,02000800,e5fc,17139;2316,563935.000000000,-0.0007060588757109,0.0013245426581831,0.0027290652782858,-0.0046511665265430,0.1040128176906927,-0.0108271060933052*e7deedeb
#CORRIMUDATAA,FILE,0,29.0,FINESTEERING,2316,563935.050,02000800,e5fc,17139;2316,563935.050000000,-0.0006639771891229,0.0013145026971122,0.0029559227571005,-0.0052393350671585,0.0950157985694252,0.0106346454648167*7bfebfa9
#CORRIMUDATAA,FILE,0,28.0,FINESTEERING,2316,563935.100,02000800,e5fc,17139;2316,563935.100000000,-0.0007860687850440,0.0011167989811557,0.0030498978245640,-0.0203423688890509,0.0925023705627162,-0.0016738276696086*1feddb67
#CORRIMUDATAA,FILE,0,28.0,FINESTEERING,2316,563935.150,02000800,e5fc,17139;2316,563935.150000000,-0.0005533329585456,0.0012492866118163,0.0030178863023883,-0.0221054302993441,0.0937205181322836,-0.0083226522664097*12f94519
#CORRIMUDATAA,FILE,0,28.0,FINESTEERING,2316,563935.200,02000800,e5fc,17139;2316,563935.200000000,-0.0002279076572986,0.0005579556026626,0.0029606710056985,-0.0159963576118899,0.0974227832621287,-0.0044030235421868*ed13bf64
#CORRIMUDATAA,FILE,0,28.0,FINESTEERING,2316,563935.250,02000800,e5fc,17139;2316,563935.250000000,-0.0000905308849879,0.0003346623885147,0.0030358815044724,-0.0205666444737225,0.1001917838448741,-0.0018239443746867*4d7a177a
#CORRIMUDATAA,FILE,0,28.0,FINESTEERING,2316,563935.300,02000800,e5fc,17139;2316,563935.300000000,-0.0005465962147228,0.0001867338274909,0.0030136001338270,-0.0115809958447037,0.0663955529214035,0.0166189551554575*5d2e5ce5
#CORRIMUDATAA,FILE,0,28.0,FINESTEERING,2316,563935.350,02000800,e5fc,17139;2316,563935.350000000,-0.0011746393056395,-0.0001560980218945,0.0030681896874051,-0.0157702229332693,0.0173254997991685,0.0490518575426575*abccbee4
#CORRIMUDATAA,FILE,0,28.0,FINESTEERING,2316,563935.400,02000800,e5fc,17139;2316,563935.400000000,-0.0023654527611841,-0.0002770563523558,0.0028540393845631,-0.0185455005883256,-0.0150351813624026,0.0251414398749267*a629182c
#CORRIMUDATAA,FILE,0,28.0,FINESTEERING,2316,563935.450,02000800,e5fc,17139;2316,563935.450000000,-0.0029174028802931,-0.0002558923603075,0.0027948620918481,-0.0164587061605880,0.0043190726768137,0.0034204761895739*0443981a
#CORRIMUDATAA,FILE,0,28.0,FINESTEERING,2316,563935.500,02000800,e5fc,17139;2316,563935.500000000,-0.0027666174878771,0.0002209089367796,0.0026103456108744,-0.0133332387598335,-0.0035214080063764,-0.0162195606632887*6518ed04
#CORRIMUDATAA,FILE,0,28.0,FINESTEERING,2316,563935.550,02000800,e5fc,17139;2316,563935.550000000,-0.0023899422661598,0.0004425313858071,0.0024324742171370,-0.0117777694147942,-0.0071138205251309,-0.0271502934408971*3d29428c
#CORRIMUDATAA,FILE,0,28.0,FINESTEERING,2316,563935.600,02000800,e5fc,17139;2316,563935.600000000,-0.0011294062511818,0.0008892643177978,0.0023993739370319,-0.0081935292498488,-0.0009311995357692,-0.0405000008642451*ff7204d2
#CORRIMUDATAA,FILE,0,28.0,FINESTEERING,2316,563935.650,02000800,e5fc,17139;2316,563935.650000000,-0.0000227289259263,0.0011764862062718,0.0022626466676170,-0.0106786197058109,-0.0052976281670810,-0.0327165511368339*78552fc7
#CORRIMUDATAA,FILE,0,28.0,FINESTEERING,2316,563935.700,02000800,e5fc,17139;2316,563935.700000000,0.0008650895424476,0.0012136263172387,0.0022040783021618,-0.0102562861920578,-0.0046350826589644,-0.0071417774659457*5546f7ac
#CORRIMUDATAA,FILE,0,28.0,FINESTEERING,2316,563935.750,02000800,e5fc,17139;2316,563935.750000000,0.0011930397306614,0.0006513562827443,0.0020939114590776,-0.0096074848292307,-0.0063234146269540,-0.0036505897057680*c37e93cc
#CORRIMUDATAA,FILE,0,28.0,FINESTEERING,2316,563935.800,02000800,e5fc,17139;2316,563935.800000000,0.0012833067509935,0.0004529156029414,0.0020486574856234,-0.0189340947340525,-0.0093048583299361,0.0053963034061081*b243a1f0
#CORRIMUDATAA,FILE,0,28.0,FINESTEERING,2316,563935.850,02000800,e5fc,17139;2316,563935.850000000,0.0008538418645328,0.0004950335361235,0.0017990397896451,-0.0196694177431014,-0.0112168576222395,0.0171031064817477*861d7e29
#CORRIMUDATAA,FILE,0,28.0,FINESTEERING,2316,563935.900,02000800,e5fc,17139;2316,563935.900000000,0.0005270525582254,0.0000771218304369,0.0015438623742946,-0.0109143472589530,-0.0100651845566880,0.0094360200934572*4454390d
#CORRIMUDATAA,FILE,0,28.0,FINESTEERING,2316,563935.950,02000800,e5fc,17139;2316,563935.950000000,0.0002217039304168,-0.0004289671917961,0.0015029736833462,-0.0056031227833845,-0.0123147389793265,0.0032059812216867*dc4ed80f
#CORRIMUDATAA,FILE,0,28.0,FINESTEERING,2316,563936.000,02000800,e5fc,17139;2316,563936.000000000,0.0001990880247800,-0.0001287424104566,0.0015618967379611,-0.0043255628125248,-0.0097139322948070,0.0025536240113109*085682c8
#CORRIMUDATAA,FILE,0,28.0,FINESTEERING,2316,563936.050,02000800,e5fc,17139;2316,563936.050000000,0.0001239122632349,0.0003251231348618,0.0015378940600840,-0.0023357328613206,-0.0098321710420530,0.0026793072589116*3ef11356
#CORRIMUDATAA,FILE,0,27.0,FINESTEERING,2316,563936.100,02000800,e5fc,17139;2316,563936.100000000,-0.0000540282871905,0.0004046086626162,0.0014800035554757,-0.0085536229495372,-0.0121854969420912,0.0078055880225562*3b6b416c
#CORRIMUDATAA,FILE,0,27.0,FINESTEERING,2316,563936.150,02000800,e5fc,17139;2316,563936.150000000,-0.0001482394028110,0.0006597915102041,0.0014336962834573,-0.0059877651147689,-0.0099470435273096,0.0083396337778271*4d9ac8d8
#CORRIMUDATAA,FILE,0,27.0,FINESTEERING,2316,563936.200,02000800,e5fc,17139;2316,563936.200000000,-0.0004403325917061,0.0007091316415121,0.0014535838206593,-0.0050902683215005,-0.0115362905051464,0.0066919612348782*b73ec7c7
#CORRIMUDATAA,FILE,0,27.0,FINESTEERING,2316,563936.250,02000800,e5fc,17139;2316,563936.250000000,-0.0003355343005023,0.0001927515932718,0.0014202401591345,-0.0133259721225071,-0.0120532912254617,-0.0020453679768889*b974a4f3
#CORRIMUDATAA,FILE,0,27.0,FINESTEERING,2316,563936.300,02000800,e5fc,17139;2316,563936.300000000,0.0000867452169038,-0.0000255502559686,0.0014149236216850,-0.0079704455583177,-0.0089710751318198,-0.0198754414497789*7701cd93
#CORRIMUDATAA,FILE,0,27.0,FINESTEERING,2316,563936.350,02000800,e5fc,17139;2316,563936.350000000,0.0005006331879000,-0.0000235187538678,0.0015379291785037,-0.0027003483526644,-0.0104630976465079,0.0019560120106194*db53b665
#CORRIMUDATAA,FILE,0,27.0,FINESTEERING,2316,563936.400,02000800,e5fc,17139;2316,563936.400000000,0.0004531466622824,-0.0001712171382478,0.0015599857463614,-0.0077943810444209,-0.0111338572362396,-0.0018059179670388*df057f69
#CORRIMUDATAA,FILE,0,27.0,FINESTEERING,2316,563936.450,02000800,e5fc,17139;2316,563936.450000000,0.0003537894065946,0.0000907827511083,0.0014160639469408,-0.0142409559294637,-0.0152928784567502,0.0124542195940085*e80205f7
#CORRIMUDATAA,FILE,0,27.0,FINESTEERING,2316,563936.500,02000800,e5fc,17139;2316,563936.500000000,0.0001892705146302,0.0000841597713519,0.0012748544955162,-0.0071595231974575,-0.0084758290143436,-0.0072325670777567*ac0ee4bb
#CORRIMUDATAA,FILE,0,27.0,FINESTEERING,2316,563936.550,02000800,e5fc,17139;2316,563936.550000000,0.0003593071125161,-0.0002634084880941,0.0013752988524098,-0.0057529814856438,-0.0087954042868496,-0.0014954322199851*7c423272
#CORRIMUDATAA,FILE,0,27.0,FINESTEERING,2316,563936.600,02000800,e5fc,17139;2316,563936.600000000,0.0003250622644915,-0.0002923967104019,0.0014555656806005,-0.0054203150739751,-0.0130729406965260,0.0074215906710313*1d095590
#CORRIMUDATAA,FILE,0,27.0,FINESTEERING,2316,563936.650,02000800,e5fc,17139;2316,563936.650000000,0.0001302055362367,-0.0007607127687724,0.0015253213318159,-0.0052526899049763,-0.0110893646727070,-0.0072041511856402*cd5afee2
#CORRIMUDATAA,FILE,0,27.0,FINESTEERING,2316,563936.700,02000800,e5fc,17139;2316,563936.700000000,0.0001631190907619,-0.0009043140729264,0.0014855065004741,-0.0125882545793906,-0.0087477113681058,-0.0053078090816303*4b037377
#CORRIMUDATAA,FILE,0,27.0,FINESTEERING,2316,563936.750,02000800,e5fc,17139;2316,563936.750000000,0.0002154275208689,-0.0006728965846900,0.0012964499200386,-0.0132296635430003,-0.0099803399515094,0.0058718601812311*1f1730a8
#CORRIMUDATAA,FILE,0,27.0,FINESTEERING,2316,563936.800,02000800,e5fc,17139;2316,563936.800000000,-0.0000193650989705,-0.0008330449961144,0.0011395089858108,-0.0080454812624274,-0.0128287303194309,0.0022012245264064*27a507d7
#CORRIMUDATAA,FILE,0,27.0,FINESTEERING,2316,563936.850,02000800,e5fc,17139;2316,563936.850000000,-0.0001086305700402,-0.0009843166742126,0.0010633890713737,-0.0055078863036342,-0.0127862362472692,0.0079207393997903*1cece1a7
#CORRIMUDATAA,FILE,0,27.0,FINESTEERING,2316,563936.900,02000800,e5fc,17139;2316,563936.900000000,-0.0000874379251283,-0.0007529312055733,0.0010644568046379,-0.0037301345790194,-0.0137107659249133,0.0047351373193655*54914158
#CORRIMUDATAA,FILE,0,27.0,FINESTEERING,2316,563936.950,02000800,e5fc,17139;2316,563936.950000000,-0.0001538551224660,-0.0006432307719866,0.0011527531678431,0.0024046607577707,-0.0118924491355888,0.0005365041651288*8902c879
#CORRIMUDATAA,FILE,0,27.0,FINESTEERING,2316,563937.000,02000800,e5fc,17139;2316,563937.000000000,-0.0002260416967728,-0.0009199187899327,0.0011570238593020,-0.0069895785187430,-0.0197082756275210,0.0086028315136660*71b54c05
