#INSPVAXA,FILE,0,32.0,FINESTEERING,2316,563922.100,02000800,46eb,17139;INS_SOLUTION_GOOD,INS_PPP,17.60145335391,78.12662826132,525.1012,-76.2000,-0.0019,0.0009,0.0018,1.239436331,-0.956027108,5.976137774,0.0733,0.0852,0.0812,0.0090,0.0090,0.0060,0.0446,0.0436,0.3481,ab000044,0*0d5293b1
#INSPVAXA,FILE,0,33.0,FINESTEERING,2316,563922.150,02000800,46eb,17139;INS_SOLUTION_GOOD,INS_PPP,17.60145335408,78.12662826095,525.1012,-76.2000,-0.0020,0.0005,0.0022,1.237497300,-0.958429360,5.975916212,0.0733,0.0852,0.0812,0.0090,0.0090,0.0060,0.0446,0.0436,0.3481,ab000044,0*383911d2
#INSPVAXA,FILE,0,33.0,FINESTEERING,2316,563922.200,02000800,46eb,17139;INS_SOLUTION_GOOD,INS_PPP,17.60145335430,78.12662826026,525.1012,-76.2000,-0.0018,-0.0002,-0.0002,1.236774001,-0.957659426,5.975914212,0.0733,0.0852,0.0812,0.0090,0.0090,0.0060,0.0446,0.0436,0.3481,ab000044,0*4584308c
#INSPVAXA,FILE,0,33.0,FINESTEERING,2316,563922.250,02000800,46eb,17139;INS_SOLUTION_GOOD,INS_PPP,17.60145335460,78.12662825945,525.1012,-76.2000,-0.0015,-0.0001,-0.0007,1.235605930,-0.959314538,5.975796548,0.0733,0.0852,0.0812,0.0090,0.0090,0.0060,0.0446,0.0436,0.3481,ab000044,0*5b7703ad
#INSPVAXA,FILE,0,33.0,FINESTEERING,2316,563922.300,02000800,46eb,17139;INS_SOLUTION_GOOD,INS_PPP,17.60145335476,78.12662825877,525.1011,-76.2000,-0.0017,0.0002,-0.0003,1.234837243,-0.957372828,5.975611694,0.0733,0.0852,0.0812,0.0090,0.0090,0.0060,0.0446,0.0436,0.3481,ab000044,0*648ef95f
#INSPVAXA,FILE,0,33.0,FINESTEERING,2316,563922.350,02000800,46eb,17139;INS_SOLUTION_GOOD,INS_PPP,17.60145335480,78.12662825836,525.1011,-76.2000,-0.0021,0.0009,0.0006,1.235406687,-0.957863824,5.975638255,0.0733,0.0852,0.0812,0.0090,0.0090,0.0060,0.0446,0.0436,0.3481,ab000044,0*b0af3978
#INSPVAXA,FILE,0,33.0,FINESTEERING,2316,563922.700,02000800,46eb,17139;INS_SOLUTION_GOOD,INS_PPP,17.60145335427,78.12662825402,525.1011,-76.2000,-0.0018,-0.0004,-0.0003,1.236728857,-0.959684490,5.973098475,0.0733,0.0852,0.0812,0.0090,0.0090,0.0060,0.0446,0.0436,0.3481,ab000044,0*167e8e1e
#INSPVAXA,FILE,0,33.0,FINESTEERING,2316,563922.750,02000800,46eb,17139;INS_SOLUTION_GOOD,INS_PPP,17.60145335420,78.12662825333,525.1010,-76.2000,-0.0017,0.0000,-0.0011,1.237367729,-0.958084420,5.973106121,0.0733,0.0852,0.0812,0.0090,0.0090,0.0060,0.0446,0.0436,0.3481,ab000044,0*bcc1388d
#INSPVAXA,FILE,0,33.0,FINESTEERING,2316,563922.850,02000800,46eb,17139;INS_SOLUTION_GOOD,INS_PPP,17.60145335371,78.12662825301,525.1011,-76.2000,-0.0028,0.0008,0.0021,1.241385565,-0.957022609,5.973606971,0.0733,0.0852,0.0812,0.0090,0.0090,0.0060,0.0446,0.0436,0.3481,ab000044,0*fca7ab6f
#INSPVAXA,FILE,0,33.0,FINESTEERING,2316,563922.900,02000800,46eb,17139;INS_SOLUTION_GOOD,INS_PPP,17.60145335324,78.12662825254,525.1011,-76.2000,-0.0028,-0.0004,-0.0008,1.243933997,-0.954867850,5.973302838,0.0733,0.0852,0.0812,0.0090,0.0090,0.0060,0.0446,0.0436,0.3481,ab000044,0*b9a04f63
#INSPVAXA,FILE,0,33.0,FINESTEERING,2316,563922.950,02000800,46eb,17139;INS_SOLUTION_GOOD,INS_PPP,17.60145335303,78.12662825164,525.1010,-76.2000,-0.0018,-0.0010,-0.0005,1.244593347,-0.957021617,5.972648379,0.0733,0.0852,0.0812,0.0090,0.0090,0.0060,0.0446,0.0436,0.3481,ab000044,0*0dd29ef6
#INSPVAXA,FILE,0,33.0,FINESTEERING,2316,563923.100,02000800,46eb,17139;INS_SOLUTION_GOOD,INS_PPP,17.60145335404,78.12662824849,525.1011,-76.2000,-0.0023,-0.0009,0.0012,1.240213365,-0.958023239,5.970061692,0.0742,0.0860,0.0816,0.0088,0.0088,0.0058,0.0446,0.0436,0.3483,ab000044,0*38aeb73e
#INSPVAXA,FILE,0,33.5,FINESTEERING,2316,563923.300,02000800,46eb,17139;INS_SOLUTION_GOOD,INS_PPP,17.60145335434,78.12662824695,525.1012,-76.2000,-0.0009,-0.0025,-0.0001,1.243275015,-0.956822111,5.971012800,0.0742,0.0860,0.0816,0.0088,0.0088,0.0058,0.0446,0.0436,0.3483,ab000044,0*03433ba8
#INSPVAXA,FILE,0,33.5,FINESTEERING,2316,563923.350,02000800,46eb,17139;INS_SOLUTION_GOOD,INS_PPP,17.60145335533,78.12662824603,525.1012,-76.2000,0.0004,-0.0013,0.0019,1.243806536,-0.957218702,5.970306357,0.0742,0.0860,0.0816,0.0088,0.0088,0.0058,0.0446,0.0436,0.3483,ab000044,0*92cb90b7
#INSPVAXA,FILE,0,33.5,FINESTEERING,2316,563923.400,02000800,46eb,17139;INS_SOLUTION_GOOD,INS_PPP,17.60145335646,78.12662824533,525.1013,-76.2000,0.0001,-0.0021,0.0029,1.235330909,-0.960533837,5.968836025,0.0742,0.0860,0.0816,0.0088,0.0088,0.0058,0.0446,0.0436,0.3483,ab000044,0*9a698848
#INSPVAXA,FILE,0,33.5,FINESTEERING,2316,563923.450,02000800,46eb,17139;INS_SOLUTION_GOOD,INS_PPP,17.60145335684,78.12662824394,525.1014,-76.2000,-0.0027,-0.0031,0.0015,1.236774924,-0.961391699,5.970093190,0.0742,0.0860,0.0816,0.0088,0.0088,0.0058,0.0446,0.0436,0.3483,ab000044,0*e34e52a1
#INSPVAXA,FILE,0,33.5,FINESTEERING,2316,563923.500,02000800,46eb,17139;INS_SOLUTION_GOOD,INS_PPP,17.60145335597,78.12662824377,525.1013,-76.2000,-0.0049,0.0013,-0.0029,1.241903694,-0.956184276,5.971013673,0.0742,0.0860,0.0816,0.0088,0.0088,0.0058,0.0446,0.0436,0.3483,ab000044,0*d2d1e082
#INSPVAXA,FILE,0,33.5,FINESTEERING,2316,563923.550,02000800,46eb,17139;INS_SOLUTION_GOOD,INS_PPP,17.60145335546,78.12662824448,525.1012,-76.2000,-0.0016,0.0017,-0.0013,1.241985970,-0.955179988,5.970061923,0.0742,0.0860,0.0816,0.0088,0.0088,0.0058,0.0446,0.0436,0.3483,ab000044,0*4c8482b7
#INSPVAXA,FILE,0,33.5,FINESTEERING,2316,563923.700,02000800,46eb,17139;INS_SOLUTION_GOOD,INS_PPP,17.60145335810,78.12662824214,525.1015,-76.2000,-0.0033,-0.0045,-0.0005,1.237996414,-0.960725991,5.967828666,0.0742,0.0860,0.0816,0.0088,0.0088,0.0058,0.0446,0.0436,0.3483,ab000044,0*0c6ddab6
#INSPVAXA,FILE,0,33.5,FINESTEERING,2316,563923.750,02000800,46eb,17139;INS_SOLUTION_GOOD,INS_PPP,17.60145335719,78.12662824014,525.1015,-76.2000,-0.0041,-0.0038,-0.0026,1.237207345,-0.957170701,5.969952278,0.0742,0.0860,0.0816,0.0088,0.0088,0.0058,0.0446,0.0436,0.3483,ab000044,0*9439cb7b
#INSPVAXA,FILE,0,33.5,FINESTEERING,2316,563923.800,02000800,46eb,17139;INS_SOLUTION_GOOD,INS_PPP,17.60145335668,78.12662823937,525.1015,-76.2000,-0.0021,-0.0001,0.0018,1.237431090,-0.954160892,5.971006868,0.0742,0.0860,0.0816,0.0088,0.0088,0.0058,0.0446,0.0436,0.3483,ab000044,0*c60b6a56
#INSPVAXA,FILE,0,33.5,FINESTEERING,2316,563923.850,02000800,46eb,17139;INS_SOLUTION_GOOD,INS_PPP,17.60145335708,78.12662823948,525.1016,-76.2000,-0.0002,0.0007,0.0031,1.239835361,-0.952469707,5.969392063,0.0742,0.0860,0.0816,0.0088,0.0088,0.0058,0.0446,0.0436,0.3483,ab000044,0*dc9af79f
#INSPVAXA,FILE,0,33.5,FINESTEERING,2316,563923.950,02000800,46eb,17139;INS_SOLUTION_GOOD,INS_PPP,17.60145335830,78.12662823731,525.1017,-76.2000,-0.0013,-0.0031,-0.0003,1.258324216,-0.957909347,5.976330495,0.0742,0.0860,0.0816,0.0088,0.0088,0.0058,0.0446,0.0436,0.3483,ab000044,0*3124f15e
#INSPVAXA,FILE,0,33.5,FINESTEERING,2316,563924.150,02000800,46eb,17139;INS_SOLUTION_GOOD,INS_PPP,17.60145335686,78.12662823808,525.1017,-76.2000,-0.0042,-0.0033,0.0027,1.277302451,-0.952236319,5.970969149,0.0751,0.0867,0.0820,0.0084,0.0084,0.0052,0.0446,0.0436,0.3484,ab000044,0*c6bda52f
#INSPVAXA,FILE,0,33.5,FINESTEERING,2316,563924.250,02000800,46eb,17139;INS_SOLUTION_GOOD,INS_PPP,17.60145335797,78.12662823604,525.1016,-76.2000,0.0020,-0.0016,-0.0011,1.273550135,-0.949725979,5.974332202,0.0751,0.0867,0.0820,0.0084,0.0084,0.0052,0.0446,0.0436,0.3484,ab000044,0*da29a51e
#INSPVAXA,FILE,0,33.5,FINESTEERING,2316,563924.300,02000800,46eb,17139;INS_SOLUTION_GOOD,INS_PPP,17.60145335921,78.12662823654,525.1015,-76.2000,0.0006,0.0011,0.0017,1.276827434,-0.952950409,5.973530789,0.0751,0.0867,0.0820,0.0084,0.0084,0.0052,0.0446,0.0436,0.3484,ab000044,0*ecbfa1e6
#INSPVAXA,FILE,0,33.5,FINESTEERING,2316,563924.500,02000800,46eb,17139;INS_SOLUTION_GOOD,INS_PPP,17.60145335922,78.12662823559,525.1014,-76.2000,-0.0009,-0.0020,0.0009,1.276286343,-0.948774327,5.972255972,0.0751,0.0867,0.0820,0.0084,0.0084,0.0052,0.0446,0.0436,0.3484,ab000044,0*a5edb347
#INSPVAXA,FILE,0,33.5,FINESTEERING,2316,563924.550,02000800,46eb,17139;INS_SOLUTION_GOOD,INS_PPP,17.60145335986,78.12662823557,525.1014,-76.2000,0.0000,-0.0006,0.0018,1.276303798,-0.952301421,5.970859554,0.0751,0.0867,0.0820,0.0084,0.0084,0.0052,0.0446,0.0436,0.3484,ab000044,0*8a49c410
#INSPVAXA,FILE,0,33.5,FINESTEERING,2316,563924.750,02000800,46eb,17139;INS_SOLUTION_GOOD,INS_PPP,17.60145336002,78.12662823556,525.1014,-76.2000,-0.0005,-0.0005,-0.0011,1.279359161,-0.949185506,5.970371161,0.0751,0.0867,0.0820,0.0084,0.0084,0.0052,0.0446,0.0436,0.3484,ab000044,0*4a28d52e
#INSPVAXA,FILE,0,33.5,FINESTEERING,2316,563924.800,02000800,46eb,17139;INS_SOLUTION_GOOD,INS_PPP,17.60145336012,78.12662823573,525.1014,-76.2000,-0.0011,-0.0006,0.0027,1.280673903,-0.949938858,5.969973070,0.0751,0.0867,0.0820,0.0084,0.0084,0.0052,0.0446,0.0436,0.3484,ab000044,0*313d1fa6
#INSPVAXA,FILE,0,33.5,FINESTEERING,2316,563924.850,02000800,46eb,17139;INS_SOLUTION_GOOD,INS_PPP,17.60145336037,78.12662823554,525.1015,-76.2000,-0.0012,-0.0019,0.0041,1.279235211,-0.951052006,5.970307334,0.0751,0.0867,0.0820,0.0084,0.0084,0.0052,0.0446,0.0436,0.3484,ab000044,0*1f025acb
#INSPVAXA,FILE,0,33.5,FINESTEERING,2316,563924.900,02000800,46eb,17139;INS_SOLUTION_GOOD,INS_PPP,17.60145336052,78.12662823504,525.1016,-76.2000,-0.0010,-0.0018,0.0012,1.276920504,-0.952343647,5.970903660,0.0751,0.0867,0.0820,0.0084,0.0084,0.0052,0.0446,0.0436,0.3484,ab000044,0*887b27cc
#INSPVAXA,FILE,0,33.5,FINESTEERING,2316,563924.950,02000800,46eb,17139;INS_SOLUTION_GOOD,INS_PPP,17.60145336016,78.12662823461,525.1015,-76.2000,-0.0016,-0.0012,-0.0020,1.276632675,-0.950239177,5.970206113,0.0751,0.0867,0.0820,0.0084,0.0084,0.0052,0.0446,0.0436,0.3484,ab000044,0*f6b73cc0
#INSPVAXA,FILE,0,33.5,FINESTEERING,2316,563925.050,02000800,46eb,17139;INS_SOLUTION_GOOD,INS_PPP,17.60145336095,78.12662823485,525.1014,-76.2000,-0.0009,-0.0007,0.0030,1.276703077,-0.952359016,5.969739246,0.0759,0.0874,0.0823,0.0082,0.0083,0.0049,0.0445,0.0435,0.3485,ab000044,0*a64c6dca
#INSPVAXA,FILE,0,33.0,FINESTEERING,2316,563925.150,02000800,46eb,17139;INS_SOLUTION_GOOD,INS_PPP,17.60145336078,78.12662823538,525.1015,-76.2000,-0.0022,-0.0007,0.0018,1.278817241,-0.949973192,5.969529632,0.0759,0.0874,0.0823,0.0082,0.0083,0.0049,0.0445,0.0435,0.3485,ab000044,0*5876c384
#INSPVAXA,FILE,0,33.0,FINESTEERING,2316,563925.350,02000800,46eb,17139;INS_SOLUTION_GOOD,INS_PPP,17.60145336430,78.12662823553,525.1015,-76.2000,-0.0049,-0.0021,0.0036,1.276527244,-0.954391337,5.967437962,0.0759,0.0874,0.0823,0.0082,0.0083,0.0049,0.0445,0.0435,0.3485,ab000044,0*f9543288
#INSPVAXA,FILE,0,33.0,FINESTEERING,2316,563925.450,02000800,46eb,17139;INS_SOLUTION_GOOD,INS_PPP,17.60145336225,78.12662823590,525.1012,-76.2000,-0.0002,0.0022,-0.0041,1.283679560,-0.941211059,5.967426811,0.0759,0.0874,0.0823,0.0082,0.0083,0.0049,0.0445,0.0435,0.3485,ab000044,0*23a4479f
#INSPVAXA,FILE,0,33.0,FINESTEERING,2316,563925.500,02000800,46eb,17139;INS_SOLUTION_GOOD,INS_PPP,17.60145336368,78.12662823656,525.1012,-76.2000,0.0031,-0.0007,0.0027,1.283275004,-0.942225039,5.963442815,0.0759,0.0874,0.0823,0.0082,0.0083,0.0049,0.0445,0.0435,0.3485,ab000044,0*e9574ffd
#INSPVAXA,FILE,0,33.0,FINESTEERING,2316,563925.550,02000800,46eb,17139;INS_SOLUTION_GOOD,INS_PPP,17.60145336531,78.12662823613,525.1012,-76.2000,0.0009,-0.0025,0.0032,1.287107895,-0.946480238,5.963237713,0.0759,0.0874,0.0823,0.0082,0.0083,0.0049,0.0445,0.0435,0.3485,ab000044,0*7b6c114b
#INSPVAXA,FILE,0,33.0,FINESTEERING,2316,563925.600,02000800,46eb,17139;INS_SOLUTION_GOOD,INS_PPP,17.60145336578,78.12662823603,525.1012,-76.2000,-0.0021,-0.0005,-0.0006,1.284520162,-0.951794174,5.964531306,0.0759,0.0874,0.0823,0.0082,0.0083,0.0049,0.0445,0.0435,0.3485,ab000044,0*700608e0
#INSPVAXA,FILE,0,33.0,FINESTEERING,2316,563925.650,02000800,46eb,17139;INS_SOLUTION_GOOD,INS_PPP,17.60145336550,78.12662823636,525.1011,-76.2000,-0.0009,0.0006,-0.0026,1.288688282,-0.944752018,5.965186562,0.0759,0.0874,0.0823,0.0082,0.0083,0.0049,0.0445,0.0435,0.3485,ab000044,0*71f9ede8
#INSPVAXA,FILE,0,33.0,FINESTEERING,2316,563925.700,02000800,46eb,17139;INS_SOLUTION_GOOD,INS_PPP,17.60145336644,78.12662823702,525.1010,-76.2000,0.0020,0.0012,0.0011,1.297841405,-0.942421441,5.965302272,0.0759,0.0874,0.0823,0.0082,0.0083,0.0049,0.0445,0.0435,0.3485,ab000044,0*25cbf39d
#INSPVAXA,FILE,0,33.0,FINESTEERING,2316,563925.750,02000800,46eb,17139;INS_SOLUTION_GOOD,INS_PPP,17.60145336705,78.12662823743,525.1011,-76.2000,-0.0035,-0.0008,0.0100,1.297677199,-0.952128222,5.964188099,0.0759,0.0874,0.0823,0.0082,0.0083,0.0049,0.0445,0.0435,0.3485,ab000044,0*4c1f823a
#INSPVAXA,FILE,0,33.0,FINESTEERING,2316,563925.800,02000800,46eb,17139;INS_SOLUTION_GOOD,INS_PPP,17.60145336643,78.12662823637,525.1016,-76.2000,-0.0026,-0.0049,0.0116,1.290808949,-0.958132248,5.966733899,0.0759,0.0874,0.0823,0.0082,0.0083,0.0049,0.0445,0.0435,0.3485,ab000044,0*0a0ec60c
#INSPVAXA,FILE,0,33.0,FINESTEERING,2316,563925.850,02000800,46eb,17139;INS_SOLUTION_GOOD,INS_PPP,17.60145336756,78.12662823448,525.1022,-76.2000,0.0066,-0.0049,0.0108,1.279709615,-0.969975951,5.970728266,0.0759,0.0874,0.0823,0.0082,0.0083,0.0049,0.0445,0.0435,0.3485,ab000044,0*aecb61dd
#INSPVAXA,FILE,0,33.0,FINESTEERING,2316,563925.900,02000800,46eb,17139;INS_SOLUTION_GOOD,INS_PPP,17.60145336909,78.12662823274,525.1026,-76.2000,0.0001,-0.0042,0.0084,1.260986362,-0.982454198,5.972745040,0.0759,0.0874,0.0823,0.0082,0.0083,0.0049,0.0445,0.0435,0.3485,ab000044,0*e02a13fc
#INSPVAXA,FILE,0,33.0,FINESTEERING,2316,563925.950,02000800,46eb,17139;INS_SOLUTION_GOOD,INS_PPP,17.60145336902,78.12662823147,525.1028,-76.2000,-0.0053,-0.0029,0.0010,1.250227800,-0.989626485,5.971155986,0.0759,0.0874,0.0823,0.0082,0.0083,0.0049,0.0445,0.0435,0.3485,ab000044,0*bc6778bd
#INSPVAXA,FILE,0,33.0,FINESTEERING,2316,563926.000,02000800,46eb,17139;INS_SOLUTION_GOOD,INS_PPP,17.60145336830,78.12662823135,525.1026,-76.2000,-0.0011,0.0007,-0.0047,1.249748519,-0.984340982,5.969792062,0.0759,0.0874,0.0823,0.0082,0.0083,0.0049,0.0445,0.0435,0.3485,ab000044,0*eaac433e
#INSPVAXA,FILE,0,33.0,FINESTEERING,2316,563926.050,02000800,46eb,17139;INS_SOLUTION_GOOD,INS_PPP,17.60145336832,78.12662823273,525.1024,-76.2000,0.0017,0.0021,-0.0012,1.252288091,-0.982089721,5.971220724,0.0766,0.0881,0.0826,0.0082,0.0082,0.0049,0.0445,0.0435,0.3487,ab000044,0*6ce25fd8
#INSPVAXA,FILE,0,32.0,FINESTEERING,2316,563926.100,02000800,46eb,17139;INS_SOLUTION_GOOD,INS_PPP,17.60145336853,78.12662823522,525.1023,-76.2000,0.0003,0.0037,0.0032,1.261053914,-0.982510989,5.972384991,0.0766,0.0881,0.0826,0.0082,0.0082,0.0049,0.0445,0.0435,0.3487,ab000044,0*542c013a
#INSPVAXA,FILE,0,32.0,FINESTEERING,2316,563926.150,02000800,46eb,17139;INS_SOLUTION_GOOD,INS_PPP,17.60145336768,78.12662823868,525.1023,-76.2000,-0.0023,0.0060,0.0030,1.268577276,-0.985101790,5.968958171,0.0766,0.0881,0.0826,0.0082,0.0082,0.0049,0.0445,0.0435,0.3487,ab000044,0*fb502100
#INSPVAXA,FILE,0,32.0,FINESTEERING,2316,563926.200,02000800,46eb,17139;INS_SOLUTION_GOOD,INS_PPP,17.60145336549,78.12662824190,525.1023,-76.2000,-0.0048,0.0038,0.0021,1.276717547,-0.984828103,5.961097532,0.0766,0.0881,0.0826,0.0082,0.0082,0.0049,0.0445,0.0435,0.3487,ab000044,0*4a5b210a
#INSPVAXA,FILE,0,32.0,FINESTEERING,2316,563926.250,02000800,46eb,17139;INS_SOLUTION_GOOD,INS_PPP,17.60145336368,78.12662824381,525.1023,-76.2000,-0.0032,0.0004,0.0015,1.285137793,-0.981781473,5.956429517,0.0766,0.0881,0.0826,0.0082,0.0082,0.0049,0.0445,0.0435,0.3487,ab000044,0*5ad0e22c
#INSPVAXA,FILE,0,32.0,FINESTEERING,2316,563926.300,02000800,46eb,17139;INS_SOLUTION_GOOD,INS_PPP,17.60145336294,78.12662824482,525.1022,-76.2000,0.0006,-0.0004,0.0015,1.290562728,-0.980956449,5.957759234,0.0766,0.0881,0.0826,0.0082,0.0082,0.0049,0.0445,0.0435,0.3487,ab000044,0*6252317e
#INSPVAXA,FILE,0,32.0,FINESTEERING,2316,563926.350,02000800,46eb,17139;INS_SOLUTION_GOOD,INS_PPP,17.60145336249,78.12662824583,525.1022,-76.2000,0.0001,0.0008,0.0030,1.293379325,-0.979072576,5.960696964,0.0766,0.0881,0.0826,0.0082,0.0082,0.0049,0.0445,0.0435,0.3487,ab000044,0*87f58372
#INSPVAXA,FILE,0,32.0,FINESTEERING,2316,563926.400,02000800,46eb,17139;INS_SOLUTION_GOOD,INS_PPP,17.60145336206,78.12662824744,525.1023,-76.2000,-0.0007,0.0018,0.0039,1.295720641,-0.984859248,5.960331048,0.0766,0.0881,0.0826,0.0082,0.0082,0.0049,0.0445,0.0435,0.3487,ab000044,0*6ec89500
#INSPVAXA,FILE,0,32.0,FINESTEERING,2316,563926.450,02000800,46eb,17139;INS_SOLUTION_GOOD,INS_PPP,17.60145336157,78.12662824890,525.1022,-76.2000,-0.0009,0.0003,0.0028,1.296243943,-0.988152218,5.957266169,0.0766,0.0881,0.0826,0.0082,0.0082,0.0049,0.0445,0.0435,0.3487,ab000044,0*5867e79b
#INSPVAXA,FILE,0,32.0,FINESTEERING,2316,563926.500,02000800,46eb,17139;INS_SOLUTION_GOOD,INS_PPP,17.60145336075,78.12662824944,525.1021,-76.2000,-0.0014,-0.0016,-0.0012,1.294379409,-0.986127794,5.956508481,0.0766,0.0881,0.0826,0.0082,0.0082,0.0049,0.0445,0.0435,0.3487,ab000044,0*43699d3e
#INSPVAXA,FILE,0,32.0,FINESTEERING,2316,563926.550,02000800,46eb,17139;INS_SOLUTION_GOOD,INS_PPP,17.60145335957,78.12662824961,525.1020,-76.2000,-0.0022,-0.0016,0.0008,1.291934155,-0.982457577,5.957735678,0.0766,0.0881,0.0826,0.0082,0.0082,0.0049,0.0445,0.0435,0.3487,ab000044,0*4f57d0a9
#INSPVAXA,FILE,0,32.0,FINESTEERING,2316,563926.600,02000800,46eb,17139;INS_SOLUTION_GOOD,INS_PPP,17.60145335860,78.12662825025,525.1019,-76.2000,-0.0014,0.0002,0.0018,1.291463603,-0.982150485,5.958409184,0.0766,0.0881,0.0826,0.0082,0.0082,0.0049,0.0445,0.0435,0.3487,ab000044,0*ef9cd8f5
#INSPVAXA,FILE,0,32.0,FINESTEERING,2316,563926.650,02000800,46eb,17139;INS_SOLUTION_GOOD,INS_PPP,17.60145335812,78.12662825159,525.1019,-76.2000,0.0001,0.0016,0.0023,1.292583987,-0.985897742,5.957739310,0.0766,0.0881,0.0826,0.0082,0.0082,0.0049,0.0445,0.0435,0.3487,ab000044,0*8d088113
#INSPVAXA,FILE,0,32.0,FINESTEERING,2316,563926.700,02000800,46eb,17139;INS_SOLUTION_GOOD,INS_PPP,17.60145335789,78.12662825308,525.1018,-76.2000,0.0004,0.0013,0.0011,1.295066175,-0.984911282,5.956343005,0.0766,0.0881,0.0826,0.0082,0.0082,0.0049,0.0445,0.0435,0.3487,ab000044,0*3b8b8117
#INSPVAXA,FILE,0,32.0,FINESTEERING,2316,563926.750,02000800,46eb,17139;INS_SOLUTION_GOOD,INS_PPP,17.60145335721,78.12662825454,525.1018,-76.2000,-0.0017,0.0013,0.0025,1.295483161,-0.987039654,5.955626714,0.0766,0.0881,0.0826,0.0082,0.0082,0.0049,0.0445,0.0435,0.3487,ab000044,0*af8e20c0
#INSPVAXA,FILE,0,32.0,FINESTEERING,2316,563926.800,02000800,46eb,17139;INS_SOLUTION_GOOD,INS_PPP,17.60145335621,78.12662825567,525.1017,-76.2000,-0.0024,0.0002,0.0012,1.296016403,-0.986119229,5.955361257,0.0766,0.0881,0.0826,0.0082,0.0082,0.0049,0.0445,0.0435,0.3487,ab000044,0*0d9e58c8
#INSPVAXA,FILE,0,32.0,FINESTEERING,2316,563926.850,02000800,46eb,17139;INS_SOLUTION_GOOD,INS_PPP,17.60145335522,78.12662825645,525.1016,-76.2000,-0.0015,-0.0003,0.0007,1.296201987,-0.987115587,5.955783336,0.0766,0.0881,0.0826,0.0082,0.0082,0.0049,0.0445,0.0435,0.3487,ab000044,0*59b681a7
#INSPVAXA,FILE,0,32.0,FINESTEERING,2316,563926.900,02000800,46eb,17139;INS_SOLUTION_GOOD,INS_PPP,17.60145335428,78.12662825714,525.1016,-76.2000,-0.0008,0.0001,0.0004,1.296091525,-0.984708922,5.956322743,0.0766,0.0881,0.0826,0.0082,0.0082,0.0049,0.0445,0.0435,0.3487,ab000044,0*07f8a079
#INSPVAXA,FILE,0,32.0,FINESTEERING,2316,563926.950,02000800,46eb,17139;INS_SOLUTION_GOOD,INS_PPP,17.60145335381,78.12662825810,525.1015,-76.2000,-0.0003,0.0007,0.0012,1.294455044,-0.986316413,5.955351512,0.0766,0.0881,0.0826,0.0082,0.0082,0.0049,0.0445,0.0435,0.3487,ab000044,0*7b18ad35
#INSPVAXA,FILE,0,32.0,FINESTEERING,2316,563927.000,02000800,46eb,17139;INS_SOLUTION_GOOD,INS_PPP,17.60145335330,78.12662825903,525.1015,-76.2000,-0.0013,0.0005,0.0025,1.293016645,-0.988789788,5.954478991,0.0766,0.0881,0.0826,0.0082,0.0082,0.0049,0.0445,0.0435,0.3487,ab000044,0*3bb7156c
#INSPVAXA,FILE,0,32.0,FINESTEERING,2316,563927.050,02000800,46eb,17139;INS_SOLUTION_GOOD,INS_PPP,17.60145335286,78.12662825864,525.1014,-76.2000,-0.0019,0.0005,-0.0009,1.294037748,-0.986665066,5.954776167,0.0774,0.0888,0.0829,0.0083,0.0083,0.0051,0.0445,0.0435,0.3488,ab000044,0*ea8d9919
#INSPVAXA,FILE,0,22.5,FINESTEERING,2316,563927.100,02000800,46eb,17139;INS_SOLUTION_GOOD,INS_PPP,17.60145335270,78.12662825723,525.1013,-76.2000,-0.0022,0.0005,-0.0015,1.293567302,-0.984504729,5.955636971,0.0774,0.0888,0.0829,0.0083,0.0083,0.0051,0.0445,0.0435,0.3488,ab000044,0*a0927802
#INSPVAXA,FILE,0,22.5,FINESTEERING,2316,563927.150,02000800,46eb,17139;INS_SOLUTION_GOOD,INS_PPP,17.60145335267,78.12662825597,525.1012,-76.2000,-0.0019,0.0009,-0.0025,1.295294685,-0.979262551,5.956050433,0.0774,0.0888,0.0829,0.0083,0.0083,0.0051,0.0445,0.0435,0.3488,ab000044,0*0463ccbf
#INSPVAXA,FILE,0,22.5,FINESTEERING,2316,563927.200,02000800,46eb,17139;INS_SOLUTION_GOOD,INS_PPP,17.60145335268,78.12662825528,525.1009,-76.2000,-0.0016,0.0023,-0.0038,1.300016611,-0.975175056,5.954694797,0.0774,0.0888,0.0829,0.0083,0.0083,0.0051,0.0445,0.0435,0.3488,ab000044,0*6d31c487
#INSPVAXA,FILE,0,22.5,FINESTEERING,2316,563927.250,02000800,46eb,17139;INS_SOLUTION_GOOD,INS_PPP,17.60145335302,78.12662825426,525.1007,-76.2000,-0.0005,0.0004,-0.0018,1.301060872,-0.970894822,5.953184211,0.0774,0.0888,0.0829,0.0083,0.0083,0.0051,0.0445,0.0435,0.3488,ab000044,0*1b51f9f8
#INSPVAXA,FILE,0,22.5,FINESTEERING,2316,563927.300,02000800,46eb,17139;INS_SOLUTION_GOOD,INS_PPP,17.60145335375,78.12662825287,525.1007,-76.2000,-0.0001,-0.0002,0.0017,1.303180492,-0.969791523,5.954012436,0.0774,0.0888,0.0829,0.0083,0.0083,0.0051,0.0445,0.0435,0.3488,ab000044,0*614ac9d2
#INSPVAXA,FILE,0,22.5,FINESTEERING,2316,563927.350,02000800,46eb,17139;INS_SOLUTION_GOOD,INS_PPP,17.60145335416,78.12662825185,525.1007,-76.2000,-0.0012,0.0015,0.0030,1.303986591,-0.973269536,5.953753829,0.0774,0.0888,0.0829,0.0083,0.0083,0.0051,0.0445,0.0435,0.3488,ab000044,0*272bd706
#INSPVAXA,FILE,0,22.5,FINESTEERING,2316,563927.400,02000800,46eb,17139;INS_SOLUTION_GOOD,INS_PPP,17.60145335427,78.12662825092,525.1007,-76.2000,-0.0014,0.0008,0.0005,1.303029877,-0.972570305,5.952776009,0.0774,0.0888,0.0829,0.0083,0.0083,0.0051,0.0445,0.0435,0.3488,ab000044,0*adaf941d
#INSPVAXA,FILE,0,22.5,FINESTEERING,2316,563927.450,02000800,46eb,17139;INS_SOLUTION_GOOD,INS_PPP,17.60145335437,78.12662824962,525.1007,-76.2000,-0.0013,-0.0002,-0.0004,1.303929600,-0.973628075,5.952586286,0.0774,0.0888,0.0829,0.0083,0.0083,0.0051,0.0445,0.0435,0.3488,ab000044,0*5764d7bd
#INSPVAXA,FILE,0,22.5,FINESTEERING,2316,563927.500,02000800,46eb,17139;INS_SOLUTION_GOOD,INS_PPP,17.60145335442,78.12662824805,525.1006,-76.2000,-0.0019,-0.0004,-0.0010,1.302160587,-0.970552230,5.952978508,0.0774,0.0888,0.0829,0.0083,0.0083,0.0051,0.0445,0.0435,0.3488,ab000044,0*b4c178d2
#INSPVAXA,FILE,0,22.5,FINESTEERING,2316,563927.550,02000800,46eb,17139;INS_SOLUTION_GOOD,INS_PPP,17.60145335449,78.12662824668,525.1005,-76.2000,-0.0015,0.0004,-0.0022,1.301179544,-0.971144211,5.953333042,0.0774,0.0888,0.0829,0.0083,0.0083,0.0051,0.0445,0.0435,0.3488,ab000044,0*3a6e5fc3
#INSPVAXA,FILE,0,22.5,FINESTEERING,2316,563927.600,02000800,46eb,17139;INS_SOLUTION_GOOD,INS_PPP,17.60145335431,78.12662824571,525.1004,-76.2000,-0.0015,0.0013,-0.0013,1.303362830,-0.968018684,5.952565277,0.0774,0.0888,0.0829,0.0083,0.0083,0.0051,0.0445,0.0435,0.3488,ab000044,0*429ddfe9
#INSPVAXA,FILE,0,22.5,FINESTEERING,2316,563927.650,02000800,46eb,17139;INS_SOLUTION_GOOD,INS_PPP,17.60145335434,78.12662824522,525.1003,-76.2000,-0.0012,0.0020,-0.0004,1.304567795,-0.965420492,5.951385000,0.0774,0.0888,0.0829,0.0083,0.0083,0.0051,0.0445,0.0435,0.3488,ab000044,0*ff4d47f5
#INSPVAXA,FILE,0,22.5,FINESTEERING,2316,563927.700,02000800,46eb,17139;INS_SOLUTION_GOOD,INS_PPP,17.60145335444,78.12662824480,525.1002,-76.2000,-0.0014,0.0017,0.0001,1.306949666,-0.965561334,5.950161352,0.0774,0.0888,0.0829,0.0083,0.0083,0.0051,0.0445,0.0435,0.3488,ab000044,0*4d8e97b3
#INSPVAXA,FILE,0,22.5,FINESTEERING,2316,563927.750,02000800,46eb,17139;INS_SOLUTION_GOOD,INS_PPP,17.60145335458,78.12662824392,525.1001,-76.2000,-0.0012,0.0006,-0.0013,1.310314754,-0.963332713,5.950540036,0.0774,0.0888,0.0829,0.0083,0.0083,0.0051,0.0445,0.0435,0.3488,ab000044,0*1598dfc3
#INSPVAXA,FILE,0,22.5,FINESTEERING,2316,563927.800,02000800,46eb,17139;INS_SOLUTION_GOOD,INS_PPP,17.60145335468,78.12662824280,525.1000,-76.2000,-0.0012,-0.0001,-0.0004,1.309618693,-0.963936932,5.950650180,0.0774,0.0888,0.0829,0.0083,0.0083,0.0051,0.0445,0.0435,0.3488,ab000044,0*9fbdec79
#INSPVAXA,FILE,0,22.5,FINESTEERING,2316,563927.850,02000800,46eb,17139;INS_SOLUTION_GOOD,INS_PPP,17.60145335469,78.12662824138,525.1000,-76.2000,-0.0013,-0.0007,0.0016,1.308309354,-0.962922956,5.950621887,0.0774,0.0888,0.0829,0.0083,0.0083,0.0051,0.0445,0.0435,0.3488,ab000044,0*c86a5bc1
#INSPVAXA,FILE,0,22.5,FINESTEERING,2316,563927.900,02000800,46eb,17139;INS_SOLUTION_GOOD,INS_PPP,17.60145335478,78.12662823990,525.1000,-76.2000,-0.0009,-0.0006,0.0016,1.306672302,-0.965061515,5.950484416,0.0774,0.0888,0.0829,0.0083,0.0083,0.0051,0.0445,0.0435,0.3488,ab000044,0*b0ea6886
#INSPVAXA,FILE,0,22.5,FINESTEERING,2316,563927.950,02000800,46eb,17139;INS_SOLUTION_GOOD,INS_PPP,17.60145335501,78.12662823858,525.1000,-76.2000,-0.0009,-0.0004,0.0022,1.305380710,-0.965772255,5.950208726,0.0774,0.0888,0.0829,0.0083,0.0083,0.0051,0.0445,0.0435,0.3488,ab000044,0*840e4e39
#INSPVAXA,FILE,0,22.5,FINESTEERING,2316,563928.000,02000800,46eb,17139;INS_SOLUTION_GOOD,INS_PPP,17.60145335521,78.12662823713,525.1000,-76.2000,-0.0013,-0.0009,0.0019,1.305625239,-0.969005702,5.950824862,0.0774,0.0888,0.0829,0.0083,0.0083,0.0051,0.0445,0.0435,0.3488,ab000044,0*d29935fe
#INSPVAXA,FILE,0,22.5,FINESTEERING,2316,563928.050,02000800,46eb,17139;INS_SOLUTION_GOOD,INS_PPP,17.60145335551,78.12662823634,525.1001,-76.2000,-0.0013,0.0001,0.0008,1.304540616,-0.971691664,5.950773931,0.0783,0.0895,0.0833,0.0085,0.0085,0.0055,0.0444,0.0435,0.3490,ab000044,0*d3421def
#INSPVAXA,FILE,0,22.5,FINESTEERING,2316,563928.100,02000800,46eb,17139;INS_SOLUTION_GOOD,INS_PPP,17.60145335579,78.12662823629,525.1001,-76.2000,-0.0013,0.0000,-0.0005,1.305024343,-0.970151017,5.950026206,0.0783,0.0895,0.0833,0.0085,0.0085,0.0055,0.0444,0.0435,0.3490,ab000044,0*0588115c
#INSPVAXA,FILE,0,30.0,FINESTEERING,2316,563928.150,02000800,46eb,17139;INS_SOLUTION_GOOD,INS_PPP,17.60145335601,78.12662823607,525.1002,-76.2000,-0.0016,-0.0007,0.0011,1.305754590,-0.971291635,5.949531514,0.0783,0.0895,0.0833,0.0085,0.0085,0.0055,0.0444,0.0435,0.3490,ab000044,0*75e17b2d
#INSPVAXA,FILE,0,30.0,FINESTEERING,2316,563928.200,02000800,46eb,17139;INS_SOLUTION_GOOD,INS_PPP,17.60145335624,78.12662823575,525.1002,-76.2000,-0.0018,-0.0007,0.0008,1.304616549,-0.972070508,5.949479069,0.0783,0.0895,0.0833,0.0085,0.0085,0.0055,0.0444,0.0435,0.3490,ab000044,0*e8b4c915
#INSPVAXA,FILE,0,30.0,FINESTEERING,2316,563928.250,02000800,46eb,17139;INS_SOLUTION_GOOD,INS_PPP,17.60145335665,78.12662823527,525.1003,-76.2000,-0.0009,-0.0009,0.0006,1.303942597,-0.974131599,5.949738718,0.0783,0.0895,0.0833,0.0085,0.0085,0.0055,0.0444,0.0435,0.3490,ab000044,0*c349cb89
#INSPVAXA,FILE,0,30.0,FINESTEERING,2316,563928.300,02000800,46eb,17139;INS_SOLUTION_GOOD,INS_PPP,17.60145335696,78.12662823485,525.1004,-76.2000,-0.0012,-0.0005,0.0019,1.303849342,-0.976494601,5.949527273,0.0783,0.0895,0.0833,0.0085,0.0085,0.0055,0.0444,0.0435,0.3490,ab000044,0*bf765b33
#INSPVAXA,FILE,0,30.0,FINESTEERING,2316,563928.350,02000800,46eb,17139;INS_SOLUTION_GOOD,INS_PPP,17.60145335697,78.12662823468,525.1006,-76.2000,-0.0024,-0.0001,0.0027,1.303755308,-0.978830815,5.948790502,0.0783,0.0895,0.0833,0.0085,0.0085,0.0055,0.0444,0.0435,0.3490,ab000044,0*35b64a99
#INSPVAXA,FILE,0,30.0,FINESTEERING,2316,563928.400,02000800,46eb,17139;INS_SOLUTION_GOOD,INS_PPP,17.60145335874,78.12662823423,525.1001,-76.2000,0.0111,-0.0037,-0.0344,1.326865481,-0.874960545,5.951173625,0.0783,0.0895,0.0833,0.0085,0.0085,0.0055,0.0444,0.0435,0.3490,ab000044,0*71761ce6
#INSPVAXA,FILE,0,30.0,FINESTEERING,2316,563928.450,02000800,46eb,17139;INS_SOLUTION_GOOD,INS_PPP,17.60145335931,78.12662823383,525.1001,-76.2000,0.0031,0.0024,0.0312,1.310033641,-0.884784538,5.952487117,0.0783,0.0895,0.0833,0.0085,0.0085,0.0055,0.0444,0.0435,0.3490,ab000044,0*7aeda7f5
#INSPVAXA,FILE,0,30.0,FINESTEERING,2316,563928.500,02000800,46eb,17139;INS_SOLUTION_GOOD,INS_PPP,17.60145335671,78.12662823272,525.1006,-76.2000,-0.0103,-0.0009,0.0518,1.309787964,-0.922295072,5.951715363,0.0783,0.0895,0.0833,0.0085,0.0085,0.0055,0.0444,0.0435,0.3490,ab000044,0*9c5e7cfc
#INSPVAXA,FILE,0,30.0,FINESTEERING,2316,563928.550,02000800,46eb,17139;INS_SOLUTION_GOOD,INS_PPP,17.60145335542,78.12662823268,525.1011,-76.2000,-0.0066,0.0011,0.0354,1.310598599,-0.958096297,5.947807360,0.0783,0.0895,0.0833,0.0085,0.0085,0.0055,0.0444,0.0435,0.3490,ab000044,0*711ceb88
#INSPVAXA,FILE,0,30.0,FINESTEERING,2316,563928.600,02000800,46eb,17139;INS_SOLUTION_GOOD,INS_PPP,17.60145335420,78.12662823267,525.1016,-76.2000,-0.0043,0.0002,0.0251,1.300038056,-0.985181993,5.947519256,0.0783,0.0895,0.0833,0.0085,0.0085,0.0055,0.0444,0.0435,0.3490,ab000044,0*23b18a06
#INSPVAXA,FILE,0,30.0,FINESTEERING,2316,563928.650,02000800,46eb,17139;INS_SOLUTION_GOOD,INS_PPP,17.60145335271,78.12662823107,525.1020,-76.2000,-0.0067,-0.0041,0.0302,1.297580456,-0.996790259,5.949275487,0.0783,0.0895,0.0833,0.0085,0.0085,0.0055,0.0444,0.0435,0.3490,ab000044,0*0b75b102
#INSPVAXA,FILE,0,30.0,FINESTEERING,2316,563928.700,02000800,46eb,17139;INS_SOLUTION_GOOD,INS_PPP,17.60145335178,78.12662823020,525.1018,-76.2000,-0.0050,-0.0001,0.0164,1.294204636,-1.006461978,5.948214059,0.0783,0.0895,0.0833,0.0085,0.0085,0.0055,0.0444,0.0435,0.3490,ab000044,0*74a2f3af
#INSPVAXA,FILE,0,30.0,FINESTEERING,2316,563928.750,02000800,46eb,17139;INS_SOLUTION_GOOD,INS_PPP,17.60145335126,78.12662822976,525.1015,-76.2000,-0.0031,0.0005,0.0070,1.292742532,-1.013006261,5.946606705,0.0783,0.0895,0.0833,0.0085,0.0085,0.0055,0.0444,0.0435,0.3490,ab000044,0*91584d23
#INSPVAXA,FILE,0,30.0,FINESTEERING,2316,563928.800,02000800,46eb,17139;INS_SOLUTION_GOOD,INS_PPP,17.60145335108,78.12662822916,525.1014,-76.2000,-0.0026,-0.0008,0.0093,1.296476075,-1.000620379,5.945726325,0.0783,0.0895,0.0833,0.0085,0.0085,0.0055,0.0444,0.0435,0.3490,ab000044,0*fc12a4f4
#INSPVAXA,FILE,0,30.0,FINESTEERING,2316,563928.850,02000800,46eb,17139;INS_SOLUTION_GOOD,INS_PPP,17.60145335051,78.12662822884,525.1015,-76.2000,-0.0039,-0.0004,0.0095,1.297091023,-1.000556313,5.946065822,0.0783,0.0895,0.0833,0.0085,0.0085,0.0055,0.0444,0.0435,0.3490,ab000044,0*2584385c
#INSPVAXA,FILE,0,30.0,FINESTEERING,2316,563928.900,02000800,46eb,17139;INS_SOLUTION_GOOD,INS_PPP,17.60145334929,78.12662822842,525.1016,-76.2000,-0.0048,-0.0010,0.0024,1.295648161,-1.002412561,5.946663486,0.0783,0.0895,0.0833,0.0085,0.0085,0.0055,0.0444,0.0435,0.3490,ab000044,0*e514da27
#INSPVAXA,FILE,0,30.0,FINESTEERING,2316,563928.950,02000800,46eb,17139;INS_SOLUTION_GOOD,INS_PPP,17.60145334817,78.12662822770,525.1018,-76.2000,-0.0036,-0.0022,-0.0037,1.298103248,-0.998390361,5.945942113,0.0783,0.0895,0.0833,0.0085,0.0085,0.0055,0.0444,0.0435,0.3490,ab000044,0*ff4364eb
#INSPVAXA,FILE,0,30.0,FINESTEERING,2316,563929.000,02000800,46eb,17139;INS_SOLUTION_GOOD,INS_PPP,17.60145334736,78.12662822670,525.1018,-76.2000,-0.0021,-0.0027,-0.0056,1.296741781,-0.995894369,5.945492087,0.0783,0.0895,0.0833,0.0085,0.0085,0.0055,0.0444,0.0435,0.3490,ab000044,0*55bc8774
#INSPVAXA,FILE,0,30.0,FINESTEERING,2316,563929.050,02000800,46eb,17139;INS_SOLUTION_GOOD,INS_PPP,17.60145334682,78.12662822601,525.1017,-76.2000,-0.0027,-0.0022,-0.0062,1.294787709,-0.992804129,5.945408352,0.0791,0.0902,0.0837,0.0086,0.0086,0.0056,0.0445,0.0435,0.3491,ab000044,0*9da48ee7
#INSPVAXA,FILE,0,24.5,FINESTEERING,2316,563929.100,02000800,46eb,17139;INS_SOLUTION_GOOD,INS_PPP,17.60145334656,78.12662822599,525.1017,-76.2000,-0.0034,-0.0013,-0.0047,1.297324997,-0.988198835,5.945439169,0.0791,0.0902,0.0837,0.0086,0.0086,0.0056,0.0445,0.0435,0.3491,ab000044,0*dcbe2c47
#INSPVAXA,FILE,0,24.5,FINESTEERING,2316,563929.150,02000800,46eb,17139;INS_SOLUTION_GOOD,INS_PPP,17.60145334633,78.12662822646,525.1017,-76.2000,-0.0026,-0.0003,-0.0028,1.299032922,-0.987336486,5.945211386,0.0791,0.0902,0.0837,0.0086,0.0086,0.0056,0.0445,0.0435,0.3491,ab000044,0*37574fb8
#INSPVAXA,FILE,0,24.5,FINESTEERING,2316,563929.200,02000800,46eb,17139;INS_SOLUTION_GOOD,INS_PPP,17.60145334579,78.12662822681,525.1017,-76.2000,-0.0031,-0.0013,-0.0031,1.299194203,-0.984261764,5.944987401,0.0791,0.0902,0.0837,0.0086,0.0086,0.0056,0.0445,0.0435,0.3491,ab000044,0*7a566588
#INSPVAXA,FILE,0,24.5,FINESTEERING,2316,563929.250,02000800,46eb,17139;INS_SOLUTION_GOOD,INS_PPP,17.60145334529,78.12662822671,525.1016,-76.2000,-0.0035,-0.0019,-0.0039,1.299988688,-0.983223923,5.945417703,0.0791,0.0902,0.0837,0.0086,0.0086,0.0056,0.0445,0.0435,0.3491,ab000044,0*9f8ab709
#INSPVAXA,FILE,0,24.5,FINESTEERING,2316,563929.300,02000800,46eb,17139;INS_SOLUTION_GOOD,INS_PPP,17.60145334473,78.12662822673,525.1016,-76.2000,-0.0032,-0.0013,-0.0031,1.299293506,-0.983246886,5.944646049,0.0791,0.0902,0.0837,0.0086,0.0086,0.0056,0.0445,0.0435,0.3491,ab000044,0*c7be49cc
#INSPVAXA,FILE,0,24.5,FINESTEERING,2316,563929.350,02000800,46eb,17139;INS_SOLUTION_GOOD,INS_PPP,17.60145334425,78.12662822667,525.1015,-76.2000,-0.0029,-0.0016,-0.0023,1.298864789,-0.982555037,5.943972757,0.0791,0.0902,0.0837,0.0086,0.0086,0.0056,0.0445,0.0435,0.3491,ab000044,0*34d5059f
#INSPVAXA,FILE,0,24.5,FINESTEERING,2316,563929.400,02000800,46eb,17139;INS_SOLUTION_GOOD,INS_PPP,17.60145334379,78.12662822660,525.1015,-76.2000,-0.0034,-0.0013,-0.0008,1.298605774,-0.984580070,5.944686638,0.0791,0.0902,0.0837,0.0086,0.0086,0.0056,0.0445,0.0435,0.3491,ab000044,0*9a011ccc
#INSPVAXA,FILE,0,24.5,FINESTEERING,2316,563929.450,02000800,46eb,17139;INS_SOLUTION_GOOD,INS_PPP,17.60145334314,78.12662822677,525.1015,-76.2000,-0.0037,-0.0009,-0.0012,1.298486966,-0.982418126,5.945022189,0.0791,0.0902,0.0837,0.0086,0.0086,0.0056,0.0445,0.0435,0.3491,ab000044,0*af505626
#INSPVAXA,FILE,0,24.5,FINESTEERING,2316,563929.500,02000800,46eb,17139;INS_SOLUTION_GOOD,INS_PPP,17.60145334244,78.12662822707,525.1015,-76.2000,-0.0034,-0.0007,-0.0016,1.298363110,-0.982846451,5.944690108,0.0791,0.0902,0.0837,0.0086,0.0086,0.0056,0.0445,0.0435,0.3491,ab000044,0*0bf758d0
#INSPVAXA,FILE,0,24.5,FINESTEERING,2316,563929.550,02000800,46eb,17139;INS_SOLUTION_GOOD,INS_PPP,17.60145334165,78.12662822712,525.1014,-76.2000,-0.0038,-0.0016,-0.0022,1.296635928,-0.981188267,5.944390002,0.0791,0.0902,0.0837,0.0086,0.0086,0.0056,0.0445,0.0435,0.3491,ab000044,0*877e8ddb
#INSPVAXA,FILE,0,24.5,FINESTEERING,2316,563929.600,02000800,46eb,17139;INS_SOLUTION_GOOD,INS_PPP,17.60145334101,78.12662822682,525.1013,-76.2000,-0.0032,-0.0021,-0.0024,1.296550644,-0.980513237,5.945378900,0.0791,0.0902,0.0837,0.0086,0.0086,0.0056,0.0445,0.0435,0.3491,ab000044,0*fceb3353
#INSPVAXA,FILE,0,24.5,FINESTEERING,2316,563929.650,02000800,46eb,17139;INS_SOLUTION_GOOD,INS_PPP,17.60145334068,78.12662822680,525.1012,-76.2000,-0.0023,-0.0009,-0.0028,1.294348245,-0.979855767,5.946034322,0.0791,0.0902,0.0837,0.0086,0.0086,0.0056,0.0445,0.0435,0.3491,ab000044,0*0f9c2cd4
#INSPVAXA,FILE,0,24.5,FINESTEERING,2316,563929.700,02000800,46eb,17139;INS_SOLUTION_GOOD,INS_PPP,17.60145334018,78.12662822660,525.1012,-76.2000,-0.0034,-0.0023,-0.0019,1.291750078,-0.978193334,5.946395871,0.0791,0.0902,0.0837,0.0086,0.0086,0.0056,0.0445,0.0435,0.3491,ab000044,0*741ca099
#INSPVAXA,FILE,0,24.5,FINESTEERING,2316,563929.750,02000800,46eb,17139;INS_SOLUTION_GOOD,INS_PPP,17.60145333927,78.12662822652,525.1012,-76.2000,-0.0040,-0.0009,-0.0010,1.293299379,-0.978970375,5.945968619,0.0791,0.0902,0.0837,0.0086,0.0086,0.0056,0.0445,0.0435,0.3491,ab000044,0*95d5bb7b
#INSPVAXA,FILE,0,24.5,FINESTEERING,2316,563929.800,02000800,46eb,17139;INS_SOLUTION_GOOD,INS_PPP,17.60145333827,78.12662822672,525.1012,-76.2000,-0.0036,-0.0008,-0.0011,1.292153182,-0.977887508,5.943935322,0.0791,0.0902,0.0837,0.0086,0.0086,0.0056,0.0445,0.0435,0.3491,ab000044,0*2383300b
#INSPVAXA,FILE,0,24.5,FINESTEERING,2316,563929.850,02000800,46eb,17139;INS_SOLUTION_GOOD,INS_PPP,17.60145333758,78.12662822634,525.1011,-76.2000,-0.0033,-0.0026,-0.0007,1.292181515,-0.976715125,5.944406129,0.0791,0.0902,0.0837,0.0086,0.0086,0.0056,0.0445,0.0435,0.3491,ab000044,0*e5d28245
#INSPVAXA,FILE,0,24.5,FINESTEERING,2316,563929.900,02000800,46eb,17139;INS_SOLUTION_GOOD,INS_PPP,17.60145333712,78.12662822593,525.1010,-76.2000,-0.0026,-0.0017,-0.0003,1.291608965,-0.979793251,5.945553739,0.0791,0.0902,0.0837,0.0086,0.0086,0.0056,0.0445,0.0435,0.3491,ab000044,0*17611be3
#INSPVAXA,FILE,0,24.5,FINESTEERING,2316,563929.950,02000800,46eb,17139;INS_SOLUTION_GOOD,INS_PPP,17.60145333643,78.12662822611,525.1011,-76.2000,-0.0032,-0.0000,0.0002,1.295274545,-0.978199121,5.944451642,0.0791,0.0902,0.0837,0.0086,0.0086,0.0056,0.0445,0.0435,0.3491,ab000044,0*6664d0f1
#INSPVAXA,FILE,0,24.5,FINESTEERING,2316,563930.000,02000800,46eb,17139;INS_SOLUTION_GOOD,INS_PPP,17.60145333543,78.12662822659,525.1011,-76.2000,-0.0044,-0.0003,0.0012,1.296484831,-0.979980864,5.942151932,0.0791,0.0902,0.0837,0.0086,0.0086,0.0056,0.0445,0.0435,0.3491,ab000044,0*1ec4b70c
#INSPVAXA,FILE,0,24.5,FINESTEERING,2316,563930.050,02000800,46eb,17139;INS_SOLUTION_GOOD,INS_PPP,17.60145333530,78.12662822647,525.1009,-76.2000,-0.0034,-0.0028,-0.0034,1.287320725,-0.978420664,5.941275375,0.0799,0.0910,0.0841,0.0086,0.0086,0.0057,0.0445,0.0435,0.3492,ab000044,0*c48d3fc5
#INSPVAXA,FILE,0,24.5,FINESTEERING,2316,563930.100,02000800,46eb,17139;INS_SOLUTION_GOOD,INS_PPP,17.60145333651,78.12662822471,525.1007,-76.2000,-0.0003,-0.0067,-0.0026,1.279849232,-0.975617080,5.944991894,0.0799,0.0910,0.0841,0.0086,0.0086,0.0057,0.0445,0.0435,0.3492,ab000044,0*34944b75
#INSPVAXA,FILE,0,30.5,FINESTEERING,2316,563930.150,02000800,46eb,17139;INS_SOLUTION_GOOD,INS_PPP,17.60145333768,78.12662822363,525.1007,-76.2000,-0.0016,-0.0019,0.0002,1.277911484,-0.976651293,5.947862596,0.0799,0.0910,0.0841,0.0086,0.0086,0.0057,0.0445,0.0435,0.3492,ab000044,0*951d22cb
#INSPVAXA,FILE,0,30.5,FINESTEERING,2316,563930.200,02000800,46eb,17139;INS_SOLUTION_GOOD,INS_PPP,17.60145333953,78.12662822385,525.1003,-76.2000,0.0002,-0.0007,-0.0119,1.267169573,-0.974413305,5.945847610,0.0799,0.0910,0.0841,0.0086,0.0086,0.0057,0.0445,0.0435,0.3492,ab000044,0*afd65f93
#INSPVAXA,FILE,0,30.5,FINESTEERING,2316,563930.250,02000800,46eb,17139;INS_SOLUTION_GOOD,INS_PPP,17.60145334177,78.12662822461,525.0998,-76.2000,0.0014,0.0030,-0.0207,1.252723566,-0.960774987,5.945587485,0.0799,0.0910,0.0841,0.0086,0.0086,0.0057,0.0445,0.0435,0.3492,ab000044,0*36fc52dd
#INSPVAXA,FILE,0,30.5,FINESTEERING,2316,563930.300,02000800,46eb,17139;INS_SOLUTION_GOOD,INS_PPP,17.60145334437,78.12662822411,525.0984,-76.2000,0.0036,-0.0094,-0.0146,1.222389118,-0.955478170,5.945497055,0.0799,0.0910,0.0841,0.0086,0.0086,0.0057,0.0445,0.0435,0.3492,ab000044,0*6269ee7c
#INSPVAXA,FILE,0,30.5,FINESTEERING,2316,563930.350,02000800,46eb,17139;INS_SOLUTION_GOOD,INS_PPP,17.60145334839,78.12662822083,525.0976,-76.2000,0.0041,-0.0051,-0.0050,1.237341188,-0.940036988,5.955865195,0.0799,0.0910,0.0841,0.0086,0.0086,0.0057,0.0445,0.0435,0.3492,ab000044,0*5123233d
#INSPVAXA,FILE,0,30.5,FINESTEERING,2316,563930.400,02000800,46eb,17139;INS_SOLUTION_GOOD,INS_PPP,17.60145335056,78.12662822291,525.0970,-76.2000,-0.0024,0.0076,-0.0069,1.223073351,-0.937493564,5.948906437,0.0799,0.0910,0.0841,0.0086,0.0086,0.0057,0.0445,0.0435,0.3492,ab000044,0*804b1755
#INSPVAXA,FILE,0,30.5,FINESTEERING,2316,563930.450,02000800,46eb,17139;INS_SOLUTION_GOOD,INS_PPP,17.60145335241,78.12662822591,525.0962,-76.2000,0.0022,0.0053,-0.0190,1.196735493,-0.918597819,5.939424355,0.0799,0.0910,0.0841,0.0086,0.0086,0.0057,0.0445,0.0435,0.3492,ab000044,0*20ff350b
#INSPVAXA,FILE,0,30.5,FINESTEERING,2316,563930.500,02000800,46eb,17139;INS_SOLUTION_GOOD,INS_PPP,17.60145335660,78.12662822661,525.0948,-76.2000,0.0089,-0.0032,-0.0285,1.176815111,-0.895873424,5.934386001,0.0799,0.0910,0.0841,0.0086,0.0086,0.0057,0.0445,0.0435,0.3492,ab000044,0*b2f02699
#INSPVAXA,FILE,0,30.5,FINESTEERING,2316,563930.550,02000800,46eb,17139;INS_SOLUTION_GOOD,INS_PPP,17.60145336241,78.12662822349,525.0927,-76.2000,0.0101,-0.0113,-0.0457,1.159282534,-0.857878328,5.937812539,0.0799,0.0910,0.0841,0.0086,0.0086,0.0057,0.0445,0.0435,0.3492,ab000044,0*617b2719
#INSPVAXA,FILE,0,30.5,FINESTEERING,2316,563930.600,02000800,46eb,17139;INS_SOLUTION_GOOD,INS_PPP,17.60145336792,78.12662821890,525.0896,-76.2000,0.0070,-0.0108,-0.0719,1.116598074,-0.804302103,5.944332166,0.0799,0.0910,0.0841,0.0086,0.0086,0.0057,0.0445,0.0435,0.3492,ab000044,0*d615322c
#INSPVAXA,FILE,0,30.5,FINESTEERING,2316,563930.650,02000800,46eb,17139;INS_SOLUTION_GOOD,INS_PPP,17.60145337023,78.12662821604,525.0860,-76.2000,-0.0021,-0.0047,-0.0749,1.060317193,-0.741146944,5.941032866,0.0799,0.0910,0.0841,0.0086,0.0086,0.0057,0.0445,0.0435,0.3492,ab000044,0*c7b77ea3
#INSPVAXA,FILE,0,30.5,FINESTEERING,2316,563930.700,02000800,46eb,17139;INS_SOLUTION_GOOD,INS_PPP,17.60145336770,78.12662821569,525.0826,-76.2000,-0.0154,0.0004,-0.0699,1.031399956,-0.676451226,5.928785137,0.0799,0.0910,0.0841,0.0086,0.0086,0.0057,0.0445,0.0435,0.3492,ab000044,0*a3c9f2e5
#INSPVAXA,FILE,0,30.5,FINESTEERING,2316,563930.750,02000800,46eb,17139;INS_SOLUTION_GOOD,INS_PPP,17.60145335987,78.12662821538,525.0795,-76.2000,-0.0251,-0.0046,-0.0598,1.021520483,-0.619715088,5.919558675,0.0799,0.0910,0.0841,0.0086,0.0086,0.0057,0.0445,0.0435,0.3492,ab000044,0*fac92644
#INSPVAXA,FILE,0,30.5,FINESTEERING,2316,563930.800,02000800,46eb,17139;INS_SOLUTION_GOOD,INS_PPP,17.60145334960,78.12662821156,525.0775,-76.2000,-0.0269,-0.0125,-0.0318,1.033671643,-0.568750626,5.930930728,0.0799,0.0910,0.0841,0.0086,0.0086,0.0057,0.0445,0.0435,0.3492,ab000044,0*6e432d44
#INSPVAXA,FILE,0,30.5,FINESTEERING,2316,563930.850,02000800,46eb,17139;INS_SOLUTION_GOOD,INS_PPP,17.60145333898,78.12662820764,525.0769,-76.2000,-0.0268,-0.0070,0.0032,1.065342112,-0.550466201,5.953720823,0.0799,0.0910,0.0841,0.0086,0.0086,0.0057,0.0445,0.0435,0.3492,ab000044,0*716c04d3
#INSPVAXA,FILE,0,30.5,FINESTEERING,2316,563930.900,02000800,46eb,17139;INS_SOLUTION_GOOD,INS_PPP,17.60145332831,78.12662820841,525.0778,-76.2000,-0.0267,0.0059,0.0311,1.102335686,-0.563231104,5.963985602,0.0799,0.0910,0.0841,0.0086,0.0086,0.0057,0.0445,0.0435,0.3492,ab000044,0*b94507f8
#INSPVAXA,FILE,0,30.5,FINESTEERING,2316,563930.950,02000800,46eb,17139;INS_SOLUTION_GOOD,INS_PPP,17.60145331791,78.12662821246,525.0797,-76.2000,-0.0258,0.0096,0.0464,1.146962812,-0.596897782,5.956655874,0.0799,0.0910,0.0841,0.0086,0.0086,0.0057,0.0445,0.0435,0.3492,ab000044,0*dabfbb43
#INSPVAXA,FILE,0,30.5,FINESTEERING,2316,563931.000,02000800,46eb,17139;INS_SOLUTION_GOOD,INS_PPP,17.60145330777,78.12662821694,525.0822,-76.2000,-0.0250,0.0078,0.0492,1.180282373,-0.640364154,5.941051287,0.0799,0.0910,0.0841,0.0086,0.0086,0.0057,0.0445,0.0435,0.3492,ab000044,0*14d0d42e
#INSPVAXA,FILE,0,30.5,FINESTEERING,2316,563931.050,02000800,46eb,17139;INS_SOLUTION_GOOD,INS_PPP,17.60145329930,78.12662822030,525.0845,-76.2000,-0.0236,0.0015,0.0380,1.186655765,-0.677956591,5.931017166,0.0688,0.0807,0.0783,0.0113,0.0114,0.0080,0.0448,0.0438,0.3502,ab000041,0*aba431fd
#INSPVAXA,FILE,0,29.0,FINESTEERING,2316,563931.100,02000800,46eb,17139;INS_SOLUTION_GOOD,INS_PPP,17.60145329304,78.12662822165,525.0862,-76.2000,-0.0228,-0.0060,0.0177,1.187578676,-0.702147847,5.931521918,0.0688,0.0807,0.0783,0.0113,0.0114,0.0080,0.0448,0.0438,0.3502,ab000041,0*49198383
#INSPVAXA,FILE,0,29.0,FINESTEERING,2316,563931.150,02000800,46eb,17139;INS_SOLUTION_GOOD,INS_PPP,17.60145328659,78.12662822174,525.0871,-76.2000,-0.0242,-0.0050,0.0006,1.193316047,-0.713228305,5.937528340,0.0688,0.0807,0.0783,0.0113,0.0114,0.0080,0.0448,0.0438,0.3502,ab000041,0*0407305b
#INSPVAXA,FILE,0,29.0,FINESTEERING,2316,563931.200,02000800,46eb,17139;INS_SOLUTION_GOOD,INS_PPP,17.60145328031,78.12662822202,525.0870,-76.2000,-0.0228,-0.0047,-0.0125,1.197440857,-0.706889537,5.941473571,0.0688,0.0807,0.0783,0.0113,0.0114,0.0080,0.0448,0.0438,0.3502,ab000041,0*64d2ebd7
#INSPVAXA,FILE,0,29.0,FINESTEERING,2316,563931.250,02000800,46eb,17139;INS_SOLUTION_GOOD,INS_PPP,17.60145327495,78.12662822221,525.0865,-76.2000,-0.0194,-0.0048,-0.0185,1.198817929,-0.692480427,5.944304687,0.0688,0.0807,0.0783,0.0113,0.0114,0.0080,0.0448,0.0438,0.3502,ab000041,0*4a367393
#INSPVAXA,FILE,0,29.0,FINESTEERING,2316,563931.300,02000800,46eb,17139;INS_SOLUTION_GOOD,INS_PPP,17.60145327101,78.12662822296,525.0859,-76.2000,-0.0167,-0.0030,-0.0212,1.199923144,-0.670015157,5.944767635,0.0688,0.0807,0.0783,0.0113,0.0114,0.0080,0.0448,0.0438,0.3502,ab000041,0*3e1f8654
#INSPVAXA,FILE,0,29.0,FINESTEERING,2316,563931.350,02000800,46eb,17139;INS_SOLUTION_GOOD,INS_PPP,17.60145326798,78.12662822437,525.0852,-76.2000,-0.0157,-0.0012,-0.0191,1.197248794,-0.647836781,5.943164383,0.0688,0.0807,0.0783,0.0113,0.0114,0.0080,0.0448,0.0438,0.3502,ab000041,0*be80ceb5
#INSPVAXA,FILE,0,29.0,FINESTEERING,2316,563931.400,02000800,46eb,17139;INS_SOLUTION_GOOD,INS_PPP,17.60145326505,78.12662822690,525.0849,-76.2000,-0.0159,0.0008,-0.0083,1.192487927,-0.639117729,5.938415386,0.0688,0.0807,0.0783,0.0113,0.0114,0.0080,0.0448,0.0438,0.3502,ab000041,0*146b402b
#INSPVAXA,FILE,0,29.0,FINESTEERING,2316,563931.450,02000800,46eb,17139;INS_SOLUTION_GOOD,INS_PPP,17.60145326194,78.12662823625,525.0850,-76.2000,-0.0174,0.0319,-0.0023,1.202825578,-0.641853036,5.926382369,0.0688,0.0807,0.0783,0.0113,0.0114,0.0080,0.0448,0.0438,0.3502,ab000041,0*a27db0fb
#INSPVAXA,FILE,0,29.0,FINESTEERING,2316,563931.500,02000800,46eb,17139;INS_SOLUTION_GOOD,INS_PPP,17.60145325971,78.12662823768,525.0854,-76.2000,-0.0137,-0.0083,0.0061,1.229260358,-0.654620401,5.925160946,0.0688,0.0807,0.0783,0.0113,0.0114,0.0080,0.0448,0.0438,0.3502,ab000041,0*54b08d7c
#INSPVAXA,FILE,0,29.0,FINESTEERING,2316,563931.550,02000800,46eb,17139;INS_SOLUTION_GOOD,INS_PPP,17.60145325816,78.12662823300,525.0858,-76.2000,-0.0133,-0.0184,0.0020,1.231786639,-0.647536468,5.946678706,0.0688,0.0807,0.0783,0.0113,0.0114,0.0080,0.0448,0.0438,0.3502,ab000041,0*ae7785ae
#INSPVAXA,FILE,0,29.0,FINESTEERING,2316,563931.600,02000800,46eb,17139;INS_SOLUTION_GOOD,INS_PPP,17.60145325741,78.12662823018,525.0862,-76.2000,-0.0109,-0.0081,-0.0010,1.213196842,-0.642003193,5.957840695,0.0688,0.0807,0.0783,0.0113,0.0114,0.0080,0.0448,0.0438,0.3502,ab000041,0*7c9e2909
#INSPVAXA,FILE,0,29.0,FINESTEERING,2316,563931.650,02000800,46eb,17139;INS_SOLUTION_GOOD,INS_PPP,17.60145325680,78.12662823223,525.0867,-76.2000,-0.0101,0.0037,0.0001,1.199218131,-0.639174428,5.947843072,0.0688,0.0807,0.0783,0.0113,0.0114,0.0080,0.0448,0.0438,0.3502,ab000041,0*0cfb1ec7
#INSPVAXA,FILE,0,29.0,FINESTEERING,2316,563931.700,02000800,46eb,17139;INS_SOLUTION_GOOD,INS_PPP,17.60145325689,78.12662823654,525.0872,-76.2000,-0.0080,0.0040,-0.0009,1.193346805,-0.644929666,5.931936631,0.0688,0.0807,0.0783,0.0113,0.0114,0.0080,0.0448,0.0438,0.3502,ab000041,0*c789e50f
#INSPVAXA,FILE,0,29.0,FINESTEERING,2316,563931.750,02000800,46eb,17139;INS_SOLUTION_GOOD,INS_PPP,17.60145325810,78.12662823880,525.0877,-76.2000,-0.0047,-0.0039,-0.0030,1.187283246,-0.648765785,5.927698925,0.0688,0.0807,0.0783,0.0113,0.0114,0.0080,0.0448,0.0438,0.3502,ab000041,0*822426c8
#INSPVAXA,FILE,0,29.0,FINESTEERING,2316,563931.800,02000800,46eb,17139;INS_SOLUTION_GOOD,INS_PPP,17.60145326077,78.12662823853,525.0881,-76.2000,-0.0019,-0.0075,-0.0029,1.182453021,-0.651530107,5.939567600,0.0688,0.0807,0.0783,0.0113,0.0114,0.0080,0.0448,0.0438,0.3502,ab000041,0*814e7c5a
#INSPVAXA,FILE,0,29.0,FINESTEERING,2316,563931.850,02000800,46eb,17139;INS_SOLUTION_GOOD,INS_PPP,17.60145326850,78.12662823885,525.0882,-76.2000,0.0220,-0.0031,-0.0157,1.185973526,-0.629182024,5.951574667,0.0688,0.0807,0.0783,0.0113,0.0114,0.0080,0.0448,0.0438,0.3502,ab000041,0*111a1acf
#INSPVAXA,FILE,0,29.0,FINESTEERING,2316,563931.900,02000800,46eb,17139;INS_SOLUTION_GOOD,INS_PPP,17.60145328778,78.12662824242,525.0876,-76.2000,0.0505,0.0062,-0.0221,1.190759315,-0.589480879,5.951925812,0.0688,0.0807,0.0783,0.0113,0.0114,0.0080,0.0448,0.0438,0.3502,ab000041,0*fb9ee8b2
#INSPVAXA,FILE,0,29.0,FINESTEERING,2316,563931.950,02000800,46eb,17139;INS_SOLUTION_GOOD,INS_PPP,17.60145332961,78.12662824837,525.0859,-76.2000,0.1068,0.0097,-0.0488,1.185223759,-0.532942436,5.949099611,0.0688,0.0807,0.0783,0.0113,0.0114,0.0080,0.0448,0.0438,0.3502,ab000041,0*50c1d567
#INSPVAXA,FILE,0,29.0,FINESTEERING,2316,563932.000,02000800,46eb,17139;INS_SOLUTION_GOOD,INS_PPP,17.60145339268,78.12662825516,525.0838,-76.2000,0.1586,0.0096,-0.0463,1.168717664,-0.444216757,5.943981790,0.0688,0.0807,0.0783,0.0113,0.0114,0.0080,0.0448,0.0438,0.3502,ab000041,0*01c7c421
#INSPVAXA,FILE,0,29.0,FINESTEERING,2316,563932.050,02000800,46eb,17139;INS_SOLUTION_GOOD,INS_PPP,17.60145348070,78.12662826151,525.0818,-76.2000,0.2123,0.0077,-0.0453,1.148709228,-0.375838209,5.950197310,0.0627,0.0745,0.0743,0.0139,0.0140,0.0099,0.0450,0.0441,0.3511,ab001041,0*1f015916
#INSPVAXA,FILE,0,29.0,FINESTEERING,2316,563932.100,02000800,46eb,17139;INS_SOLUTION_GOOD,INS_PPP,17.60145359190,78.12662826980,525.0805,-76.2000,0.2686,0.0171,-0.0207,1.129413613,-0.315665353,5.955723179,0.0627,0.0745,0.0743,0.0139,0.0140,0.0099,0.0450,0.0441,0.3511,ab001041,0*6026a63a
#INSPVAXA,FILE,0,29.0,FINESTEERING,2316,563932.150,02000800,46eb,17139;INS_SOLUTION_GOOD,INS_PPP,17.60145372546,78.12662828222,525.0798,-76.2000,0.3127,0.0272,-0.0117,1.104898607,-0.286523938,5.955955311,0.0627,0.0745,0.0743,0.0139,0.0140,0.0099,0.0450,0.0441,0.3511,ab001041,0*8e2508bd
#INSPVAXA,FILE,0,29.0,FINESTEERING,2316,563932.200,02000800,46eb,17139;INS_SOLUTION_GOOD,INS_PPP,17.60145388261,78.12662829858,525.0798,-76.2000,0.3683,0.0327,-0.0011,1.069507726,-0.271624778,5.947310603,0.0627,0.0745,0.0743,0.0139,0.0140,0.0099,0.0450,0.0441,0.3511,ab001041,0*7401ab8e
#INSPVAXA,FILE,0,29.0,FINESTEERING,2316,563932.250,02000800,46eb,17139;INS_SOLUTION_GOOD,INS_PPP,17.60145406093,78.12662831688,525.0800,-76.2000,0.4130,0.0356,0.0022,1.053634366,-0.265297281,5.935600704,0.0627,0.0745,0.0743,0.0139,0.0140,0.0099,0.0450,0.0441,0.3511,ab001041,0*2cf23bdc
#INSPVAXA,FILE,0,29.0,FINESTEERING,2316,563932.300,02000800,46eb,17139;INS_SOLUTION_GOOD,INS_PPP,17.60145426319,78.12662833799,525.0808,-76.2000,0.4659,0.0429,0.0054,1.053487339,-0.264689444,5.928490075,0.0627,0.0745,0.0743,0.0139,0.0140,0.0099,0.0450,0.0441,0.3511,ab001041,0*44b031e3
#INSPVAXA,FILE,0,29.0,FINESTEERING,2316,563932.350,02000800,46eb,17139;INS_SOLUTION_GOOD,INS_PPP,17.60145448686,78.12662836280,525.0814,-76.2000,0.5198,0.0493,0.0035,1.040719624,-0.257597796,5.920131830,0.0627,0.0745,0.0743,0.0139,0.0140,0.0099,0.0450,0.0441,0.3511,ab001041,0*f940b301
#INSPVAXA,FILE,0,29.0,FINESTEERING,2316,563932.400,02000800,46eb,17139;INS_SOLUTION_GOOD,INS_PPP,17.60145473355,78.12662838811,525.0820,-76.2000,0.5719,0.0479,0.0065,1.032514563,-0.254752262,5.921225450,0.0627,0.0745,0.0743,0.0139,0.0140,0.0099,0.0450,0.0441,0.3511,ab001041,0*7c122d33
#INSPVAXA,FILE,0,29.0,FINESTEERING,2316,563932.450,02000800,46eb,17139;INS_SOLUTION_GOOD,INS_PPP,17.60145500506,78.12662841333,525.0823,-76.2000,0.6258,0.0508,0.0108,1.034647747,-0.256295802,5.925070191,0.0627,0.0745,0.0743,0.0139,0.0140,0.0099,0.0450,0.0441,0.3511,ab001041,0*48a17e86
#INSPVAXA,FILE,0,29.0,FINESTEERING,2316,563932.500,02000800,46eb,17139;INS_SOLUTION_GOOD,INS_PPP,17.60145530386,78.12662844013,525.0819,-76.2000,0.6869,0.0564,0.0042,1.017654585,-0.251379437,5.928012384,0.0627,0.0745,0.0743,0.0139,0.0140,0.0099,0.0450,0.0441,0.3511,ab001041,0*b1190501
#INSPVAXA,FILE,0,29.0,FINESTEERING,2316,563932.550,02000800,46eb,17139;INS_SOLUTION_GOOD,INS_PPP,17.60145563214,78.12662846964,525.0807,-76.2000,0.7518,0.0631,-0.0012,0.989814429,-0.233421015,5.922443691,0.0627,0.0745,0.0743,0.0139,0.0140,0.0099,0.0450,0.0441,0.3511,ab001041,0*22688a78
#INSPVAXA,FILE,0,29.0,FINESTEERING,2316,563932.600,02000800,46eb,17139;INS_SOLUTION_GOOD,INS_PPP,17.60145599511,78.12662850304,525.0791,-76.2000,0.8403,0.0724,-0.0230,0.977909942,-0.177602616,5.911043163,0.0627,0.0745,0.0743,0.0139,0.0140,0.0099,0.0450,0.0441,0.3511,ab001041,0*fa7871d9
#INSPVAXA,FILE,0,29.0,FINESTEERING,2316,563932.650,02000800,46eb,17139;INS_SOLUTION_GOOD,INS_PPP,17.60145639039,78.12662854286,525.0771,-76.2000,0.9121,0.0890,-0.0281,0.960192485,-0.093435989,5.885432417,0.0627,0.0745,0.0743,0.0139,0.0140,0.0099,0.0450,0.0441,0.3511,ab001041,0*06281d8a
#INSPVAXA,FILE,0,29.0,FINESTEERING,2316,563932.700,02000800,46eb,17139;INS_SOLUTION_GOOD,INS_PPP,17.60145682467,78.12662858803,525.0750,-76.2000,1.0007,0.0976,-0.0383,0.943586674,-0.017643291,5.853760508,0.0627,0.0745,0.0743,0.0139,0.0140,0.0099,0.0450,0.0441,0.3511,ab001041,0*e5dcdaf7
#INSPVAXA,FILE,0,29.0,FINESTEERING,2316,563932.750,02000800,46eb,17139;INS_SOLUTION_GOOD,INS_PPP,17.60145729514,78.12662863747,525.0729,-76.2000,1.0822,0.1051,-0.0371,0.934629799,0.060001953,5.813833193,0.0627,0.0745,0.0743,0.0139,0.0140,0.0099,0.0450,0.0441,0.3511,ab001041,0*cc1fe794
#INSPVAXA,FILE,0,29.0,FINESTEERING,2316,563932.800,02000800,46eb,17139;INS_SOLUTION_GOOD,INS_PPP,17.60145780209,78.12662868890,525.0717,-76.2000,1.1570,0.1048,-0.0359,0.938207624,0.109486393,5.782318610,0.0627,0.0745,0.0743,0.0139,0.0140,0.0099,0.0450,0.0441,0.3511,ab001041,0*363afca0
#INSPVAXA,FILE,0,29.0,FINESTEERING,2316,563932.850,02000800,46eb,17139;INS_SOLUTION_GOOD,INS_PPP,17.60145834480,78.12662874160,525.0710,-76.2000,1.2391,0.1079,-0.0277,0.941535811,0.147353476,5.752021220,0.0627,0.0745,0.0743,0.0139,0.0140,0.0099,0.0450,0.0441,0.3511,ab001041,0*670c7d1b
#INSPVAXA,FILE,0,29.0,FINESTEERING,2316,563932.900,02000800,46eb,17139;INS_SOLUTION_GOOD,INS_PPP,17.60145891798,78.12662879766,525.0711,-76.2000,1.2895,0.1182,-0.0115,0.950032090,0.152978781,5.714839347,0.0627,0.0745,0.0743,0.0139,0.0140,0.0099,0.0450,0.0441,0.3511,ab001041,0*c3d87857
#INSPVAXA,FILE,0,29.0,FINESTEERING,2316,563932.950,02000800,46eb,17139;INS_SOLUTION_GOOD,INS_PPP,17.60145951605,78.12662885866,525.0719,-76.2000,1.3366,0.1272,0.0095,0.945183368,0.125254338,5.658973142,0.0627,0.0745,0.0743,0.0139,0.0140,0.0099,0.0450,0.0441,0.3511,ab001041,0*4f7ba327
#INSPVAXA,FILE,0,29.0,FINESTEERING,2316,563933.000,02000800,46eb,17139;INS_SOLUTION_GOOD,INS_PPP,17.60146013137,78.12662892197,525.0731,-76.2000,1.3699,0.1326,0.0160,0.932866892,0.081064872,5.593790059,0.0627,0.0745,0.0743,0.0139,0.0140,0.0099,0.0450,0.0441,0.3511,ab001041,0*96a59e78
#INSPVAXA,FILE,0,29.0,FINESTEERING,2316,563933.050,02000800,46eb,17139;INS_SOLUTION_GOOD,INS_PPP,17.60146076150,78.12662898223,525.0745,-76.2000,1.3955,0.1243,0.0172,0.929218277,0.034534211,5.523615361,0.0601,0.0715,0.0721,0.0161,0.0178,0.0115,0.0452,0.0443,0.3512,ab001241,0*20f8d7d8
#INSPVAXA,FILE,0,28.5,FINESTEERING,2316,563933.100,02000800,46eb,17139;INS_SOLUTION_GOOD,INS_PPP,17.60146140525,78.12662903934,525.0755,-76.2000,1.4252,0.1203,0.0002,0.933839992,0.006436556,5.448588547,0.0601,0.0715,0.0721,0.0161,0.0178,0.0115,0.0452,0.0443,0.3512,ab001241,0*0aac2631
#INSPVAXA,FILE,0,28.5,FINESTEERING,2316,563933.150,02000800,46eb,17139;INS_SOLUTION_GOOD,INS_PPP,17.60146206644,78.12662909991,525.0755,-76.2000,1.4696,0.1349,-0.0321,0.946892063,0.023713090,5.365357780,0.0601,0.0715,0.0721,0.0161,0.0178,0.0115,0.0452,0.0443,0.3512,ab001241,0*acc74c70
#INSPVAXA,FILE,0,28.5,FINESTEERING,2316,563933.200,02000800,46eb,17139;INS_SOLUTION_GOOD,INS_PPP,17.60146275214,78.12662916550,525.0739,-76.2000,1.5341,0.1459,-0.0709,0.975571257,0.098937700,5.266180781,0.0601,0.0715,0.0721,0.0161,0.0178,0.0115,0.0452,0.0443,0.3512,ab001241,0*15e57404
#INSPVAXA,FILE,0,28.5,FINESTEERING,2316,563933.250,02000800,46eb,17139;INS_SOLUTION_GOOD,INS_PPP,17.60146346882,78.12662923441,525.0703,-76.2000,1.6079,0.1497,-0.1077,1.025922165,0.217555196,5.157551773,0.0601,0.0715,0.0721,0.0161,0.0178,0.0115,0.0452,0.0443,0.3512,ab001241,0*561388f3
#INSPVAXA,FILE,0,28.5,FINESTEERING,2316,563933.300,02000800,46eb,17139;INS_SOLUTION_GOOD,INS_PPP,17.60146421561,78.12662930474,525.0659,-76.2000,1.6703,0.1526,-0.1094,1.091747521,0.358444198,5.049264580,0.0601,0.0715,0.0721,0.0161,0.0178,0.0115,0.0452,0.0443,0.3512,ab001241,0*7a86268f
#INSPVAXA,FILE,0,28.5,FINESTEERING,2316,563933.350,02000800,46eb,17139;INS_SOLUTION_GOOD,INS_PPP,17.60146498623,78.12662937850,525.0621,-76.2000,1.7158,0.1597,-0.0760,1.144722075,0.472211795,4.933393333,0.0601,0.0715,0.0721,0.0161,0.0178,0.0115,0.0452,0.0443,0.3512,ab001241,0*ae16b576
#INSPVAXA,FILE,0,28.5,FINESTEERING,2316,563933.400,02000800,46eb,17139;INS_SOLUTION_GOOD,INS_PPP,17.60146577389,78.12662945088,525.0602,-76.2000,1.7481,0.1495,-0.0242,1.164636010,0.526323052,4.815105201,0.0601,0.0715,0.0721,0.0161,0.0178,0.0115,0.0452,0.0443,0.3512,ab001241,0*6a771a1e
#INSPVAXA,FILE,0,28.5,FINESTEERING,2316,563933.450,02000800,46eb,17139;INS_SOLUTION_GOOD,INS_PPP,17.60146657475,78.12662951225,525.0610,-76.2000,1.7738,0.1180,0.0300,1.157076202,0.510235642,4.715400177,0.0601,0.0715,0.0721,0.0161,0.0178,0.0115,0.0452,0.0443,0.3512,ab001241,0*1df26f54
#INSPVAXA,FILE,0,28.5,FINESTEERING,2316,563933.500,02000800,46eb,17139;INS_SOLUTION_GOOD,INS_PPP,17.60146738571,78.12662956677,525.0638,-76.2000,1.7936,0.1154,0.0714,1.110208787,0.436556730,4.628312573,0.0601,0.0715,0.0721,0.0161,0.0178,0.0115,0.0452,0.0443,0.3512,ab001241,0*8290cadb
#INSPVAXA,FILE,0,28.5,FINESTEERING,2316,563933.550,02000800,46eb,17139;INS_SOLUTION_GOOD,INS_PPP,17.60146820700,78.12662962371,525.0678,-76.2000,1.8194,0.1266,0.0777,1.020580985,0.349498673,4.524723322,0.0601,0.0715,0.0721,0.0161,0.0178,0.0115,0.0452,0.0443,0.3512,ab001241,0*49bc59a2
#INSPVAXA,FILE,0,28.5,FINESTEERING,2316,563933.600,02000800,46eb,17139;INS_SOLUTION_GOOD,INS_PPP,17.60146904224,78.12662968282,525.0718,-76.2000,1.8557,0.1271,0.0655,0.933459430,0.278543541,4.404351279,0.0601,0.0715,0.0721,0.0161,0.0178,0.0115,0.0452,0.0443,0.3512,ab001241,0*ccf09afc
#INSPVAXA,FILE,0,28.5,FINESTEERING,2316,563933.650,02000800,46eb,17139;INS_SOLUTION_GOOD,INS_PPP,17.60146989898,78.12662974082,525.0745,-76.2000,1.9131,0.1227,0.0323,0.887938520,0.246024775,4.286316369,0.0601,0.0715,0.0721,0.0161,0.0178,0.0115,0.0452,0.0443,0.3512,ab001241,0*6b592b35
#INSPVAXA,FILE,0,28.5,FINESTEERING,2316,563933.700,02000800,46eb,17139;INS_SOLUTION_GOOD,INS_PPP,17.60147078677,78.12662979810,525.0749,-76.2000,1.9917,0.1233,-0.0232,0.854254162,0.271841662,4.186217382,0.0601,0.0715,0.0721,0.0161,0.0178,0.0115,0.0452,0.0443,0.3512,ab001241,0*234a966d
#INSPVAXA,FILE,0,28.5,FINESTEERING,2316,563933.750,02000800,46eb,17139;INS_SOLUTION_GOOD,INS_PPP,17.60147171077,78.12662985635,525.0734,-76.2000,2.0768,0.1246,-0.0494,0.813645120,0.350074267,4.102878605,0.0601,0.0715,0.0721,0.0161,0.0178,0.0115,0.0452,0.0443,0.3512,ab001241,0*a05e3614
#INSPVAXA,FILE,0,28.5,FINESTEERING,2316,563933.800,02000800,46eb,17139;INS_SOLUTION_GOOD,INS_PPP,17.60147267521,78.12662991551,525.0710,-76.2000,2.1718,0.1294,-0.0655,0.800340575,0.472281484,4.025050243,0.0601,0.0715,0.0721,0.0161,0.0178,0.0115,0.0452,0.0443,0.3512,ab001241,0*d1d30428
#INSPVAXA,FILE,0,28.5,FINESTEERING,2316,563933.850,02000800,46eb,17139;INS_SOLUTION_GOOD,INS_PPP,17.60147368416,78.12662997847,525.0677,-76.2000,2.2726,0.1397,-0.0824,0.795904266,0.607979579,3.937263535,0.0601,0.0715,0.0721,0.0161,0.0178,0.0115,0.0452,0.0443,0.3512,ab001241,0*0abd468a
#INSPVAXA,FILE,0,28.5,FINESTEERING,2316,563933.900,02000800,46eb,17139;INS_SOLUTION_GOOD,INS_PPP,17.60147473661,78.12663004851,525.0641,-76.2000,2.3640,0.1565,-0.0732,0.812081402,0.738595942,3.833690460,0.0601,0.0715,0.0721,0.0161,0.0178,0.0115,0.0452,0.0443,0.3512,ab001241,0*953de464
#INSPVAXA,FILE,0,28.5,FINESTEERING,2316,563933.950,02000800,46eb,17139;INS_SOLUTION_GOOD,INS_PPP,17.60147582833,78.12663012101,525.0617,-76.2000,2.4449,0.1532,-0.0370,0.836808326,0.821758660,3.735363655,0.0601,0.0715,0.0721,0.0161,0.0178,0.0115,0.0452,0.0443,0.3512,ab001241,0*a7759165
