#BESTVELA,FILE,0,29.5,FINESTEERING,2319,305891.000,02000800,10a2,17139;SOL_COMPUTED,NARROW_INT,0.025,1.000,1.0579,168.850092,-0.0130,0*720387e3
#BESTVELA,FILE,0,29.0,FINESTEERING,2319,305891.200,02000800,10a2,17139;SOL_COMPUTED,NARROW_INT,0.025,1.200,1.0413,171.184766,-0.0580,0*c356f0aa
#BESTVELA,FILE,0,29.0,FINESTEERING,2319,305891.300,02000800,10a2,17139;SOL_COMPUTED,NARROW_INT,0.025,1.300,1.0788,173.013429,-0.0086,0*7af9b89d
#BESTVELA,FILE,0,29.0,FINESTEERING,2319,305891.350,02000800,10a2,17139;SOL_COMPUTED,NARROW_INT,0.025,1.350,1.0976,174.824393,-0.0472,0*57465e58
#BESTVELA,FILE,0,29.0,FINESTEERING,2319,305891.400,02000800,10a2,17139;SOL_COMPUTED,NARROW_INT,0.025,1.400,1.1414,173.837653,0.0529,0*29764eb3
#BESTVELA,FILE,0,29.0,FINESTEERING,2319,305891.500,02000800,10a2,17139;SOL_COMPUTED,NARROW_INT,0.025,0.500,1.1457,174.866420,-0.0249,0*47b69709
#BESTVELA,FILE,0,29.0,FINESTEERING,2319,305891.700,02000800,10a2,17139;SOL_COMPUTED,NARROW_INT,0.025,0.700,1.1898,176.773928,-0.0598,0*b78736eb
#BESTVELA,FILE,0,29.0,FINESTEERING,2319,305891.750,02000800,10a2,17139;SOL_COMPUTED,NARROW_INT,0.025,0.750,1.1644,176.884653,0.0087,0*f4cff616
#BESTVELA,FILE,0,29.0,FINESTEERING,2319,305891.800,02000800,10a2,17139;SOL_COMPUTED,NARROW_INT,0.025,0.800,1.2169,175.596721,0.0019,0*2e01a1ac
#BESTVELA,FILE,0,29.0,FINESTEERING,2319,305891.850,02000800,10a2,17139;SOL_COMPUTED,NARROW_INT,0.025,0.850,1.1764,180.445245,-0.0868,0*be446440
#BESTVELA,FILE,0,29.0,FINESTEERING,2319,305891.950,02000800,10a2,17139;SOL_COMPUTED,NARROW_INT,0.025,0.950,1.2378,178.215042,-0.0092,0*271f5619
#BESTVELA,FILE,0,29.0,FINESTEERING,2319,305892.050,02000800,10a2,17139;SOL_COMPUTED,NARROW_INT,0.025,1.050,1.2729,180.159936,0.0239,0*2e63f523
#BESTVELA,FILE,0,29.0,FINESTEERING,2319,305892.100,02000800,10a2,17139;SOL_COMPUTED,NARROW_INT,0.025,1.100,1.2368,179.020609,-0.0510,0*1d7135e1
#BESTVELA,FILE,0,30.0,FINESTEERING,2319,305892.250,02000800,10a2,17139;SOL_COMPUTED,NARROW_INT,0.025,1.250,1.2754,181.941038,0.0058,0*103a48a1
#BESTVELA,FILE,0,30.0,FINESTEERING,2319,305892.350,02000800,10a2,17139;SOL_COMPUTED,NARROW_INT,0.025,1.350,1.2896,182.323149,-0.0237,0*ccf9de69
#BESTVELA,FILE,0,30.0,FINESTEERING,2319,305892.450,02000800,10a2,17139;SOL_COMPUTED,NARROW_INT,0.025,0.450,1.3304,183.428569,0.0305,0*62fd9ff9
#BESTVELA,FILE,0,30.0,FINESTEERING,2319,305892.500,02000800,10a2,17139;SOL_COMPUTED,NARROW_INT,0.025,0.500,1.3278,182.908719,-0.0128,0*81d4c899
#BESTVELA,FILE,0,30.0,FINESTEERING,2319,305892.700,02000800,10a2,17139;SOL_COMPUTED,NARROW_INT,0.025,0.700,1.3721,185.774434,-0.0266,0*e996884e
#BESTVELA,FILE,0,30.0,FINESTEERING,2319,305892.750,02000800,10a2,17139;SOL_COMPUTED,NARROW_INT,0.025,0.750,1.3623,185.743198,-0.0195,0*82c06713
#BESTVELA,FILE,0,30.0,FINESTEERING,2319,305892.850,02000800,10a2,17139;SOL_COMPUTED,NARROW_INT,0.025,0.850,1.3791,186.569865,0.0400,0*38cfb272
#BESTVELA,FILE,0,30.0,FINESTEERING,2319,305892.950,02000800,10a2,17139;SOL_COMPUTED,NARROW_INT,0.025,0.950,1.4232,185.415497,-0.0155,0*eb7c73e1
#BESTVELA,FILE,0,30.0,FINESTEERING,2319,305893.000,02000800,10a2,17139;SOL_COMPUTED,NARROW_INT,0.025,1.000,1.4718,185.735305,-0.0177,0*50ee2966
#BESTVELA,FILE,0,28.5,FINESTEERING,2319,305893.150,02000800,10a2,17139;SOL_COMPUTED,NARROW_INT,0.025,1.150,1.5032,186.148328,-0.0826,0*3bc05d34
#BESTVELA,FILE,0,28.5,FINESTEERING,2319,305893.200,02000800,10a2,17139;SOL_COMPUTED,NARROW_INT,0.025,1.200,1.5188,186.411312,0.0764,0*f04c0859
#BESTVELA,FILE,0,28.5,FINESTEERING,2319,305893.400,02000800,10a2,17139;SOL_COMPUTED,NARROW_INT,0.025,0.400,1.6528,187.391684,-0.0547,0*d5fbb142
#BESTVELA,FILE,0,28.5,FINESTEERING,2319,305893.450,02000800,10a2,17139;SOL_COMPUTED,NARROW_INT,0.025,0.450,1.7066,185.899776,-0.0038,0*c6fac8c7
#BESTVELA,FILE,0,28.5,FINESTEERING,2319,305893.500,02000800,10a2,17139;SOL_COMPUTED,NARROW_INT,0.025,0.500,1.7762,187.147691,0.0316,0*cbcc5e98
#BESTVELA,FILE,0,28.5,FINESTEERING,2319,305893.550,02000800,10a2,17139;SOL_COMPUTED,NARROW_INT,0.025,0.550,1.8125,187.381651,0.0367,0*5523182b
#BESTVELA,FILE,0,28.5,FINESTEERING,2319,305893.750,02000800,10a2,17139;SOL_COMPUTED,NARROW_INT,0.025,0.750,1.9909,187.080820,0.0202,0*a6dff43a
#BESTVELA,FILE,0,28.5,FINESTEERING,2319,305893.800,02000800,10a2,17139;SOL_COMPUTED,NARROW_INT,0.025,0.800,2.0422,187.541027,0.0027,0*fb6e7f80
#BESTVELA,FILE,0,28.5,FINESTEERING,2319,305893.850,02000800,10a2,17139;SOL_COMPUTED,NARROW_INT,0.025,0.850,2.0833,188.017421,-0.0156,0*da81ebb5
#BESTVELA,FILE,0,28.5,FINESTEERING,2319,305894.100,02000800,10a2,17139;SOL_COMPUTED,NARROW_INT,0.025,1.100,2.3658,187.500590,0.0049,0*454c4e7e
#BESTVELA,FILE,0,30.0,FINESTEERING,2319,305894.200,02000800,10a2,17139;SOL_COMPUTED,NARROW_INT,0.025,1.200,2.5345,188.399847,0.0377,0*b253e0ef
#BESTVELA,FILE,0,30.0,FINESTEERING,2319,305894.300,02000800,10a2,17139;SOL_COMPUTED,NARROW_INT,0.025,1.300,2.6211,188.713059,-0.0702,0*740e5530
#BESTVELA,FILE,0,30.0,FINESTEERING,2319,305894.400,02000800,10a2,17139;SOL_COMPUTED,NARROW_INT,0.025,1.400,2.7820,189.017096,0.0266,0*7bdea709
#BESTVELA,FILE,0,30.0,FINESTEERING,2319,305894.450,02000800,10a2,17139;SOL_COMPUTED,NARROW_INT,0.025,1.450,2.7527,188.493979,0.0047,0*89a55d06
#BESTVELA,FILE,0,30.0,FINESTEERING,2319,305894.500,02000800,10a2,17139;SOL_COMPUTED,NARROW_INT,0.025,1.500,2.8450,188.970864,-0.0511,0*b0010b3a
#BESTVELA,FILE,0,30.0,FINESTEERING,2319,305894.550,02000800,10a2,17139;SOL_COMPUTED,NARROW_INT,0.025,1.550,2.8549,189.087062,-0.0055,0*a5792097
#BESTVELA,FILE,0,30.0,FINESTEERING,2319,305894.600,02000800,10a2,17139;SOL_COMPUTED,NARROW_INT,0.025,1.600,2.9529,189.628272,-0.0012,0*90acff96
#BESTVELA,FILE,0,30.0,FINESTEERING,2319,305894.650,02000800,10a2,17139;SOL_COMPUTED,NARROW_INT,0.025,1.650,3.0012,189.738591,-0.0223,0*4acd5fc5
#BESTVELA,FILE,0,30.0,FINESTEERING,2319,305894.700,02000800,10a2,17139;SOL_COMPUTED,NARROW_INT,0.025,1.700,3.0561,188.471554,0.0845,0*e4743a23
#BESTVELA,FILE,0,30.0,FINESTEERING,2319,305894.750,02000800,10a2,17139;SOL_COMPUTED,NARROW_INT,0.025,1.750,3.0576,188.219332,-0.0322,0*ff8fb848
#BESTVELA,FILE,0,30.0,FINESTEERING,2319,305894.800,02000800,10a2,17139;SOL_COMPUTED,NARROW_INT,0.025,1.800,3.1334,188.605410,-0.0172,0*90039d2c
#BESTVELA,FILE,0,30.0,FINESTEERING,2319,305894.850,02000800,10a2,17139;SOL_COMPUTED,NARROW_INT,0.025,1.850,3.1634,188.434749,0.0213,0*91e7c311
#BESTVELA,FILE,0,30.0,FINESTEERING,2319,305894.900,02000800,10a2,17139;SOL_COMPUTED,NARROW_INT,0.025,1.900,3.2376,188.769968,0.0876,0*b8f5970c
#BESTVELA,FILE,0,30.0,FINESTEERING,2319,305894.950,02000800,10a2,17139;SOL_COMPUTED,NARROW_INT,0.025,1.950,3.2775,188.959923,-0.0101,0*89cb200c
#BESTVELA,FILE,0,30.0,FINESTEERING,2319,305895.000,02000000,10a2,17139;SOL_COMPUTED,NARROW_INT,0.025,2.000,3.2972,188.815752,0.0331,0*c1e0a84d
#BESTVELA,FILE,0,30.0,FINESTEERING,2319,305895.050,02000000,10a2,17139;SOL_COMPUTED,NARROW_INT,0.025,2.050,3.3562,188.500724,0.0173,0*e8ca0b9b
#BESTVELA,FILE,0,29.5,FINESTEERING,2319,305895.100,02000000,10a2,17139;SOL_COMPUTED,NARROW_INT,0.025,2.100,3.3845,188.784139,-0.0443,0*bc4a02bf
#BESTVELA,FILE,0,29.5,FINESTEERING,2319,305895.150,02000000,10a2,17139;SOL_COMPUTED,NARROW_INT,0.025,2.150,3.4235,188.824545,0.0121,0*1c26b8a9
#BESTVELA,FILE,0,29.5,FINESTEERING,2319,305895.200,02000000,10a2,17139;SOL_COMPUTED,NARROW_INT,0.025,2.200,3.5064,188.179608,0.1068,0*74ee7fdd
#BESTVELA,FILE,0,29.5,FINESTEERING,2319,305895.250,02000000,10a2,17139;SOL_COMPUTED,NARROW_INT,0.025,2.250,3.4491,190.094820,-0.1010,0*88e46cd5
#BESTVELA,FILE,0,29.5,FINESTEERING,2319,305895.300,02000000,10a2,17139;SOL_COMPUTED,NARROW_INT,0.025,2.300,3.5590,189.552987,-0.0420,0*9210eead
#BESTVELA,FILE,0,29.5,FINESTEERING,2319,305895.350,02000000,10a2,17139;SOL_COMPUTED,NARROW_INT,0.025,2.350,3.6378,188.130808,0.0123,0*cf0e9699
#BESTVELA,FILE,0,29.5,FINESTEERING,2319,305895.400,02000000,10a2,17139;SOL_COMPUTED,NARROW_INT,0.025,2.400,3.6022,189.147015,-0.0275,0*dd188427
#BESTVELA,FILE,0,29.5,FINESTEERING,2319,305895.450,02000000,10a2,17139;SOL_COMPUTED,NARROW_INT,0.025,0.450,3.6659,188.950354,-0.0256,0*312cdc73
#BESTVELA,FILE,0,29.5,FINESTEERING,2319,305895.500,02000000,10a2,17139;SOL_COMPUTED,NARROW_INT,0.025,0.500,3.7160,188.342067,0.0145,0*4b16d40e
#BESTVELA,FILE,0,29.5,FINESTEERING,2319,305895.550,02000000,10a2,17139;SOL_COMPUTED,NARROW_INT,0.025,0.550,3.7138,188.736003,0.0003,0*4c5b3291
#BESTVELA,FILE,0,29.5,FINESTEERING,2319,305895.600,02000000,10a2,17139;SOL_COMPUTED,NARROW_INT,0.025,0.600,3.7637,188.236364,0.0239,0*7c86819f
#BESTVELA,FILE,0,29.5,FINESTEERING,2319,305895.650,02000000,10a2,17139;SOL_COMPUTED,NARROW_INT,0.025,0.650,3.8230,189.454766,-0.0485,0*ae8ccbac
#BESTVELA,FILE,0,29.5,FINESTEERING,2319,305895.700,02000000,10a2,17139;SOL_COMPUTED,NARROW_INT,0.025,0.700,3.8673,188.562218,0.0474,0*085c8fa8
#BESTVELA,FILE,0,29.5,FINESTEERING,2319,305895.750,02000000,10a2,17139;SOL_COMPUTED,NARROW_INT,0.025,0.750,3.8823,189.001456,-0.0324,0*d1b5dc30
#BESTVELA,FILE,0,29.5,FINESTEERING,2319,305895.800,02000000,10a2,17139;SOL_COMPUTED,NARROW_INT,0.025,0.800,3.9329,189.153441,-0.0016,0*66838e1c
#BESTVELA,FILE,0,29.5,FINESTEERING,2319,305895.850,02000000,10a2,17139;SOL_COMPUTED,NARROW_INT,0.025,0.850,3.9613,189.085953,0.0115,0*cd71b7f4
#BESTVELA,FILE,0,29.5,FINESTEERING,2319,305895.900,02000000,10a2,17139;SOL_COMPUTED,NARROW_INT,0.025,0.900,4.0039,189.677148,-0.0426,0*90251e3d
#BESTVELA,FILE,0,29.5,FINESTEERING,2319,305895.950,02000000,10a2,17139;SOL_COMPUTED,NARROW_INT,0.025,0.950,4.0359,189.821793,0.0489,0*642890a8
#BESTVELA,FILE,0,29.5,FINESTEERING,2319,305896.000,02000000,10a2,17139;SOL_COMPUTED,NARROW_INT,0.025,1.000,4.0681,189.824087,-0.0320,0*5c87f9cc
#BESTVELA,FILE,0,29.5,FINESTEERING,2319,305896.050,02000000,10a2,17139;SOL_COMPUTED,NARROW_INT,0.025,1.050,4.1211,188.917278,0.0119,0*fb999caf
#BESTVELA,FILE,0,19.5,FINESTEERING,2319,305896.100,02000000,10a2,17139;SOL_COMPUTED,NARROW_INT,0.025,1.100,4.1872,188.913405,-0.0609,0*99358b60
#BESTVELA,FILE,0,19.5,FINESTEERING,2319,305896.150,02000000,10a2,17139;SOL_COMPUTED,NARROW_INT,0.025,1.150,4.2255,188.424597,0.0471,0*407bfb6f
#BESTVELA,FILE,0,19.5,FINESTEERING,2319,305896.200,02000000,10a2,17139;SOL_COMPUTED,NARROW_INT,0.025,1.200,4.2595,187.829535,0.0133,0*94c408e9
#BESTVELA,FILE,0,19.5,FINESTEERING,2319,305896.250,02000000,10a2,17139;SOL_COMPUTED,NARROW_INT,0.025,1.250,4.2947,187.265772,-0.0195,0*97e7422b
#BESTVELA,FILE,0,19.5,FINESTEERING,2319,305896.300,02000000,10a2,17139;SOL_COMPUTED,NARROW_INT,0.025,1.300,4.3131,187.345632,0.0110,0*b7021dec
#BESTVELA,FILE,0,19.5,FINESTEERING,2319,305896.350,02000000,10a2,17139;SOL_COMPUTED,NARROW_INT,0.025,1.350,4.3557,187.219350,0.0462,0*a7cff4fe
#BESTVELA,FILE,0,19.5,FINESTEERING,2319,305896.400,02000000,10a2,17139;SOL_COMPUTED,NARROW_INT,0.025,1.400,4.4028,187.168517,0.0238,0*5200421f
#BESTVELA,FILE,0,19.5,FINESTEERING,2319,305896.450,02000000,10a2,17139;SOL_COMPUTED,NARROW_INT,0.025,1.450,4.4088,187.140484,-0.0139,0*4b76314f
#BESTVELA,FILE,0,19.5,FINESTEERING,2319,305896.500,02000000,10a2,17139;SOL_COMPUTED,NARROW_INT,0.025,1.500,4.4317,187.540077,0.0090,0*ad35a562
#BESTVELA,FILE,0,19.5,FINESTEERING,2319,305896.550,02000000,10a2,17139;SOL_COMPUTED,NARROW_INT,0.025,1.550,4.4973,187.071350,0.0465,0*c58b3806
#BESTVELA,FILE,0,19.5,FINESTEERING,2319,305896.600,02000000,10a2,17139;SOL_COMPUTED,NARROW_INT,0.025,1.600,4.5377,186.664753,-0.0277,0*baaa32b3
#BESTVELA,FILE,0,19.5,FINESTEERING,2319,305896.650,02000000,10a2,17139;SOL_COMPUTED,NARROW_INT,0.025,1.650,4.5525,186.338442,0.0378,0*72b6d2e8
#BESTVELA,FILE,0,19.5,FINESTEERING,2319,305896.700,02000000,10a2,17139;SOL_COMPUTED,NARROW_INT,0.025,1.700,4.5861,186.235088,0.0114,0*a61bfe1f
#BESTVELA,FILE,0,19.5,FINESTEERING,2319,305896.750,02000000,10a2,17139;SOL_COMPUTED,NARROW_INT,0.025,1.750,4.5883,186.349844,-0.0141,0*48459ca8
#BESTVELA,FILE,0,19.5,FINESTEERING,2319,305896.800,02000000,10a2,17139;SOL_COMPUTED,NARROW_INT,0.025,1.800,4.6271,185.991097,-0.0414,0*cc24c122
#BESTVELA,FILE,0,19.5,FINESTEERING,2319,305896.850,02000000,10a2,17139;SOL_COMPUTED,NARROW_INT,0.025,1.850,4.6535,186.155719,0.0061,0*72e5553f
#BESTVELA,FILE,0,19.5,FINESTEERING,2319,305896.900,02000000,10a2,17139;SOL_COMPUTED,NARROW_INT,0.025,1.900,4.7025,185.221621,0.0360,0*789d505b
#BESTVELA,FILE,0,19.5,FINESTEERING,2319,305896.950,02000000,10a2,17139;SOL_COMPUTED,NARROW_INT,0.025,1.950,4.7154,186.076466,-0.0123,0*775aeb94
#BESTVELA,FILE,0,19.5,FINESTEERING,2319,305897.000,02000000,10a2,17139;SOL_COMPUTED,NARROW_INT,0.025,2.000,4.7551,184.972485,0.0371,0*44572cd9
#BESTVELA,FILE,0,19.5,FINESTEERING,2319,305897.050,02000000,10a2,17139;SOL_COMPUTED,NARROW_INT,0.025,2.050,4.8067,184.709937,0.0285,0*56c11b1a
#BESTVELA,FILE,0,19.5,FINESTEERING,2319,305897.100,02000000,10a2,17139;SOL_COMPUTED,NARROW_INT,0.025,2.100,4.8373,184.652166,0.0469,0*b643461d
#BESTVELA,FILE,0,29.5,FINESTEERING,2319,305897.150,02000000,10a2,17139;SOL_COMPUTED,NARROW_INT,0.025,2.150,4.8282,184.091871,-0.0230,0*73c69fc8
#BESTVELA,FILE,0,29.5,FINESTEERING,2319,305897.200,02000000,10a2,17139;SOL_COMPUTED,NARROW_INT,0.025,2.200,4.8840,183.904417,0.0715,0*6db671bc
#BESTVELA,FILE,0,29.5,FINESTEERING,2319,305897.250,02000000,10a2,17139;SOL_COMPUTED,NARROW_INT,0.025,2.250,4.9269,183.779662,-0.0103,0*e854779f
#BESTVELA,FILE,0,29.5,FINESTEERING,2319,305897.300,02000000,10a2,17139;SOL_COMPUTED,NARROW_INT,0.025,2.300,4.9675,183.957528,0.0777,0*ffa52632
#BESTVELA,FILE,0,29.5,FINESTEERING,2319,305897.350,02000000,10a2,17139;SOL_COMPUTED,NARROW_INT,0.025,2.350,4.9878,184.028080,0.0156,0*f2e5a0e0
#BESTVELA,FILE,0,29.5,FINESTEERING,2319,305897.400,02000000,10a2,17139;SOL_COMPUTED,NARROW_INT,0.025,2.400,5.0082,183.719325,0.0549,0*a3fa6bf8
#BESTVELA,FILE,0,29.5,FINESTEERING,2319,305897.450,02000000,10a2,17139;SOL_COMPUTED,NARROW_INT,0.025,2.450,5.0019,183.039094,0.0564,0*21511938
#BESTVELA,FILE,0,29.5,FINESTEERING,2319,305897.500,02000000,10a2,17139;SOL_COMPUTED,NARROW_INT,0.025,2.500,5.0574,183.053419,0.0698,0*4f1aad46
#BESTVELA,FILE,0,29.5,FINESTEERING,2319,305897.550,02000000,10a2,17139;SOL_COMPUTED,NARROW_INT,0.025,2.550,5.0984,182.207238,0.0423,0*10b77075
#BESTVELA,FILE,0,29.5,FINESTEERING,2319,305897.600,02000000,10a2,17139;SOL_COMPUTED,NARROW_INT,0.025,2.600,5.0984,182.243026,0.0904,0*8ceb9e3c
#BESTVELA,FILE,0,29.5,FINESTEERING,2319,305897.650,02000000,10a2,17139;SOL_COMPUTED,NARROW_INT,0.025,2.650,5.1445,181.765927,0.0547,0*e6a6bb4b
#BESTVELA,FILE,0,29.5,FINESTEERING,2319,305897.700,02000000,10a2,17139;SOL_COMPUTED,NARROW_INT,0.025,2.700,5.1866,181.664028,0.0670,0*5ca37645
#BESTVELA,FILE,0,29.5,FINESTEERING,2319,305897.750,02000000,10a2,17139;SOL_COMPUTED,NARROW_INT,0.025,2.750,5.1932,180.739841,0.0053,0*473e7027
#BESTVELA,FILE,0,29.5,FINESTEERING,2319,305897.800,02000000,10a2,17139;SOL_COMPUTED,NARROW_INT,0.025,2.800,5.1907,180.453643,0.0086,0*d832b3b5
#BESTVELA,FILE,0,29.5,FINESTEERING,2319,305897.850,02000000,10a2,17139;SOL_COMPUTED,NARROW_INT,0.025,2.850,5.2257,180.647887,-0.0170,0*c4b59365
#BESTVELA,FILE,0,29.5,FINESTEERING,2319,305897.900,02000000,10a2,17139;SOL_COMPUTED,NARROW_INT,0.025,2.900,5.2647,181.059144,-0.0239,0*d7030b6f
#BESTVELA,FILE,0,29.5,FINESTEERING,2319,305897.950,02000000,10a2,17139;SOL_COMPUTED,NARROW_INT,0.025,2.950,5.2925,181.148250,0.0519,0*a46fe514
#BESTVELA,FILE,0,29.5,FINESTEERING,2319,305898.000,02000000,10a2,17139;SOL_COMPUTED,NARROW_INT,0.025,3.000,5.2906,180.782371,-0.0140,0*cc60e41d
#BESTVELA,FILE,0,29.5,FINESTEERING,2319,305898.050,02000000,10a2,17139;SOL_COMPUTED,NARROW_INT,0.025,3.050,5.3603,180.510243,0.0686,0*8d7d6a63
#BESTVELA,FILE,0,29.5,FINESTEERING,2319,305898.100,02000000,10a2,17139;SOL_COMPUTED,NARROW_INT,0.025,3.100,5.3773,179.835598,0.0359,0*2550100d
#BESTVELA,FILE,0,30.5,FINESTEERING,2319,305898.150,02000000,10a2,17139;SOL_COMPUTED,NARROW_INT,0.025,3.150,5.3785,179.770398,0.0372,0*30d19586
#BESTVELA,FILE,0,30.5,FINESTEERING,2319,305898.200,02000000,10a2,17139;SOL_COMPUTED,NARROW_INT,0.025,3.200,5.4211,179.086592,0.0201,0*30093112
#BESTVELA,FILE,0,30.5,FINESTEERING,2319,305898.250,02000000,10a2,17139;SOL_COMPUTED,NARROW_INT,0.025,1.250,5.4197,178.631114,-0.0358,0*90003955
#BESTVELA,FILE,0,30.5,FINESTEERING,2319,305898.300,02000000,10a2,17139;SOL_COMPUTED,NARROW_INT,0.025,1.300,5.4466,178.786877,0.0303,0*475fff2c
#BESTVELA,FILE,0,30.5,FINESTEERING,2319,305898.350,02000000,10a2,17139;SOL_COMPUTED,NARROW_INT,0.025,1.350,5.4886,178.778218,0.0503,0*4d5c4020
#BESTVELA,FILE,0,30.5,FINESTEERING,2319,305898.400,02000000,10a2,17139;SOL_COMPUTED,NARROW_INT,0.025,1.400,5.5238,178.919862,-0.0083,0*c79a4ddc
#BESTVELA,FILE,0,30.5,FINESTEERING,2319,305898.450,02000000,10a2,17139;SOL_COMPUTED,NARROW_INT,0.025,1.450,5.5521,178.664669,-0.0115,0*acbdc591
#BESTVELA,FILE,0,30.5,FINESTEERING,2319,305898.500,02000000,10a2,17139;SOL_COMPUTED,NARROW_INT,0.025,1.500,5.5909,178.987551,-0.0034,0*49a956f6
#BESTVELA,FILE,0,30.5,FINESTEERING,2319,305898.550,02000000,10a2,17139;SOL_COMPUTED,NARROW_INT,0.025,1.550,5.6233,178.437996,0.0377,0*fbefdb21
#BESTVELA,FILE,0,30.5,FINESTEERING,2319,305898.600,02000000,10a2,17139;SOL_COMPUTED,NARROW_INT,0.025,1.600,5.6426,178.393071,-0.0016,0*454548d2
#BESTVELA,FILE,0,30.5,FINESTEERING,2319,305898.650,02000000,10a2,17139;SOL_COMPUTED,NARROW_INT,0.025,1.650,5.6974,177.986615,-0.0116,0*67f51834
#BESTVELA,FILE,0,30.5,FINESTEERING,2319,305898.700,02000000,10a2,17139;SOL_COMPUTED,NARROW_INT,0.025,1.700,5.7241,178.289131,0.0213,0*f2b938d2
#BESTVELA,FILE,0,30.5,FINESTEERING,2319,305898.750,02000000,10a2,17139;SOL_COMPUTED,NARROW_INT,0.025,1.750,5.7180,178.143034,0.0122,0*c7078751
#BESTVELA,FILE,0,30.5,FINESTEERING,2319,305898.800,02000000,10a2,17139;SOL_COMPUTED,NARROW_INT,0.025,1.800,5.7782,177.925093,0.0390,0*d0c16b96
#BESTVELA,FILE,0,30.5,FINESTEERING,2319,305898.850,02000000,10a2,17139;SOL_COMPUTED,NARROW_INT,0.025,1.850,5.7395,177.966515,-0.0094,0*fcc7cd2e
#BESTVELA,FILE,0,30.5,FINESTEERING,2319,305898.900,02000000,10a2,17139;SOL_COMPUTED,NARROW_INT,0.025,1.900,5.7813,177.527252,-0.0144,0*df878586
#BESTVELA,FILE,0,30.5,FINESTEERING,2319,305898.950,02000000,10a2,17139;SOL_COMPUTED,NARROW_INT,0.025,1.950,5.7876,178.149993,-0.0371,0*af0ce40f
#BESTVELA,FILE,0,30.5,FINESTEERING,2319,305899.000,02000000,10a2,17139;SOL_COMPUTED,NARROW_INT,0.025,2.000,5.7945,178.064916,0.0134,0*be61c88f
#BESTVELA,FILE,0,30.5,FINESTEERING,2319,305899.050,02000000,10a2,17139;SOL_COMPUTED,NARROW_INT,0.025,2.050,5.8651,178.110573,-0.0587,0*1e6c04ea
#BESTVELA,FILE,0,26.5,FINESTEERING,2319,305899.100,02000000,10a2,17139;SOL_COMPUTED,NARROW_INT,0.025,2.100,5.8995,178.446970,-0.0408,0*b87e21f5
#BESTVELA,FILE,0,26.5,FINESTEERING,2319,305899.150,02000000,10a2,17139;SOL_COMPUTED,NARROW_INT,0.025,2.150,5.9586,178.252822,0.0266,0*a9be2d05
#BESTVELA,FILE,0,26.5,FINESTEERING,2319,305899.200,02000000,10a2,17139;SOL_COMPUTED,NARROW_INT,0.025,2.200,6.0194,178.448489,0.0072,0*85081c54
#BESTVELA,FILE,0,26.5,FINESTEERING,2319,305899.250,02000000,10a2,17139;SOL_COMPUTED,NARROW_INT,0.025,2.250,5.9932,177.648810,0.0172,0*8539e71f
#BESTVELA,FILE,0,26.5,FINESTEERING,2319,305899.300,02000000,10a2,17139;SOL_COMPUTED,NARROW_INT,0.025,2.300,6.0416,177.836889,-0.0055,0*6ddfdc40
#BESTVELA,FILE,0,26.5,FINESTEERING,2319,305899.350,02000000,10a2,17139;SOL_COMPUTED,NARROW_INT,0.025,2.350,6.0735,177.281062,0.0929,0*01232cec
#BESTVELA,FILE,0,26.5,FINESTEERING,2319,305899.400,02000000,10a2,17139;SOL_COMPUTED,NARROW_INT,0.025,2.400,6.0834,177.708251,0.0150,0*8409fa19
#BESTVELA,FILE,0,26.5,FINESTEERING,2319,305899.450,02000000,10a2,17139;SOL_COMPUTED,NARROW_INT,0.025,2.450,6.0969,177.455817,0.0105,0*59dac139
#BESTVELA,FILE,0,26.5,FINESTEERING,2319,305899.500,02000000,10a2,17139;SOL_COMPUTED,NARROW_INT,0.025,2.500,6.1039,177.829991,0.0252,0*5c4cc5eb
#BESTVELA,FILE,0,26.5,FINESTEERING,2319,305899.550,02000000,10a2,17139;SOL_COMPUTED,NARROW_INT,0.025,2.550,6.1052,177.881800,-0.0425,0*7f2853cb
#BESTVELA,FILE,0,26.5,FINESTEERING,2319,305899.600,02000000,10a2,17139;SOL_COMPUTED,NARROW_INT,0.025,2.600,6.1018,178.325757,-0.0628,0*b0daf212
#BESTVELA,FILE,0,26.5,FINESTEERING,2319,305899.650,02000000,10a2,17139;SOL_COMPUTED,NARROW_INT,0.025,2.650,6.1231,178.051588,-0.0422,0*cb31933b
#BESTVELA,FILE,0,26.5,FINESTEERING,2319,305899.700,02000000,10a2,17139;SOL_COMPUTED,NARROW_INT,0.025,2.700,6.1778,177.967492,-0.0325,0*af634d1e
#BESTVELA,FILE,0,26.5,FINESTEERING,2319,305899.750,02000000,10a2,17139;SOL_COMPUTED,NARROW_INT,0.025,2.750,6.2273,177.840339,-0.0283,0*23944387
#BESTVELA,FILE,0,26.5,FINESTEERING,2319,305899.800,02000000,10a2,17139;SOL_COMPUTED,NARROW_INT,0.025,2.800,6.2635,177.095436,0.0247,0*82d6bc86
#BESTVELA,FILE,0,26.5,FINESTEERING,2319,305899.850,02000000,10a2,17139;SOL_COMPUTED,NARROW_INT,0.025,2.850,6.2577,177.114934,0.0312,0*9ca2d457
#BESTVELA,FILE,0,26.5,FINESTEERING,2319,305899.900,02000000,10a2,17139;SOL_COMPUTED,NARROW_INT,0.025,2.900,6.2992,177.235639,0.0236,0*57622322
#BESTVELA,FILE,0,26.5,FINESTEERING,2319,305899.950,02000000,10a2,17139;SOL_COMPUTED,NARROW_INT,0.025,2.950,6.3543,177.533877,0.0969,0*9dca2568
#BESTVELA,FILE,0,26.5,FINESTEERING,2319,305900.000,02000000,10a2,17139;SOL_COMPUTED,NARROW_INT,0.025,3.000,6.3587,177.996457,0.0289,0*ce038795
#BESTVELA,FILE,0,26.5,FINESTEERING,2319,305900.050,02000000,10a2,17139;SOL_COMPUTED,NARROW_INT,0.025,3.050,6.3853,177.867268,0.0923,0*049e35ab
#BESTVELA,FILE,0,26.5,FINESTEERING,2319,305900.100,02000000,10a2,17139;SOL_COMPUTED,NARROW_INT,0.025,3.100,6.3933,178.424426,0.0351,0*e8f82aae
#BESTVELA,FILE,0,30.0,FINESTEERING,2319,305900.150,02000000,10a2,17139;SOL_COMPUTED,NARROW_INT,0.025,3.150,6.4040,177.888396,0.0586,0*fb263f4f
#BESTVELA,FILE,0,30.0,FINESTEERING,2319,305900.200,02000000,10a2,17139;SOL_COMPUTED,NARROW_INT,0.025,3.200,6.4429,178.169017,0.0061,0*bb5230d1
#BESTVELA,FILE,0,30.0,FINESTEERING,2319,305900.250,02000000,10a2,17139;SOL_COMPUTED,NARROW_INT,0.025,3.250,6.4318,178.364169,0.0364,0*7830935a
#BESTVELA,FILE,0,30.0,FINESTEERING,2319,305900.300,02000000,10a2,17139;SOL_COMPUTED,NARROW_INT,0.025,3.300,6.4897,178.362727,0.0083,0*0ff9a617
#BESTVELA,FILE,0,30.0,FINESTEERING,2319,305900.350,02000000,10a2,17139;SOL_COMPUTED,NARROW_INT,0.025,2.350,6.4936,178.544826,0.0355,0*3316d575
#BESTVELA,FILE,0,30.0,FINESTEERING,2319,305900.400,02000000,10a2,17139;SOL_COMPUTED,NARROW_INT,0.025,2.400,6.5340,178.318010,0.0133,0*eeee2715
#BESTVELA,FILE,0,30.0,FINESTEERING,2319,305900.450,02000000,10a2,17139;SOL_COMPUTED,NARROW_INT,0.025,2.450,6.5303,178.153311,0.0630,0*a6677928
#BESTVELA,FILE,0,30.0,FINESTEERING,2319,305900.500,02000000,10a2,17139;SOL_COMPUTED,NARROW_INT,0.025,2.500,6.5240,178.766234,0.0373,0*8e009ca3
#BESTVELA,FILE,0,30.0,FINESTEERING,2319,305900.550,02000000,10a2,17139;SOL_COMPUTED,NARROW_INT,0.025,2.550,6.5760,178.278661,0.0169,0*256db5f3
#BESTVELA,FILE,0,30.0,FINESTEERING,2319,305900.600,02000000,10a2,17139;SOL_COMPUTED,NARROW_INT,0.025,2.600,6.6132,178.462971,0.0445,0*43545507
#BESTVELA,FILE,0,30.0,FINESTEERING,2319,305900.650,02000000,10a2,17139;SOL_COMPUTED,NARROW_INT,0.025,2.650,6.6065,178.576326,0.0099,0*78a75310
#BESTVELA,FILE,0,30.0,FINESTEERING,2319,305900.700,02000000,10a2,17139;SOL_COMPUTED,NARROW_INT,0.025,2.700,6.6528,178.319164,-0.0095,0*35abbe56
#BESTVELA,FILE,0,30.0,FINESTEERING,2319,305900.750,02000000,10a2,17139;SOL_COMPUTED,NARROW_INT,0.025,2.750,6.6683,178.787398,0.0208,0*16509486
#BESTVELA,FILE,0,30.0,FINESTEERING,2319,305900.800,02000000,10a2,17139;SOL_COMPUTED,NARROW_INT,0.025,2.800,6.6797,178.816855,0.0071,0*28d8a155
#BESTVELA,FILE,0,30.0,FINESTEERING,2319,305900.850,02000000,10a2,17139;SOL_COMPUTED,NARROW_INT,0.025,2.850,6.6613,178.784328,0.0458,0*6e739a25
#BESTVELA,FILE,0,30.0,FINESTEERING,2319,305900.900,02000000,10a2,17139;SOL_COMPUTED,NARROW_INT,0.025,2.900,6.6717,179.129156,-0.0059,0*3763c681
#BESTVELA,FILE,0,30.0,FINESTEERING,2319,305900.950,02000000,10a2,17139;SOL_COMPUTED,NARROW_INT,0.025,2.950,6.7083,179.350682,0.0422,0*8dd4a805
#BESTVELA,FILE,0,30.0,FINESTEERING,2319,305901.000,02000000,10a2,17139;SOL_COMPUTED,NARROW_INT,0.025,3.000,6.7224,179.298784,0.0310,0*45c40152
#BESTVELA,FILE,0,30.0,FINESTEERING,2319,305901.050,02000000,10a2,17139;SOL_COMPUTED,NARROW_INT,0.025,3.050,6.7467,179.619431,-0.0070,0*977b0469
#BESTVELA,FILE,0,27.5,FINESTEERING,2319,305901.100,02000000,10a2,17139;SOL_COMPUTED,NARROW_INT,0.025,3.100,6.7655,179.531818,0.0081,0*ee766d97
#BESTVELA,FILE,0,27.5,FINESTEERING,2319,305901.150,02000000,10a2,17139;SOL_COMPUTED,NARROW_INT,0.025,3.150,6.7882,179.412573,0.0529,0*4b2c635e
#BESTVELA,FILE,0,27.5,FINESTEERING,2319,305901.200,02000000,10a2,17139;SOL_COMPUTED,NARROW_INT,0.025,3.200,6.7955,179.874490,-0.1105,0*3cd825e9
#BESTVELA,FILE,0,27.5,FINESTEERING,2319,305901.250,02000000,10a2,17139;SOL_COMPUTED,NARROW_INT,0.025,3.250,6.8276,179.596428,0.0182,0*75188c93
#BESTVELA,FILE,0,27.5,FINESTEERING,2319,305901.300,02000000,10a2,17139;SOL_COMPUTED,NARROW_INT,0.025,3.300,6.8848,179.903642,0.1231,0*7920c831
#BESTVELA,FILE,0,27.5,FINESTEERING,2319,305901.350,02000000,10a2,17139;SOL_COMPUTED,NARROW_INT,0.025,3.350,6.8696,180.443229,0.1063,0*8b1b9138
#BESTVELA,FILE,0,27.5,FINESTEERING,2319,305901.400,02000000,10a2,17139;SOL_COMPUTED,NARROW_INT,0.025,3.400,6.9003,180.649312,0.0776,0*bceac049
#BESTVELA,FILE,0,27.5,FINESTEERING,2319,305901.450,02000000,10a2,17139;SOL_COMPUTED,NARROW_INT,0.025,3.450,6.9200,180.820193,0.0592,0*8d854573
#BESTVELA,FILE,0,27.5,FINESTEERING,2319,305901.500,02000000,10a2,17139;SOL_COMPUTED,NARROW_INT,0.025,3.500,6.9014,181.171070,-0.0663,0*9cf6a8e9
#BESTVELA,FILE,0,27.5,FINESTEERING,2319,305901.550,02000000,10a2,17139;SOL_COMPUTED,NARROW_INT,0.025,3.550,6.9662,180.654887,0.1034,0*c87f3374
#BESTVELA,FILE,0,27.5,FINESTEERING,2319,305901.600,02000000,10a2,17139;SOL_COMPUTED,NARROW_INT,0.025,3.600,6.9920,180.607442,0.0250,0*64577b72
#BESTVELA,FILE,0,27.5,FINESTEERING,2319,305901.650,02000000,10a2,17139;SOL_COMPUTED,NARROW_INT,0.025,3.650,7.0248,180.405329,0.0768,0*98831526
#BESTVELA,FILE,0,27.5,FINESTEERING,2319,305901.700,02000000,10a2,17139;SOL_COMPUTED,NARROW_INT,0.025,3.700,7.0472,181.142342,-0.0119,0*cdc7809d
#BESTVELA,FILE,0,27.5,FINESTEERING,2319,305901.750,02000000,10a2,17139;SOL_COMPUTED,NARROW_INT,0.025,3.750,7.0511,180.923058,0.0596,0*9d908acf
#BESTVELA,FILE,0,27.5,FINESTEERING,2319,305901.800,02000000,10a2,17139;SOL_COMPUTED,NARROW_INT,0.025,3.800,7.1234,181.051972,0.0232,0*d49bca7e
#BESTVELA,FILE,0,27.5,FINESTEERING,2319,305901.850,02000000,10a2,17139;SOL_COMPUTED,NARROW_INT,0.025,3.850,7.1375,181.149755,0.0657,0*662a86e6
#BESTVELA,FILE,0,27.5,FINESTEERING,2319,305901.900,02000000,10a2,17139;SOL_COMPUTED,NARROW_INT,0.025,3.900,7.1426,181.211205,0.0754,0*8e3034bb
#BESTVELA,FILE,0,27.5,FINESTEERING,2319,305901.950,02000000,10a2,17139;SOL_COMPUTED,NARROW_INT,0.025,3.950,7.1793,180.764897,0.0073,0*a0087c4f
#BESTVELA,FILE,0,27.5,FINESTEERING,2319,305902.000,02000000,10a2,17139;SOL_COMPUTED,NARROW_INT,0.025,4.000,7.1865,180.824360,0.0238,0*89da00db
#BESTVELA,FILE,0,27.5,FINESTEERING,2319,305902.050,02000000,10a2,17139;SOL_COMPUTED,NARROW_INT,0.025,4.050,7.1700,180.746881,-0.0729,0*882b8f77
#BESTVELA,FILE,0,27.5,FINESTEERING,2319,305902.100,02000000,10a2,17139;SOL_COMPUTED,NARROW_INT,0.025,4.100,7.1943,180.792002,0.0428,0*7b678acd
#BESTVELA,FILE,0,27.5,FINESTEERING,2319,305902.150,02000000,10a2,17139;SOL_COMPUTED,NARROW_INT,0.025,4.150,7.1993,180.693349,0.0397,0*adf50ab9
#BESTVELA,FILE,0,27.5,FINESTEERING,2319,305902.200,02000000,10a2,17139;SOL_COMPUTED,NARROW_INT,0.025,4.200,7.1981,180.807833,-0.0370,0*4d3264c0
#BESTVELA,FILE,0,27.5,FINESTEERING,2319,305902.250,02000000,10a2,17139;SOL_COMPUTED,NARROW_INT,0.025,4.250,7.2420,180.286854,-0.0492,0*d9aa2780
#BESTVELA,FILE,0,27.5,FINESTEERING,2319,305902.300,02000000,10a2,17139;SOL_COMPUTED,NARROW_INT,0.025,4.300,7.2648,180.102325,0.0574,0*df6bac61
#BESTVELA,FILE,0,27.5,FINESTEERING,2319,305902.350,02000000,10a2,17139;SOL_COMPUTED,NARROW_INT,0.025,4.350,7.3025,180.471599,-0.0501,0*54fcb296
#BESTVELA,FILE,0,27.5,FINESTEERING,2319,305902.400,02000000,10a2,17139;SOL_COMPUTED,NARROW_INT,0.025,4.400,7.3458,179.743218,0.0458,0*7aff5f9b
#BESTVELA,FILE,0,27.5,FINESTEERING,2319,305902.450,02000000,10a2,17139;SOL_COMPUTED,NARROW_INT,0.025,4.450,7.3673,179.858597,-0.0262,0*0facd751
#BESTVELA,FILE,0,27.5,FINESTEERING,2319,305902.500,02000000,10a2,17139;SOL_COMPUTED,NARROW_INT,0.025,4.500,7.4222,179.352473,0.0787,0*2f0dd14b
#BESTVELA,FILE,0,27.5,FINESTEERING,2319,305902.550,02000000,10a2,17139;SOL_COMPUTED,NARROW_INT,0.025,4.550,7.4241,179.783399,0.0346,0*5845f1ea
#BESTVELA,FILE,0,27.5,FINESTEERING,2319,305902.600,02000000,10a2,17139;SOL_COMPUTED,NARROW_INT,0.025,4.600,7.4529,179.629804,0.0877,0*9209d883
#BESTVELA,FILE,0,27.5,FINESTEERING,2319,305902.650,02000000,10a2,17139;SOL_COMPUTED,NARROW_INT,0.025,4.650,7.4605,179.633236,0.0410,0*d9fc4dd6
#BESTVELA,FILE,0,27.5,FINESTEERING,2319,305902.700,02000000,10a2,17139;SOL_COMPUTED,NARROW_INT,0.025,4.700,7.4834,179.554142,0.0089,0*61cd041d
#BESTVELA,FILE,0,27.5,FINESTEERING,2319,305902.750,02000000,10a2,17139;SOL_COMPUTED,NARROW_INT,0.025,4.750,7.4833,179.438444,0.0224,0*4a5e9990
#BESTVELA,FILE,0,27.5,FINESTEERING,2319,305902.800,02000000,10a2,17139;SOL_COMPUTED,NARROW_INT,0.025,4.800,7.4957,179.471121,0.0231,0*e686cc1e
#BESTVELA,FILE,0,27.5,FINESTEERING,2319,305902.850,02000000,10a2,17139;SOL_COMPUTED,NARROW_INT,0.025,4.850,7.4966,179.166730,-0.0238,0*95eedff6
#BESTVELA,FILE,0,27.5,FINESTEERING,2319,305902.900,02000000,10a2,17139;SOL_COMPUTED,NARROW_INT,0.025,4.900,7.5149,179.235177,0.0048,0*6a49ee21
#BESTVELA,FILE,0,27.5,FINESTEERING,2319,305902.950,02000000,10a2,17139;SOL_COMPUTED,NARROW_INT,0.025,4.950,7.5142,179.169688,0.0165,0*a3f4f987
#BESTVELA,FILE,0,27.5,FINESTEERING,2319,305903.000,02000000,10a2,17139;SOL_COMPUTED,NARROW_INT,0.025,5.000,7.5195,179.013682,-0.0562,0*7a804d6b
#BESTVELA,FILE,0,27.5,FINESTEERING,2319,305903.050,02000000,10a2,17139;SOL_COMPUTED,NARROW_INT,0.025,5.050,7.5914,179.083632,0.0215,0*8e88f10b
#BESTVELA,FILE,0,27.0,FINESTEERING,2319,305903.100,02000000,10a2,17139;SOL_COMPUTED,NARROW_INT,0.025,5.100,7.5673,179.044360,0.0302,0*6c2a7df9
#BESTVELA,FILE,0,27.0,FINESTEERING,2319,305903.150,02000000,10a2,17139;SOL_COMPUTED,NARROW_INT,0.025,5.150,7.6032,179.073632,0.0259,0*e192bdca
#BESTVELA,FILE,0,27.0,FINESTEERING,2319,305903.200,02000000,10a2,17139;SOL_COMPUTED,NARROW_INT,0.025,5.200,7.6453,178.758299,0.0933,0*71636990
#BESTVELA,FILE,0,27.0,FINESTEERING,2319,305903.250,02000000,10a2,17139;SOL_COMPUTED,NARROW_INT,0.025,3.250,7.6681,178.749058,0.0347,0*4b4fbfda
#BESTVELA,FILE,0,27.0,FINESTEERING,2319,305903.300,02000000,10a2,17139;SOL_COMPUTED,NARROW_INT,0.025,3.300,7.6648,178.778803,0.0944,0*c5043fcd
#BESTVELA,FILE,0,27.0,FINESTEERING,2319,305903.350,02000000,10a2,17139;SOL_COMPUTED,NARROW_INT,0.025,3.350,7.6741,178.482930,0.0313,0*19579d53
#BESTVELA,FILE,0,27.0,FINESTEERING,2319,305903.400,02000000,10a2,17139;SOL_COMPUTED,NARROW_INT,0.025,3.400,7.6988,178.301909,0.0469,0*2ec8ed6d
#BESTVELA,FILE,0,27.0,FINESTEERING,2319,305903.450,02000000,10a2,17139;SOL_COMPUTED,NARROW_INT,0.025,0.450,7.7157,178.620409,0.0800,0*b7e1a352
#BESTVELA,FILE,0,27.0,FINESTEERING,2319,305903.500,02000000,10a2,17139;SOL_COMPUTED,NARROW_INT,0.025,0.500,7.7164,178.355042,0.0754,0*f061938e
#BESTVELA,FILE,0,27.0,FINESTEERING,2319,305903.550,02000000,10a2,17139;SOL_COMPUTED,NARROW_INT,0.025,0.550,7.7315,178.284808,-0.0109,0*2876bf68
#BESTVELA,FILE,0,27.0,FINESTEERING,2319,305903.600,02000000,10a2,17139;SOL_COMPUTED,NARROW_INT,0.025,0.600,7.7445,178.296477,0.0137,0*10ac4324
#BESTVELA,FILE,0,27.0,FINESTEERING,2319,305903.650,02000000,10a2,17139;SOL_COMPUTED,NARROW_INT,0.025,0.650,7.7368,178.056426,-0.0356,0*6a2ef667
#BESTVELA,FILE,0,27.0,FINESTEERING,2319,305903.700,02000000,10a2,17139;SOL_COMPUTED,NARROW_INT,0.025,0.700,7.7671,178.463767,0.0356,0*f15750f8
#BESTVELA,FILE,0,27.0,FINESTEERING,2319,305903.750,02000000,10a2,17139;SOL_COMPUTED,NARROW_INT,0.025,0.750,7.8033,178.125551,0.1197,0*5e839d98
#BESTVELA,FILE,0,27.0,FINESTEERING,2319,305903.800,02000000,10a2,17139;SOL_COMPUTED,NARROW_INT,0.025,0.800,7.8407,178.267817,0.0583,0*5e00ca25
#BESTVELA,FILE,0,27.0,FINESTEERING,2319,305903.850,02000000,10a2,17139;SOL_COMPUTED,NARROW_INT,0.025,0.850,7.8593,178.179515,0.0990,0*fbca11ab
#BESTVELA,FILE,0,27.0,FINESTEERING,2319,305903.900,02000000,10a2,17139;SOL_COMPUTED,NARROW_INT,0.025,0.900,7.8899,178.052400,0.1312,0*52d31a5b
#BESTVELA,FILE,0,27.0,FINESTEERING,2319,305903.950,02000000,10a2,17139;SOL_COMPUTED,NARROW_INT,0.025,0.950,7.8882,178.001410,0.0659,0*7294197e
#BESTVELA,FILE,0,27.0,FINESTEERING,2319,305904.000,02000000,10a2,17139;SOL_COMPUTED,NARROW_INT,0.025,1.000,7.8864,177.965434,-0.0018,0*5d9796a6
#BESTVELA,FILE,0,27.0,FINESTEERING,2319,305904.050,02000000,10a2,17139;SOL_COMPUTED,NARROW_INT,0.025,1.050,7.9176,177.886874,0.0235,0*c148bbbd
#BESTVELA,FILE,0,23.0,FINESTEERING,2319,305904.100,02000000,10a2,17139;SOL_COMPUTED,NARROW_INT,0.025,1.100,7.9293,177.991236,0.0067,0*d82f0256
#BESTVELA,FILE,0,23.0,FINESTEERING,2319,305904.150,02000000,10a2,17139;SOL_COMPUTED,NARROW_INT,0.025,1.150,7.9242,178.009346,-0.0475,0*339d7d6c
#BESTVELA,FILE,0,23.0,FINESTEERING,2319,305904.200,02000000,10a2,17139;SOL_COMPUTED,NARROW_INT,0.025,1.200,7.9335,178.227922,0.0108,0*4f75ecdd
#BESTVELA,FILE,0,23.0,FINESTEERING,2319,305904.250,02000000,10a2,17139;SOL_COMPUTED,NARROW_INT,0.025,1.250,7.9608,178.123813,-0.0139,0*67f6a9a7
#BESTVELA,FILE,0,23.0,FINESTEERING,2319,305904.300,02000000,10a2,17139;SOL_COMPUTED,NARROW_INT,0.025,1.300,7.9471,178.160859,-0.0495,0*2ce24079
#BESTVELA,FILE,0,23.0,FINESTEERING,2319,305904.350,02000000,10a2,17139;SOL_COMPUTED,NARROW_INT,0.025,1.350,7.9396,178.335076,-0.0491,0*d7090256
#BESTVELA,FILE,0,23.0,FINESTEERING,2319,305904.400,02000000,10a2,17139;SOL_COMPUTED,NARROW_INT,0.025,1.400,7.9876,178.228376,0.0452,0*39dca713
#BESTVELA,FILE,0,23.0,FINESTEERING,2319,305904.450,02000000,10a2,17139;SOL_COMPUTED,NARROW_INT,0.025,1.450,7.9993,178.257003,-0.0220,0*79a0fa4b
#BESTVELA,FILE,0,23.0,FINESTEERING,2319,305904.500,02000000,10a2,17139;SOL_COMPUTED,NARROW_INT,0.025,1.500,7.9732,178.571034,-0.0369,0*5c526a6f
#BESTVELA,FILE,0,23.0,FINESTEERING,2319,305904.550,02000000,10a2,17139;SOL_COMPUTED,NARROW_INT,0.025,1.550,8.0249,178.212721,-0.0107,0*eae641fa
#BESTVELA,FILE,0,23.0,FINESTEERING,2319,305904.600,02000000,10a2,17139;SOL_COMPUTED,NARROW_INT,0.025,1.600,8.0231,178.131204,-0.0042,0*82f3c7a9
#BESTVELA,FILE,0,23.0,FINESTEERING,2319,305904.650,02000000,10a2,17139;SOL_COMPUTED,NARROW_INT,0.025,1.650,8.0520,178.017457,-0.0013,0*0630df9c
#BESTVELA,FILE,0,23.0,FINESTEERING,2319,305904.700,02000000,10a2,17139;SOL_COMPUTED,NARROW_INT,0.025,1.700,8.0741,178.109665,-0.0315,0*066c8844
#BESTVELA,FILE,0,23.0,FINESTEERING,2319,305904.750,02000000,10a2,17139;SOL_COMPUTED,NARROW_INT,0.025,1.750,8.0781,178.179260,-0.0113,0*023f12c4
#BESTVELA,FILE,0,23.0,FINESTEERING,2319,305904.800,02000000,10a2,17139;SOL_COMPUTED,NARROW_INT,0.025,1.800,8.0909,178.291077,0.0718,0*0034c4ac
#BESTVELA,FILE,0,23.0,FINESTEERING,2319,305904.850,02000000,10a2,17139;SOL_COMPUTED,NARROW_INT,0.025,1.850,8.1155,178.658206,0.0812,0*6edc0153
#BESTVELA,FILE,0,23.0,FINESTEERING,2319,305904.900,02000000,10a2,17139;SOL_COMPUTED,NARROW_INT,0.025,1.900,8.1137,178.673138,0.0608,0*b3db3d22
#BESTVELA,FILE,0,23.0,FINESTEERING,2319,305904.950,02000000,10a2,17139;SOL_COMPUTED,NARROW_INT,0.025,1.950,8.1378,178.481889,0.0490,0*99c9cc00
#BESTVELA,FILE,0,23.0,FINESTEERING,2319,305905.000,02000000,10a2,17139;SOL_COMPUTED,NARROW_INT,0.025,2.000,8.1280,178.319741,0.0136,0*431f5652
#BESTVELA,FILE,0,23.0,FINESTEERING,2319,305905.050,02000000,10a2,17139;SOL_COMPUTED,NARROW_INT,0.025,2.050,8.1710,178.347573,-0.0117,0*eea02eec
#BESTVELA,FILE,0,23.0,FINESTEERING,2319,305905.100,02000000,10a2,17139;SOL_COMPUTED,NARROW_INT,0.025,2.100,8.1356,178.364428,0.0608,0*919b1ed1
#BESTVELA,FILE,0,29.0,FINESTEERING,2319,305905.150,02000000,10a2,17139;SOL_COMPUTED,NARROW_INT,0.025,2.150,8.1966,178.372484,0.0124,0*736af939
#BESTVELA,FILE,0,29.0,FINESTEERING,2319,305905.200,02000000,10a2,17139;SOL_COMPUTED,NARROW_INT,0.025,2.200,8.2026,178.696350,0.0996,0*a74b97b5
#BESTVELA,FILE,0,29.0,FINESTEERING,2319,305905.250,02000000,10a2,17139;SOL_COMPUTED,NARROW_INT,0.025,2.250,8.2362,178.421062,0.1229,0*9e8ce623
#BESTVELA,FILE,0,29.0,FINESTEERING,2319,305905.300,02000000,10a2,17139;SOL_COMPUTED,NARROW_INT,0.025,2.300,8.2171,178.538915,0.0343,0*83f833f9
#BESTVELA,FILE,0,29.0,FINESTEERING,2319,305905.350,02000000,10a2,17139;SOL_COMPUTED,NARROW_INT,0.025,2.350,8.2362,178.526818,0.0959,0*e59ec348
#BESTVELA,FILE,0,29.0,FINESTEERING,2319,305905.400,02000000,10a2,17139;SOL_COMPUTED,NARROW_INT,0.025,2.400,8.2689,178.687363,0.0454,0*72112439
#BESTVELA,FILE,0,29.0,FINESTEERING,2319,305905.450,02000000,10a2,17139;SOL_COMPUTED,NARROW_INT,0.025,2.450,8.2487,178.737927,0.0157,0*32c704a5
#BESTVELA,FILE,0,29.0,FINESTEERING,2319,305905.500,02000000,10a2,17139;SOL_COMPUTED,NARROW_INT,0.025,2.500,8.2928,178.513324,0.1160,0*919b8e7e
#BESTVELA,FILE,0,29.0,FINESTEERING,2319,305905.550,02000000,10a2,17139;SOL_COMPUTED,NARROW_INT,0.025,2.550,8.2878,178.501102,0.0704,0*72ea543b
#BESTVELA,FILE,0,29.0,FINESTEERING,2319,305905.600,02000000,10a2,17139;SOL_COMPUTED,NARROW_INT,0.025,2.600,8.2893,178.808346,0.0330,0*08f957c8
#BESTVELA,FILE,0,29.0,FINESTEERING,2319,305905.650,02000000,10a2,17139;SOL_COMPUTED,NARROW_INT,0.025,2.650,8.3374,178.826834,0.0394,0*635a4649
#BESTVELA,FILE,0,29.0,FINESTEERING,2319,305905.700,02000000,10a2,17139;SOL_COMPUTED,NARROW_INT,0.025,2.700,8.3209,178.596394,0.0885,0*6cbf51b4
#BESTVELA,FILE,0,29.0,FINESTEERING,2319,305905.750,02000000,10a2,17139;SOL_COMPUTED,NARROW_INT,0.025,2.750,8.3663,178.650542,0.1122,0*d0af4cc0
#BESTVELA,FILE,0,29.0,FINESTEERING,2319,305905.800,02000000,10a2,17139;SOL_COMPUTED,NARROW_INT,0.025,2.800,8.3818,178.529001,0.0708,0*34d161da
#BESTVELA,FILE,0,29.0,FINESTEERING,2319,305905.850,02000000,10a2,17139;SOL_COMPUTED,NARROW_INT,0.025,2.850,8.3800,178.712197,0.0937,0*6fe566ea
#BESTVELA,FILE,0,29.0,FINESTEERING,2319,305905.900,02000000,10a2,17139;SOL_COMPUTED,NARROW_INT,0.025,2.900,8.3893,178.624922,0.0335,0*e2e4b504
#BESTVELA,FILE,0,29.0,FINESTEERING,2319,305905.950,02000000,10a2,17139;SOL_COMPUTED,NARROW_INT,0.025,2.950,8.4001,178.529622,0.0015,0*4169b0b5
#BESTVELA,FILE,0,29.0,FINESTEERING,2319,305906.000,02000000,10a2,17139;SOL_COMPUTED,NARROW_INT,0.025,3.000,8.4057,178.544454,0.0231,0*d4b22053
#BESTVELA,FILE,0,29.0,FINESTEERING,2319,305906.050,02000000,10a2,17139;SOL_COMPUTED,NARROW_INT,0.025,3.050,8.4110,178.809499,0.0473,0*35a4f828
#BESTVELA,FILE,0,29.0,FINESTEERING,2319,305906.100,02000000,10a2,17139;SOL_COMPUTED,NARROW_INT,0.025,3.100,8.4213,179.044248,0.0493,0*b27f9baf
#BESTVELA,FILE,0,29.5,FINESTEERING,2319,305906.150,02000000,10a2,17139;SOL_COMPUTED,NARROW_INT,0.025,3.150,8.4421,179.171288,0.0465,0*1f3c6861
#BESTVELA,FILE,0,29.5,FINESTEERING,2319,305906.200,02000000,10a2,17139;SOL_COMPUTED,NARROW_INT,0.025,3.200,8.4497,178.990155,0.0536,0*57f77e2d
#BESTVELA,FILE,0,29.5,FINESTEERING,2319,305906.250,02000000,10a2,17139;SOL_COMPUTED,NARROW_INT,0.025,3.250,8.4608,179.166573,0.0037,0*68f80e0b
#BESTVELA,FILE,0,29.5,FINESTEERING,2319,305906.300,02000000,10a2,17139;SOL_COMPUTED,NARROW_INT,0.025,3.300,8.4951,179.104170,0.0842,0*83a1a3ab
#BESTVELA,FILE,0,29.5,FINESTEERING,2319,305906.350,02000000,10a2,17139;SOL_COMPUTED,NARROW_INT,0.025,3.350,8.4874,178.923025,-0.0015,0*88a12b2d
#BESTVELA,FILE,0,29.5,FINESTEERING,2319,305906.400,02000000,10a2,17139;SOL_COMPUTED,NARROW_INT,0.025,3.400,8.5019,179.046494,0.0488,0*a755051f
#BESTVELA,FILE,0,29.5,FINESTEERING,2319,305906.450,02000000,10a2,17139;SOL_COMPUTED,NARROW_INT,0.025,3.450,8.5319,178.991047,0.0222,0*35cdde14
#BESTVELA,FILE,0,29.5,FINESTEERING,2319,305906.500,02000000,10a2,17139;SOL_COMPUTED,NARROW_INT,0.025,3.500,8.5712,179.202922,0.0594,0*6411d206
#BESTVELA,FILE,0,29.5,FINESTEERING,2319,305906.550,02000000,10a2,17139;SOL_COMPUTED,NARROW_INT,0.025,3.550,8.5805,179.270199,0.0859,0*1ff303fa
#BESTVELA,FILE,0,29.5,FINESTEERING,2319,305906.600,02000000,10a2,17139;SOL_COMPUTED,NARROW_INT,0.025,3.600,8.5273,179.138427,0.0521,0*dc16937c
#BESTVELA,FILE,0,29.5,FINESTEERING,2319,305906.650,02000000,10a2,17139;SOL_COMPUTED,NARROW_INT,0.025,3.650,8.5709,179.537686,0.0603,0*504e8046
#BESTVELA,FILE,0,29.5,FINESTEERING,2319,305906.700,02000000,10a2,17139;SOL_COMPUTED,NARROW_INT,0.025,3.700,8.5593,179.294218,0.0531,0*a1515020
#BESTVELA,FILE,0,29.5,FINESTEERING,2319,305906.750,02000000,10a2,17139;SOL_COMPUTED,NARROW_INT,0.025,3.750,8.5774,179.297372,0.0383,0*7d40b085
#BESTVELA,FILE,0,29.5,FINESTEERING,2319,305906.800,02000000,10a2,17139;SOL_COMPUTED,NARROW_INT,0.025,3.800,8.5943,179.168855,0.0143,0*bad3fc1e
#BESTVELA,FILE,0,29.5,FINESTEERING,2319,305906.850,02000000,10a2,17139;SOL_COMPUTED,NARROW_INT,0.025,3.850,8.6186,179.311562,0.0132,0*a8000ee4
#BESTVELA,FILE,0,29.5,FINESTEERING,2319,305906.900,02000000,10a2,17139;SOL_COMPUTED,NARROW_INT,0.025,3.900,8.6135,179.386851,0.0358,0*897d6fcb
#BESTVELA,FILE,0,29.5,FINESTEERING,2319,305906.950,02000000,10a2,17139;SOL_COMPUTED,NARROW_INT,0.025,3.950,8.6305,179.317960,0.0121,0*3aff33d1
#BESTVELA,FILE,0,29.5,FINESTEERING,2319,305907.000,02000000,10a2,17139;SOL_COMPUTED,NARROW_INT,0.025,4.000,8.6543,179.406156,0.1040,0*88ce498b
#BESTVELA,FILE,0,29.5,FINESTEERING,2319,305907.050,02000000,10a2,17139;SOL_COMPUTED,NARROW_INT,0.025,4.050,8.6627,179.460234,0.0461,0*d922b0c1
#BESTVELA,FILE,0,29.0,FINESTEERING,2319,305907.100,02000000,10a2,17139;SOL_COMPUTED,NARROW_INT,0.025,4.100,8.6724,179.638761,0.0682,0*6d4d1193
#BESTVELA,FILE,0,29.0,FINESTEERING,2319,305907.150,02000000,10a2,17139;SOL_COMPUTED,NARROW_INT,0.025,4.150,8.7068,179.681410,0.0870,0*7d8980b6
#BESTVELA,FILE,0,29.0,FINESTEERING,2319,305907.200,02000000,10a2,17139;SOL_COMPUTED,NARROW_INT,0.025,4.200,8.7577,179.410973,0.1143,0*0cac0711
#BESTVELA,FILE,0,29.0,FINESTEERING,2319,305907.250,02000000,10a2,17139;SOL_COMPUTED,NARROW_INT,0.025,4.250,8.7474,179.473319,0.0450,0*14c06a2c
#BESTVELA,FILE,0,29.0,FINESTEERING,2319,305907.300,02000000,10a2,17139;SOL_COMPUTED,NARROW_INT,0.025,4.300,8.7529,179.484862,0.0991,0*e3fad493
#BESTVELA,FILE,0,29.0,FINESTEERING,2319,305907.350,02000000,10a2,17139;SOL_COMPUTED,NARROW_INT,0.025,4.350,8.7382,179.480424,0.0623,0*f88137e0
#BESTVELA,FILE,0,29.0,FINESTEERING,2319,305907.400,02000000,10a2,17139;SOL_COMPUTED,NARROW_INT,0.025,4.400,8.7785,179.630278,0.0353,0*70c6eb6e
#BESTVELA,FILE,0,29.0,FINESTEERING,2319,305907.450,02000000,10a2,17139;SOL_COMPUTED,NARROW_INT,0.025,4.450,8.7833,179.461949,-0.0001,0*eee9998c
#BESTVELA,FILE,0,29.0,FINESTEERING,2319,305907.500,02000000,10a2,17139;SOL_COMPUTED,NARROW_INT,0.025,4.500,8.7801,179.567837,0.0226,0*ee9cd2ff
#BESTVELA,FILE,0,29.0,FINESTEERING,2319,305907.550,02000000,10a2,17139;SOL_COMPUTED,NARROW_INT,0.025,4.550,8.7909,179.547166,0.0235,0*195ac451
#BESTVELA,FILE,0,29.0,FINESTEERING,2319,305907.600,02000000,10a2,17139;SOL_COMPUTED,NARROW_INT,0.025,4.600,8.7676,179.655494,0.0364,0*8f89103a
#BESTVELA,FILE,0,29.0,FINESTEERING,2319,305907.650,02000000,10a2,17139;SOL_COMPUTED,NARROW_INT,0.025,4.650,8.7833,179.748607,0.0870,0*756b9f62
#BESTVELA,FILE,0,29.0,FINESTEERING,2319,305907.700,02000000,10a2,17139;SOL_COMPUTED,NARROW_INT,0.025,4.700,8.8124,179.686288,0.0417,0*00b27849
#BESTVELA,FILE,0,29.0,FINESTEERING,2319,305907.750,02000000,10a2,17139;SOL_COMPUTED,NARROW_INT,0.025,4.750,8.8172,179.715618,0.0233,0*5c854754
#BESTVELA,FILE,0,29.0,FINESTEERING,2319,305907.800,02000000,10a2,17139;SOL_COMPUTED,NARROW_INT,0.025,4.800,8.8604,179.704837,0.0367,0*55722b88
#BESTVELA,FILE,0,29.0,FINESTEERING,2319,305907.850,02000000,10a2,17139;SOL_COMPUTED,NARROW_INT,0.025,4.850,8.8793,179.522090,0.1289,0*eb6d2f7a
#BESTVELA,FILE,0,29.0,FINESTEERING,2319,305907.900,02000000,10a2,17139;SOL_COMPUTED,NARROW_INT,0.025,4.900,8.9074,179.610505,0.1151,0*bac167b4
#BESTVELA,FILE,0,29.0,FINESTEERING,2319,305907.950,02000000,10a2,17139;SOL_COMPUTED,NARROW_INT,0.025,4.950,8.8844,179.828886,0.0735,0*71fe9deb
#BESTVELA,FILE,0,29.0,FINESTEERING,2319,305908.000,02000000,10a2,17139;SOL_COMPUTED,NARROW_INT,0.025,5.000,8.9053,179.778940,0.0849,0*0b38e10b
#BESTVELA,FILE,0,29.0,FINESTEERING,2319,305908.050,02000000,10a2,17139;SOL_COMPUTED,NARROW_INT,0.025,5.050,8.8944,179.507486,0.0779,0*9d82cf03
#BESTVELA,FILE,0,28.5,FINESTEERING,2319,305908.100,02000000,10a2,17139;SOL_COMPUTED,NARROW_INT,0.025,5.100,8.9024,179.442193,0.0845,0*98a8bdd0
#BESTVELA,FILE,0,28.5,FINESTEERING,2319,305908.150,02000000,10a2,17139;SOL_COMPUTED,NARROW_INT,0.025,5.150,8.9199,179.667370,0.0861,0*9663ef85
#BESTVELA,FILE,0,28.5,FINESTEERING,2319,305908.200,02000000,10a2,17139;SOL_COMPUTED,NARROW_INT,0.025,5.200,8.9413,179.570218,0.0240,0*24671bcc
#BESTVELA,FILE,0,28.5,FINESTEERING,2319,305908.250,02000000,10a2,17139;SOL_COMPUTED,NARROW_INT,0.025,5.250,8.9563,179.787339,0.0458,0*5da784fa
#BESTVELA,FILE,0,28.5,FINESTEERING,2319,305908.300,02000000,10a2,17139;SOL_COMPUTED,NARROW_INT,0.025,5.300,8.9727,179.682682,0.1412,0*e74da6c6
#BESTVELA,FILE,0,28.5,FINESTEERING,2319,305908.350,02000000,10a2,17139;SOL_COMPUTED,NARROW_INT,0.025,5.350,9.0031,179.716478,0.0806,0*dbd7f0a3
#BESTVELA,FILE,0,28.5,FINESTEERING,2319,305908.400,02000000,10a2,17139;SOL_COMPUTED,NARROW_INT,0.025,5.400,8.9912,179.738775,0.0939,0*cb2492de
#BESTVELA,FILE,0,28.5,FINESTEERING,2319,305908.450,02000000,10a2,17139;SOL_COMPUTED,NARROW_INT,0.025,5.450,8.9914,179.483632,0.1105,0*bc598625
#BESTVELA,FILE,0,28.5,FINESTEERING,2319,305908.500,02000000,10a2,17139;SOL_COMPUTED,NARROW_INT,0.025,5.500,8.9422,179.628626,0.0589,0*f8deed2d
#BESTVELA,FILE,0,28.5,FINESTEERING,2319,305908.550,02000000,10a2,17139;SOL_COMPUTED,NARROW_INT,0.025,5.550,8.9782,179.607220,0.0466,0*16226dfe
#BESTVELA,FILE,0,28.5,FINESTEERING,2319,305908.600,02000000,10a2,17139;SOL_COMPUTED,NARROW_INT,0.025,5.600,9.0108,179.744413,0.1039,0*94602ca3
#BESTVELA,FILE,0,28.5,FINESTEERING,2319,305908.650,02000000,10a2,17139;SOL_COMPUTED,NARROW_INT,0.025,5.650,8.9875,179.897679,0.1039,0*2a6cc421
#BESTVELA,FILE,0,28.5,FINESTEERING,2319,305908.700,02000000,10a2,17139;SOL_COMPUTED,NARROW_INT,0.025,5.700,9.0513,179.629441,0.1135,0*3ce1ef8c
#BESTVELA,FILE,0,28.5,FINESTEERING,2319,305908.750,02000000,10a2,17139;SOL_COMPUTED,NARROW_INT,0.025,5.750,9.0455,179.865221,0.0907,0*9f11243c
#BESTVELA,FILE,0,28.5,FINESTEERING,2319,305908.800,02000000,10a2,17139;SOL_COMPUTED,NARROW_INT,0.025,5.800,9.0748,179.838734,0.1453,0*c84f62e4
#BESTVELA,FILE,0,28.5,FINESTEERING,2319,305908.850,02000000,10a2,17139;SOL_COMPUTED,NARROW_INT,0.025,5.850,9.0896,179.862849,0.1550,0*a12eef8c
#BESTVELA,FILE,0,28.5,FINESTEERING,2319,305908.900,02000000,10a2,17139;SOL_COMPUTED,NARROW_INT,0.025,5.900,9.0592,179.879154,0.1339,0*e99f8683
#BESTVELA,FILE,0,28.5,FINESTEERING,2319,305908.950,02000000,10a2,17139;SOL_COMPUTED,NARROW_INT,0.025,5.950,9.1023,179.778390,0.1173,0*637a4296
#BESTVELA,FILE,0,28.5,FINESTEERING,2319,305909.000,02000000,10a2,17139;SOL_COMPUTED,NARROW_INT,0.025,6.000,9.0735,179.842496,0.0429,0*3826f2e3
#BESTVELA,FILE,0,28.5,FINESTEERING,2319,305909.050,02000000,10a2,17139;SOL_COMPUTED,NARROW_INT,0.025,6.050,9.0644,179.806922,0.0928,0*dc9bdd42
#BESTVELA,FILE,0,28.5,FINESTEERING,2319,305909.100,02000000,10a2,17139;SOL_COMPUTED,NARROW_INT,0.025,6.100,9.0822,179.698554,0.0855,0*329c36d0
#BESTVELA,FILE,0,28.5,FINESTEERING,2319,305909.150,02000000,10a2,17139;SOL_COMPUTED,NARROW_INT,0.025,6.150,9.0878,179.939695,0.1195,0*ec39398d
#BESTVELA,FILE,0,28.5,FINESTEERING,2319,305909.200,02000000,10a2,17139;SOL_COMPUTED,NARROW_INT,0.025,6.200,9.1126,180.066369,0.1540,0*1d5d3d93
#BESTVELA,FILE,0,28.5,FINESTEERING,2319,305909.250,02000000,10a2,17139;SOL_COMPUTED,NARROW_INT,0.025,6.250,9.1424,179.616984,0.1121,0*3f31e7a2
#BESTVELA,FILE,0,28.5,FINESTEERING,2319,305909.300,02000000,10a2,17139;SOL_COMPUTED,NARROW_INT,0.025,6.300,9.1298,179.844853,0.1178,0*519ec5b8
#BESTVELA,FILE,0,28.5,FINESTEERING,2319,305909.350,02000000,10a2,17139;SOL_COMPUTED,NARROW_INT,0.025,6.350,9.1527,179.907624,0.1311,0*95d79ee2
#BESTVELA,FILE,0,28.5,FINESTEERING,2319,305909.400,02000000,10a2,17139;SOL_COMPUTED,NARROW_INT,0.025,6.400,9.1244,180.097337,0.1274,0*de959e3d
#BESTVELA,FILE,0,28.5,FINESTEERING,2319,305909.450,02000000,10a2,17139;SOL_COMPUTED,NARROW_INT,0.025,6.450,9.1651,179.947051,0.1121,0*e7ecae47
#BESTVELA,FILE,0,28.5,FINESTEERING,2319,305909.500,02000000,10a2,17139;SOL_COMPUTED,NARROW_INT,0.025,6.500,9.1794,179.954913,0.0916,0*46f3873d
#BESTVELA,FILE,0,28.5,FINESTEERING,2319,305909.550,02000000,10a2,17139;SOL_COMPUTED,NARROW_INT,0.025,6.550,9.1562,180.033306,0.1065,0*606aedc7
#BESTVELA,FILE,0,28.5,FINESTEERING,2319,305909.600,02000000,10a2,17139;SOL_COMPUTED,NARROW_INT,0.025,6.600,9.1819,180.093997,0.1476,0*02df2859
#BESTVELA,FILE,0,28.5,FINESTEERING,2319,305909.650,02000000,10a2,17139;SOL_COMPUTED,NARROW_INT,0.025,6.650,9.2281,180.177895,0.1024,0*c1cbb548
#BESTVELA,FILE,0,28.5,FINESTEERING,2319,305909.700,02000000,10a2,17139;SOL_COMPUTED,NARROW_INT,0.025,6.700,9.1938,180.135798,0.1003,0*337d535e
#BESTVELA,FILE,0,28.5,FINESTEERING,2319,305909.750,02000000,10a2,17139;SOL_COMPUTED,NARROW_INT,0.025,6.750,9.1799,180.190293,0.1387,0*ed6e04e0
#BESTVELA,FILE,0,28.5,FINESTEERING,2319,305909.800,02000000,10a2,17139;SOL_COMPUTED,NARROW_INT,0.025,6.800,9.2036,180.041426,0.1554,0*7fd3ea31
#BESTVELA,FILE,0,28.5,FINESTEERING,2319,305909.850,02000000,10a2,17139;SOL_COMPUTED,NARROW_INT,0.025,6.850,9.2128,180.089352,0.0992,0*55e19e7d
#BESTVELA,FILE,0,28.5,FINESTEERING,2319,305909.900,02000000,10a2,17139;SOL_COMPUTED,NARROW_INT,0.025,6.900,9.2219,180.209002,0.0802,0*efe3faa3
#BESTVELA,FILE,0,28.5,FINESTEERING,2319,305909.950,02000000,10a2,17139;SOL_COMPUTED,NARROW_INT,0.025,6.950,9.2279,180.168748,0.0977,0*cdcb943f
#BESTVELA,FILE,0,28.5,FINESTEERING,2319,305910.000,02000000,10a2,17139;SOL_COMPUTED,NARROW_INT,0.025,7.000,9.2353,180.261603,0.1086,0*f317e6ab
#BESTVELA,FILE,0,28.5,FINESTEERING,2319,305910.050,02000000,10a2,17139;SOL_COMPUTED,NARROW_INT,0.025,7.050,9.2460,180.071622,0.1056,0*a66a1e13
#BESTVELA,FILE,0,28.5,FINESTEERING,2319,305910.100,02000000,10a2,17139;SOL_COMPUTED,NARROW_INT,0.025,7.100,9.2529,179.974165,0.0937,0*5447a8bf
#BESTVELA,FILE,0,29.5,FINESTEERING,2319,305910.150,02000000,10a2,17139;SOL_COMPUTED,NARROW_INT,0.025,7.150,9.2718,179.892200,0.1095,0*4c79a925
#BESTVELA,FILE,0,29.5,FINESTEERING,2319,305910.200,02000000,10a2,17139;SOL_COMPUTED,NARROW_INT,0.025,7.200,9.2982,180.111994,0.1673,0*e8ba33d7
#BESTVELA,FILE,0,29.5,FINESTEERING,2319,305910.250,02000000,10a2,17139;SOL_COMPUTED,NARROW_INT,0.025,7.250,9.2746,180.062246,0.1131,0*02f41dbb
#BESTVELA,FILE,0,29.5,FINESTEERING,2319,305910.300,02000000,10a2,17139;SOL_COMPUTED,NARROW_INT,0.025,7.300,9.3000,180.176487,0.0621,0*c7a7d627
#BESTVELA,FILE,0,29.5,FINESTEERING,2319,305910.350,02000000,10a2,17139;SOL_COMPUTED,NARROW_INT,0.025,7.350,9.3039,179.933798,0.0722,0*71e6f591
#BESTVELA,FILE,0,29.5,FINESTEERING,2319,305910.400,02000000,10a2,17139;SOL_COMPUTED,NARROW_INT,0.025,7.400,9.2971,180.121683,0.0345,0*1705b320
#BESTVELA,FILE,0,29.5,FINESTEERING,2319,305910.450,02000000,10a2,17139;SOL_COMPUTED,NARROW_INT,0.025,7.450,9.3150,179.715248,0.1414,0*818bb6ba
#BESTVELA,FILE,0,29.5,FINESTEERING,2319,305910.500,02000000,10a2,17139;SOL_COMPUTED,NARROW_INT,0.025,7.500,9.3302,179.887808,0.0722,0*2ec33fa0
#BESTVELA,FILE,0,29.5,FINESTEERING,2319,305910.550,02000000,10a2,17139;SOL_COMPUTED,NARROW_INT,0.025,7.550,9.3140,179.994805,0.0981,0*d4d456f8
#BESTVELA,FILE,0,29.5,FINESTEERING,2319,305910.600,02000000,10a2,17139;SOL_COMPUTED,NARROW_INT,0.025,7.600,9.2911,179.751661,0.0665,0*17b8af62
#BESTVELA,FILE,0,29.5,FINESTEERING,2319,305910.650,02000000,10a2,17139;SOL_COMPUTED,NARROW_INT,0.025,7.650,9.2895,179.729727,0.0297,0*81552682
#BESTVELA,FILE,0,29.5,FINESTEERING,2319,305910.700,02000000,10a2,17139;SOL_COMPUTED,NARROW_INT,0.025,7.700,9.3489,179.247195,0.0941,0*eff09265
#BESTVELA,FILE,0,29.5,FINESTEERING,2319,305910.750,02000000,10a2,17139;SOL_COMPUTED,NARROW_INT,0.025,7.750,9.3576,179.148748,0.1066,0*7bb3496e
#BESTVELA,FILE,0,29.5,FINESTEERING,2319,305910.800,02000000,10a2,17139;SOL_COMPUTED,NARROW_INT,0.025,7.800,9.3734,178.914204,0.1998,0*f40fd492
#BESTVELA,FILE,0,29.5,FINESTEERING,2319,305910.850,02000000,10a2,17139;SOL_COMPUTED,NARROW_INT,0.025,7.850,9.3624,178.750102,0.1273,0*bc07b97a
#BESTVELA,FILE,0,29.5,FINESTEERING,2319,305910.900,02000000,10a2,17139;SOL_COMPUTED,NARROW_INT,0.025,7.900,9.4052,178.590470,0.1816,0*1a041467
#BESTVELA,FILE,0,29.5,FINESTEERING,2319,305910.950,02000000,10a2,17139;SOL_COMPUTED,NARROW_INT,0.025,7.950,9.3959,178.749011,0.1320,0*02a5a76a
#BESTVELA,FILE,0,29.5,FINESTEERING,2319,305911.000,02000000,10a2,17139;SOL_COMPUTED,NARROW_INT,0.025,8.000,9.4258,178.166761,0.2272,0*615c1da1
#BESTVELA,FILE,0,29.5,FINESTEERING,2319,305911.050,02000000,10a2,17139;SOL_COMPUTED,NARROW_INT,0.025,8.050,9.4452,178.141018,0.1685,0*4fdcb52e
#BESTVELA,FILE,0,28.5,FINESTEERING,2319,305911.100,02000000,10a2,17139;SOL_COMPUTED,NARROW_INT,0.025,8.100,9.4141,178.083965,0.1349,0*75fba099
#BESTVELA,FILE,0,28.5,FINESTEERING,2319,305911.150,02000000,10a2,17139;SOL_COMPUTED,NARROW_INT,0.025,8.150,9.4342,178.262228,0.1286,0*0448547e
#BESTVELA,FILE,0,28.5,FINESTEERING,2319,305911.200,02000000,10a2,17139;SOL_COMPUTED,NARROW_INT,0.025,8.200,9.4517,178.176641,0.1665,0*42bf62b3
#BESTVELA,FILE,0,28.5,FINESTEERING,2319,305911.250,02000000,10a2,17139;SOL_COMPUTED,NARROW_INT,0.025,8.250,9.4136,178.174180,0.1424,0*e7fa9773
#BESTVELA,FILE,0,28.5,FINESTEERING,2319,305911.300,02000000,10a2,17139;SOL_COMPUTED,NARROW_INT,0.025,8.300,9.4148,178.472588,0.1538,0*e9a2ccfd
#BESTVELA,FILE,0,28.5,FINESTEERING,2319,305911.350,02000000,10a2,17139;SOL_COMPUTED,NARROW_INT,0.025,8.350,9.4146,178.363427,0.0856,0*6422c870
#BESTVELA,FILE,0,28.5,FINESTEERING,2319,305911.400,02000000,10a2,17139;SOL_COMPUTED,NARROW_INT,0.025,8.400,9.4696,178.367973,0.1982,0*12874396
#BESTVELA,FILE,0,28.5,FINESTEERING,2319,305911.450,02000000,10a2,17139;SOL_COMPUTED,NARROW_INT,0.025,8.450,9.4729,178.189144,0.1166,0*675acf55
#BESTVELA,FILE,0,28.5,FINESTEERING,2319,305911.500,02000000,10a2,17139;SOL_COMPUTED,NARROW_INT,0.025,8.500,9.5035,178.478925,0.1542,0*e6a05d2f
#BESTVELA,FILE,0,28.5,FINESTEERING,2319,305911.550,02000000,10a2,17139;SOL_COMPUTED,NARROW_INT,0.025,8.550,9.4906,178.365034,0.1625,0*3a8598dd
#BESTVELA,FILE,0,28.5,FINESTEERING,2319,305911.600,02000000,10a2,17139;SOL_COMPUTED,NARROW_INT,0.025,8.600,9.4978,178.401459,0.1468,0*ed3dc968
#BESTVELA,FILE,0,28.5,FINESTEERING,2319,305911.650,02000000,10a2,17139;SOL_COMPUTED,NARROW_INT,0.025,8.650,9.5286,178.501708,0.1802,0*b9022ebb
#BESTVELA,FILE,0,28.5,FINESTEERING,2319,305911.700,02000000,10a2,17139;SOL_COMPUTED,NARROW_INT,0.025,8.700,9.5460,178.367023,0.1441,0*3861ceba
#BESTVELA,FILE,0,28.5,FINESTEERING,2319,305911.750,02000000,10a2,17139;SOL_COMPUTED,NARROW_INT,0.025,8.750,9.5104,178.543067,0.1329,0*f1eeb5f3
#BESTVELA,FILE,0,28.5,FINESTEERING,2319,305911.800,02000000,10a2,17139;SOL_COMPUTED,NARROW_INT,0.025,8.800,9.5527,178.645655,0.1411,0*281a6c36
#BESTVELA,FILE,0,28.5,FINESTEERING,2319,305911.850,02000000,10a2,17139;SOL_COMPUTED,NARROW_INT,0.025,8.850,9.5616,178.553491,0.1181,0*9f0756af
#BESTVELA,FILE,0,28.5,FINESTEERING,2319,305911.900,02000000,10a2,17139;SOL_COMPUTED,NARROW_INT,0.025,8.900,9.5419,178.504489,0.0572,0*c6cfe211
#BESTVELA,FILE,0,28.5,FINESTEERING,2319,305911.950,02000000,10a2,17139;SOL_COMPUTED,NARROW_INT,0.025,8.950,9.5225,178.617239,0.1237,0*39e8bafa
#BESTVELA,FILE,0,28.5,FINESTEERING,2319,305912.000,02000000,10a2,17139;SOL_COMPUTED,NARROW_INT,0.025,9.000,9.5363,178.169185,0.0578,0*37b38423
#BESTVELA,FILE,0,28.5,FINESTEERING,2319,305912.050,02000000,10a2,17139;SOL_COMPUTED,NARROW_INT,0.025,9.050,9.5023,178.493436,0.0698,0*a49e1181
#BESTVELA,FILE,0,28.5,FINESTEERING,2319,305912.100,02000000,10a2,17139;SOL_COMPUTED,NARROW_INT,0.025,9.100,9.5110,178.489903,0.1096,0*c2063010
#BESTVELA,FILE,0,29.0,FINESTEERING,2319,305912.150,02000000,10a2,17139;SOL_COMPUTED,NARROW_INT,0.025,9.150,9.5211,178.592538,0.0750,0*eb48638d
#BESTVELA,FILE,0,29.0,FINESTEERING,2319,305912.200,02000000,10a2,17139;SOL_COMPUTED,NARROW_INT,0.025,9.200,9.5088,178.438274,0.1149,0*4fe17fe2
#BESTVELA,FILE,0,29.0,FINESTEERING,2319,305912.250,02000000,10a2,17139;SOL_COMPUTED,NARROW_INT,0.025,9.250,9.4946,178.477161,0.1178,0*0f5e4674
#BESTVELA,FILE,0,29.0,FINESTEERING,2319,305912.300,02000000,10a2,17139;SOL_COMPUTED,NARROW_INT,0.025,9.300,9.4454,178.356189,0.0269,0*03c5325d
#BESTVELA,FILE,0,29.0,FINESTEERING,2319,305912.350,02000000,10a2,17139;SOL_COMPUTED,NARROW_INT,0.025,9.350,9.4621,178.131262,0.0573,0*e0728d7c
#BESTVELA,FILE,0,29.0,FINESTEERING,2319,305912.400,02000000,10a2,17139;SOL_COMPUTED,NARROW_INT,0.025,9.400,9.4413,178.335496,0.0719,0*48567e45
#BESTVELA,FILE,0,29.0,FINESTEERING,2319,305912.450,02000000,10a2,17139;SOL_COMPUTED,NARROW_INT,0.025,9.450,9.4420,178.480721,0.1062,0*8c545552
#BESTVELA,FILE,0,29.0,FINESTEERING,2319,305912.500,02000000,10a2,17139;SOL_COMPUTED,NARROW_INT,0.025,9.500,9.4349,178.455679,0.0244,0*c9e78eeb
#BESTVELA,FILE,0,29.0,FINESTEERING,2319,305912.550,02000000,10a2,17139;SOL_COMPUTED,NARROW_INT,0.025,9.550,9.4141,178.528033,0.0720,0*29326e89
#BESTVELA,FILE,0,29.0,FINESTEERING,2319,305912.600,02000000,10a2,17139;SOL_COMPUTED,NARROW_INT,0.025,9.600,9.4083,178.509328,0.0420,0*a72cc188
#BESTVELA,FILE,0,29.0,FINESTEERING,2319,305912.650,02000000,10a2,17139;SOL_COMPUTED,NARROW_INT,0.025,9.650,9.3694,178.454584,0.0543,0*63497349
#BESTVELA,FILE,0,29.0,FINESTEERING,2319,305912.700,02000000,10a2,17139;SOL_COMPUTED,NARROW_INT,0.025,9.700,9.3426,178.850931,0.0826,0*c36575fa
#BESTVELA,FILE,0,29.0,FINESTEERING,2319,305912.750,02000000,10a2,17139;SOL_COMPUTED,NARROW_INT,0.025,9.750,9.3241,178.488874,0.0923,0*7aa4db08
#BESTVELA,FILE,0,29.0,FINESTEERING,2319,305912.800,02000000,10a2,17139;SOL_COMPUTED,NARROW_INT,0.025,9.800,9.3013,178.699898,0.0343,0*16234cc0
#BESTVELA,FILE,0,29.0,FINESTEERING,2319,305912.850,02000000,10a2,17139;SOL_COMPUTED,NARROW_INT,0.025,9.850,9.2888,178.582037,0.0856,0*c1636320
#BESTVELA,FILE,0,29.0,FINESTEERING,2319,305912.900,02000000,10a2,17139;SOL_COMPUTED,NARROW_INT,0.025,9.900,9.2636,178.646659,0.0922,0*8d116699
#BESTVELA,FILE,0,29.0,FINESTEERING,2319,305912.950,02000000,10a2,17139;SOL_COMPUTED,NARROW_INT,0.025,9.950,9.2356,178.746269,0.1001,0*383c23be
#BESTVELA,FILE,0,29.0,FINESTEERING,2319,305913.000,02000000,10a2,17139;SOL_COMPUTED,NARROW_INT,0.025,10.000,9.1942,178.684385,0.1042,0*7b0becde
#BESTVELA,FILE,0,29.0,FINESTEERING,2319,305913.050,02000000,10a2,17139;SOL_COMPUTED,NARROW_INT,0.025,10.050,9.1848,178.559386,0.1611,0*38943e61
#BESTVELA,FILE,0,28.5,FINESTEERING,2319,305913.100,02000000,10a2,17139;SOL_COMPUTED,NARROW_INT,0.025,10.100,9.1214,178.657694,0.1319,0*bd78e7a6
#BESTVELA,FILE,0,28.5,FINESTEERING,2319,305913.150,02000000,10a2,17139;SOL_COMPUTED,NARROW_INT,0.025,10.150,9.0891,178.667243,0.0949,0*ac918a73
#BESTVELA,FILE,0,28.5,FINESTEERING,2319,305913.200,02000000,10a2,17139;SOL_COMPUTED,NARROW_INT,0.025,10.200,9.0744,178.549991,0.0863,0*4bc9d592
#BESTVELA,FILE,0,28.5,FINESTEERING,2319,305913.250,02000000,10a2,17139;SOL_COMPUTED,NARROW_INT,0.025,10.250,9.0334,178.745109,0.1156,0*094adc81
#BESTVELA,FILE,0,28.5,FINESTEERING,2319,305913.300,02000000,10a2,17139;SOL_COMPUTED,NARROW_INT,0.025,10.300,9.0380,178.819136,0.0881,0*b09a90f9
#BESTVELA,FILE,0,28.5,FINESTEERING,2319,305913.350,02000000,10a2,17139;SOL_COMPUTED,NARROW_INT,0.025,10.350,8.9814,178.895833,0.0586,0*48439d4f
#BESTVELA,FILE,0,28.5,FINESTEERING,2319,305913.400,02000000,10a2,17139;SOL_COMPUTED,NARROW_INT,0.025,10.400,8.9561,178.708835,0.1260,0*fd405e99
