#BESTPOSA,FILE,0,29.5,FINESTEERING,2319,305891.000,02000800,cdba,17139;SOL_COMPUTED,NARROW_INT,17.59845044739,78.12080144908,524.6907,-76.2000,WGS84,0.0062,0.0065,0.0156,"0",1.000,0.000,56,56,56,53,00,21,3f,37*b67a1172
#BESTPOSA,FILE,0,29.0,FINESTEERING,2319,305891.150,02000800,cdba,17139;SOL_COMPUTED,NARROW_INT,17.59844902429,78.12080168757,524.6879,-76.2000,WGS84,0.0063,0.0066,0.0159,"0",1.150,0.000,56,56,56,54,00,21,3f,37*e7e5bb25
#BESTPOSA,FILE,0,29.0,FINESTEERING,2319,305891.200,02000800,cdba,17139;SOL_COMPUTED,NARROW_INT,17.59844855946,78.12080176274,524.6850,-76.2000,WGS84,0.0063,0.0067,0.0159,"0",1.200,0.000,56,56,56,54,00,21,3f,37*b65e6e4a
#BESTPOSA,FILE,0,29.0,FINESTEERING,2319,305891.300,02000800,cdba,17139;SOL_COMPUTED,NARROW_INT,17.59844758378,78.12080189934,524.6833,-76.2000,WGS84,0.0064,0.0067,0.0160,"0",1.300,0.000,56,56,56,54,00,21,3f,37*3f3bab52
#BESTPOSA,FILE,0,29.0,FINESTEERING,2319,305891.350,02000800,cdba,17139;SOL_COMPUTED,NARROW_INT,17.59844708998,78.12080194597,524.6810,-76.2000,WGS84,0.0064,0.0067,0.0160,"0",1.350,0.000,56,56,56,54,00,21,3f,37*2d5ff5af
#BESTPOSA,FILE,0,29.0,FINESTEERING,2319,305891.400,02000800,cdba,17139;SOL_COMPUTED,NARROW_INT,17.59844657737,78.12080200368,524.6836,-76.2000,WGS84,0.0064,0.0067,0.0161,"0",1.400,0.000,56,56,56,54,00,21,3f,37*cd6647a9
#BESTPOSA,FILE,0,29.0,FINESTEERING,2319,305891.450,02000800,cdba,17139;SOL_COMPUTED,NARROW_INT,17.59844607166,78.12080203592,524.6892,-76.2000,WGS84,0.0060,0.0063,0.0153,"0",0.450,0.000,56,56,56,54,00,21,3f,37*c1b5f329
#BESTPOSA,FILE,0,29.0,FINESTEERING,2319,305891.600,02000800,cdba,17139;SOL_COMPUTED,NARROW_INT,17.59844450546,78.12080216507,524.6888,-76.2000,WGS84,0.0060,0.0063,0.0154,"0",0.600,0.000,56,56,56,54,00,21,3f,37*5c69cee6
#BESTPOSA,FILE,0,29.0,FINESTEERING,2319,305891.750,02000800,cdba,17139;SOL_COMPUTED,NARROW_INT,17.59844292069,78.12080227657,524.6865,-76.2000,WGS84,0.0061,0.0064,0.0155,"0",0.750,0.000,56,56,56,54,00,21,3f,37*4d74568f
#BESTPOSA,FILE,0,29.0,FINESTEERING,2319,305891.900,02000800,cdba,17139;SOL_COMPUTED,NARROW_INT,17.59844128305,78.12080232334,524.6855,-76.2000,WGS84,0.0061,0.0064,0.0156,"0",0.900,0.000,56,56,56,54,00,21,3f,37*babc9d2c
#BESTPOSA,FILE,0,29.0,FINESTEERING,2319,305892.000,02000800,cdba,17139;SOL_COMPUTED,NARROW_INT,17.59844016795,78.12080235639,524.6847,-76.2000,WGS84,0.0062,0.0065,0.0156,"0",1.000,0.000,56,56,56,54,00,21,3f,37*01c3ae5c
#BESTPOSA,FILE,0,29.0,FINESTEERING,2319,305892.050,02000800,cdba,17139;SOL_COMPUTED,NARROW_INT,17.59843959295,78.12080235472,524.6859,-76.2000,WGS84,0.0063,0.0066,0.0158,"0",1.050,0.000,56,56,56,54,00,21,3f,37*d6d10a22
#BESTPOSA,FILE,0,29.0,FINESTEERING,2319,305892.100,02000800,cdba,17139;SOL_COMPUTED,NARROW_INT,17.59843903430,78.12080236467,524.6833,-76.2000,WGS84,0.0063,0.0066,0.0159,"0",1.100,0.000,56,56,56,54,00,21,3f,37*b1a5541f
#BESTPOSA,FILE,0,30.0,FINESTEERING,2319,305892.250,02000800,cdba,17139;SOL_COMPUTED,NARROW_INT,17.59843731016,78.12080233936,524.6811,-76.2000,WGS84,0.0064,0.0067,0.0160,"0",1.250,0.000,56,56,56,54,00,21,3f,37*f80a005e
#BESTPOSA,FILE,0,30.0,FINESTEERING,2319,305892.400,02000800,cdba,17139;SOL_COMPUTED,NARROW_INT,17.59843554637,78.12080225067,524.6831,-76.2000,WGS84,0.0064,0.0067,0.0161,"0",1.400,0.000,56,56,56,54,00,21,3f,37*3034decc
#BESTPOSA,FILE,0,30.0,FINESTEERING,2319,305892.450,02000800,cdba,17139;SOL_COMPUTED,NARROW_INT,17.59843491414,78.12080223664,524.6809,-76.2000,WGS84,0.0059,0.0063,0.0153,"0",0.450,0.000,56,56,56,54,00,21,3f,37*2542cb82
#BESTPOSA,FILE,0,30.0,FINESTEERING,2319,305892.650,02000800,cdba,17139;SOL_COMPUTED,NARROW_INT,17.59843249965,78.12080206782,524.6797,-76.2000,WGS84,0.0060,0.0063,0.0154,"0",0.650,0.000,56,56,56,54,00,21,3f,37*60f36d17
#BESTPOSA,FILE,0,30.0,FINESTEERING,2319,305892.700,02000800,cdba,17139;SOL_COMPUTED,NARROW_INT,17.59843188297,78.12080200279,524.6783,-76.2000,WGS84,0.0060,0.0064,0.0154,"0",0.700,0.000,56,56,56,54,00,21,3f,37*b3a03b71
#BESTPOSA,FILE,0,30.0,FINESTEERING,2319,305892.750,02000800,cdba,17139;SOL_COMPUTED,NARROW_INT,17.59843127064,78.12080193858,524.6774,-76.2000,WGS84,0.0061,0.0064,0.0155,"0",0.750,0.000,56,56,56,54,00,21,3f,37*7a0785c6
#BESTPOSA,FILE,0,30.0,FINESTEERING,2319,305892.950,02000800,cdba,17139;SOL_COMPUTED,NARROW_INT,17.59842876165,78.12080168396,524.6760,-76.2000,WGS84,0.0061,0.0065,0.0156,"0",0.950,0.000,56,55,55,53,00,21,3f,37*b3e67069
#BESTPOSA,FILE,0,30.0,FINESTEERING,2319,305893.000,02000800,cdba,17139;SOL_COMPUTED,NARROW_INT,17.59842810012,78.12080161468,524.6751,-76.2000,WGS84,0.0062,0.0065,0.0156,"0",1.000,0.000,56,55,55,53,00,21,3f,37*a3e515c3
#BESTPOSA,FILE,0,30.0,FINESTEERING,2319,305893.050,02000800,cdba,17139;SOL_COMPUTED,NARROW_INT,17.59842744355,78.12080155450,524.6759,-76.2000,WGS84,0.0063,0.0066,0.0158,"0",1.050,0.000,56,55,55,53,00,21,3f,37*3c6413c9
#BESTPOSA,FILE,0,28.5,FINESTEERING,2319,305893.100,02000800,cdba,17139;SOL_COMPUTED,NARROW_INT,17.59842678438,78.12080148652,524.6757,-76.2000,WGS84,0.0063,0.0066,0.0159,"0",1.100,0.000,56,55,55,53,00,21,3f,37*34b5adb9
#BESTPOSA,FILE,0,28.5,FINESTEERING,2319,305893.150,02000800,cdba,17139;SOL_COMPUTED,NARROW_INT,17.59842610925,78.12080141069,524.6716,-76.2000,WGS84,0.0063,0.0066,0.0159,"0",1.150,0.000,56,56,56,54,00,21,3f,37*6287ee2a
#BESTPOSA,FILE,0,28.5,FINESTEERING,2319,305893.200,02000800,cdba,17139;SOL_COMPUTED,NARROW_INT,17.59842542745,78.12080133080,524.6754,-76.2000,WGS84,0.0063,0.0067,0.0159,"0",1.200,0.000,56,56,56,54,00,21,3f,37*7ba25fd0
#BESTPOSA,FILE,0,28.5,FINESTEERING,2319,305893.350,02000800,cdba,17139;SOL_COMPUTED,NARROW_INT,17.59842324575,78.12080109584,524.6717,-76.2000,WGS84,0.0064,0.0067,0.0160,"0",1.350,0.000,56,56,56,54,00,21,3f,37*bbaa6831
#BESTPOSA,FILE,0,28.5,FINESTEERING,2319,305893.400,02000800,cdba,17139;SOL_COMPUTED,NARROW_INT,17.59842252880,78.12080101203,524.6747,-76.2000,WGS84,0.0059,0.0063,0.0152,"0",0.400,0.000,56,56,56,54,00,21,3f,37*88a747b7
#BESTPOSA,FILE,0,28.5,FINESTEERING,2319,305893.600,02000800,cdba,17139;SOL_COMPUTED,NARROW_INT,17.59841932024,78.12080058656,524.6785,-76.2000,WGS84,0.0060,0.0063,0.0154,"0",0.600,0.000,56,56,56,54,00,21,3f,37*fd25b9d3
#BESTPOSA,FILE,0,28.5,FINESTEERING,2319,305893.750,02000800,cdba,17139;SOL_COMPUTED,NARROW_INT,17.59841673399,78.12080022342,524.6760,-76.2000,WGS84,0.0061,0.0064,0.0155,"0",0.750,0.000,55,55,55,53,00,21,3f,37*8cef074f
#BESTPOSA,FILE,0,28.5,FINESTEERING,2319,305893.800,02000800,cdba,17139;SOL_COMPUTED,NARROW_INT,17.59841581941,78.12080009718,524.6761,-76.2000,WGS84,0.0061,0.0064,0.0155,"0",0.800,0.000,55,55,55,53,00,21,3f,37*5fb8ac75
#BESTPOSA,FILE,0,28.5,FINESTEERING,2319,305893.950,02000800,cdba,17139;SOL_COMPUTED,NARROW_INT,17.59841296358,78.12079966105,524.6770,-76.2000,WGS84,0.0062,0.0065,0.0156,"0",0.950,0.000,55,55,55,53,00,21,3f,37*54f47bd2
#BESTPOSA,FILE,0,28.5,FINESTEERING,2319,305894.000,02000800,cdba,17139;SOL_COMPUTED,NARROW_INT,17.59841196089,78.12079953161,524.6745,-76.2000,WGS84,0.0062,0.0066,0.0157,"0",1.000,0.000,55,55,55,53,00,21,3f,37*843ce520
#BESTPOSA,FILE,0,28.5,FINESTEERING,2319,305894.050,02000800,cdba,17139;SOL_COMPUTED,NARROW_INT,17.59841092493,78.12079936652,524.6706,-76.2000,WGS84,0.0063,0.0067,0.0159,"0",1.050,0.000,55,55,55,53,00,21,3f,37*2d298daf
#BESTPOSA,FILE,0,28.5,FINESTEERING,2319,305894.150,02000800,cdba,17139;SOL_COMPUTED,NARROW_INT,17.59840876070,78.12079907124,524.6757,-76.2000,WGS84,0.0064,0.0067,0.0160,"0",1.150,0.000,55,55,55,53,00,21,3f,37*11bac75a
#BESTPOSA,FILE,0,30.0,FINESTEERING,2319,305894.350,02000800,cdba,17139;SOL_COMPUTED,NARROW_INT,17.59840410569,78.12079832693,524.6728,-76.2000,WGS84,0.0064,0.0068,0.0161,"0",1.350,0.000,55,55,55,53,00,21,3f,37*3f7f8f60
#BESTPOSA,FILE,0,30.0,FINESTEERING,2319,305894.400,02000800,cdba,17139;SOL_COMPUTED,NARROW_INT,17.59840286447,78.12079812154,524.6742,-76.2000,WGS84,0.0065,0.0069,0.0162,"0",1.400,0.000,55,55,55,53,00,21,3f,37*87ffb3ab
#BESTPOSA,FILE,0,30.0,FINESTEERING,2319,305894.450,02000800,cdba,17139;SOL_COMPUTED,NARROW_INT,17.59840163463,78.12079793003,524.6744,-76.2000,WGS84,0.0065,0.0069,0.0162,"0",1.450,0.000,55,55,55,53,00,21,3f,37*dc3a5bca
#BESTPOSA,FILE,0,30.0,FINESTEERING,2319,305894.500,02000800,cdba,17139;SOL_COMPUTED,NARROW_INT,17.59840036515,78.12079772106,524.6719,-76.2000,WGS84,0.0065,0.0069,0.0162,"0",1.500,0.000,55,55,55,53,00,21,3f,37*3173679d
#BESTPOSA,FILE,0,30.0,FINESTEERING,2319,305894.550,02000800,cdba,17139;SOL_COMPUTED,NARROW_INT,17.59839909167,78.12079750868,524.6716,-76.2000,WGS84,0.0065,0.0069,0.0163,"0",1.550,0.000,55,55,55,53,00,21,3f,37*a535894f
#BESTPOSA,FILE,0,30.0,FINESTEERING,2319,305894.600,02000800,cdba,17139;SOL_COMPUTED,NARROW_INT,17.59839777653,78.12079727604,524.6715,-76.2000,WGS84,0.0065,0.0070,0.0163,"0",1.600,0.000,55,55,55,53,00,21,3f,37*d2b080b1
#BESTPOSA,FILE,0,30.0,FINESTEERING,2319,305894.650,02000800,cdba,17139;SOL_COMPUTED,NARROW_INT,17.59839644030,78.12079703692,524.6704,-76.2000,WGS84,0.0066,0.0070,0.0163,"0",1.650,0.000,55,55,55,53,00,21,3f,37*9c2984c1
#BESTPOSA,FILE,0,30.0,FINESTEERING,2319,305894.700,02000800,cdba,17139;SOL_COMPUTED,NARROW_INT,17.59839507482,78.12079682485,524.6746,-76.2000,WGS84,0.0066,0.0070,0.0164,"0",1.700,0.000,55,55,55,53,00,21,3f,37*dce6ac23
#BESTPOSA,FILE,0,30.0,FINESTEERING,2319,305894.750,02000800,cdba,17139;SOL_COMPUTED,NARROW_INT,17.59839370778,78.12079661895,524.6730,-76.2000,WGS84,0.0066,0.0071,0.0165,"0",1.750,0.000,55,55,55,53,00,21,3f,37*6f264220
#BESTPOSA,FILE,0,30.0,FINESTEERING,2319,305894.800,02000800,cdba,17139;SOL_COMPUTED,NARROW_INT,17.59839230823,78.12079639811,524.6722,-76.2000,WGS84,0.0066,0.0071,0.0165,"0",1.800,0.000,55,55,55,53,00,21,3f,37*1cf45c94
#BESTPOSA,FILE,0,30.0,FINESTEERING,2319,305894.850,02000800,cdba,17139;SOL_COMPUTED,NARROW_INT,17.59839089465,78.12079617954,524.6732,-76.2000,WGS84,0.0066,0.0071,0.0165,"0",1.850,0.000,55,55,55,53,00,21,3f,37*06546ec1
#BESTPOSA,FILE,0,30.0,FINESTEERING,2319,305894.900,02000800,cdba,17139;SOL_COMPUTED,NARROW_INT,17.59838944922,78.12079594702,524.6776,-76.2000,WGS84,0.0067,0.0071,0.0166,"0",1.900,0.000,55,55,55,53,00,21,3f,37*11348530
#BESTPOSA,FILE,0,30.0,FINESTEERING,2319,305894.950,02000800,cdba,17139;SOL_COMPUTED,NARROW_INT,17.59838798670,78.12079570658,524.6771,-76.2000,WGS84,0.0067,0.0071,0.0166,"0",1.950,0.000,55,55,55,53,00,21,3f,37*5978950f
#BESTPOSA,FILE,0,30.0,FINESTEERING,2319,305895.000,02000000,cdba,17139;SOL_COMPUTED,NARROW_INT,17.59838651485,78.12079546856,524.6788,-76.2000,WGS84,0.0067,0.0072,0.0166,"0",2.000,0.000,56,55,55,53,00,21,3f,37*679b269f
#BESTPOSA,FILE,0,30.0,FINESTEERING,2319,305895.050,02000000,cdba,17139;SOL_COMPUTED,NARROW_INT,17.59838501538,78.12079523487,524.6796,-76.2000,WGS84,0.0068,0.0074,0.0169,"0",2.050,0.000,55,55,55,53,00,21,3f,37*d912d3af
#BESTPOSA,FILE,0,29.5,FINESTEERING,2319,305895.100,02000000,cdba,17139;SOL_COMPUTED,NARROW_INT,17.59838350439,78.12079499142,524.6774,-76.2000,WGS84,0.0069,0.0074,0.0169,"0",2.100,0.000,55,55,55,53,00,21,3f,37*691461a5
#BESTPOSA,FILE,0,29.5,FINESTEERING,2319,305895.150,02000000,cdba,17139;SOL_COMPUTED,NARROW_INT,17.59838197619,78.12079474403,524.6780,-76.2000,WGS84,0.0069,0.0074,0.0170,"0",2.150,0.000,56,56,56,53,00,21,3f,37*4b978a37
#BESTPOSA,FILE,0,29.5,FINESTEERING,2319,305895.200,02000000,cdba,17139;SOL_COMPUTED,NARROW_INT,17.59838040833,78.12079450905,524.6834,-76.2000,WGS84,0.0069,0.0074,0.0170,"0",2.200,0.000,56,56,56,53,00,21,3f,37*d2bb5e23
#BESTPOSA,FILE,0,29.5,FINESTEERING,2319,305895.250,02000000,cdba,17139;SOL_COMPUTED,NARROW_INT,17.59837887438,78.12079422429,524.6783,-76.2000,WGS84,0.0069,0.0075,0.0170,"0",2.250,0.000,56,56,56,53,00,21,3f,37*84702338
#BESTPOSA,FILE,0,29.5,FINESTEERING,2319,305895.300,02000000,cdba,17139;SOL_COMPUTED,NARROW_INT,17.59837728895,78.12079394607,524.6762,-76.2000,WGS84,0.0069,0.0075,0.0171,"0",2.300,0.000,56,56,56,53,00,21,3f,37*7b52936f
#BESTPOSA,FILE,0,29.5,FINESTEERING,2319,305895.350,02000000,cdba,17139;SOL_COMPUTED,NARROW_INT,17.59837566213,78.12079370372,524.6768,-76.2000,WGS84,0.0070,0.0075,0.0171,"0",2.350,0.000,56,56,56,53,00,21,3f,37*13f98385
#BESTPOSA,FILE,0,29.5,FINESTEERING,2319,305895.400,02000000,cdba,17139;SOL_COMPUTED,NARROW_INT,17.59837405556,78.12079343399,524.6755,-76.2000,WGS84,0.0070,0.0076,0.0171,"0",2.400,0.000,56,56,56,53,00,21,3f,37*681fae07
#BESTPOSA,FILE,0,29.5,FINESTEERING,2319,305895.450,02000000,cdba,17139;SOL_COMPUTED,NARROW_INT,17.59837243249,78.12079315182,524.6716,-76.2000,WGS84,0.0061,0.0068,0.0172,"0",0.450,0.000,55,55,55,53,00,21,3f,37*62e3929e
#BESTPOSA,FILE,0,29.5,FINESTEERING,2319,305895.500,02000000,cdba,17139;SOL_COMPUTED,NARROW_INT,17.59837077159,78.12079289787,524.6724,-76.2000,WGS84,0.0061,0.0069,0.0172,"0",0.500,0.000,55,55,55,53,00,21,3f,37*35e6fa62
#BESTPOSA,FILE,0,29.5,FINESTEERING,2319,305895.550,02000000,cdba,17139;SOL_COMPUTED,NARROW_INT,17.59836911338,78.12079263218,524.6724,-76.2000,WGS84,0.0061,0.0069,0.0172,"0",0.550,0.000,55,55,55,53,00,21,3f,37*814205b5
#BESTPOSA,FILE,0,29.5,FINESTEERING,2319,305895.600,02000000,cdba,17139;SOL_COMPUTED,NARROW_INT,17.59836743069,78.12079237820,524.6736,-76.2000,WGS84,0.0061,0.0069,0.0173,"0",0.600,0.000,56,55,55,53,00,21,3f,37*10edd162
#BESTPOSA,FILE,0,29.5,FINESTEERING,2319,305895.650,02000000,cdba,17139;SOL_COMPUTED,NARROW_INT,17.59836572717,78.12079208240,524.6712,-76.2000,WGS84,0.0061,0.0069,0.0173,"0",0.650,0.000,56,55,55,53,00,21,3f,37*034a9864
#BESTPOSA,FILE,0,29.5,FINESTEERING,2319,305895.700,02000000,cdba,17139;SOL_COMPUTED,NARROW_INT,17.59836399965,78.12079181119,524.6735,-76.2000,WGS84,0.0062,0.0070,0.0173,"0",0.700,0.000,56,55,55,53,00,21,3f,37*9d8fe98e
#BESTPOSA,FILE,0,29.5,FINESTEERING,2319,305895.750,02000000,cdba,17139;SOL_COMPUTED,NARROW_INT,17.59836226749,78.12079152508,524.6719,-76.2000,WGS84,0.0062,0.0070,0.0174,"0",0.750,0.000,56,55,55,53,00,21,3f,37*cd87b413
#BESTPOSA,FILE,0,29.5,FINESTEERING,2319,305895.800,02000000,cdba,17139;SOL_COMPUTED,NARROW_INT,17.59836051348,78.12079123038,524.6718,-76.2000,WGS84,0.0062,0.0070,0.0174,"0",0.800,0.000,56,55,55,53,00,21,3f,37*98621637
#BESTPOSA,FILE,0,29.5,FINESTEERING,2319,305895.850,02000000,cdba,17139;SOL_COMPUTED,NARROW_INT,17.59835874646,78.12079093572,524.6724,-76.2000,WGS84,0.0062,0.0070,0.0174,"0",0.850,0.000,56,55,55,53,00,21,3f,37*96cf909f
#BESTPOSA,FILE,0,29.5,FINESTEERING,2319,305895.900,02000000,cdba,17139;SOL_COMPUTED,NARROW_INT,17.59835696350,78.12079061870,524.6703,-76.2000,WGS84,0.0062,0.0070,0.0175,"0",0.900,0.000,56,55,55,53,00,21,3f,37*c0249dba
#BESTPOSA,FILE,0,29.5,FINESTEERING,2319,305895.950,02000000,cdba,17139;SOL_COMPUTED,NARROW_INT,17.59835516706,78.12079029442,524.6727,-76.2000,WGS84,0.0063,0.0071,0.0175,"0",0.950,0.000,56,55,55,53,00,21,3f,37*d801ca4b
#BESTPOSA,FILE,0,29.5,FINESTEERING,2319,305896.000,02000000,cdba,17139;SOL_COMPUTED,NARROW_INT,17.59835335631,78.12078996747,524.6711,-76.2000,WGS84,0.0063,0.0071,0.0175,"0",1.000,0.000,56,55,55,53,00,21,3f,37*03115baf
#BESTPOSA,FILE,0,29.5,FINESTEERING,2319,305896.050,02000000,cdba,17139;SOL_COMPUTED,NARROW_INT,17.59835151714,78.12078966657,524.6717,-76.2000,WGS84,0.0064,0.0073,0.0178,"0",1.050,0.000,56,56,56,54,00,21,3f,37*c1c5ec54
#BESTPOSA,FILE,0,19.5,FINESTEERING,2319,305896.100,02000000,cdba,17139;SOL_COMPUTED,NARROW_INT,17.59834964849,78.12078936098,524.6687,-76.2000,WGS84,0.0064,0.0073,0.0178,"0",1.100,0.000,56,56,56,54,00,21,3f,37*cbe38cf6
#BESTPOSA,FILE,0,19.5,FINESTEERING,2319,305896.150,02000000,cdba,17139;SOL_COMPUTED,NARROW_INT,17.59834776026,78.12078906937,524.6710,-76.2000,WGS84,0.0065,0.0073,0.0178,"0",1.150,0.000,56,56,56,54,00,21,3f,37*284eddda
#BESTPOSA,FILE,0,19.5,FINESTEERING,2319,305896.200,02000000,cdba,17139;SOL_COMPUTED,NARROW_INT,17.59834585403,78.12078879606,524.6717,-76.2000,WGS84,0.0065,0.0074,0.0179,"0",1.200,0.000,56,56,56,54,00,21,3f,37*c5e6c890
#BESTPOSA,FILE,0,19.5,FINESTEERING,2319,305896.250,02000000,cdba,17139;SOL_COMPUTED,NARROW_INT,17.59834392953,78.12078854021,524.6707,-76.2000,WGS84,0.0065,0.0074,0.0179,"0",1.250,0.000,56,56,56,54,00,21,3f,37*e7759e27
#BESTPOSA,FILE,0,19.5,FINESTEERING,2319,305896.300,02000000,cdba,17139;SOL_COMPUTED,NARROW_INT,17.59834199713,78.12078828046,524.6713,-76.2000,WGS84,0.0065,0.0074,0.0179,"0",1.300,0.000,56,56,56,54,00,21,3f,37*deeca3ac
#BESTPOSA,FILE,0,19.5,FINESTEERING,2319,305896.350,02000000,cdba,17139;SOL_COMPUTED,NARROW_INT,17.59834004510,78.12078802263,524.6736,-76.2000,WGS84,0.0065,0.0074,0.0180,"0",1.350,0.000,56,56,56,54,00,21,3f,37*428a3fde
#BESTPOSA,FILE,0,19.5,FINESTEERING,2319,305896.400,02000000,cdba,17139;SOL_COMPUTED,NARROW_INT,17.59833807174,78.12078776384,524.6748,-76.2000,WGS84,0.0066,0.0074,0.0180,"0",1.400,0.000,56,56,56,54,00,21,3f,37*1a20ac14
#BESTPOSA,FILE,0,19.5,FINESTEERING,2319,305896.450,02000000,cdba,17139;SOL_COMPUTED,NARROW_INT,17.59833609558,78.12078750570,524.6741,-76.2000,WGS84,0.0066,0.0075,0.0181,"0",1.450,0.000,55,55,55,53,00,21,3f,37*76ce6c5b
#BESTPOSA,FILE,0,19.5,FINESTEERING,2319,305896.500,02000000,cdba,17139;SOL_COMPUTED,NARROW_INT,17.59833411093,78.12078723178,524.6745,-76.2000,WGS84,0.0066,0.0075,0.0181,"0",1.500,0.000,56,55,55,53,00,21,3f,37*9e2fa8b5
#BESTPOSA,FILE,0,19.5,FINESTEERING,2319,305896.550,02000000,cdba,17139;SOL_COMPUTED,NARROW_INT,17.59833209479,78.12078697100,524.6768,-76.2000,WGS84,0.0066,0.0075,0.0181,"0",1.550,0.000,56,55,55,53,00,21,3f,37*fcdddc28
#BESTPOSA,FILE,0,19.5,FINESTEERING,2319,305896.600,02000000,cdba,17139;SOL_COMPUTED,NARROW_INT,17.59833005879,78.12078672293,524.6755,-76.2000,WGS84,0.0066,0.0075,0.0181,"0",1.600,0.000,56,55,55,53,00,21,3f,37*77f7177a
#BESTPOSA,FILE,0,19.5,FINESTEERING,2319,305896.650,02000000,cdba,17139;SOL_COMPUTED,NARROW_INT,17.59832801483,78.12078648619,524.6774,-76.2000,WGS84,0.0066,0.0076,0.0182,"0",1.650,0.000,56,55,55,53,00,21,3f,37*1f9c413d
#BESTPOSA,FILE,0,19.5,FINESTEERING,2319,305896.700,02000000,cdba,17139;SOL_COMPUTED,NARROW_INT,17.59832595537,78.12078625158,524.6779,-76.2000,WGS84,0.0067,0.0076,0.0182,"0",1.700,0.000,56,55,55,53,00,21,3f,37*5c066e0f
#BESTPOSA,FILE,0,19.5,FINESTEERING,2319,305896.750,02000000,cdba,17139;SOL_COMPUTED,NARROW_INT,17.59832389539,78.12078601255,524.6772,-76.2000,WGS84,0.0067,0.0076,0.0182,"0",1.750,0.000,56,55,55,53,00,21,3f,37*c39370df
#BESTPOSA,FILE,0,19.5,FINESTEERING,2319,305896.800,02000000,cdba,17139;SOL_COMPUTED,NARROW_INT,17.59832181656,78.12078578506,524.6752,-76.2000,WGS84,0.0067,0.0076,0.0183,"0",1.800,0.000,56,55,55,53,00,21,3f,37*2306cf01
#BESTPOSA,FILE,0,19.5,FINESTEERING,2319,305896.850,02000000,cdba,17139;SOL_COMPUTED,NARROW_INT,17.59831972653,78.12078555002,524.6755,-76.2000,WGS84,0.0067,0.0076,0.0183,"0",1.850,0.000,56,55,55,53,00,21,3f,37*b7f25b7d
#BESTPOSA,FILE,0,19.5,FINESTEERING,2319,305896.900,02000000,cdba,17139;SOL_COMPUTED,NARROW_INT,17.59831761107,78.12078534843,524.6773,-76.2000,WGS84,0.0067,0.0076,0.0183,"0",1.900,0.000,56,55,55,53,00,21,3f,37*d570942e
#BESTPOSA,FILE,0,19.5,FINESTEERING,2319,305896.950,02000000,cdba,17139;SOL_COMPUTED,NARROW_INT,17.59831549292,78.12078511332,524.6766,-76.2000,WGS84,0.0068,0.0077,0.0184,"0",1.950,0.000,55,55,55,53,00,21,3f,37*1445816e
#BESTPOSA,FILE,0,19.5,FINESTEERING,2319,305897.000,02000000,cdba,17139;SOL_COMPUTED,NARROW_INT,17.59831335294,78.12078491918,524.6785,-76.2000,WGS84,0.0068,0.0077,0.0184,"0",2.000,0.000,55,55,55,53,00,21,3f,37*70cb6dbe
#BESTPOSA,FILE,0,19.5,FINESTEERING,2319,305897.050,02000000,cdba,17139;SOL_COMPUTED,NARROW_INT,17.59831118891,78.12078473327,524.6799,-76.2000,WGS84,0.0069,0.0079,0.0186,"0",2.050,0.000,55,55,55,53,00,21,3f,37*3c83fff3
#BESTPOSA,FILE,0,19.5,FINESTEERING,2319,305897.100,02000000,cdba,17139;SOL_COMPUTED,NARROW_INT,17.59830901091,78.12078454846,524.6823,-76.2000,WGS84,0.0069,0.0079,0.0186,"0",2.100,0.000,55,55,55,53,00,21,3f,37*180acc61
#BESTPOSA,FILE,0,29.5,FINESTEERING,2319,305897.150,02000000,cdba,17139;SOL_COMPUTED,NARROW_INT,17.59830683537,78.12078438618,524.6811,-76.2000,WGS84,0.0069,0.0079,0.0187,"0",2.150,0.000,55,55,55,53,00,21,3f,37*981f47f7
#BESTPOSA,FILE,0,29.5,FINESTEERING,2319,305897.200,02000000,cdba,17139;SOL_COMPUTED,NARROW_INT,17.59830463421,78.12078422954,524.6847,-76.2000,WGS84,0.0069,0.0079,0.0187,"0",2.200,0.000,55,55,55,53,00,21,3f,37*5536c1c9
#BESTPOSA,FILE,0,29.5,FINESTEERING,2319,305897.250,02000000,cdba,17139;SOL_COMPUTED,NARROW_INT,17.59830241340,78.12078407655,524.6842,-76.2000,WGS84,0.0070,0.0079,0.0187,"0",2.250,0.000,55,55,55,53,00,21,3f,37*2be7d15a
#BESTPOSA,FILE,0,29.5,FINESTEERING,2319,305897.300,02000000,cdba,17139;SOL_COMPUTED,NARROW_INT,17.59830017476,78.12078391507,524.6881,-76.2000,WGS84,0.0070,0.0080,0.0188,"0",2.300,0.000,55,55,55,53,00,21,3f,37*27f78736
#BESTPOSA,FILE,0,29.5,FINESTEERING,2319,305897.350,02000000,cdba,17139;SOL_COMPUTED,NARROW_INT,17.59829792714,78.12078375003,524.6888,-76.2000,WGS84,0.0070,0.0080,0.0188,"0",2.350,0.000,55,55,55,53,00,21,3f,37*ab630359
#BESTPOSA,FILE,0,29.5,FINESTEERING,2319,305897.400,02000000,cdba,17139;SOL_COMPUTED,NARROW_INT,17.59829566952,78.12078359700,524.6916,-76.2000,WGS84,0.0070,0.0080,0.0188,"0",2.400,0.000,55,55,55,53,00,21,3f,37*1d4f016e
#BESTPOSA,FILE,0,29.5,FINESTEERING,2319,305897.450,02000000,cdba,17139;SOL_COMPUTED,NARROW_INT,17.59829341316,78.12078347209,524.6944,-76.2000,WGS84,0.0070,0.0080,0.0189,"0",2.450,0.000,55,55,55,53,00,21,3f,37*60d220a4
#BESTPOSA,FILE,0,29.5,FINESTEERING,2319,305897.500,02000000,cdba,17139;SOL_COMPUTED,NARROW_INT,17.59829113177,78.12078334520,524.6979,-76.2000,WGS84,0.0071,0.0081,0.0189,"0",2.500,0.000,55,55,55,53,00,21,3f,37*09a1bcef
#BESTPOSA,FILE,0,29.5,FINESTEERING,2319,305897.550,02000000,cdba,17139;SOL_COMPUTED,NARROW_INT,17.59828883033,78.12078325271,524.7000,-76.2000,WGS84,0.0071,0.0081,0.0189,"0",2.550,0.000,55,55,55,53,00,21,3f,37*214cf3ab
#BESTPOSA,FILE,0,29.5,FINESTEERING,2319,305897.600,02000000,cdba,17139;SOL_COMPUTED,NARROW_INT,17.59828652894,78.12078315871,524.7045,-76.2000,WGS84,0.0071,0.0081,0.0190,"0",2.600,0.000,55,55,55,53,00,21,3f,37*47b4b652
#BESTPOSA,FILE,0,29.5,FINESTEERING,2319,305897.650,02000000,cdba,17139;SOL_COMPUTED,NARROW_INT,17.59828420608,78.12078308404,524.7073,-76.2000,WGS84,0.0071,0.0081,0.0190,"0",2.650,0.000,55,55,55,53,00,21,3f,37*d963b147
#BESTPOSA,FILE,0,29.5,FINESTEERING,2319,305897.700,02000000,cdba,17139;SOL_COMPUTED,NARROW_INT,17.59828186410,78.12078301310,524.7106,-76.2000,WGS84,0.0071,0.0081,0.0190,"0",2.700,0.000,55,55,55,53,00,21,3f,37*20d0d759
#BESTPOSA,FILE,0,29.5,FINESTEERING,2319,305897.750,02000000,cdba,17139;SOL_COMPUTED,NARROW_INT,17.59827951833,78.12078298151,524.7109,-76.2000,WGS84,0.0072,0.0081,0.0191,"0",2.750,0.000,55,55,55,52,00,21,3f,37*ec6bc595
#BESTPOSA,FILE,0,29.5,FINESTEERING,2319,305897.800,02000000,cdba,17139;SOL_COMPUTED,NARROW_INT,17.59827717355,78.12078296215,524.7113,-76.2000,WGS84,0.0072,0.0082,0.0191,"0",2.800,0.000,55,55,55,52,00,21,3f,37*b1a65da3
#BESTPOSA,FILE,0,29.5,FINESTEERING,2319,305897.850,02000000,cdba,17139;SOL_COMPUTED,NARROW_INT,17.59827481305,78.12078293432,524.7105,-76.2000,WGS84,0.0072,0.0082,0.0191,"0",2.850,0.000,55,55,55,52,00,21,3f,37*bb77739b
#BESTPOSA,FILE,0,29.5,FINESTEERING,2319,305897.900,02000000,cdba,17139;SOL_COMPUTED,NARROW_INT,17.59827243519,78.12078288848,524.7093,-76.2000,WGS84,0.0072,0.0082,0.0192,"0",2.900,0.000,55,54,54,52,00,21,3f,37*60adcee6
#BESTPOSA,FILE,0,29.5,FINESTEERING,2319,305897.950,02000000,cdba,17139;SOL_COMPUTED,NARROW_INT,17.59827004485,78.12078283853,524.7119,-76.2000,WGS84,0.0072,0.0082,0.0192,"0",2.950,0.000,55,54,54,52,00,21,3f,37*90780d53
#BESTPOSA,FILE,0,29.5,FINESTEERING,2319,305898.000,02000000,cdba,17139;SOL_COMPUTED,NARROW_INT,17.59826765511,78.12078280450,524.7112,-76.2000,WGS84,0.0073,0.0082,0.0192,"0",3.000,0.000,55,54,54,52,00,21,3f,37*08fd54af
#BESTPOSA,FILE,0,29.5,FINESTEERING,2319,305898.050,02000000,cdba,17139;SOL_COMPUTED,NARROW_INT,17.59826523375,78.12078278201,524.7146,-76.2000,WGS84,0.0074,0.0084,0.0194,"0",3.050,0.000,55,54,54,52,00,21,3f,37*3633ef52
#BESTPOSA,FILE,0,29.5,FINESTEERING,2319,305898.100,02000000,cdba,17139;SOL_COMPUTED,NARROW_INT,17.59826280461,78.12078278928,524.7164,-76.2000,WGS84,0.0074,0.0084,0.0195,"0",3.100,0.000,55,55,55,53,00,21,3f,37*481cbf89
#BESTPOSA,FILE,0,30.5,FINESTEERING,2319,305898.150,02000000,cdba,17139;SOL_COMPUTED,NARROW_INT,17.59826037497,78.12078279943,524.7183,-76.2000,WGS84,0.0074,0.0084,0.0195,"0",3.150,0.000,55,55,55,53,00,21,3f,37*6bd80342
#BESTPOSA,FILE,0,30.5,FINESTEERING,2319,305898.200,02000000,cdba,17139;SOL_COMPUTED,NARROW_INT,17.59825792637,78.12078284014,524.7193,-76.2000,WGS84,0.0074,0.0084,0.0195,"0",3.200,0.000,55,55,55,53,00,21,3f,37*29c71dcc
#BESTPOSA,FILE,0,30.5,FINESTEERING,2319,305898.250,02000000,cdba,17139;SOL_COMPUTED,NARROW_INT,17.59825545570,78.12078275871,524.7155,-76.2000,WGS84,0.0078,0.0097,0.0194,"0",1.250,0.000,55,55,55,53,00,21,3f,37*0f451a2f
#BESTPOSA,FILE,0,30.5,FINESTEERING,2319,305898.300,02000000,cdba,17139;SOL_COMPUTED,NARROW_INT,17.59825299580,78.12078281303,524.7171,-76.2000,WGS84,0.0078,0.0097,0.0194,"0",1.300,0.000,55,55,55,53,00,21,3f,37*cebf6315
#BESTPOSA,FILE,0,30.5,FINESTEERING,2319,305898.350,02000000,cdba,17139;SOL_COMPUTED,NARROW_INT,17.59825051694,78.12078286815,524.7196,-76.2000,WGS84,0.0078,0.0098,0.0195,"0",1.350,0.000,55,55,55,53,00,21,3f,37*dc566608
#BESTPOSA,FILE,0,30.5,FINESTEERING,2319,305898.400,02000000,cdba,17139;SOL_COMPUTED,NARROW_INT,17.59824802207,78.12078291720,524.7192,-76.2000,WGS84,0.0079,0.0098,0.0195,"0",1.400,0.000,55,55,55,53,00,21,3f,37*e3f90dc5
#BESTPOSA,FILE,0,30.5,FINESTEERING,2319,305898.450,02000000,cdba,17139;SOL_COMPUTED,NARROW_INT,17.59824551466,78.12078297815,524.7186,-76.2000,WGS84,0.0079,0.0098,0.0195,"0",1.450,0.000,55,55,55,53,00,21,3f,37*1cff1f0b
#BESTPOSA,FILE,0,30.5,FINESTEERING,2319,305898.500,02000000,cdba,17139;SOL_COMPUTED,NARROW_INT,17.59824298943,78.12078302468,524.7184,-76.2000,WGS84,0.0079,0.0098,0.0195,"0",1.500,0.000,55,55,55,53,00,21,3f,37*7441f1cc
#BESTPOSA,FILE,0,30.5,FINESTEERING,2319,305898.550,02000000,cdba,17139;SOL_COMPUTED,NARROW_INT,17.59824045010,78.12078309688,524.7203,-76.2000,WGS84,0.0079,0.0098,0.0196,"0",1.550,0.000,56,55,55,53,00,21,3f,37*58066c75
#BESTPOSA,FILE,0,30.5,FINESTEERING,2319,305898.600,02000000,cdba,17139;SOL_COMPUTED,NARROW_INT,17.59823790213,78.12078317141,524.7202,-76.2000,WGS84,0.0079,0.0098,0.0196,"0",1.600,0.000,56,55,55,53,00,21,3f,37*fbbb3843
#BESTPOSA,FILE,0,30.5,FINESTEERING,2319,305898.650,02000000,cdba,17139;SOL_COMPUTED,NARROW_INT,17.59823533001,78.12078326570,524.7196,-76.2000,WGS84,0.0079,0.0099,0.0196,"0",1.650,0.000,56,55,55,53,00,21,3f,37*014fa9f2
#BESTPOSA,FILE,0,30.5,FINESTEERING,2319,305898.700,02000000,cdba,17139;SOL_COMPUTED,NARROW_INT,17.59823274538,78.12078334620,524.7207,-76.2000,WGS84,0.0080,0.0099,0.0197,"0",1.700,0.000,56,55,55,53,00,21,3f,37*047e2196
#BESTPOSA,FILE,0,30.5,FINESTEERING,2319,305898.750,02000000,cdba,17139;SOL_COMPUTED,NARROW_INT,17.59823016371,78.12078343348,524.7213,-76.2000,WGS84,0.0080,0.0099,0.0197,"0",1.750,0.000,56,55,55,53,00,21,3f,37*d7ec9f17
#BESTPOSA,FILE,0,30.5,FINESTEERING,2319,305898.800,02000000,cdba,17139;SOL_COMPUTED,NARROW_INT,17.59822755519,78.12078353202,524.7233,-76.2000,WGS84,0.0080,0.0099,0.0197,"0",1.800,0.000,56,55,55,53,00,21,3f,37*2448d5aa
#BESTPOSA,FILE,0,30.5,FINESTEERING,2319,305898.850,02000000,cdba,17139;SOL_COMPUTED,NARROW_INT,17.59822496407,78.12078362795,524.7228,-76.2000,WGS84,0.0080,0.0099,0.0197,"0",1.850,0.000,56,55,55,52,00,21,3f,37*9a0cfeca
#BESTPOSA,FILE,0,30.5,FINESTEERING,2319,305898.900,02000000,cdba,17139;SOL_COMPUTED,NARROW_INT,17.59822235489,78.12078374544,524.7221,-76.2000,WGS84,0.0080,0.0099,0.0198,"0",1.900,0.000,56,55,55,52,00,21,3f,37*2263f7bb
#BESTPOSA,FILE,0,30.5,FINESTEERING,2319,305898.950,02000000,cdba,17139;SOL_COMPUTED,NARROW_INT,17.59821974177,78.12078383345,524.7202,-76.2000,WGS84,0.0080,0.0099,0.0198,"0",1.950,0.000,56,55,55,52,00,21,3f,37*0db2cd7c
#BESTPOSA,FILE,0,30.5,FINESTEERING,2319,305899.000,02000000,cdba,17139;SOL_COMPUTED,NARROW_INT,17.59821712568,78.12078392561,524.7209,-76.2000,WGS84,0.0081,0.0099,0.0198,"0",2.000,0.000,56,55,55,52,00,21,3f,37*b7a799e2
#BESTPOSA,FILE,0,30.5,FINESTEERING,2319,305899.050,02000000,cdba,17139;SOL_COMPUTED,NARROW_INT,17.59821447762,78.12078401670,524.7180,-76.2000,WGS84,0.0081,0.0100,0.0200,"0",2.050,0.000,56,56,56,53,00,21,3f,37*f963fe7e
#BESTPOSA,FILE,0,26.5,FINESTEERING,2319,305899.100,02000000,cdba,17139;SOL_COMPUTED,NARROW_INT,17.59821181356,78.12078409201,524.7159,-76.2000,WGS84,0.0082,0.0101,0.0200,"0",2.100,0.000,56,56,56,54,00,21,3f,37*be3a5472
#BESTPOSA,FILE,0,26.5,FINESTEERING,2319,305899.150,02000000,cdba,17139;SOL_COMPUTED,NARROW_INT,17.59820912311,78.12078417758,524.7173,-76.2000,WGS84,0.0082,0.0101,0.0201,"0",2.150,0.000,56,56,56,54,00,21,3f,37*cb834048
#BESTPOSA,FILE,0,26.5,FINESTEERING,2319,305899.200,02000000,cdba,17139;SOL_COMPUTED,NARROW_INT,17.59820640491,78.12078425435,524.7176,-76.2000,WGS84,0.0082,0.0101,0.0201,"0",2.200,0.000,56,56,56,54,00,21,3f,37*fe4ffeb3
#BESTPOSA,FILE,0,26.5,FINESTEERING,2319,305899.250,02000000,cdba,17139;SOL_COMPUTED,NARROW_INT,17.59820369985,78.12078437016,524.7185,-76.2000,WGS84,0.0082,0.0101,0.0201,"0",2.250,0.000,56,56,56,54,00,21,3f,37*04e78d89
#BESTPOSA,FILE,0,26.5,FINESTEERING,2319,305899.300,02000000,cdba,17139;SOL_COMPUTED,NARROW_INT,17.59820097259,78.12078447758,524.7182,-76.2000,WGS84,0.0082,0.0101,0.0202,"0",2.300,0.000,56,56,56,54,00,21,3f,37*a6227c55
#BESTPOSA,FILE,0,26.5,FINESTEERING,2319,305899.350,02000000,cdba,17139;SOL_COMPUTED,NARROW_INT,17.59819823207,78.12078461328,524.7229,-76.2000,WGS84,0.0082,0.0101,0.0202,"0",2.350,0.000,56,56,56,54,00,21,3f,37*943c315b
#BESTPOSA,FILE,0,26.5,FINESTEERING,2319,305899.400,02000000,cdba,17139;SOL_COMPUTED,NARROW_INT,17.59819548618,78.12078472787,524.7236,-76.2000,WGS84,0.0083,0.0102,0.0202,"0",2.400,0.000,56,56,56,54,00,21,3f,37*cc462c9c
#BESTPOSA,FILE,0,26.5,FINESTEERING,2319,305899.450,02000000,cdba,17139;SOL_COMPUTED,NARROW_INT,17.59819273468,78.12078485535,524.7241,-76.2000,WGS84,0.0083,0.0102,0.0203,"0",2.450,0.000,56,56,56,54,00,21,3f,37*edf2abc0
#BESTPOSA,FILE,0,26.5,FINESTEERING,2319,305899.500,02000000,cdba,17139;SOL_COMPUTED,NARROW_INT,17.59818997928,78.12078496422,524.7254,-76.2000,WGS84,0.0083,0.0102,0.0203,"0",2.500,0.000,56,56,56,54,00,21,3f,37*55765115
#BESTPOSA,FILE,0,26.5,FINESTEERING,2319,305899.550,02000000,cdba,17139;SOL_COMPUTED,NARROW_INT,17.59818722320,78.12078507051,524.7233,-76.2000,WGS84,0.0083,0.0102,0.0203,"0",2.550,0.000,56,56,56,54,00,21,3f,37*12862b97
#BESTPOSA,FILE,0,26.5,FINESTEERING,2319,305899.600,02000000,cdba,17139;SOL_COMPUTED,NARROW_INT,17.59818446796,78.12078515448,524.7201,-76.2000,WGS84,0.0083,0.0102,0.0203,"0",2.600,0.000,56,56,56,54,00,21,3f,37*7374513f
#BESTPOSA,FILE,0,26.5,FINESTEERING,2319,305899.650,02000000,cdba,17139;SOL_COMPUTED,NARROW_INT,17.59818170354,78.12078525254,524.7180,-76.2000,WGS84,0.0083,0.0102,0.0204,"0",2.650,0.000,56,56,56,54,00,21,3f,37*ba088075
#BESTPOSA,FILE,0,26.5,FINESTEERING,2319,305899.700,02000000,cdba,17139;SOL_COMPUTED,NARROW_INT,17.59817891457,78.12078535575,524.7164,-76.2000,WGS84,0.0084,0.0102,0.0204,"0",2.700,0.000,56,56,56,54,00,21,3f,37*17ed3a82
#BESTPOSA,FILE,0,26.5,FINESTEERING,2319,305899.750,02000000,cdba,17139;SOL_COMPUTED,NARROW_INT,17.59817610348,78.12078546628,524.7150,-76.2000,WGS84,0.0084,0.0102,0.0204,"0",2.750,0.000,56,56,56,54,00,21,3f,37*7af31a53
#BESTPOSA,FILE,0,26.5,FINESTEERING,2319,305899.800,02000000,cdba,17139;SOL_COMPUTED,NARROW_INT,17.59817327766,78.12078561578,524.7162,-76.2000,WGS84,0.0084,0.0103,0.0204,"0",2.800,0.000,56,56,56,54,00,21,3f,37*3c7d7337
#BESTPOSA,FILE,0,26.5,FINESTEERING,2319,305899.850,02000000,cdba,17139;SOL_COMPUTED,NARROW_INT,17.59817045441,78.12078576414,524.7178,-76.2000,WGS84,0.0084,0.0103,0.0205,"0",2.850,0.000,56,56,56,54,00,21,3f,37*95d50e88
#BESTPOSA,FILE,0,26.5,FINESTEERING,2319,305899.900,02000000,cdba,17139;SOL_COMPUTED,NARROW_INT,17.59816761212,78.12078590724,524.7189,-76.2000,WGS84,0.0084,0.0103,0.0205,"0",2.900,0.000,56,56,56,54,00,21,3f,37*ba07f496
#BESTPOSA,FILE,0,26.5,FINESTEERING,2319,305899.950,02000000,cdba,17139;SOL_COMPUTED,NARROW_INT,17.59816474431,78.12078603603,524.7238,-76.2000,WGS84,0.0084,0.0103,0.0205,"0",2.950,0.000,56,56,56,54,00,21,3f,37*8cd9676d
#BESTPOSA,FILE,0,26.5,FINESTEERING,2319,305900.000,02000000,cdba,17139;SOL_COMPUTED,NARROW_INT,17.59816187359,78.12078614075,524.7252,-76.2000,WGS84,0.0084,0.0103,0.0205,"0",3.000,0.000,56,56,56,54,00,21,3f,37*21a2ff92
#BESTPOSA,FILE,0,26.5,FINESTEERING,2319,305900.050,02000000,cdba,17139;SOL_COMPUTED,NARROW_INT,17.59815899109,78.12078625268,524.7299,-76.2000,WGS84,0.0085,0.0104,0.0207,"0",3.050,0.000,56,56,56,54,00,21,3f,37*956fb5b4
#BESTPOSA,FILE,0,26.5,FINESTEERING,2319,305900.100,02000000,cdba,17139;SOL_COMPUTED,NARROW_INT,17.59815610411,78.12078633548,524.7316,-76.2000,WGS84,0.0085,0.0104,0.0207,"0",3.100,0.000,56,56,56,54,00,21,3f,37*95236376
#BESTPOSA,FILE,0,30.0,FINESTEERING,2319,305900.150,02000000,cdba,17139;SOL_COMPUTED,NARROW_INT,17.59815321316,78.12078644662,524.7345,-76.2000,WGS84,0.0086,0.0104,0.0208,"0",3.150,0.000,56,56,56,54,00,21,3f,37*097098bc
#BESTPOSA,FILE,0,30.0,FINESTEERING,2319,305900.200,02000000,cdba,17139;SOL_COMPUTED,NARROW_INT,17.59815030414,78.12078654359,524.7348,-76.2000,WGS84,0.0086,0.0105,0.0208,"0",3.200,0.000,56,56,56,54,00,21,3f,37*5a015d19
#BESTPOSA,FILE,0,30.0,FINESTEERING,2319,305900.250,02000000,cdba,17139;SOL_COMPUTED,NARROW_INT,17.59814739982,78.12078663007,524.7367,-76.2000,WGS84,0.0086,0.0105,0.0208,"0",3.250,0.000,56,56,56,54,00,21,3f,37*0f38dabd
#BESTPOSA,FILE,0,30.0,FINESTEERING,2319,305900.300,02000000,cdba,17139;SOL_COMPUTED,NARROW_INT,17.59814446938,78.12078671741,524.7371,-76.2000,WGS84,0.0086,0.0105,0.0209,"0",3.300,0.000,56,56,56,54,00,21,3f,37*fb58dbf3
#BESTPOSA,FILE,0,30.0,FINESTEERING,2319,305900.350,02000000,cdba,17139;SOL_COMPUTED,NARROW_INT,17.59814151602,78.12078680374,524.7515,-76.2000,WGS84,0.0082,0.0101,0.0201,"0",2.350,0.000,56,56,56,54,00,21,3f,37*7dad4a42
#BESTPOSA,FILE,0,30.0,FINESTEERING,2319,305900.400,02000000,cdba,17139;SOL_COMPUTED,NARROW_INT,17.59813856563,78.12078689407,524.7522,-76.2000,WGS84,0.0082,0.0101,0.0201,"0",2.400,0.000,56,56,56,54,00,21,3f,37*d1c2e221
#BESTPOSA,FILE,0,30.0,FINESTEERING,2319,305900.450,02000000,cdba,17139;SOL_COMPUTED,NARROW_INT,17.59813561717,78.12078699320,524.7554,-76.2000,WGS84,0.0082,0.0101,0.0201,"0",2.450,0.000,56,56,56,54,00,21,3f,37*33b8bc6b
#BESTPOSA,FILE,0,30.0,FINESTEERING,2319,305900.500,02000000,cdba,17139;SOL_COMPUTED,NARROW_INT,17.59813267074,78.12078705936,524.7572,-76.2000,WGS84,0.0083,0.0101,0.0202,"0",2.500,0.000,56,56,56,54,00,21,3f,37*4fcd8818
#BESTPOSA,FILE,0,30.0,FINESTEERING,2319,305900.550,02000000,cdba,17139;SOL_COMPUTED,NARROW_INT,17.59812970144,78.12078715241,524.7581,-76.2000,WGS84,0.0083,0.0101,0.0202,"0",2.550,0.000,56,56,56,54,00,21,3f,37*5cb01e80
#BESTPOSA,FILE,0,30.0,FINESTEERING,2319,305900.600,02000000,cdba,17139;SOL_COMPUTED,NARROW_INT,17.59812671507,78.12078723596,524.7603,-76.2000,WGS84,0.0083,0.0102,0.0202,"0",2.600,0.000,56,56,56,54,00,21,3f,37*61fe4459
#BESTPOSA,FILE,0,30.0,FINESTEERING,2319,305900.650,02000000,cdba,17139;SOL_COMPUTED,NARROW_INT,17.59812373158,78.12078731328,524.7608,-76.2000,WGS84,0.0083,0.0102,0.0202,"0",2.650,0.000,56,56,56,54,00,21,3f,37*ca48d11a
#BESTPOSA,FILE,0,30.0,FINESTEERING,2319,305900.700,02000000,cdba,17139;SOL_COMPUTED,NARROW_INT,17.59812072754,78.12078740520,524.7603,-76.2000,WGS84,0.0083,0.0102,0.0203,"0",2.700,0.000,56,56,56,54,00,21,3f,37*c4712732
#BESTPOSA,FILE,0,30.0,FINESTEERING,2319,305900.750,02000000,cdba,17139;SOL_COMPUTED,NARROW_INT,17.59811771587,78.12078747167,524.7614,-76.2000,WGS84,0.0083,0.0102,0.0203,"0",2.750,0.000,56,56,56,54,00,21,3f,37*acaf6e33
#BESTPOSA,FILE,0,30.0,FINESTEERING,2319,305900.800,02000000,cdba,17139;SOL_COMPUTED,NARROW_INT,17.59811469904,78.12078753663,524.7617,-76.2000,WGS84,0.0083,0.0102,0.0203,"0",2.800,0.000,56,56,56,54,00,21,3f,37*8315a49f
#BESTPOSA,FILE,0,30.0,FINESTEERING,2319,305900.850,02000000,cdba,17139;SOL_COMPUTED,NARROW_INT,17.59811169055,78.12078760320,524.7640,-76.2000,WGS84,0.0084,0.0102,0.0203,"0",2.850,0.000,56,56,56,54,00,21,3f,37*b0140b99
#BESTPOSA,FILE,0,30.0,FINESTEERING,2319,305900.900,02000000,cdba,17139;SOL_COMPUTED,NARROW_INT,17.59810867703,78.12078765097,524.7637,-76.2000,WGS84,0.0084,0.0102,0.0204,"0",2.900,0.000,56,56,56,54,00,21,3f,37*e0c597ad
#BESTPOSA,FILE,0,30.0,FINESTEERING,2319,305900.950,02000000,cdba,17139;SOL_COMPUTED,NARROW_INT,17.59810564682,78.12078768678,524.7658,-76.2000,WGS84,0.0084,0.0103,0.0204,"0",2.950,0.000,56,56,56,54,00,21,3f,37*478efb17
#BESTPOSA,FILE,0,30.0,FINESTEERING,2319,305901.000,02000000,cdba,17139;SOL_COMPUTED,NARROW_INT,17.59810261030,78.12078772553,524.7674,-76.2000,WGS84,0.0084,0.0103,0.0204,"0",3.000,0.000,56,56,56,54,00,21,3f,37*9f6992c1
#BESTPOSA,FILE,0,30.0,FINESTEERING,2319,305901.050,02000000,cdba,17139;SOL_COMPUTED,NARROW_INT,17.59809956263,78.12078774664,524.7670,-76.2000,WGS84,0.0085,0.0104,0.0206,"0",3.050,0.000,56,56,56,54,00,21,3f,37*e59ac048
#BESTPOSA,FILE,0,27.5,FINESTEERING,2319,305901.100,02000000,cdba,17139;SOL_COMPUTED,NARROW_INT,17.59809650648,78.12078777268,524.7674,-76.2000,WGS84,0.0085,0.0104,0.0206,"0",3.100,0.000,56,56,56,54,00,21,3f,37*d7eee697
#BESTPOSA,FILE,0,27.5,FINESTEERING,2319,305901.150,02000000,cdba,17139;SOL_COMPUTED,NARROW_INT,17.59809344016,78.12078780546,524.7701,-76.2000,WGS84,0.0085,0.0104,0.0206,"0",3.150,0.000,56,56,56,54,00,21,3f,37*786f78ab
#BESTPOSA,FILE,0,27.5,FINESTEERING,2319,305901.200,02000000,cdba,17139;SOL_COMPUTED,NARROW_INT,17.59809037039,78.12078781247,524.7645,-76.2000,WGS84,0.0085,0.0104,0.0207,"0",3.200,0.000,56,56,56,54,00,21,3f,37*22a1b033
#BESTPOSA,FILE,0,27.5,FINESTEERING,2319,305901.250,02000000,cdba,17139;SOL_COMPUTED,NARROW_INT,17.59808728617,78.12078783512,524.7655,-76.2000,WGS84,0.0085,0.0105,0.0207,"0",3.250,0.000,56,56,56,54,00,21,3f,37*99410e79
#BESTPOSA,FILE,0,27.5,FINESTEERING,2319,305901.300,02000000,cdba,17139;SOL_COMPUTED,NARROW_INT,17.59808417607,78.12078784057,524.7716,-76.2000,WGS84,0.0086,0.0105,0.0207,"0",3.300,0.000,56,56,56,54,00,21,3f,37*d43e6fcc
#BESTPOSA,FILE,0,27.5,FINESTEERING,2319,305901.350,02000000,cdba,17139;SOL_COMPUTED,NARROW_INT,17.59808107289,78.12078781554,524.7769,-76.2000,WGS84,0.0086,0.0105,0.0207,"0",3.350,0.000,56,56,56,54,00,21,3f,37*80d04b68
#BESTPOSA,FILE,0,27.5,FINESTEERING,2319,305901.400,02000000,cdba,17139;SOL_COMPUTED,NARROW_INT,17.59807795595,78.12078777871,524.7808,-76.2000,WGS84,0.0086,0.0105,0.0208,"0",3.400,0.000,55,55,55,53,00,21,3f,37*f2962dcf
#BESTPOSA,FILE,0,27.5,FINESTEERING,2319,305901.450,02000000,cdba,17139;SOL_COMPUTED,NARROW_INT,17.59807483025,78.12078773205,524.7838,-76.2000,WGS84,0.0086,0.0105,0.0208,"0",3.450,0.000,56,55,55,53,00,21,3f,37*e7163f14
#BESTPOSA,FILE,0,27.5,FINESTEERING,2319,305901.500,02000000,cdba,17139;SOL_COMPUTED,NARROW_INT,17.59807171330,78.12078766561,524.7805,-76.2000,WGS84,0.0086,0.0105,0.0208,"0",3.500,0.000,56,55,55,53,00,21,3f,37*39cb9758
#BESTPOSA,FILE,0,27.5,FINESTEERING,2319,305901.550,02000000,cdba,17139;SOL_COMPUTED,NARROW_INT,17.59806856661,78.12078762811,524.7856,-76.2000,WGS84,0.0086,0.0106,0.0209,"0",3.550,0.000,56,55,55,53,00,21,3f,37*20eb1b90
#BESTPOSA,FILE,0,27.5,FINESTEERING,2319,305901.600,02000000,cdba,17139;SOL_COMPUTED,NARROW_INT,17.59806540825,78.12078759319,524.7869,-76.2000,WGS84,0.0087,0.0106,0.0209,"0",3.600,0.000,56,55,55,53,00,21,3f,37*ea794dc7
#BESTPOSA,FILE,0,27.5,FINESTEERING,2319,305901.650,02000000,cdba,17139;SOL_COMPUTED,NARROW_INT,17.59806223498,78.12078756978,524.7907,-76.2000,WGS84,0.0087,0.0106,0.0209,"0",3.650,0.000,56,55,55,53,00,21,3f,37*03bb878a
#BESTPOSA,FILE,0,27.5,FINESTEERING,2319,305901.700,02000000,cdba,17139;SOL_COMPUTED,NARROW_INT,17.59805905212,78.12078750361,524.7901,-76.2000,WGS84,0.0087,0.0106,0.0210,"0",3.700,0.000,56,55,55,53,00,21,3f,37*946f4d81
#BESTPOSA,FILE,0,27.5,FINESTEERING,2319,305901.750,02000000,cdba,17139;SOL_COMPUTED,NARROW_INT,17.59805586730,78.12078745010,524.7931,-76.2000,WGS84,0.0087,0.0106,0.0210,"0",3.750,0.000,56,55,55,53,00,21,3f,37*f9fa5be4
#BESTPOSA,FILE,0,27.5,FINESTEERING,2319,305901.800,02000000,cdba,17139;SOL_COMPUTED,NARROW_INT,17.59805264993,78.12078738850,524.7943,-76.2000,WGS84,0.0087,0.0107,0.0210,"0",3.800,0.000,56,55,55,53,00,21,3f,37*e44868f7
#BESTPOSA,FILE,0,27.5,FINESTEERING,2319,305901.850,02000000,cdba,17139;SOL_COMPUTED,NARROW_INT,17.59804942631,78.12078732104,524.7975,-76.2000,WGS84,0.0087,0.0107,0.0210,"0",3.850,0.000,56,55,55,53,00,21,3f,37*a7eacaf0
#BESTPOSA,FILE,0,27.5,FINESTEERING,2319,305901.900,02000000,cdba,17139;SOL_COMPUTED,NARROW_INT,17.59804620042,78.12078724992,524.8013,-76.2000,WGS84,0.0087,0.0107,0.0211,"0",3.900,0.000,56,55,55,53,00,21,3f,37*418708ab
#BESTPOSA,FILE,0,27.5,FINESTEERING,2319,305901.950,02000000,cdba,17139;SOL_COMPUTED,NARROW_INT,17.59804295755,78.12078720478,524.8017,-76.2000,WGS84,0.0088,0.0107,0.0211,"0",3.950,0.000,56,55,55,53,00,21,3f,37*cb5ea1b0
#BESTPOSA,FILE,0,27.5,FINESTEERING,2319,305902.000,02000000,cdba,17139;SOL_COMPUTED,NARROW_INT,17.59803971146,78.12078715608,524.8029,-76.2000,WGS84,0.0088,0.0107,0.0211,"0",4.000,0.000,56,55,55,53,00,21,3f,37*37b12dd6
#BESTPOSA,FILE,0,27.5,FINESTEERING,2319,305902.050,02000000,cdba,17139;SOL_COMPUTED,NARROW_INT,17.59803647278,78.12078711205,524.7992,-76.2000,WGS84,0.0089,0.0108,0.0213,"0",4.050,0.000,56,56,56,54,00,21,3f,37*404c78ae
#BESTPOSA,FILE,0,27.5,FINESTEERING,2319,305902.100,02000000,cdba,17139;SOL_COMPUTED,NARROW_INT,17.59803322314,78.12078706521,524.8014,-76.2000,WGS84,0.0089,0.0109,0.0213,"0",4.100,0.000,56,56,56,54,00,21,3f,37*3e69ca41
#BESTPOSA,FILE,0,27.5,FINESTEERING,2319,305902.150,02000000,cdba,17139;SOL_COMPUTED,NARROW_INT,17.59802997120,78.12078702417,524.8034,-76.2000,WGS84,0.0089,0.0109,0.0214,"0",4.150,0.000,56,56,56,54,00,21,3f,37*ebdf1362
#BESTPOSA,FILE,0,27.5,FINESTEERING,2319,305902.200,02000000,cdba,17139;SOL_COMPUTED,NARROW_INT,17.59802671987,78.12078697637,524.8015,-76.2000,WGS84,0.0089,0.0109,0.0214,"0",4.200,0.000,56,56,56,54,00,21,3f,37*0306ffdf
#BESTPOSA,FILE,0,27.5,FINESTEERING,2319,305902.250,02000000,cdba,17139;SOL_COMPUTED,NARROW_INT,17.59802344843,78.12078695929,524.7990,-76.2000,WGS84,0.0089,0.0109,0.0214,"0",4.250,0.000,56,56,56,54,00,21,3f,37*6cfbfa76
#BESTPOSA,FILE,0,27.5,FINESTEERING,2319,305902.300,02000000,cdba,17139;SOL_COMPUTED,NARROW_INT,17.59802016666,78.12078695318,524.8019,-76.2000,WGS84,0.0089,0.0109,0.0215,"0",4.300,0.000,56,56,56,54,00,21,3f,37*ec7ac7c1
#BESTPOSA,FILE,0,27.5,FINESTEERING,2319,305902.350,02000000,cdba,17139;SOL_COMPUTED,NARROW_INT,17.59801686795,78.12078692487,524.7994,-76.2000,WGS84,0.0090,0.0110,0.0215,"0",4.350,0.000,56,56,56,54,00,21,3f,37*1dd1dd13
#BESTPOSA,FILE,0,27.5,FINESTEERING,2319,305902.400,02000000,cdba,17139;SOL_COMPUTED,NARROW_INT,17.59801354961,78.12078694038,524.8017,-76.2000,WGS84,0.0090,0.0110,0.0215,"0",4.400,0.000,56,56,56,54,00,21,3f,37*5daca682
#BESTPOSA,FILE,0,27.5,FINESTEERING,2319,305902.450,02000000,cdba,17139;SOL_COMPUTED,NARROW_INT,17.59801022153,78.12078694894,524.8004,-76.2000,WGS84,0.0090,0.0110,0.0216,"0",4.450,0.000,56,56,56,54,00,21,3f,37*6f7fd3a8
#BESTPOSA,FILE,0,27.5,FINESTEERING,2319,305902.500,02000000,cdba,17139;SOL_COMPUTED,NARROW_INT,17.59800686888,78.12078698845,524.8043,-76.2000,WGS84,0.0090,0.0110,0.0216,"0",4.500,0.000,56,56,56,54,00,21,3f,37*fbb12462
#BESTPOSA,FILE,0,27.5,FINESTEERING,2319,305902.550,02000000,cdba,17139;SOL_COMPUTED,NARROW_INT,17.59800351516,78.12078700167,524.8061,-76.2000,WGS84,0.0090,0.0110,0.0216,"0",4.550,0.000,56,56,56,54,00,21,3f,37*28f6a5e9
#BESTPOSA,FILE,0,27.5,FINESTEERING,2319,305902.600,02000000,cdba,17139;SOL_COMPUTED,NARROW_INT,17.59800014845,78.12078702435,524.8105,-76.2000,WGS84,0.0090,0.0111,0.0216,"0",4.600,0.000,56,56,56,54,00,21,3f,37*34afa38a
#BESTPOSA,FILE,0,27.5,FINESTEERING,2319,305902.650,02000000,cdba,17139;SOL_COMPUTED,NARROW_INT,17.59799677833,78.12078704685,524.8125,-76.2000,WGS84,0.0090,0.0111,0.0217,"0",4.650,0.000,56,56,56,54,00,21,3f,37*cee9fee5
#BESTPOSA,FILE,0,27.5,FINESTEERING,2319,305902.700,02000000,cdba,17139;SOL_COMPUTED,NARROW_INT,17.59799339788,78.12078707428,524.8130,-76.2000,WGS84,0.0091,0.0111,0.0217,"0",4.700,0.000,56,56,56,54,00,21,3f,37*ccf7725c
#BESTPOSA,FILE,0,27.5,FINESTEERING,2319,305902.750,02000000,cdba,17139;SOL_COMPUTED,NARROW_INT,17.59799001756,78.12078710882,524.8141,-76.2000,WGS84,0.0091,0.0111,0.0217,"0",4.750,0.000,56,56,56,54,00,21,3f,37*c4b541eb
#BESTPOSA,FILE,0,27.5,FINESTEERING,2319,305902.800,02000000,cdba,17139;SOL_COMPUTED,NARROW_INT,17.59798663159,78.12078714141,524.8152,-76.2000,WGS84,0.0091,0.0111,0.0217,"0",4.800,0.000,56,56,56,54,00,21,3f,37*f76199c3
#BESTPOSA,FILE,0,27.5,FINESTEERING,2319,305902.850,02000000,cdba,17139;SOL_COMPUTED,NARROW_INT,17.59798324543,78.12078719277,524.8140,-76.2000,WGS84,0.0091,0.0111,0.0218,"0",4.850,0.000,56,56,56,54,00,21,3f,37*bcbde873
#BESTPOSA,FILE,0,27.5,FINESTEERING,2319,305902.900,02000000,cdba,17139;SOL_COMPUTED,NARROW_INT,17.59797985095,78.12078724002,524.8143,-76.2000,WGS84,0.0091,0.0111,0.0218,"0",4.900,0.000,56,56,56,54,00,21,3f,37*129ab800
#BESTPOSA,FILE,0,27.5,FINESTEERING,2319,305902.950,02000000,cdba,17139;SOL_COMPUTED,NARROW_INT,17.59797645686,78.12078729131,524.8151,-76.2000,WGS84,0.0091,0.0112,0.0218,"0",4.950,0.000,56,56,56,54,00,21,3f,37*71797cd2
#BESTPOSA,FILE,0,27.5,FINESTEERING,2319,305903.000,02000000,cdba,17139;SOL_COMPUTED,NARROW_INT,17.59797306054,78.12078735228,524.8123,-76.2000,WGS84,0.0091,0.0112,0.0218,"0",5.000,0.000,56,56,56,54,00,21,3f,37*02bbe38e
#BESTPOSA,FILE,0,27.5,FINESTEERING,2319,305903.050,02000000,cdba,17139;SOL_COMPUTED,NARROW_INT,17.59796963167,78.12078740946,524.8134,-76.2000,WGS84,0.0092,0.0113,0.0220,"0",5.050,0.000,56,56,56,54,00,21,3f,37*6a6aaf13
#BESTPOSA,FILE,0,27.0,FINESTEERING,2319,305903.100,02000000,cdba,17139;SOL_COMPUTED,NARROW_INT,17.59796621373,78.12078746891,524.8149,-76.2000,WGS84,0.0093,0.0113,0.0221,"0",5.100,0.000,56,56,56,54,00,21,3f,37*bc95db4f
#BESTPOSA,FILE,0,27.0,FINESTEERING,2319,305903.150,02000000,cdba,17139;SOL_COMPUTED,NARROW_INT,17.59796277954,78.12078752681,524.8162,-76.2000,WGS84,0.0093,0.0113,0.0221,"0",5.150,0.000,56,56,56,54,00,21,3f,37*507879ee
#BESTPOSA,FILE,0,27.0,FINESTEERING,2319,305903.200,02000000,cdba,17139;SOL_COMPUTED,NARROW_INT,17.59795932666,78.12078760485,524.8208,-76.2000,WGS84,0.0093,0.0113,0.0222,"0",5.200,0.000,56,56,56,54,00,21,3f,37*2f00af3d
#BESTPOSA,FILE,0,27.0,FINESTEERING,2319,305903.250,02000000,cdba,17139;SOL_COMPUTED,NARROW_INT,17.59795586739,78.12078774581,524.8259,-76.2000,WGS84,0.0086,0.0107,0.0209,"0",3.250,0.000,56,56,56,54,00,21,3f,37*681f6170
#BESTPOSA,FILE,0,27.0,FINESTEERING,2319,305903.300,02000000,cdba,17139;SOL_COMPUTED,NARROW_INT,17.59795240567,78.12078782276,524.8306,-76.2000,WGS84,0.0086,0.0107,0.0210,"0",3.300,0.000,55,55,55,53,00,21,3f,37*1759feaa
#BESTPOSA,FILE,0,27.0,FINESTEERING,2319,305903.350,02000000,cdba,17139;SOL_COMPUTED,NARROW_INT,17.59794894023,78.12078791846,524.8321,-76.2000,WGS84,0.0086,0.0107,0.0210,"0",3.350,0.000,55,55,55,53,00,21,3f,37*f38ed7d0
#BESTPOSA,FILE,0,27.0,FINESTEERING,2319,305903.400,02000000,cdba,17139;SOL_COMPUTED,NARROW_INT,17.59794546391,78.12078802592,524.8345,-76.2000,WGS84,0.0086,0.0107,0.0210,"0",3.400,0.000,56,55,55,53,00,21,3f,37*73a64fa5
#BESTPOSA,FILE,0,27.0,FINESTEERING,2319,305903.450,02000000,cdba,17139;SOL_COMPUTED,NARROW_INT,17.59794199289,78.12078808019,524.8162,-76.2000,WGS84,0.0061,0.0067,0.0153,"0",0.450,0.000,56,55,55,53,00,21,3f,37*b41d5fdb
#BESTPOSA,FILE,0,27.0,FINESTEERING,2319,305903.500,02000000,cdba,17139;SOL_COMPUTED,NARROW_INT,17.59793850853,78.12078818453,524.8200,-76.2000,WGS84,0.0061,0.0067,0.0153,"0",0.500,0.000,56,55,55,53,00,21,3f,37*3dfa087f
#BESTPOSA,FILE,0,27.0,FINESTEERING,2319,305903.550,02000000,cdba,17139;SOL_COMPUTED,NARROW_INT,17.59793501750,78.12078829353,524.8194,-76.2000,WGS84,0.0061,0.0067,0.0153,"0",0.550,0.000,56,55,55,53,00,21,3f,37*75a0ceda
#BESTPOSA,FILE,0,27.0,FINESTEERING,2319,305903.600,02000000,cdba,17139;SOL_COMPUTED,NARROW_INT,17.59793152054,78.12078840197,524.8201,-76.2000,WGS84,0.0061,0.0068,0.0154,"0",0.600,0.000,56,55,55,53,00,21,3f,37*13f5f48c
#BESTPOSA,FILE,0,27.0,FINESTEERING,2319,305903.650,02000000,cdba,17139;SOL_COMPUTED,NARROW_INT,17.59792802753,78.12078852557,524.8183,-76.2000,WGS84,0.0062,0.0068,0.0154,"0",0.650,0.000,56,55,55,53,00,21,3f,37*96329296
#BESTPOSA,FILE,0,27.0,FINESTEERING,2319,305903.700,02000000,cdba,17139;SOL_COMPUTED,NARROW_INT,17.59792452011,78.12078862365,524.8201,-76.2000,WGS84,0.0062,0.0068,0.0154,"0",0.700,0.000,56,55,55,53,00,21,3f,37*e10528ed
#BESTPOSA,FILE,0,27.0,FINESTEERING,2319,305903.750,02000000,cdba,17139;SOL_COMPUTED,NARROW_INT,17.59792099695,78.12078874388,524.8261,-76.2000,WGS84,0.0062,0.0068,0.0155,"0",0.750,0.000,56,55,55,53,00,21,3f,37*54cb282a
#BESTPOSA,FILE,0,27.0,FINESTEERING,2319,305903.800,02000000,cdba,17139;SOL_COMPUTED,NARROW_INT,17.59791745664,78.12078885552,524.8290,-76.2000,WGS84,0.0062,0.0069,0.0155,"0",0.800,0.000,56,55,55,53,00,21,3f,37*add9ce08
#BESTPOSA,FILE,0,27.0,FINESTEERING,2319,305903.850,02000000,cdba,17139;SOL_COMPUTED,NARROW_INT,17.59791390810,78.12078897312,524.8340,-76.2000,WGS84,0.0062,0.0069,0.0156,"0",0.850,0.000,56,55,55,53,00,21,3f,37*cea26065
#BESTPOSA,FILE,0,27.0,FINESTEERING,2319,305903.900,02000000,cdba,17139;SOL_COMPUTED,NARROW_INT,17.59791034598,78.12078909943,524.8405,-76.2000,WGS84,0.0063,0.0069,0.0156,"0",0.900,0.000,56,55,55,53,00,21,3f,37*c19f2495
#BESTPOSA,FILE,0,27.0,FINESTEERING,2319,305903.950,02000000,cdba,17139;SOL_COMPUTED,NARROW_INT,17.59790678476,78.12078922901,524.8438,-76.2000,WGS84,0.0063,0.0069,0.0156,"0",0.950,0.000,56,55,55,53,00,21,3f,37*ae219554
#BESTPOSA,FILE,0,27.0,FINESTEERING,2319,305904.000,02000000,cdba,17139;SOL_COMPUTED,NARROW_INT,17.59790322441,78.12078936089,524.8437,-76.2000,WGS84,0.0063,0.0069,0.0157,"0",1.000,0.000,56,55,55,53,00,21,3f,37*6d19e515
#BESTPOSA,FILE,0,27.0,FINESTEERING,2319,305904.050,02000000,cdba,17139;SOL_COMPUTED,NARROW_INT,17.59789965016,78.12078949841,524.8449,-76.2000,WGS84,0.0064,0.0071,0.0159,"0",1.050,0.000,56,56,56,54,00,21,3f,37*fb2cd746
#BESTPOSA,FILE,0,23.0,FINESTEERING,2319,305904.100,02000000,cdba,17139;SOL_COMPUTED,NARROW_INT,17.59789607039,78.12078962932,524.8453,-76.2000,WGS84,0.0064,0.0071,0.0159,"0",1.100,0.000,56,56,56,54,00,21,3f,37*c7a85334
#BESTPOSA,FILE,0,23.0,FINESTEERING,2319,305904.150,02000000,cdba,17139;SOL_COMPUTED,NARROW_INT,17.59789249290,78.12078975898,524.8429,-76.2000,WGS84,0.0064,0.0071,0.0160,"0",1.150,0.000,56,56,56,54,00,21,3f,37*7c182fe2
#BESTPOSA,FILE,0,23.0,FINESTEERING,2319,305904.200,02000000,cdba,17139;SOL_COMPUTED,NARROW_INT,17.59788891078,78.12078987454,524.8434,-76.2000,WGS84,0.0065,0.0072,0.0160,"0",1.200,0.000,56,56,56,54,00,21,3f,37*6aaa0afc
#BESTPOSA,FILE,0,23.0,FINESTEERING,2319,305904.250,02000000,cdba,17139;SOL_COMPUTED,NARROW_INT,17.59788531650,78.12078999731,524.8427,-76.2000,WGS84,0.0065,0.0072,0.0161,"0",1.250,0.000,56,56,56,54,00,21,3f,37*b63a20d6
#BESTPOSA,FILE,0,23.0,FINESTEERING,2319,305904.300,02000000,cdba,17139;SOL_COMPUTED,NARROW_INT,17.59788172835,78.12079011744,524.8403,-76.2000,WGS84,0.0065,0.0072,0.0161,"0",1.300,0.000,56,56,56,54,00,21,3f,37*b0c09c09
#BESTPOSA,FILE,0,23.0,FINESTEERING,2319,305904.350,02000000,cdba,17139;SOL_COMPUTED,NARROW_INT,17.59787814325,78.12079022610,524.8378,-76.2000,WGS84,0.0065,0.0072,0.0161,"0",1.350,0.000,56,56,56,54,00,21,3f,37*e1ea2e26
#BESTPOSA,FILE,0,23.0,FINESTEERING,2319,305904.400,02000000,cdba,17139;SOL_COMPUTED,NARROW_INT,17.59787453666,78.12079034242,524.8401,-76.2000,WGS84,0.0066,0.0073,0.0162,"0",1.400,0.000,56,56,56,54,00,21,3f,37*528ed330
#BESTPOSA,FILE,0,23.0,FINESTEERING,2319,305904.450,02000000,cdba,17139;SOL_COMPUTED,NARROW_INT,17.59787092476,78.12079045702,524.8390,-76.2000,WGS84,0.0066,0.0073,0.0162,"0",1.450,0.000,56,56,56,54,00,21,3f,37*9c026af0
#BESTPOSA,FILE,0,23.0,FINESTEERING,2319,305904.500,02000000,cdba,17139;SOL_COMPUTED,NARROW_INT,17.59786732408,78.12079055068,524.8371,-76.2000,WGS84,0.0066,0.0073,0.0163,"0",1.500,0.000,56,56,56,54,00,21,3f,37*0700509e
#BESTPOSA,FILE,0,23.0,FINESTEERING,2319,305904.550,02000000,cdba,17139;SOL_COMPUTED,NARROW_INT,17.59786370069,78.12079066857,524.8366,-76.2000,WGS84,0.0066,0.0073,0.0163,"0",1.550,0.000,56,56,56,54,00,21,3f,37*ac7d2470
#BESTPOSA,FILE,0,23.0,FINESTEERING,2319,305904.600,02000000,cdba,17139;SOL_COMPUTED,NARROW_INT,17.59786007828,78.12079079182,524.8364,-76.2000,WGS84,0.0066,0.0073,0.0163,"0",1.600,0.000,56,56,56,54,00,21,3f,37*a59cef94
#BESTPOSA,FILE,0,23.0,FINESTEERING,2319,305904.650,02000000,cdba,17139;SOL_COMPUTED,NARROW_INT,17.59785644304,78.12079092303,524.8363,-76.2000,WGS84,0.0066,0.0073,0.0164,"0",1.650,0.000,56,56,56,54,00,21,3f,37*7c8c7c32
#BESTPOSA,FILE,0,23.0,FINESTEERING,2319,305904.700,02000000,cdba,17139;SOL_COMPUTED,NARROW_INT,17.59785279764,78.12079104848,524.8347,-76.2000,WGS84,0.0067,0.0074,0.0164,"0",1.700,0.000,56,56,56,54,00,21,3f,37*ef5d8e44
#BESTPOSA,FILE,0,23.0,FINESTEERING,2319,305904.750,02000000,cdba,17139;SOL_COMPUTED,NARROW_INT,17.59784915030,78.12079116938,524.8342,-76.2000,WGS84,0.0067,0.0074,0.0164,"0",1.750,0.000,56,56,56,54,00,21,3f,37*af0641c4
#BESTPOSA,FILE,0,23.0,FINESTEERING,2319,305904.800,02000000,cdba,17139;SOL_COMPUTED,NARROW_INT,17.59784549695,78.12079128303,524.8378,-76.2000,WGS84,0.0067,0.0074,0.0165,"0",1.800,0.000,56,56,56,54,00,21,3f,37*eb778e6c
#BESTPOSA,FILE,0,23.0,FINESTEERING,2319,305904.850,02000000,cdba,17139;SOL_COMPUTED,NARROW_INT,17.59784183188,78.12079137254,524.8418,-76.2000,WGS84,0.0067,0.0074,0.0165,"0",1.850,0.000,56,56,56,54,00,21,3f,37*beb479d3
#BESTPOSA,FILE,0,23.0,FINESTEERING,2319,305904.900,02000000,cdba,17139;SOL_COMPUTED,NARROW_INT,17.59783816759,78.12079146104,524.8449,-76.2000,WGS84,0.0067,0.0074,0.0165,"0",1.900,0.000,56,56,56,54,00,21,3f,37*181dcdf0
#BESTPOSA,FILE,0,23.0,FINESTEERING,2319,305904.950,02000000,cdba,17139;SOL_COMPUTED,NARROW_INT,17.59783449272,78.12079156259,524.8473,-76.2000,WGS84,0.0068,0.0075,0.0166,"0",1.950,0.000,56,56,56,54,00,21,3f,37*ecbbed24
#BESTPOSA,FILE,0,23.0,FINESTEERING,2319,305905.000,02000000,cdba,17139;SOL_COMPUTED,NARROW_INT,17.59783082257,78.12079167485,524.8480,-76.2000,WGS84,0.0068,0.0075,0.0166,"0",2.000,0.000,56,56,56,54,00,21,3f,37*bf2688a3
#BESTPOSA,FILE,0,23.0,FINESTEERING,2319,305905.050,02000000,cdba,17139;SOL_COMPUTED,NARROW_INT,17.59782713296,78.12079178584,524.8474,-76.2000,WGS84,0.0069,0.0076,0.0168,"0",2.050,0.000,56,56,56,54,00,21,3f,37*07a0e1cf
#BESTPOSA,FILE,0,23.0,FINESTEERING,2319,305905.100,02000000,cdba,17139;SOL_COMPUTED,NARROW_INT,17.59782345931,78.12079189521,524.8505,-76.2000,WGS84,0.0069,0.0076,0.0168,"0",2.100,0.000,56,56,56,54,00,21,3f,37*c0fdcd94
#BESTPOSA,FILE,0,29.0,FINESTEERING,2319,305905.150,02000000,cdba,17139;SOL_COMPUTED,NARROW_INT,17.59781975810,78.12079200487,524.8511,-76.2000,WGS84,0.0069,0.0077,0.0169,"0",2.150,0.000,56,56,56,54,00,21,3f,37*64e1d8cd
#BESTPOSA,FILE,0,29.0,FINESTEERING,2319,305905.200,02000000,cdba,17139;SOL_COMPUTED,NARROW_INT,17.59781605362,78.12079209277,524.8561,-76.2000,WGS84,0.0069,0.0077,0.0169,"0",2.200,0.000,56,56,56,54,00,21,3f,37*26943b88
#BESTPOSA,FILE,0,29.0,FINESTEERING,2319,305905.250,02000000,cdba,17139;SOL_COMPUTED,NARROW_INT,17.59781233444,78.12079219967,524.8622,-76.2000,WGS84,0.0070,0.0077,0.0170,"0",2.250,0.000,56,56,56,54,00,21,3f,37*8ee96717
#BESTPOSA,FILE,0,29.0,FINESTEERING,2319,305905.300,02000000,cdba,17139;SOL_COMPUTED,NARROW_INT,17.59780862369,78.12079229836,524.8639,-76.2000,WGS84,0.0070,0.0077,0.0170,"0",2.300,0.000,56,56,56,54,00,21,3f,37*73f0bd4b
#BESTPOSA,FILE,0,29.0,FINESTEERING,2319,305905.350,02000000,cdba,17139;SOL_COMPUTED,NARROW_INT,17.59780490433,78.12079239810,524.8687,-76.2000,WGS84,0.0070,0.0077,0.0170,"0",2.350,0.000,56,56,56,54,00,21,3f,37*6f9bd785
#BESTPOSA,FILE,0,29.0,FINESTEERING,2319,305905.400,02000000,cdba,17139;SOL_COMPUTED,NARROW_INT,17.59780116994,78.12079248732,524.8710,-76.2000,WGS84,0.0070,0.0078,0.0171,"0",2.400,0.000,56,56,56,54,00,21,3f,37*a2199724
#BESTPOSA,FILE,0,29.0,FINESTEERING,2319,305905.450,02000000,cdba,17139;SOL_COMPUTED,NARROW_INT,17.59779744461,78.12079257290,524.8718,-76.2000,WGS84,0.0070,0.0078,0.0171,"0",2.450,0.000,56,56,56,54,00,21,3f,37*72987142
#BESTPOSA,FILE,0,29.0,FINESTEERING,2319,305905.500,02000000,cdba,17139;SOL_COMPUTED,NARROW_INT,17.59779369968,78.12079267424,524.8776,-76.2000,WGS84,0.0070,0.0078,0.0171,"0",2.500,0.000,56,56,56,54,00,21,3f,37*af38e949
#BESTPOSA,FILE,0,29.0,FINESTEERING,2319,305905.550,02000000,cdba,17139;SOL_COMPUTED,NARROW_INT,17.59778995703,78.12079277636,524.8811,-76.2000,WGS84,0.0071,0.0078,0.0172,"0",2.550,0.000,56,56,56,54,00,21,3f,37*98771139
#BESTPOSA,FILE,0,29.0,FINESTEERING,2319,305905.600,02000000,cdba,17139;SOL_COMPUTED,NARROW_INT,17.59778621326,78.12079285756,524.8828,-76.2000,WGS84,0.0071,0.0078,0.0172,"0",2.600,0.000,56,56,56,54,00,21,3f,37*0944e803
#BESTPOSA,FILE,0,29.0,FINESTEERING,2319,305905.650,02000000,cdba,17139;SOL_COMPUTED,NARROW_INT,17.59778244773,78.12079293796,524.8847,-76.2000,WGS84,0.0071,0.0078,0.0172,"0",2.650,0.000,56,56,56,54,00,21,3f,37*95615297
#BESTPOSA,FILE,0,29.0,FINESTEERING,2319,305905.700,02000000,cdba,17139;SOL_COMPUTED,NARROW_INT,17.59777868999,78.12079303397,524.8892,-76.2000,WGS84,0.0071,0.0079,0.0172,"0",2.700,0.000,57,56,56,54,00,21,3f,37*b26201b6
#BESTPOSA,FILE,0,29.0,FINESTEERING,2319,305905.750,02000000,cdba,17139;SOL_COMPUTED,NARROW_INT,17.59777491166,78.12079312678,524.8948,-76.2000,WGS84,0.0071,0.0079,0.0173,"0",2.750,0.000,57,56,56,54,00,21,3f,37*9fbbae01
#BESTPOSA,FILE,0,29.0,FINESTEERING,2319,305905.800,02000000,cdba,17139;SOL_COMPUTED,NARROW_INT,17.59777112654,78.12079322813,524.8983,-76.2000,WGS84,0.0071,0.0079,0.0173,"0",2.800,0.000,57,56,56,54,00,21,3f,37*4f1d6ea1
#BESTPOSA,FILE,0,29.0,FINESTEERING,2319,305905.850,02000000,cdba,17139;SOL_COMPUTED,NARROW_INT,17.59776734193,78.12079331684,524.9030,-76.2000,WGS84,0.0072,0.0079,0.0173,"0",2.850,0.000,57,56,56,54,00,21,3f,37*965b4929
#BESTPOSA,FILE,0,29.0,FINESTEERING,2319,305905.900,02000000,cdba,17139;SOL_COMPUTED,NARROW_INT,17.59776355325,78.12079341167,524.9047,-76.2000,WGS84,0.0072,0.0079,0.0174,"0",2.900,0.000,57,56,56,54,00,21,3f,37*b19b81a3
#BESTPOSA,FILE,0,29.0,FINESTEERING,2319,305905.950,02000000,cdba,17139;SOL_COMPUTED,NARROW_INT,17.59775975986,78.12079351320,524.9047,-76.2000,WGS84,0.0072,0.0079,0.0174,"0",2.950,0.000,57,56,56,54,00,21,3f,37*fafa827e
#BESTPOSA,FILE,0,29.0,FINESTEERING,2319,305906.000,02000000,cdba,17139;SOL_COMPUTED,NARROW_INT,17.59775596392,78.12079361377,524.9059,-76.2000,WGS84,0.0072,0.0079,0.0174,"0",3.000,0.000,57,56,56,54,00,21,3f,37*44ffe5a5
#BESTPOSA,FILE,0,29.0,FINESTEERING,2319,305906.050,02000000,cdba,17139;SOL_COMPUTED,NARROW_INT,17.59775216515,78.12079369609,524.9083,-76.2000,WGS84,0.0073,0.0081,0.0176,"0",3.050,0.000,57,57,57,55,00,21,3f,37*5276781e
#BESTPOSA,FILE,0,29.0,FINESTEERING,2319,305906.100,02000000,cdba,17139;SOL_COMPUTED,NARROW_INT,17.59774836147,78.12079376225,524.9107,-76.2000,WGS84,0.0073,0.0081,0.0177,"0",3.100,0.000,57,57,57,55,00,21,3f,37*5e870642
#BESTPOSA,FILE,0,29.5,FINESTEERING,2319,305906.150,02000000,cdba,17139;SOL_COMPUTED,NARROW_INT,17.59774454827,78.12079381976,524.9131,-76.2000,WGS84,0.0073,0.0081,0.0177,"0",3.150,0.000,57,57,57,55,00,21,3f,37*7234e332
#BESTPOSA,FILE,0,29.5,FINESTEERING,2319,305906.200,02000000,cdba,17139;SOL_COMPUTED,NARROW_INT,17.59774073184,78.12079388991,524.9157,-76.2000,WGS84,0.0074,0.0081,0.0177,"0",3.200,0.000,57,57,57,55,00,21,3f,37*807c6aed
