#CORRIMUDATAA,FILE,0,29.5,FINESTEERING,2319,305890.950,02000800,e5fc,17139;2319,305890.950000000,-0.0000269802352308,0.0000970758321939,-0.0090062150727752,0.0080306461431686,0.0099661137066465,-0.0001637864044221*bce70773
#CORRIMUDATAA,FILE,0,29.5,FINESTEERING,2319,305891.000,02000800,e5fc,17139;2319,305891.000000000,-0.0001089647115242,0.0000165526204433,-0.0091428211985333,0.0032904680537773,0.0102211466880177,0.0038537016788057*f416275e
#CORRIMUDATAA,FILE,0,29.5,FINESTEERING,2319,305891.050,02000800,e5fc,17139;2319,305891.050000000,-0.0000778304291484,0.0000394067763000,-0.0083692774119907,0.0057496132664359,0.0088840791377555,0.0009680617960294*bf78da7a
#CORRIMUDATAA,FILE,0,29.0,FINESTEERING,2319,305891.100,02000800,e5fc,17139;2319,305891.100000000,-0.0000425151797976,0.0001918810776028,-0.0093226876264670,0.0105055612391861,0.0110055428414892,0.0016357048940463*ad53a772
#CORRIMUDATAA,FILE,0,29.0,FINESTEERING,2319,305891.150,02000800,e5fc,17139;2319,305891.150000000,-0.0000063346016928,0.0001511540084742,-0.0092220550392495,0.0164654713264107,0.0115711556303251,-0.0012418879727217*e3ee1506
#CORRIMUDATAA,FILE,0,29.0,FINESTEERING,2319,305891.250,02000800,e5fc,17139;2319,305891.250000000,0.0000426430858050,-0.0000614266449678,-0.0090655897454782,0.0106601116388928,0.0100998925829667,-0.0040507907301144*a0e2793b
#CORRIMUDATAA,FILE,0,29.0,FINESTEERING,2319,305891.350,02000800,e5fc,17139;2319,305891.350000000,0.0000997409749131,0.0004299228192717,-0.0091721027936686,0.0092380949348857,0.0098810282180409,0.0037575322905859*d870fa9a
#CORRIMUDATAA,FILE,0,29.0,FINESTEERING,2319,305891.500,02000800,e5fc,17139;2319,305891.500000000,0.0001134642007188,0.0001666970478693,-0.0089736116380525,0.0128772844797021,0.0122812744555911,0.0002382092058049*b25d7a4b
#CORRIMUDATAA,FILE,0,29.0,FINESTEERING,2319,305891.700,02000800,e5fc,17139;2319,305891.700000000,-0.0000585752672362,-0.0000254427507700,-0.0090331162419356,0.0140272081130090,0.0126991876447593,-0.0047130909143952*f8ea46fd
#CORRIMUDATAA,FILE,0,29.0,FINESTEERING,2319,305891.750,02000800,e5fc,17139;2319,305891.750000000,-0.0000361580620901,-0.0001060789184163,-0.0089924481334915,0.0104155123150688,0.0100708276194733,-0.0035653853932866*c6358a74
#CORRIMUDATAA,FILE,0,29.0,FINESTEERING,2319,305891.900,02000800,e5fc,17139;2319,305891.900000000,0.0000307984694557,-0.0001211180199127,-0.0090241831400064,0.0094456097309144,0.0116318730599349,0.0028549521133308*04a5d00a
#CORRIMUDATAA,FILE,0,29.0,FINESTEERING,2319,305891.950,02000800,e5fc,17139;2319,305891.950000000,-0.0000633198990805,-0.0000049349582404,-0.0089395396380350,0.0102492528384760,0.0092955536384970,0.0023726717107061*88a16b3d
#CORRIMUDATAA,FILE,0,29.0,FINESTEERING,2319,305892.150,02000800,e5fc,17139;2319,305892.150000000,-0.0001137558636561,-0.0002624873406852,-0.0082516635894774,0.0086138997919378,0.0090157253212046,-0.0009813688852353*7583ce52
#CORRIMUDATAA,FILE,0,30.0,FINESTEERING,2319,305892.250,02000800,e5fc,17139;2319,305892.250000000,-0.0000973733833689,0.0000290619442174,-0.0081051562383409,0.0114745166611812,0.0093818100743645,-0.0022432341950913*e4a4098c
#CORRIMUDATAA,FILE,0,30.0,FINESTEERING,2319,305892.300,02000800,e5fc,17139;2319,305892.300000000,-0.0000927484062543,0.0001022067252344,-0.0079463689685383,0.0131411870577101,0.0092880511075070,0.0004110023131795*f30f2c5f
#CORRIMUDATAA,FILE,0,30.0,FINESTEERING,2319,305892.350,02000800,e5fc,17139;2319,305892.350000000,-0.0000217675593274,0.0001996765305263,-0.0077466681927456,0.0130979195292828,0.0081324350770060,0.0014759640127863*ec2c7e4b
#CORRIMUDATAA,FILE,0,30.0,FINESTEERING,2319,305892.450,02000800,e5fc,17139;2319,305892.450000000,-0.0000125409968425,0.0002463145419805,-0.0073375238826216,0.0119361025135382,0.0073272042058926,0.0009406360592214*b53570cc
#CORRIMUDATAA,FILE,0,30.0,FINESTEERING,2319,305892.550,02000800,e5fc,17139;2319,305892.550000000,0.0000332329840876,0.0003676103801619,-0.0069362899260852,0.0089178655797731,0.0081275085669580,0.0012436955492411*55fb8eed
#CORRIMUDATAA,FILE,0,30.0,FINESTEERING,2319,305892.650,02000800,e5fc,17139;2319,305892.650000000,0.0000493011895789,0.0005195584703421,-0.0063538773418731,0.0126446018765238,0.0091090693711394,-0.0006955451916199*6fdf6044
#CORRIMUDATAA,FILE,0,30.0,FINESTEERING,2319,305892.700,02000800,e5fc,17139;2319,305892.700000000,0.0002268664771486,0.0005042098963460,-0.0059826837082431,0.0128358916334978,0.0095968059835150,-0.0057423897303189*63df0fd2
#CORRIMUDATAA,FILE,0,30.0,FINESTEERING,2319,305892.800,02000800,e5fc,17139;2319,305892.800000000,0.0001917428824351,0.0004445171148393,-0.0053857485468303,0.0079572167147882,0.0101170285637063,-0.0009516473473671*e89d19fd
#CORRIMUDATAA,FILE,0,30.0,FINESTEERING,2319,305892.900,02000800,e5fc,17139;2319,305892.900000000,0.0002379461024492,0.0002343587670121,-0.0049955296844046,0.0050592212194428,0.0151031428033937,-0.0003788480934763*3b9e68ee
#CORRIMUDATAA,FILE,0,30.0,FINESTEERING,2319,305892.950,02000800,e5fc,17139;2319,305892.950000000,0.0001353626315859,0.0001210830109407,-0.0048458542312345,0.0035826499167357,0.0129875791501923,0.0052177589067436*c67ad81e
#CORRIMUDATAA,FILE,0,28.5,FINESTEERING,2319,305893.100,02000800,e5fc,17139;2319,305893.100000000,0.0003302616021051,-0.0002105201328175,-0.0038345408455369,0.0107949152734982,0.0236820535127551,-0.0034676176627063*abe2734d
#CORRIMUDATAA,FILE,0,28.5,FINESTEERING,2319,305893.200,02000800,e5fc,17139;2319,305893.200000000,0.0003471271837665,-0.0000261193227773,-0.0037642481147962,0.0026803410667473,0.0313568146812036,-0.0021358627444924*0af9adb1
#CORRIMUDATAA,FILE,0,28.5,FINESTEERING,2319,305893.300,02000800,e5fc,17139;2319,305893.300000000,0.0003042933644669,-0.0001038564808225,-0.0037304265446654,0.0076421857811631,0.0354815755622598,-0.0001204984834973*2c08bb95
#CORRIMUDATAA,FILE,0,28.5,FINESTEERING,2319,305893.450,02000800,e5fc,17139;2319,305893.450000000,0.0000320272612403,0.0000718847001003,-0.0032288101792233,0.0094513125735657,0.0384398851601883,0.0052782326217870*ac6c4749
#CORRIMUDATAA,FILE,0,28.5,FINESTEERING,2319,305893.500,02000800,e5fc,17139;2319,305893.500000000,0.0000957651576309,0.0000478965552535,-0.0031275605189074,0.0081926337035235,0.0403612243257931,0.0016097141896522*868e6fe6
#CORRIMUDATAA,FILE,0,28.5,FINESTEERING,2319,305893.600,02000800,e5fc,17139;2319,305893.600000000,0.0001602403588596,-0.0002232825288092,-0.0030202701672303,0.0049227128427171,0.0431735421548480,-0.0049853765138322*7b0343d8
#CORRIMUDATAA,FILE,0,28.5,FINESTEERING,2319,305893.700,02000800,e5fc,17139;2319,305893.700000000,0.0001185059403727,0.0003373703118116,-0.0026807502806188,0.0073743069422382,0.0433782690291061,0.0066175648051621*a82a94f4
#CORRIMUDATAA,FILE,0,28.5,FINESTEERING,2319,305893.800,02000800,e5fc,17139;2319,305893.800000000,0.0004089458339973,-0.0000981227318527,-0.0022511281083666,0.0170222835935777,0.0515202573642690,-0.0129975783166258*5af40cc2
#CORRIMUDATAA,FILE,0,28.5,FINESTEERING,2319,305893.850,02000800,e5fc,17139;2319,305893.850000000,0.0006424591105250,-0.0001399416910193,-0.0020435826986590,0.0056917424765829,0.0504017672338700,-0.0019417150509379*c9ad3581
#CORRIMUDATAA,FILE,0,28.5,FINESTEERING,2319,305893.950,02000800,e5fc,17139;2319,305893.950000000,0.0005585483190308,0.0001985464345888,-0.0018811380869626,0.0013390942142231,0.0556289037131539,-0.0001491996524207*7ba963e5
#CORRIMUDATAA,FILE,0,28.5,FINESTEERING,2319,305894.000,02000800,e5fc,17139;2319,305894.000000000,0.0004622215047453,0.0001269613181872,-0.0017761575101145,0.0056193411585491,0.0592214712347102,-0.0000949277507022*459e264e
#CORRIMUDATAA,FILE,0,28.5,FINESTEERING,2319,305894.100,02000800,e5fc,17139;2319,305894.100000000,0.0002915383683380,-0.0000805009904158,-0.0012963539209011,0.0106850833263564,0.0646025597322827,0.0049676176076025*8feb943d
#CORRIMUDATAA,FILE,0,30.0,FINESTEERING,2319,305894.250,02000800,e5fc,17139;2319,305894.250000000,-0.0002427326292792,-0.0000775133159330,-0.0009989845735142,0.0006360376990632,0.0589348211449640,0.0033787099161032*2ccf0206
#CORRIMUDATAA,FILE,0,30.0,FINESTEERING,2319,305894.350,02000800,e5fc,17139;2319,305894.350000000,-0.0003331635672862,0.0003439032065280,-0.0008952495849259,0.0043181554790750,0.0542786870796894,0.0068476078698696*b61e8996
#CORRIMUDATAA,FILE,0,30.0,FINESTEERING,2319,305894.500,02000800,e5fc,17139;2319,305894.500000000,0.0001018764708268,0.0002403958389958,-0.0003210686888853,0.0045012078145031,0.0491076121297769,-0.0030998058241625*843068f0
#CORRIMUDATAA,FILE,0,30.0,FINESTEERING,2319,305894.550,02000800,e5fc,17139;2319,305894.550000000,0.0001361856650525,0.0004668154426637,-0.0002389482417495,0.0005093102972240,0.0511795600837857,-0.0037526137859451*ef620c62
#CORRIMUDATAA,FILE,0,30.0,FINESTEERING,2319,305894.600,02000800,e5fc,17139;2319,305894.600000000,0.0001142961529681,0.0007891528298489,-0.0002365403747450,0.0007786823170420,0.0479974562349710,-0.0022138495854344*f7c9e6b0
#CORRIMUDATAA,FILE,0,30.0,FINESTEERING,2319,305894.650,02000800,e5fc,17139;2319,305894.650000000,0.0003391101869978,0.0002350748580854,-0.0002984100952971,0.0028441951687406,0.0522143585419459,-0.0033080685761244*c5faf3cc
#CORRIMUDATAA,FILE,0,30.0,FINESTEERING,2319,305894.700,02000800,e5fc,17139;2319,305894.700000000,-0.0001537387986600,0.0003419139255221,-0.0003491725853662,-0.0009902580489893,0.0444072725786360,0.0086509013467613*63f98793
#CORRIMUDATAA,FILE,0,30.0,FINESTEERING,2319,305894.750,02000800,e5fc,17139;2319,305894.750000000,-0.0000029760016133,0.0001121984190421,-0.0003517786765632,0.0013118764507956,0.0509572519961106,-0.0002168284392802*821eb539
#CORRIMUDATAA,FILE,0,30.0,FINESTEERING,2319,305894.800,02000800,e5fc,17139;2319,305894.800000000,-0.0001796526421245,0.0003172804299042,-0.0003064862404430,0.0027830945516771,0.0439931131348682,0.0057670852118388*a4dab965
#CORRIMUDATAA,FILE,0,30.0,FINESTEERING,2319,305894.850,02000800,e5fc,17139;2319,305894.850000000,0.0000205894808210,0.0000798537529192,-0.0002284372269021,0.0064295956030668,0.0506887321554526,-0.0097691129311975*b3765e52
#CORRIMUDATAA,FILE,0,30.0,FINESTEERING,2319,305894.900,02000800,e5fc,17139;2319,305894.900000000,0.0000721693395458,-0.0002183043140061,-0.0002105976237032,0.0005521176368817,0.0418093851774047,0.0043489550881016*2e7f4baa
#CORRIMUDATAA,FILE,0,30.0,FINESTEERING,2319,305894.950,02000800,e5fc,17139;2319,305894.950000000,0.0000478382184516,-0.0000228013908421,-0.0002775117563710,-0.0043928419148163,0.0458719671880457,-0.0016933930245339*14f67547
#CORRIMUDATAA,FILE,0,30.0,FINESTEERING,2319,305895.000,02000000,e5fc,17139;2319,305895.000000000,0.0002659230759073,0.0000165516586173,-0.0004030186160175,-0.0008198544042449,0.0419733476434331,0.0024632724825448*82a557bf
#CORRIMUDATAA,FILE,0,30.0,FINESTEERING,2319,305895.050,02000000,e5fc,17139;2319,305895.050000000,-0.0000674984759492,0.0001697116729072,-0.0003636150994538,0.0055692343554659,0.0378046484129761,-0.0068135666230289*7f45aa96
#CORRIMUDATAA,FILE,0,29.5,FINESTEERING,2319,305895.100,02000000,e5fc,17139;2319,305895.100000000,0.0002783347701870,-0.0001951209809481,-0.0003624109740956,0.0036362251125555,0.0398094815696914,0.0002931118905231*63457fc5
#CORRIMUDATAA,FILE,0,29.5,FINESTEERING,2319,305895.150,02000000,e5fc,17139;2319,305895.150000000,0.0001982394359816,0.0003663466281922,-0.0002880848260727,0.0061345336752547,0.0426694727616074,0.0028986895482192*f6ad32ba
#CORRIMUDATAA,FILE,0,29.5,FINESTEERING,2319,305895.200,02000000,e5fc,17139;2319,305895.200000000,0.0001838661285913,0.0004523434258651,-0.0001959727790912,0.0088812542562499,0.0382034842941578,0.0068133420452362*caa0ddd6
#CORRIMUDATAA,FILE,0,29.5,FINESTEERING,2319,305895.250,02000000,e5fc,17139;2319,305895.250000000,0.0001289796194829,0.0005735165267795,-0.0001406248425703,0.0083539540951818,0.0413903548833026,0.0004965585677503*3d334675
#CORRIMUDATAA,FILE,0,29.5,FINESTEERING,2319,305895.300,02000000,e5fc,17139;2319,305895.300000000,-0.0001764979243492,0.0000755002257092,-0.0001269375211250,0.0009671526623998,0.0353319919277038,0.0094283183927129*b14bb777
#CORRIMUDATAA,FILE,0,29.5,FINESTEERING,2319,305895.350,02000000,e5fc,17139;2319,305895.350000000,-0.0003922566844104,-0.0001499243590845,-0.0001745462346902,-0.0091591513882211,0.0394767330294892,0.0009569933279651*0dd9b014
#CORRIMUDATAA,FILE,0,29.5,FINESTEERING,2319,305895.400,02000000,e5fc,17139;2319,305895.400000000,-0.0002627673513457,0.0002672769510288,-0.0003107212336266,-0.0040430707217338,0.0378277406597959,-0.0035566867852074*33995494
#CORRIMUDATAA,FILE,0,29.5,FINESTEERING,2319,305895.450,02000000,e5fc,17139;2319,305895.450000000,-0.0000702801270774,0.0001842969453777,-0.0003273052690649,0.0036632879114935,0.0400601107908639,-0.0091514434875473*a255a81c
#CORRIMUDATAA,FILE,0,29.5,FINESTEERING,2319,305895.500,02000000,e5fc,17139;2319,305895.500000000,0.0000500734759593,-0.0000481927638662,-0.0003766657757335,0.0028876289677317,0.0351694175058458,-0.0001892487023195*dff7dbe0
#CORRIMUDATAA,FILE,0,29.5,FINESTEERING,2319,305895.550,02000000,e5fc,17139;2319,305895.550000000,0.0001583130168695,-0.0003090375871071,-0.0003760810405928,0.0031347450699341,0.0402968069091211,0.0021617387372711*dcb6f9ce
#CORRIMUDATAA,FILE,0,29.5,FINESTEERING,2319,305895.600,02000000,e5fc,17139;2319,305895.600000000,0.0001168601405362,-0.0001464816672115,-0.0003554177699570,0.0001447414589395,0.0357144949460905,0.0028328964126354*357f9ee9
#CORRIMUDATAA,FILE,0,29.5,FINESTEERING,2319,305895.650,02000000,e5fc,17139;2319,305895.650000000,0.0001275000969010,-0.0000913671393214,-0.0002732551555931,0.0054037534331567,0.0396168496895127,0.0004331492819242*aeedc5f0
#CORRIMUDATAA,FILE,0,29.5,FINESTEERING,2319,305895.700,02000000,e5fc,17139;2319,305895.700000000,0.0000509824623528,-0.0000578244559494,-0.0001682238084712,0.0063213468765740,0.0372662103213471,0.0019689511721523*33dac10a
#CORRIMUDATAA,FILE,0,29.5,FINESTEERING,2319,305895.750,02000000,e5fc,17139;2319,305895.750000000,0.0002121739657622,-0.0004294885516592,-0.0001604813557156,0.0017994639733116,0.0400350765797576,-0.0037675900893002*5eeb0e08
#CORRIMUDATAA,FILE,0,29.5,FINESTEERING,2319,305895.800,02000000,e5fc,17139;2319,305895.800000000,0.0000534696522990,-0.0003217177358112,-0.0001527623470868,-0.0009392585593296,0.0402694372105971,0.0048721051378637*1bec9188
#CORRIMUDATAA,FILE,0,29.5,FINESTEERING,2319,305895.850,02000000,e5fc,17139;2319,305895.850000000,-0.0001038561706018,0.0002327812729658,-0.0001482973253885,0.0009466780150241,0.0399634663703246,-0.0032363458488197*2a2d74c0
#CORRIMUDATAA,FILE,0,29.5,FINESTEERING,2319,305895.900,02000000,e5fc,17139;2319,305895.900000000,0.0001301326820072,0.0009880027732801,0.0000780542807492,0.0046938892855223,0.0377049908749375,0.0081395411031963*5bf1062a
#CORRIMUDATAA,FILE,0,29.5,FINESTEERING,2319,305895.950,02000000,e5fc,17139;2319,305895.950000000,0.0004599016016913,0.0015225945301291,0.0004963946467484,0.0075071011187031,0.0432161688120903,-0.0128014552609865*208b66df
#CORRIMUDATAA,FILE,0,29.5,FINESTEERING,2319,305896.000,02000000,e5fc,17139;2319,305896.000000000,0.0005760209138463,0.0017700574997066,0.0011412072527134,0.0080992973178602,0.0366000274746308,-0.0003158094959853*603917ec
#CORRIMUDATAA,FILE,0,29.5,FINESTEERING,2319,305896.050,02000000,e5fc,17139;2319,305896.050000000,0.0003548551533298,0.0011626468525853,0.0017123202766441,0.0055296451714942,0.0338237698443543,-0.0004612626249653*369c7a63
#CORRIMUDATAA,FILE,0,19.5,FINESTEERING,2319,305896.100,02000000,e5fc,17139;2319,305896.100000000,0.0002151432173053,0.0006411112505791,0.0025252879108001,-0.0049308316257377,0.0363475122083598,0.0033065551281739*60a4d0f7
#CORRIMUDATAA,FILE,0,19.5,FINESTEERING,2319,305896.150,02000000,e5fc,17139;2319,305896.150000000,-0.0002452240724184,0.0000887724201042,0.0027412159593331,-0.0171978934638063,0.0355559443678308,0.0083883166304551*55c85c6d
#CORRIMUDATAA,FILE,0,19.5,FINESTEERING,2319,305896.200,02000000,e5fc,17139;2319,305896.200000000,-0.0004446819421430,-0.0003553394534443,0.0027710163008692,-0.0220893669486342,0.0370701153415494,-0.0035760480514826*1d9d44e3
#CORRIMUDATAA,FILE,0,19.5,FINESTEERING,2319,305896.250,02000000,e5fc,17139;2319,305896.250000000,-0.0005298102755446,-0.0004629288696904,0.0026809295583965,-0.0194869654618489,0.0377916607604319,0.0028408045787275*8d220ec9
#CORRIMUDATAA,FILE,0,19.5,FINESTEERING,2319,305896.300,02000000,e5fc,17139;2319,305896.300000000,-0.0004460470502105,-0.0006943931029081,0.0026667214967882,-0.0138446252182285,0.0367816209064294,-0.0013751041477314*98525756
#CORRIMUDATAA,FILE,0,19.5,FINESTEERING,2319,305896.350,02000000,e5fc,17139;2319,305896.350000000,-0.0002585171223996,-0.0008312600260424,0.0027374655303833,-0.0109875279031575,0.0366616812053425,-0.0000623978224919*1b5677f2
#CORRIMUDATAA,FILE,0,19.5,FINESTEERING,2319,305896.400,02000000,e5fc,17139;2319,305896.400000000,-0.0001580523282216,-0.0006726682775504,0.0029455938259739,-0.0085869740053649,0.0340245684418854,-0.0017286422462188*d38a4db4
#CORRIMUDATAA,FILE,0,19.5,FINESTEERING,2319,305896.450,02000000,e5fc,17139;2319,305896.450000000,0.0001102126423124,-0.0002623204850383,0.0032024478227941,-0.0076212906696734,0.0342782546889175,0.0000007171966101*e18423aa
#CORRIMUDATAA,FILE,0,19.5,FINESTEERING,2319,305896.500,02000000,e5fc,17139;2319,305896.500000000,-0.0000035468113583,0.0006227645216252,0.0035952495864238,-0.0008284810611587,0.0302901109961734,0.0187028914341452*19436fcf
#CORRIMUDATAA,FILE,0,19.5,FINESTEERING,2319,305896.550,02000000,e5fc,17139;2319,305896.550000000,-0.0000014527141806,0.0002291739401263,0.0039555196868550,0.0005764895108339,0.0349101775851898,-0.0006009411800843*4999874a
#CORRIMUDATAA,FILE,0,19.5,FINESTEERING,2319,305896.600,02000000,e5fc,17139;2319,305896.600000000,-0.0001356827963681,0.0000987181476277,0.0040476428968449,-0.0148620487319491,0.0354096461969184,-0.0076226417289944*e1ee13ae
#CORRIMUDATAA,FILE,0,19.5,FINESTEERING,2319,305896.650,02000000,e5fc,17139;2319,305896.650000000,0.0001488027790613,-0.0001845562428579,0.0038070399504073,-0.0261879311240649,0.0381175199029131,-0.0127506993422390*01f4af13
#CORRIMUDATAA,FILE,0,19.5,FINESTEERING,2319,305896.700,02000000,e5fc,17139;2319,305896.700000000,0.0005941204281002,0.0001010530716155,0.0034793791594060,-0.0308174207556684,0.0359563376060182,-0.0132315117322129*a04fbe5e
#CORRIMUDATAA,FILE,0,19.5,FINESTEERING,2319,305896.750,02000000,e5fc,17139;2319,305896.750000000,0.0008572433980404,0.0005843999601757,0.0032653180115949,-0.0199291181372030,0.0354673563691867,-0.0109523777440130*cf85228c
#CORRIMUDATAA,FILE,0,19.5,FINESTEERING,2319,305896.800,02000000,e5fc,17139;2319,305896.800000000,0.0009765051258028,0.0006200076789666,0.0032668551085040,-0.0126160366841340,0.0313662249147703,0.0028523843550556*e3adb402
#CORRIMUDATAA,FILE,0,19.5,FINESTEERING,2319,305896.850,02000000,e5fc,17139;2319,305896.850000000,0.0010509654987625,0.0002832242238879,0.0033467037248707,-0.0078098933637123,0.0315684716575285,-0.0006973102517336*1acffe21
#CORRIMUDATAA,FILE,0,19.5,FINESTEERING,2319,305896.900,02000000,e5fc,17139;2319,305896.900000000,0.0010633020321685,0.0003682359809612,0.0034850098344531,-0.0138606550654323,0.0312787010394954,0.0086386467459878*667bab97
#CORRIMUDATAA,FILE,0,19.5,FINESTEERING,2319,305896.950,02000000,e5fc,17139;2319,305896.950000000,0.0009163050139479,0.0002391231647314,0.0035711590167434,-0.0137548218378471,0.0292442845937742,0.0102051215070948*768e8227
#CORRIMUDATAA,FILE,0,19.5,FINESTEERING,2319,305897.000,02000000,e5fc,17139;2319,305897.000000000,0.0007719805542645,0.0002969365169801,0.0036425884208054,-0.0153765098251729,0.0292596321269306,0.0118245933108682*ac698e43
#CORRIMUDATAA,FILE,0,19.5,FINESTEERING,2319,305897.050,02000000,e5fc,17139;2319,305897.050000000,0.0007402159220092,0.0002811337332877,0.0033427962024905,-0.0148054043853894,0.0269750520366371,0.0049872126888758*60d500dc
#CORRIMUDATAA,FILE,0,19.5,FINESTEERING,2319,305897.100,02000000,e5fc,17139;2319,305897.100000000,0.0006055925576182,0.0000213435740562,0.0037259117731042,-0.0164829554332458,0.0293608484982587,0.0064385391605677*310145ea
#CORRIMUDATAA,FILE,0,29.5,FINESTEERING,2319,305897.150,02000000,e5fc,17139;2319,305897.150000000,0.0005267154898558,-0.0003203225334840,0.0037701096418343,-0.0246725365751935,0.0279323541698197,0.0020131521943613*b481f232
#CORRIMUDATAA,FILE,0,29.5,FINESTEERING,2319,305897.200,02000000,e5fc,17139;2319,305897.200000000,0.0001705233631235,-0.0001754673025078,0.0037635604464928,-0.0197732079059442,0.0272280728065165,0.0108629997607744*69f108d3
#CORRIMUDATAA,FILE,0,29.5,FINESTEERING,2319,305897.250,02000000,e5fc,17139;2319,305897.250000000,-0.0001525158620917,-0.0002163502275678,0.0039129998720692,-0.0157952660595195,0.0278354932015843,-0.0089114142091459*5caf22f2
#CORRIMUDATAA,FILE,0,29.5,FINESTEERING,2319,305897.300,02000000,e5fc,17139;2319,305897.300000000,-0.0000317359273706,0.0003234297790191,0.0040648801742539,-0.0124391743563078,0.0272525282461890,0.0021930517397420*2ecbcc49
#CORRIMUDATAA,FILE,0,29.5,FINESTEERING,2319,305897.350,02000000,e5fc,17139;2319,305897.350000000,-0.0004233316248107,0.0009288048527446,0.0041318506128577,-0.0106831828250956,0.0233733956708814,0.0112205092291254*39b1854f
#CORRIMUDATAA,FILE,0,29.5,FINESTEERING,2319,305897.400,02000000,e5fc,17139;2319,305897.400000000,0.0000462844239410,0.0003283770259233,0.0042127522002531,-0.0095593124868745,0.0278434254427314,-0.0088037712675736*6f9a6d11
#CORRIMUDATAA,FILE,0,29.5,FINESTEERING,2319,305897.450,02000000,e5fc,17139;2319,305897.450000000,-0.0002084159205111,0.0005689346136062,0.0042301239221060,-0.0227150217061814,0.0232027953400366,0.0174437691378554*952697a0
#CORRIMUDATAA,FILE,0,29.5,FINESTEERING,2319,305897.500,02000000,e5fc,17139;2319,305897.500000000,-0.0002052468765292,-0.0002621922938360,0.0040832689809826,-0.0282253266217217,0.0258373956424813,0.0054852425546161*55478bf9
#CORRIMUDATAA,FILE,0,29.5,FINESTEERING,2319,305897.550,02000000,e5fc,17139;2319,305897.550000000,-0.0009391660660368,0.0001824293032924,0.0040414949342445,-0.0287351941487836,0.0224704816690306,0.0184337796572304*240904f6
#CORRIMUDATAA,FILE,0,29.5,FINESTEERING,2319,305897.600,02000000,e5fc,17139;2319,305897.600000000,-0.0008369292519433,-0.0002384829657990,0.0039521692744554,-0.0224727641579711,0.0263565613611330,-0.0005860071364545*d0ae70ad
#CORRIMUDATAA,FILE,0,29.5,FINESTEERING,2319,305897.650,02000000,e5fc,17139;2319,305897.650000000,-0.0008382506536185,-0.0009835345444610,0.0040670888137635,-0.0156111639056457,0.0256294135702761,-0.0138231184149789*47611fad
#CORRIMUDATAA,FILE,0,29.5,FINESTEERING,2319,305897.700,02000000,e5fc,17139;2319,305897.700000000,-0.0009062238407174,-0.0013775964114463,0.0041808378992147,-0.0193589920044070,0.0277067954407674,-0.0178804601819986*dc9a4202
#CORRIMUDATAA,FILE,0,29.5,FINESTEERING,2319,305897.750,02000000,e5fc,17139;2319,305897.750000000,-0.0006918220799149,-0.0019113847945826,0.0042693017488518,-0.0253492359764020,0.0254315898454139,-0.0192290251457638*a20964d2
#CORRIMUDATAA,FILE,0,29.5,FINESTEERING,2319,305897.800,02000000,e5fc,17139;2319,305897.800000000,-0.0001254220903789,-0.0012567554279494,0.0043000816473186,-0.0199462225536894,0.0315331555978272,-0.0150103150320538*604a5175
#CORRIMUDATAA,FILE,0,29.5,FINESTEERING,2319,305897.850,02000000,e5fc,17139;2319,305897.850000000,-0.0001590459621800,-0.0005024878115616,0.0042617416992429,-0.0226744793043683,0.0225381332198731,0.0061335882289988*b2d50477
#CORRIMUDATAA,FILE,0,29.5,FINESTEERING,2319,305897.900,02000000,e5fc,17139;2319,305897.900000000,0.0000360998301675,0.0000806473924265,0.0039501148533670,-0.0247663512048825,0.0277268634562591,0.0103255853183658*2be8f02a
#CORRIMUDATAA,FILE,0,29.5,FINESTEERING,2319,305897.950,02000000,e5fc,17139;2319,305897.950000000,-0.0002336365379371,0.0010774100154480,0.0037259334073024,-0.0136450657571209,0.0245677980425929,0.0097647586870272*b6cfbd58
#CORRIMUDATAA,FILE,0,29.5,FINESTEERING,2319,305898.000,02000000,e5fc,17139;2319,305898.000000000,-0.0004841503453718,0.0004866604105430,0.0037611984984378,-0.0080804117347694,0.0268298728714367,0.0005597332986588*a547ae54
#CORRIMUDATAA,FILE,0,29.5,FINESTEERING,2319,305898.050,02000000,e5fc,17139;2319,305898.050000000,-0.0008135259032432,0.0005483529539118,0.0035663982100960,-0.0122574540869740,0.0224826719034161,0.0173919099996782*f8020c1e
#CORRIMUDATAA,FILE,0,29.5,FINESTEERING,2319,305898.100,02000000,e5fc,17139;2319,305898.100000000,-0.0005966713191332,-0.0003306681131181,0.0040202200493376,-0.0260674686535035,0.0296990087999646,-0.0077737901657887*5318b463
#CORRIMUDATAA,FILE,0,30.5,FINESTEERING,2319,305898.150,02000000,e5fc,17139;2319,305898.150000000,-0.0006376728432853,-0.0003265994952738,0.0037391619301715,-0.0291950257645077,0.0297065088347485,-0.0209910257305035*6a1d30ec
#CORRIMUDATAA,FILE,0,30.5,FINESTEERING,2319,305898.200,02000000,e5fc,17139;2319,305898.200000000,-0.0000780629714117,-0.0013552346941467,0.0033610132160751,-0.0318106548211617,0.0326320782826012,-0.0294436968752640*fb3a0928
#CORRIMUDATAA,FILE,0,30.5,FINESTEERING,2319,305898.250,02000000,e5fc,17139;2319,305898.250000000,0.0004742693698155,-0.0012592699819242,0.0028103402051856,-0.0340502043538578,0.0297965080841073,-0.0008931421928038*ad507a7b
#CORRIMUDATAA,FILE,0,30.5,FINESTEERING,2319,305898.300,02000000,e5fc,17139;2319,305898.300000000,0.0004847655356074,-0.0011752679703876,0.0025144195121699,-0.0158763970729867,0.0284060143128885,-0.0061266567246943*1026632a
#CORRIMUDATAA,FILE,0,30.5,FINESTEERING,2319,305898.350,02000000,e5fc,17139;2319,305898.350000000,0.0005121903865991,-0.0007796041866680,0.0024923022189312,-0.0010348089810481,0.0250080007562287,0.0089832353101487*a682e342
#CORRIMUDATAA,FILE,0,30.5,FINESTEERING,2319,305898.400,02000000,e5fc,17139;2319,305898.400000000,0.0001024913501854,-0.0004774767704786,0.0027316640796046,0.0017978669826878,0.0272294447152727,0.0155086195764090*4f5a1d30
#CORRIMUDATAA,FILE,0,30.5,FINESTEERING,2319,305898.450,02000000,e5fc,17139;2319,305898.450000000,-0.0001516975898585,-0.0003540283909790,0.0027182731473823,-0.0048663933364140,0.0264856800759915,-0.0072408242742342*c7317614
#CORRIMUDATAA,FILE,0,30.5,FINESTEERING,2319,305898.500,02000000,e5fc,17139;2319,305898.500000000,-0.0004012680740833,-0.0004797664165543,0.0025679340179389,-0.0183045011258178,0.0296263153761107,0.0089782264373849*c984f028
#CORRIMUDATAA,FILE,0,30.5,FINESTEERING,2319,305898.550,02000000,e5fc,17139;2319,305898.550000000,-0.0006086917952833,-0.0003341464676473,0.0021312220054440,-0.0241601424987270,0.0295411634354976,-0.0043539634224028*73f5d47c
#CORRIMUDATAA,FILE,0,30.5,FINESTEERING,2319,305898.600,02000000,e5fc,17139;2319,305898.600000000,-0.0006228256959316,-0.0000882246185063,0.0017017067455796,-0.0178908343129950,0.0310084618015584,0.0072470564775227*d6ce9ace
#CORRIMUDATAA,FILE,0,30.5,FINESTEERING,2319,305898.650,02000000,e5fc,17139;2319,305898.650000000,-0.0007769681387888,-0.0002671457970974,0.0013776581993169,-0.0091574065491441,0.0270562020770428,-0.0052307337487530*281301d1
#CORRIMUDATAA,FILE,0,30.5,FINESTEERING,2319,305898.700,02000000,e5fc,17139;2319,305898.700000000,-0.0006098743486532,-0.0003929774865329,0.0013151039343555,-0.0023754766621720,0.0284678624957852,0.0189052305017045*c2a9dbad
#CORRIMUDATAA,FILE,0,30.5,FINESTEERING,2319,305898.750,02000000,e5fc,17139;2319,305898.750000000,-0.0006406705169145,-0.0006971724861553,0.0012974852527934,0.0002838609480281,0.0243659065165281,-0.0070012576635342*ed6c1fc2
#CORRIMUDATAA,FILE,0,30.5,FINESTEERING,2319,305898.800,02000000,e5fc,17139;2319,305898.800000000,-0.0003021008571146,-0.0011746191042218,0.0011781810354866,-0.0058092352192806,0.0286991452177814,-0.0037673132448161*14246c8d
#CORRIMUDATAA,FILE,0,30.5,FINESTEERING,2319,305898.850,02000000,e5fc,17139;2319,305898.850000000,-0.0000408401953574,-0.0011386685029547,0.0009589865789947,-0.0170620547572158,0.0272634268347700,-0.0136660787220387*e5db44a4
#CORRIMUDATAA,FILE,0,30.5,FINESTEERING,2319,305898.900,02000000,e5fc,17139;2319,305898.900000000,0.0005333272909428,-0.0008029689463735,0.0005590157908300,-0.0181920603260735,0.0317740035485061,-0.0136830340482303*c0d512f4
#CORRIMUDATAA,FILE,0,30.5,FINESTEERING,2319,305898.950,02000000,e5fc,17139;2319,305898.950000000,0.0009728610112709,-0.0003342219199189,0.0003803130558275,-0.0005441024299001,0.0277932824651389,-0.0181292382502122*85dcd9c1
#CORRIMUDATAA,FILE,0,30.5,FINESTEERING,2319,305899.000,02000000,e5fc,17139;2319,305899.000000000,0.0014720069370426,-0.0003322765397738,0.0003803453060250,0.0027496969891319,0.0303680680032802,-0.0041080624570749*adec237f
#CORRIMUDATAA,FILE,0,30.5,FINESTEERING,2319,305899.050,02000000,e5fc,17139;2319,305899.050000000,0.0010516983739103,0.0002529096336637,0.0003779392592263,0.0095694521839209,0.0246484187239275,-0.0011875419986956*7ef73b5f
#CORRIMUDATAA,FILE,0,26.5,FINESTEERING,2319,305899.100,02000000,e5fc,17139;2319,305899.100000000,0.0005609902095373,0.0001940057234651,0.0004419583638097,0.0028181678181179,0.0242556977465084,0.0172302068073792*cb5e2d74
#CORRIMUDATAA,FILE,0,26.5,FINESTEERING,2319,305899.150,02000000,e5fc,17139;2319,305899.150000000,-0.0003305779568349,0.0004363576443818,0.0003470802283060,-0.0078839922158181,0.0254921992739732,0.0135865538019249*d6ae38bc
#CORRIMUDATAA,FILE,0,26.5,FINESTEERING,2319,305899.200,02000000,e5fc,17139;2319,305899.200000000,-0.0008151846705362,0.0008735284036562,0.0000761031889788,-0.0043582554845454,0.0259747801070577,0.0161364439717312*a1c4db2e
#CORRIMUDATAA,FILE,0,26.5,FINESTEERING,2319,305899.250,02000000,e5fc,17139;2319,305899.250000000,-0.0010530732461355,0.0000953820042383,0.0000556359557159,-0.0005160299655253,0.0229412134433333,0.0139384997199372*081966fb
#CORRIMUDATAA,FILE,0,26.5,FINESTEERING,2319,305899.300,02000000,e5fc,17139;2319,305899.300000000,-0.0010251079497712,-0.0006255626398153,0.0000422125688244,0.0006172444278541,0.0259905850847771,0.0088043679219506*b299a796
#CORRIMUDATAA,FILE,0,26.5,FINESTEERING,2319,305899.350,02000000,e5fc,17139;2319,305899.350000000,-0.0011895381380312,-0.0012532630012741,0.0003779345530207,0.0023018813917838,0.0216974883266567,0.0203525902757704*1b587d4a
#CORRIMUDATAA,FILE,0,26.5,FINESTEERING,2319,305899.400,02000000,e5fc,17139;2319,305899.400000000,-0.0009949522600076,-0.0017111910350770,0.0004828146206670,-0.0012426598938027,0.0282844939671307,-0.0022895869168430*43cc748a
#CORRIMUDATAA,FILE,0,26.5,FINESTEERING,2319,305899.450,02000000,e5fc,17139;2319,305899.450000000,-0.0006763923606288,-0.0013310469245953,0.0007036748982990,0.0029837182875893,0.0266303748080385,-0.0338114587236810*e9f12b58
#CORRIMUDATAA,FILE,0,26.5,FINESTEERING,2319,305899.500,02000000,e5fc,17139;2319,305899.500000000,0.0002929940207026,-0.0014368663881950,0.0005452122317731,-0.0129468909264823,0.0311750859726542,-0.0217300301316829*60b15961
#CORRIMUDATAA,FILE,0,26.5,FINESTEERING,2319,305899.550,02000000,e5fc,17139;2319,305899.550000000,0.0011927390023909,0.0003478511867388,0.0003297711277812,-0.0027603273973214,0.0273150039465449,-0.0454998124498875*00d4ca94
#CORRIMUDATAA,FILE,0,26.5,FINESTEERING,2319,305899.600,02000000,e5fc,17139;2319,305899.600000000,0.0022678906771086,0.0007953935719303,0.0002743784653395,0.0093547275121919,0.0273330238871391,-0.0064644720447264*dc271efd
#CORRIMUDATAA,FILE,0,26.5,FINESTEERING,2319,305899.650,02000000,e5fc,17139;2319,305899.650000000,0.0022252721160935,0.0005411763979128,0.0002832300279558,0.0046858013997120,0.0215438752668923,0.0067685479545181*0da89192
#CORRIMUDATAA,FILE,0,26.5,FINESTEERING,2319,305899.700,02000000,e5fc,17139;2319,305899.700000000,0.0017966270230947,-0.0003374183741666,0.0001667678069118,-0.0025415611413736,0.0228601751673036,0.0106052909182712*8ef2c1ec
#CORRIMUDATAA,FILE,0,26.5,FINESTEERING,2319,305899.750,02000000,e5fc,17139;2319,305899.750000000,0.0011875716009703,-0.0007977468420282,-0.0000398386509083,-0.0117447808142163,0.0204738174854709,0.0180685581937295*b2200d90
#CORRIMUDATAA,FILE,0,26.5,FINESTEERING,2319,305899.800,02000000,e5fc,17139;2319,305899.800000000,0.0007580001459699,-0.0014993699561877,-0.0003927140435292,-0.0146573462183699,0.0211267145939093,0.0252132074767006*d5e4ad30
#CORRIMUDATAA,FILE,0,26.5,FINESTEERING,2319,305899.850,02000000,e5fc,17139;2319,305899.850000000,0.0003624221433953,-0.0017161632716277,-0.0006263218811454,-0.0074824689064065,0.0201301499957996,0.0126396189204510*467d848d
#CORRIMUDATAA,FILE,0,26.5,FINESTEERING,2319,305899.900,02000000,e5fc,17139;2319,305899.900000000,0.0000324433910128,-0.0012586397581846,-0.0007012267418735,0.0031500463656878,0.0190694801965205,0.0272969505109335*63b21970
#CORRIMUDATAA,FILE,0,26.5,FINESTEERING,2319,305899.950,02000000,e5fc,17139;2319,305899.950000000,-0.0005117078572415,-0.0006339961380560,-0.0004345712795829,0.0164610639510229,0.0168223349021546,0.0353880026478603*10f09f66
#CORRIMUDATAA,FILE,0,26.5,FINESTEERING,2319,305900.000,02000000,e5fc,17139;2319,305900.000000000,-0.0004688417278356,-0.0009091508742118,-0.0002462085460963,0.0179533828206346,0.0191711602394062,-0.0062358397496983*f35a0e57
#CORRIMUDATAA,FILE,0,26.5,FINESTEERING,2319,305900.050,02000000,e5fc,17139;2319,305900.050000000,-0.0007688877921195,-0.0002421019421656,-0.0001694548216593,0.0001765306124904,0.0207270327906513,-0.0020571649152406*cb838915
#CORRIMUDATAA,FILE,0,26.5,FINESTEERING,2319,305900.100,02000000,e5fc,17139;2319,305900.100000000,-0.0002938390942914,-0.0000297199795584,-0.0004828821532057,0.0008892062145380,0.0220483455849991,-0.0239414345083233*264dc4ae
#CORRIMUDATAA,FILE,0,26.5,FINESTEERING,2319,305900.150,02000000,e5fc,17139;2319,305900.150000000,-0.0001485429727713,0.0004913805783765,-0.0005843214056855,-0.0025826343933457,0.0225549052061373,-0.0055645750274411*e3b28375
#CORRIMUDATAA,FILE,0,30.0,FINESTEERING,2319,305900.200,02000000,e5fc,17139;2319,305900.200000000,-0.0001342688927933,0.0007891933552301,-0.0007027647837510,0.0091117835619862,0.0185552226190367,-0.0092585412916303*7faa9498
#CORRIMUDATAA,FILE,0,30.0,FINESTEERING,2319,305900.250,02000000,e5fc,17139;2319,305900.250000000,-0.0002760882842388,0.0003884347708048,-0.0005973761645690,0.0108987719706535,0.0190172064686995,-0.0039671140309543*6327fac5
#CORRIMUDATAA,FILE,0,30.0,FINESTEERING,2319,305900.300,02000000,e5fc,17139;2319,305900.300000000,-0.0004866218514837,0.0002939285398693,-0.0006052101906225,0.0108128735742595,0.0189914217245910,-0.0043845351831517*76619cd2
#CORRIMUDATAA,FILE,0,30.0,FINESTEERING,2319,305900.350,02000000,e5fc,17139;2319,305900.350000000,-0.0003976820405274,0.0000965396482763,-0.0006850871983670,-0.0036600346635480,0.0177800651302387,0.0081029121133386*b8de46d6
#CORRIMUDATAA,FILE,0,30.0,FINESTEERING,2319,305900.400,02000000,e5fc,17139;2319,305900.400000000,-0.0005130098556087,0.0002852763301784,-0.0009899888336448,0.0032829623768652,0.0189728192909427,0.0106433998778370*ffd3743e
#CORRIMUDATAA,FILE,0,30.0,FINESTEERING,2319,305900.450,02000000,e5fc,17139;2319,305900.450000000,-0.0005981811657154,0.0004368125483995,-0.0010370043958591,0.0065415238052001,0.0193459669594091,-0.0042236110254482*9585b719
#CORRIMUDATAA,FILE,0,30.0,FINESTEERING,2319,305900.500,02000000,e5fc,17139;2319,305900.500000000,-0.0004282885945647,0.0003344688733406,-0.0010372090232665,0.0100301071411639,0.0201601442277135,0.0067326823440215*0dab439c
#CORRIMUDATAA,FILE,0,30.0,FINESTEERING,2319,305900.550,02000000,e5fc,17139;2319,305900.550000000,-0.0005373174167692,-0.0001400210802768,-0.0009615269788333,0.0115099575503862,0.0186740428416965,-0.0073549793129577*7fcde1af
#CORRIMUDATAA,FILE,0,30.0,FINESTEERING,2319,305900.600,02000000,e5fc,17139;2319,305900.600000000,-0.0005898371926163,-0.0004969465943789,-0.0009388093650599,0.0028368921523853,0.0215638511216686,-0.0113873664394486*ddac4c6a
#CORRIMUDATAA,FILE,0,30.0,FINESTEERING,2319,305900.650,02000000,e5fc,17139;2319,305900.650000000,-0.0005900923777951,-0.0003265815909282,-0.0011180769785582,0.0009540418862041,0.0191617114643821,-0.0108775305344498*64549cfd
#CORRIMUDATAA,FILE,0,30.0,FINESTEERING,2319,305900.700,02000000,e5fc,17139;2319,305900.700000000,-0.0006012677041590,-0.0002611268427221,-0.0012697561283848,0.0017592272821751,0.0202296717571693,0.0066578552379993*cda1fd19
#CORRIMUDATAA,FILE,0,30.0,FINESTEERING,2319,305900.750,02000000,e5fc,17139;2319,305900.750000000,-0.0004396461089504,0.0001857801758037,-0.0013873007572536,0.0107500566389127,0.0200300867271958,-0.0103548165086762*6c4f6bd8
#CORRIMUDATAA,FILE,0,30.0,FINESTEERING,2319,305900.800,02000000,e5fc,17139;2319,305900.800000000,-0.0002077193506523,0.0000200073158390,-0.0013317895717633,0.0169090639279352,0.0204502839369398,-0.0000149457661289*7bf20a0d
#CORRIMUDATAA,FILE,0,30.0,FINESTEERING,2319,305900.850,02000000,e5fc,17139;2319,305900.850000000,0.0000546951562614,0.0000621239876446,-0.0013630687721878,0.0092681399000127,0.0193734293010390,0.0013937273224649*c4add1ed
#CORRIMUDATAA,FILE,0,30.0,FINESTEERING,2319,305900.900,02000000,e5fc,17139;2319,305900.900000000,0.0002899149002421,0.0002904118887539,-0.0014188550829317,0.0064100546085804,0.0192320481431710,-0.0088762480425170*f5f54c4f
#CORRIMUDATAA,FILE,0,30.0,FINESTEERING,2319,305900.950,02000000,e5fc,17139;2319,305900.950000000,0.0005812573289122,0.0006834363678782,-0.0015794643914897,0.0084540666948627,0.0198506155320981,-0.0024292771588588*bb8ecf9b
#CORRIMUDATAA,FILE,0,30.0,FINESTEERING,2319,305901.000,02000000,e5fc,17139;2319,305901.000000000,0.0008537738778169,0.0008695761496951,-0.0015461496060056,0.0140536792269440,0.0208964390445957,-0.0082529955567114*3bbef461
#CORRIMUDATAA,FILE,0,30.0,FINESTEERING,2319,305901.050,02000000,e5fc,17139;2319,305901.050000000,0.0008557426008079,0.0011104464919528,-0.0013648335106433,0.0164319736693238,0.0166751641483609,-0.0050054735267443*b5a2c217
#CORRIMUDATAA,FILE,0,27.5,FINESTEERING,2319,305901.100,02000000,e5fc,17139;2319,305901.100000000,0.0009080023185087,0.0005433812585670,-0.0014808786162888,0.0169812469776226,0.0188853649324830,0.0084118863448521*0139d946
#CORRIMUDATAA,FILE,0,27.5,FINESTEERING,2319,305901.150,02000000,e5fc,17139;2319,305901.150000000,0.0006579456709479,-0.0003255607934059,-0.0015134244677897,0.0076467594399754,0.0174452307792950,-0.0058649639788593*68916df6
#CORRIMUDATAA,FILE,0,27.5,FINESTEERING,2319,305901.200,02000000,e5fc,17139;2319,305901.200000000,0.0003308184686871,-0.0001625853839521,-0.0021037509640292,-0.0042021195696728,0.0177938398871063,0.0236526613110055*fa420f49
#CORRIMUDATAA,FILE,0,27.5,FINESTEERING,2319,305901.250,02000000,e5fc,17139;2319,305901.250000000,0.0001332066933511,0.0003941961651134,-0.0025308770089881,0.0051087822749371,0.0170426068435889,0.0114659008878820*4ff857e3
#CORRIMUDATAA,FILE,0,27.5,FINESTEERING,2319,305901.300,02000000,e5fc,17139;2319,305901.300000000,0.0000834793573314,0.0014107873676264,-0.0026381368395353,0.0215810007376754,0.0176925731201642,0.0155617075303668*9a26b77d
#CORRIMUDATAA,FILE,0,27.5,FINESTEERING,2319,305901.350,02000000,e5fc,17139;2319,305901.350000000,0.0001758240812167,0.0016488201745526,-0.0023861002456162,0.0345049369518982,0.0183120902235809,0.0074324089907076*094ec3cb
#CORRIMUDATAA,FILE,0,27.5,FINESTEERING,2319,305901.400,02000000,e5fc,17139;2319,305901.400000000,0.0003935859049930,0.0015442925252900,-0.0019906867178469,0.0342747087371310,0.0187228753323101,-0.0100548917906637*242817ea
#CORRIMUDATAA,FILE,0,27.5,FINESTEERING,2319,305901.450,02000000,e5fc,17139;2319,305901.450000000,0.0000923212423229,0.0017819820518882,-0.0017314908009012,0.0134470163720082,0.0194764886501729,0.0062378329681572*3cf2dfd2
#CORRIMUDATAA,FILE,0,27.5,FINESTEERING,2319,305901.500,02000000,e5fc,17139;2319,305901.500000000,0.0002919054731803,0.0013375896609345,-0.0015912939835074,0.0108386910788698,0.0217442547069631,-0.0122508130065606*0298d2e3
#CORRIMUDATAA,FILE,0,27.5,FINESTEERING,2319,305901.550,02000000,e5fc,17139;2319,305901.550000000,0.0002743051788856,0.0012557400170552,-0.0014854102240663,0.0037958952539336,0.0214621058460144,-0.0076367350675725*458309c1
#CORRIMUDATAA,FILE,0,27.5,FINESTEERING,2319,305901.600,02000000,e5fc,17139;2319,305901.600000000,-0.0000060397537922,0.0011228190569497,-0.0012513950966219,0.0136591998270465,0.0175847012522818,0.0033462699671420*38e9a41d
#CORRIMUDATAA,FILE,0,27.5,FINESTEERING,2319,305901.650,02000000,e5fc,17139;2319,305901.650000000,-0.0002807883712946,0.0006879158498142,-0.0011139362458953,0.0126033086715287,0.0189156297414880,0.0136915732397146*0267bdd3
#CORRIMUDATAA,FILE,0,27.5,FINESTEERING,2319,305901.700,02000000,e5fc,17139;2319,305901.700000000,-0.0007521992769073,0.0006773348201508,-0.0010057730947006,0.0031668514804416,0.0195692696360037,0.0121113788559633*4c07c1e9
#CORRIMUDATAA,FILE,0,27.5,FINESTEERING,2319,305901.750,02000000,e5fc,17139;2319,305901.750000000,-0.0010097207989013,0.0011043982370751,-0.0009504844570376,0.0049655104959230,0.0203109432975681,-0.0041036372074181*67b5effc
#CORRIMUDATAA,FILE,0,27.5,FINESTEERING,2319,305901.800,02000000,e5fc,17139;2319,305901.800000000,-0.0012605533622964,0.0017776184222988,-0.0006743636045891,0.0105525321888316,0.0202542732226800,0.0108741049753382*0bfed65f
#CORRIMUDATAA,FILE,0,27.5,FINESTEERING,2319,305901.850,02000000,e5fc,17139;2319,305901.850000000,-0.0015378152115240,0.0014614480267340,-0.0003332973213962,0.0145933356296713,0.0230862022502305,-0.0062048862028843*f99f86ac
#CORRIMUDATAA,FILE,0,27.5,FINESTEERING,2319,305901.900,02000000,e5fc,17139;2319,305901.900000000,-0.0015406665408070,0.0007259887407796,0.0000336229664690,0.0077648701589783,0.0229442537899159,-0.0130464054690911*0677022c
#CORRIMUDATAA,FILE,0,27.5,FINESTEERING,2319,305901.950,02000000,e5fc,17139;2319,305901.950000000,-0.0013263607608828,0.0005178010854004,0.0002342264955443,-0.0054773161077570,0.0259491526899650,-0.0140388077963000*129335a6
#CORRIMUDATAA,FILE,0,27.5,FINESTEERING,2319,305902.000,02000000,e5fc,17139;2319,305902.000000000,-0.0005915069567799,0.0005503738373880,0.0003530691825613,-0.0026157025926934,0.0255508196496534,-0.0221094116244378*c6a0fd2c
#CORRIMUDATAA,FILE,0,27.5,FINESTEERING,2319,305902.050,02000000,e5fc,17139;2319,305902.050000000,-0.0001457913453334,0.0004067717934629,0.0005491990488890,-0.0022753653498037,0.0215609139286950,-0.0041984161623405*0a5653e7
#CORRIMUDATAA,FILE,0,27.5,FINESTEERING,2319,305902.100,02000000,e5fc,17139;2319,305902.100000000,0.0006717970870059,0.0006424210340894,0.0009037011993700,0.0006662778675459,0.0249625326926522,-0.0208860724673490*912eb391
#CORRIMUDATAA,FILE,0,27.5,FINESTEERING,2319,305902.150,02000000,e5fc,17139;2319,305902.150000000,0.0011729312221467,0.0001549731921439,0.0012884583390536,0.0004325844950699,0.0248499246684934,-0.0102347241029688*23d39f3d
#CORRIMUDATAA,FILE,0,27.5,FINESTEERING,2319,305902.200,02000000,e5fc,17139;2319,305902.200000000,0.0012858405659789,0.0004348177662505,0.0015797289818111,-0.0065501668340845,0.0222033749556844,-0.0159782097834627*92d85a59
#CORRIMUDATAA,FILE,0,27.5,FINESTEERING,2319,305902.250,02000000,e5fc,17139;2319,305902.250000000,0.0017295177351932,-0.0001301163210673,0.0016643772573377,-0.0172206798628255,0.0216649464375138,0.0040961723343965*dcea17da
#CORRIMUDATAA,FILE,0,27.5,FINESTEERING,2319,305902.300,02000000,e5fc,17139;2319,305902.300000000,0.0013897015716522,0.0004979179612763,0.0016457520442085,-0.0196329148133183,0.0205808599210252,0.0120999396792661*7de21eca
#CORRIMUDATAA,FILE,0,27.5,FINESTEERING,2319,305902.350,02000000,e5fc,17139;2319,305902.350000000,0.0010424972321679,0.0002957411114382,0.0016002543205395,-0.0107254122546382,0.0198742955597566,0.0120738573052683*e339d5dc
#CORRIMUDATAA,FILE,0,27.5,FINESTEERING,2319,305902.400,02000000,e5fc,17139;2319,305902.400000000,0.0002842570623806,-0.0003643348930108,0.0016198477424528,-0.0102162856656950,0.0162452499171750,0.0380020594284648*330c6972
#CORRIMUDATAA,FILE,0,27.5,FINESTEERING,2319,305902.450,02000000,e5fc,17139;2319,305902.450000000,-0.0005014741256608,-0.0013253209273731,0.0015554860014883,-0.0170252213323052,0.0175134870515423,0.0199317470744335*b6643bfa
#CORRIMUDATAA,FILE,0,27.5,FINESTEERING,2319,305902.500,02000000,e5fc,17139;2319,305902.500000000,-0.0010465659794986,-0.0008805102041577,0.0014086440579467,-0.0185320528013969,0.0188753837425015,0.0116000847105939*79477ee0
#CORRIMUDATAA,FILE,0,27.5,FINESTEERING,2319,305902.550,02000000,e5fc,17139;2319,305902.550000000,-0.0013098995538530,-0.0005212318129465,0.0013303199261200,-0.0179450036029974,0.0198547494041861,0.0136199163695507*00bd8d8f
#CORRIMUDATAA,FILE,0,27.5,FINESTEERING,2319,305902.600,02000000,e5fc,17139;2319,305902.600000000,-0.0011514709195832,-0.0000054229089066,0.0012684970188799,-0.0010811385755703,0.0194185197269269,-0.0064192837194626*15cfd79e
#CORRIMUDATAA,FILE,0,27.5,FINESTEERING,2319,305902.650,02000000,e5fc,17139;2319,305902.650000000,-0.0012056653673244,-0.0002050641166435,0.0015034497212156,0.0042196737318124,0.0214666216349629,-0.0125402099386288*998b5097
#CORRIMUDATAA,FILE,0,27.5,FINESTEERING,2319,305902.700,02000000,e5fc,17139;2319,305902.700000000,-0.0008211071854187,-0.0001266517878320,0.0015499239292203,-0.0098460724415962,0.0207277755192160,-0.0203163460236031*c37873e0
#CORRIMUDATAA,FILE,0,27.5,FINESTEERING,2319,305902.750,02000000,e5fc,17139;2319,305902.750000000,-0.0002918327615584,-0.0002672111099097,0.0013965387237077,-0.0165063531535783,0.0240270326456903,-0.0222487609268715*81b7e512
#CORRIMUDATAA,FILE,0,27.5,FINESTEERING,2319,305902.800,02000000,e5fc,17139;2319,305902.800000000,0.0001432172845820,0.0003524439418222,0.0012530367166027,-0.0141964019016904,0.0200903047217998,-0.0187018462766853*8998b413
#CORRIMUDATAA,FILE,0,27.5,FINESTEERING,2319,305902.850,02000000,e5fc,17139;2319,305902.850000000,0.0006450685910677,0.0000943902958626,0.0012058058998941,-0.0072491071142922,0.0212314459700464,-0.0046981830485798*178a0b0f
#CORRIMUDATAA,FILE,0,27.5,FINESTEERING,2319,305902.900,02000000,e5fc,17139;2319,305902.900000000,0.0010982394907792,-0.0000446272610589,0.0013367621174857,0.0014447385374611,0.0176015819118656,-0.0273880459554189*d97c5d49
#CORRIMUDATAA,FILE,0,27.5,FINESTEERING,2319,305902.950,02000000,e5fc,17139;2319,305902.950000000,0.0009415126964450,-0.0004616823427984,0.0013243754981783,-0.0124399041404790,0.0185052556958630,0.0244558236668539*7a769b37
#CORRIMUDATAA,FILE,0,27.5,FINESTEERING,2319,305903.000,02000000,e5fc,17139;2319,305903.000000000,0.0010423111492083,-0.0007047529364143,0.0011287508038631,-0.0147336357639097,0.0171749071407551,-0.0067162533796374*b013dd08
#CORRIMUDATAA,FILE,0,27.5,FINESTEERING,2319,305903.050,02000000,e5fc,17139;2319,305903.050000000,0.0010147423391671,0.0001425777461230,0.0010155061977156,-0.0102587184465410,0.0172949422661513,0.0269250424503760*4aecf324
#CORRIMUDATAA,FILE,0,27.0,FINESTEERING,2319,305903.100,02000000,e5fc,17139;2319,305903.100000000,0.0008030286842740,0.0002650202359470,0.0012094750320613,-0.0038670447256439,0.0141248241607643,0.0144127389671934*46f9777c
#CORRIMUDATAA,FILE,0,27.0,FINESTEERING,2319,305903.150,02000000,e5fc,17139;2319,305903.150000000,0.0003689358531555,0.0000921343698074,0.0012105824426373,-0.0036188338002278,0.0166677891494134,0.0217585832239421*ad9032e3
#CORRIMUDATAA,FILE,0,27.0,FINESTEERING,2319,305903.200,02000000,e5fc,17139;2319,305903.200000000,0.0001078248172157,-0.0005316263869491,0.0012003476515792,-0.0129837703859654,0.0152367194760249,0.0057808595364448*a0148a65
#CORRIMUDATAA,FILE,0,27.0,FINESTEERING,2319,305903.250,02000000,e5fc,17139;2319,305903.250000000,-0.0000442221522573,-0.0004088066313623,0.0010044611491593,-0.0152229804032173,0.0161499394370657,0.0071322445167679*dafd6e4e
#CORRIMUDATAA,FILE,0,27.0,FINESTEERING,2319,305903.300,02000000,e5fc,17139;2319,305903.300000000,-0.0002066528005222,-0.0002615686433697,0.0009922748331040,-0.0120794252576582,0.0157530629731566,0.0010079868860503*d8694c3d
#CORRIMUDATAA,FILE,0,27.0,FINESTEERING,2319,305903.350,02000000,e5fc,17139;2319,305903.350000000,0.0000528275922663,-0.0003993362313162,0.0010700100438789,-0.0015831788696695,0.0157366126256288,0.0019573411622869*ac0aca6e
#CORRIMUDATAA,FILE,0,27.0,FINESTEERING,2319,305903.400,02000000,e5fc,17139;2319,305903.400000000,0.0000338800793071,-0.0006479554547079,0.0012961079036243,0.0001963514922535,0.0135085583057082,-0.0099796040604480*94daf78c
#CORRIMUDATAA,FILE,0,27.0,FINESTEERING,2319,305903.450,02000000,e5fc,17139;2319,305903.450000000,0.0002722462468130,-0.0007279059270200,0.0012177747266922,-0.0152414185628650,0.0169143109204549,-0.0020364998557911*3a349b92
#CORRIMUDATAA,FILE,0,27.0,FINESTEERING,2319,305903.500,02000000,e5fc,17139;2319,305903.500000000,0.0003398659351136,0.0000860423175991,0.0009826654574743,-0.0129717427802218,0.0153174419921886,0.0028505509848384*c7ba9c4a
#CORRIMUDATAA,FILE,0,27.0,FINESTEERING,2319,305903.550,02000000,e5fc,17139;2319,305903.550000000,0.0006030061121964,0.0000911849314002,0.0008152150416577,-0.0038666675407577,0.0129482264182783,-0.0041292712918367*7d79bbae
#CORRIMUDATAA,FILE,0,27.0,FINESTEERING,2319,305903.600,02000000,e5fc,17139;2319,305903.600000000,0.0003689246347924,-0.0001141792966188,0.0008504170085338,-0.0002997356587695,0.0128262167408769,0.0061892585005329*7c5d19df
#CORRIMUDATAA,FILE,0,27.0,FINESTEERING,2319,305903.650,02000000,e5fc,17139;2319,305903.650000000,0.0004604446254805,-0.0003058786998537,0.0008703505077869,-0.0043668891761587,0.0121501402978789,-0.0072053356369867*d998528f
#CORRIMUDATAA,FILE,0,27.0,FINESTEERING,2319,305903.700,02000000,e5fc,17139;2319,305903.700000000,0.0000543274109303,-0.0007242129427774,0.0008076336805628,-0.0152580046627071,0.0118819687687664,0.0144208729513407*094a5815
#CORRIMUDATAA,FILE,0,27.0,FINESTEERING,2319,305903.750,02000000,e5fc,17139;2319,305903.750000000,-0.0002898339937210,-0.0001716868162726,0.0006414991727855,-0.0130136891338951,0.0128938300906824,0.0093966014433137*034851a6
#CORRIMUDATAA,FILE,0,27.0,FINESTEERING,2319,305903.800,02000000,e5fc,17139;2319,305903.800000000,-0.0004937469438662,0.0002207945825034,0.0006398571710951,0.0007473559799098,0.0128021166100304,0.0016264202952998*64beca67
#CORRIMUDATAA,FILE,0,27.0,FINESTEERING,2319,305903.850,02000000,e5fc,17139;2319,305903.850000000,-0.0011254391932341,0.0000870480221773,0.0006305063921562,0.0041492421675044,0.0117339669727082,0.0125047952220893*d3ef368d
#CORRIMUDATAA,FILE,0,27.0,FINESTEERING,2319,305903.900,02000000,e5fc,17139;2319,305903.900000000,-0.0014805553426293,-0.0006979806620134,0.0005418631644392,-0.0060988289131991,0.0129230344503450,-0.0016538259595851*97ed86bc
#CORRIMUDATAA,FILE,0,27.0,FINESTEERING,2319,305903.950,02000000,e5fc,17139;2319,305903.950000000,-0.0016610232563114,-0.0004672460129782,0.0002235844059839,-0.0170685595229437,0.0140820331689986,0.0085119114604716*ee5f00a8
#CORRIMUDATAA,FILE,0,27.0,FINESTEERING,2319,305904.000,02000000,e5fc,17139;2319,305904.000000000,-0.0016399118140460,0.0000946766840219,-0.0001695925351904,-0.0103594748997153,0.0157004704169431,-0.0178374437376061*a2412750
#CORRIMUDATAA,FILE,0,27.0,FINESTEERING,2319,305904.050,02000000,e5fc,17139;2319,305904.050000000,-0.0013914247294386,0.0000773871413652,-0.0003030706507624,0.0087804688588407,0.0136033828587244,-0.0094948027698604*36b9ad76
#CORRIMUDATAA,FILE,0,23.0,FINESTEERING,2319,305904.100,02000000,e5fc,17139;2319,305904.100000000,-0.0013036246070961,-0.0003813012862972,-0.0002484419638770,0.0132644835912872,0.0155313386016286,-0.0206193329060551*bc6f588d
#CORRIMUDATAA,FILE,0,23.0,FINESTEERING,2319,305904.150,02000000,e5fc,17139;2319,305904.150000000,-0.0007677024870749,-0.0006963725860609,-0.0002630326774294,0.0028220141887388,0.0180496490824215,-0.0264956974518169*ced612cd
#CORRIMUDATAA,FILE,0,23.0,FINESTEERING,2319,305904.200,02000000,e5fc,17139;2319,305904.200000000,-0.0008614551760306,-0.0005155295955509,-0.0002834521326798,-0.0008171949557578,0.0156902716568590,-0.0167170902724266*89c57530
#CORRIMUDATAA,FILE,0,23.0,FINESTEERING,2319,305904.250,02000000,e5fc,17139;2319,305904.250000000,-0.0000954281509746,-0.0004020221821893,-0.0002831782469320,-0.0001336644223945,0.0160807088282349,-0.0101999754514490*438520ff
#CORRIMUDATAA,FILE,0,23.0,FINESTEERING,2319,305904.300,02000000,e5fc,17139;2319,305904.300000000,0.0001412073233112,-0.0000219831272586,-0.0001697420532549,0.0096744778325392,0.0167287588228796,-0.0117836986921365*58b95576
#CORRIMUDATAA,FILE,0,23.0,FINESTEERING,2319,305904.350,02000000,e5fc,17139;2319,305904.350000000,0.0004799592553987,-0.0002552486750195,-0.0000044864877376,0.0070839450057289,0.0154003635501737,-0.0061723635109923*2921a725
#CORRIMUDATAA,FILE,0,23.0,FINESTEERING,2319,305904.400,02000000,e5fc,17139;2319,305904.400000000,0.0004571960666093,-0.0001658108605553,-0.0001439870502655,-0.0038414550351479,0.0151043137433457,0.0121362358012474*6e9a44d6
#CORRIMUDATAA,FILE,0,23.0,FINESTEERING,2319,305904.450,02000000,e5fc,17139;2319,305904.450000000,0.0006115890085946,0.0002749034922230,-0.0002498810816416,-0.0010947131145968,0.0160931879525843,-0.0032167124414049*f1161d71
#CORRIMUDATAA,FILE,0,23.0,FINESTEERING,2319,305904.500,02000000,e5fc,17139;2319,305904.500000000,0.0009412209493564,0.0001450780727295,-0.0002882785920931,0.0027823594984983,0.0163965151871088,-0.0058338328583552*f2cf2d9b
#CORRIMUDATAA,FILE,0,23.0,FINESTEERING,2319,305904.550,02000000,e5fc,17139;2319,305904.550000000,0.0007935575541450,0.0001300558678689,-0.0002503608144397,0.0047471872558235,0.0146352115894419,0.0188320474494930*a3d43c4e
#CORRIMUDATAA,FILE,0,23.0,FINESTEERING,2319,305904.600,02000000,e5fc,17139;2319,305904.600000000,0.0006843462738709,-0.0007197675661562,-0.0002257963993836,-0.0000117762751018,0.0137230539119349,0.0061888529116570*849372e6
#CORRIMUDATAA,FILE,0,23.0,FINESTEERING,2319,305904.650,02000000,e5fc,17139;2319,305904.650000000,0.0005047769005031,-0.0004349249791785,-0.0003453669340925,-0.0060439080356629,0.0153555843075820,0.0111294165676115*1503ca76
#CORRIMUDATAA,FILE,0,23.0,FINESTEERING,2319,305904.700,02000000,e5fc,17139;2319,305904.700000000,0.0003391149989118,-0.0000364063318139,-0.0003314334285956,0.0021184786712051,0.0139696482448282,0.0014889556741442*69913fa5
#CORRIMUDATAA,FILE,0,23.0,FINESTEERING,2319,305904.750,02000000,e5fc,17139;2319,305904.750000000,0.0004936017048377,-0.0003398241189120,-0.0002519484669662,0.0092988053964450,0.0132129599125358,0.0085063568316734*f0b41cbe
#CORRIMUDATAA,FILE,0,23.0,FINESTEERING,2319,305904.800,02000000,e5fc,17139;2319,305904.800000000,0.0004477574412464,-0.0003625133955745,-0.0001124205135623,0.0055031149141854,0.0134226169473408,0.0030448291420819*f2f90bb5
#CORRIMUDATAA,FILE,0,23.0,FINESTEERING,2319,305904.850,02000000,e5fc,17139;2319,305904.850000000,0.0009000406623578,-0.0005055849500938,-0.0001928641957503,0.0009871674306039,0.0161525477510431,-0.0041658461546188*64027182
#CORRIMUDATAA,FILE,0,23.0,FINESTEERING,2319,305904.900,02000000,e5fc,17139;2319,305904.900000000,0.0007836296370966,0.0004634694217466,-0.0002159338689897,-0.0023316579902755,0.0127809248766676,0.0098972531208334*c04a4fff
#CORRIMUDATAA,FILE,0,23.0,FINESTEERING,2319,305904.950,02000000,e5fc,17139;2319,305904.950000000,0.0009691407784343,0.0001851963300079,-0.0002943155827093,0.0045512475095434,0.0132711275264506,0.0035814106875030*9ddec77e
#CORRIMUDATAA,FILE,0,23.0,FINESTEERING,2319,305905.000,02000000,e5fc,17139;2319,305905.000000000,0.0008198527405600,0.0002140175710269,-0.0001944669026138,0.0093387025669046,0.0118987374235782,-0.0026804959642958*c7313440
#CORRIMUDATAA,FILE,0,23.0,FINESTEERING,2319,305905.050,02000000,e5fc,17139;2319,305905.050000000,0.0006490515254596,0.0000211114224617,-0.0002167216815726,-0.0010666843430591,0.0118119378710446,0.0124611856036844*40142bf1
#CORRIMUDATAA,FILE,0,23.0,FINESTEERING,2319,305905.100,02000000,e5fc,17139;2319,305905.100000000,0.0005207486956739,0.0004657630832227,-0.0003669814938153,-0.0028296521947911,0.0106998953715632,0.0148192654286567*654c6bc7
#CORRIMUDATAA,FILE,0,29.0,FINESTEERING,2319,305905.150,02000000,e5fc,17139;2319,305905.150000000,0.0004213306224090,0.0005574530068103,-0.0004012731251054,0.0028975483913557,0.0122967121030927,0.0109321237069565*e492210e
#CORRIMUDATAA,FILE,0,29.0,FINESTEERING,2319,305905.200,02000000,e5fc,17139;2319,305905.200000000,0.0001969009663660,0.0006507715174113,-0.0003412879876895,0.0116272966124547,0.0091203567719686,0.0113331748534815*5f7dd5c0
#CORRIMUDATAA,FILE,0,29.0,FINESTEERING,2319,305905.250,02000000,e5fc,17139;2319,305905.250000000,0.0002622012350292,-0.0001233961236327,-0.0002231779451553,0.0080848802695858,0.0112760333007390,-0.0000706575406545*07bc7950
#CORRIMUDATAA,FILE,0,29.0,FINESTEERING,2319,305905.300,02000000,e5fc,17139;2319,305905.300000000,0.0001891762629141,-0.0002586817110877,-0.0003261163886868,-0.0044656323370833,0.0126475428872685,0.0020823444422390*32b61f10
#CORRIMUDATAA,FILE,0,29.0,FINESTEERING,2319,305905.350,02000000,e5fc,17139;2319,305905.350000000,0.0000890200559876,0.0002695431727947,-0.0004326507301862,-0.0000659212641210,0.0115977898910280,0.0001142917645478*d73b5e5c
#CORRIMUDATAA,FILE,0,29.0,FINESTEERING,2319,305905.400,02000000,e5fc,17139;2319,305905.400000000,0.0000564401261531,0.0003448003311991,-0.0004158973166258,0.0058394810313623,0.0103310936208743,-0.0002144014514216*e949774e
#CORRIMUDATAA,FILE,0,29.0,FINESTEERING,2319,305905.450,02000000,e5fc,17139;2319,305905.450000000,-0.0001470180576207,0.0002348081518988,-0.0003744515984780,0.0100982831838062,0.0111116522442691,-0.0002755406681801*b701c454
#CORRIMUDATAA,FILE,0,29.0,FINESTEERING,2319,305905.500,02000000,e5fc,17139;2319,305905.500000000,-0.0001662294486857,-0.0001710204864615,-0.0003426904449242,0.0031046634011833,0.0098599878053176,-0.0023527284075609*03c044bd
#CORRIMUDATAA,FILE,0,29.0,FINESTEERING,2319,305905.550,02000000,e5fc,17139;2319,305905.550000000,-0.0001965922248717,-0.0000606101753938,-0.0004662837170603,-0.0060470802013427,0.0122550547351811,0.0122835342902587*abd85a2b
#CORRIMUDATAA,FILE,0,29.0,FINESTEERING,2319,305905.600,02000000,e5fc,17139;2319,305905.600000000,-0.0003023899330177,0.0004263883752552,-0.0005464306353572,0.0026877931154832,0.0112697154475031,-0.0028718968675744*123b6600
#CORRIMUDATAA,FILE,0,29.0,FINESTEERING,2319,305905.650,02000000,e5fc,17139;2319,305905.650000000,-0.0002123942899122,-0.0001354545482610,-0.0004709719097448,0.0110186221996263,0.0111070639060080,-0.0023512281640830*85d2220b
#CORRIMUDATAA,FILE,0,29.0,FINESTEERING,2319,305905.700,02000000,e5fc,17139;2319,305905.700000000,-0.0004230331461228,-0.0006538048388343,-0.0003607141223454,0.0053772836343082,0.0113981779524356,-0.0074936496826994*259e1330
#CORRIMUDATAA,FILE,0,29.0,FINESTEERING,2319,305905.750,02000000,e5fc,17139;2319,305905.750000000,-0.0004963022815540,-0.0007425307032573,-0.0004368351852866,-0.0037154947727449,0.0130776756582652,0.0010476551811804*0a82e792
#CORRIMUDATAA,FILE,0,29.0,FINESTEERING,2319,305905.800,02000000,e5fc,17139;2319,305905.800000000,-0.0006978364026735,-0.0003787942364453,-0.0005287385149112,-0.0039607520188869,0.0118363823228825,-0.0019079414498350*819fbeff
#CORRIMUDATAA,FILE,0,29.0,FINESTEERING,2319,305905.850,02000000,e5fc,17139;2319,305905.850000000,-0.0007995397852087,0.0000374273932360,-0.0005228687594647,0.0068611162148886,0.0125887148563009,0.0001638217222581*c37c2a6b
#CORRIMUDATAA,FILE,0,29.0,FINESTEERING,2319,305905.900,02000000,e5fc,17139;2319,305905.900000000,-0.0005136898859585,-0.0004041963975441,-0.0004106502786150,0.0138584775107014,0.0125260187768291,-0.0104986956004014*a2989f46
#CORRIMUDATAA,FILE,0,29.0,FINESTEERING,2319,305905.950,02000000,e5fc,17139;2319,305905.950000000,-0.0003970905741155,-0.0006588053609149,-0.0004170851280559,-0.0010571644244638,0.0139980549772320,-0.0037081236059871*f7611228
#CORRIMUDATAA,FILE,0,29.0,FINESTEERING,2319,305906.000,02000000,e5fc,17139;2319,305906.000000000,-0.0001796197332212,-0.0000814936144101,-0.0005537926638880,-0.0022056095420008,0.0138479251918806,-0.0054771707005784*38706187
