#INSPVAXA,FILE,0,29.5,FINESTEERING,2319,305890.950,02000800,46eb,17139;INS_SOLUTION_GOOD,INS_RTKFIXED,17.59845312081,78.12080761446,523.3234,-76.2000,-1.0900,0.2870,-0.0150,-1.310292479,-1.094188692,164.361872962,0.0609,0.0610,0.0554,0.0209,0.0209,0.0137,0.0230,0.0232,0.4429,ab001241,0*44c7a803
#INSPVAXA,FILE,0,29.5,FINESTEERING,2319,305891.000,02000800,46eb,17139;INS_SOLUTION_GOOD,INS_RTKFIXED,17.59845260507,78.12080773729,523.3226,-76.2000,-1.1001,0.2874,-0.0092,-1.321805272,-1.093366788,164.890512995,0.0609,0.0610,0.0554,0.0209,0.0209,0.0137,0.0230,0.0232,0.4429,ab001241,0*bc94feb4
#INSPVAXA,FILE,0,29.5,FINESTEERING,2319,305891.050,02000800,46eb,17139;INS_SOLUTION_GOOD,INS_RTKFIXED,17.59845208245,78.12080785154,523.3219,-76.2000,-1.1127,0.2818,-0.0110,-1.327810391,-1.082222090,165.425552401,0.0613,0.0615,0.0553,0.0219,0.0220,0.0138,0.0232,0.0234,0.4429,ab001241,0*8695bb73
#INSPVAXA,FILE,0,29.0,FINESTEERING,2319,305891.100,02000800,46eb,17139;INS_SOLUTION_GOOD,INS_RTKFIXED,17.59845155047,78.12080795451,523.3212,-76.2000,-1.1275,0.2722,-0.0058,-1.322965695,-1.071421266,165.959684915,0.0613,0.0615,0.0553,0.0219,0.0220,0.0138,0.0232,0.0234,0.4429,ab001241,0*a3f8172a
#INSPVAXA,FILE,0,29.0,FINESTEERING,2319,305891.200,02000800,46eb,17139;INS_SOLUTION_GOOD,INS_RTKFIXED,17.59845046637,78.12080814222,523.3197,-76.2000,-1.1575,0.2439,-0.0119,-1.337559297,-1.051218014,167.005186521,0.0613,0.0615,0.0553,0.0219,0.0220,0.0138,0.0232,0.0234,0.4429,ab001241,0*cfa3f814
#INSPVAXA,FILE,0,29.0,FINESTEERING,2319,305891.300,02000800,46eb,17139;INS_SOLUTION_GOOD,INS_RTKFIXED,17.59844935921,78.12080831486,523.3175,-76.2000,-1.1812,0.2370,-0.0182,-1.338367416,-1.012931099,168.048866482,0.0613,0.0615,0.0553,0.0219,0.0220,0.0138,0.0232,0.0234,0.4429,ab001241,0*f3f20ce0
#INSPVAXA,FILE,0,29.0,FINESTEERING,2319,305891.450,02000800,46eb,17139;INS_SOLUTION_GOOD,INS_RTKFIXED,17.59844765712,78.12080854929,523.3148,-76.2000,-1.2228,0.2050,-0.0143,-1.344322841,-0.961011367,169.614107355,0.0613,0.0615,0.0553,0.0219,0.0220,0.0138,0.0232,0.0234,0.4429,ab001241,0*b82d1616
#INSPVAXA,FILE,0,29.0,FINESTEERING,2319,305891.650,02000800,46eb,17139;INS_SOLUTION_GOOD,INS_RTKFIXED,17.59844531233,78.12080880058,523.3120,-76.2000,-1.2671,0.1686,-0.0083,-1.340779542,-0.900300071,171.679397900,0.0613,0.0615,0.0553,0.0219,0.0220,0.0138,0.0232,0.0234,0.4429,ab001241,0*553fbabf
#INSPVAXA,FILE,0,29.0,FINESTEERING,2319,305891.700,02000800,46eb,17139;INS_SOLUTION_GOOD,INS_RTKFIXED,17.59844471290,78.12080885242,523.3112,-76.2000,-1.2828,0.1563,-0.0131,-1.355888202,-0.891818124,172.195584971,0.0613,0.0615,0.0553,0.0219,0.0220,0.0138,0.0232,0.0234,0.4429,ab001241,0*f2df2f90
#INSPVAXA,FILE,0,29.0,FINESTEERING,2319,305891.850,02000800,46eb,17139;INS_SOLUTION_GOOD,INS_RTKFIXED,17.59844288306,78.12080898212,523.3081,-76.2000,-1.3165,0.1264,-0.0160,-1.378413153,-0.846087535,173.745790938,0.0613,0.0615,0.0553,0.0219,0.0220,0.0138,0.0232,0.0234,0.4429,ab001241,0*98c108dc
#INSPVAXA,FILE,0,29.0,FINESTEERING,2319,305891.950,02000800,46eb,17139;INS_SOLUTION_GOOD,INS_RTKFIXED,17.59844163714,78.12080904786,523.3064,-76.2000,-1.3403,0.1081,-0.0096,-1.398061232,-0.825889952,174.771023639,0.0613,0.0615,0.0553,0.0219,0.0220,0.0138,0.0232,0.0234,0.4429,ab001241,0*9f13041e
#INSPVAXA,FILE,0,29.0,FINESTEERING,2319,305892.050,02000800,46eb,17139;INS_SOLUTION_GOOD,INS_RTKFIXED,17.59844037621,78.12080908625,523.3052,-76.2000,-1.3602,0.0770,-0.0087,-1.401043687,-0.803677062,175.749377160,0.0616,0.0618,0.0553,0.0230,0.0231,0.0140,0.0234,0.0236,0.4431,ab001241,0*22ddacdb
#INSPVAXA,FILE,0,29.0,FINESTEERING,2319,305892.150,02000800,46eb,17139;INS_SOLUTION_GOOD,INS_RTKFIXED,17.59843910610,78.12080907984,523.3045,-76.2000,-1.3810,0.0569,-0.0112,-1.445260343,-0.787651948,176.695647868,0.0616,0.0618,0.0553,0.0230,0.0231,0.0140,0.0234,0.0236,0.4431,ab001241,0*a417e1db
#INSPVAXA,FILE,0,30.0,FINESTEERING,2319,305892.200,02000800,46eb,17139;INS_SOLUTION_GOOD,INS_RTKFIXED,17.59843846409,78.12080907043,523.3040,-76.2000,-1.3922,0.0476,-0.0097,-1.452129523,-0.784848877,177.163463842,0.0616,0.0618,0.0553,0.0230,0.0231,0.0140,0.0234,0.0236,0.4431,ab001241,0*952d719c
#INSPVAXA,FILE,0,30.0,FINESTEERING,2319,305892.250,02000800,46eb,17139;INS_SOLUTION_GOOD,INS_RTKFIXED,17.59843781759,78.12080905576,523.3034,-76.2000,-1.4022,0.0335,-0.0125,-1.453247211,-0.778762375,177.625488348,0.0616,0.0618,0.0553,0.0230,0.0231,0.0140,0.0234,0.0236,0.4431,ab001241,0*a42a2734
#INSPVAXA,FILE,0,30.0,FINESTEERING,2319,305892.400,02000800,46eb,17139;INS_SOLUTION_GOOD,INS_RTKFIXED,17.59843585328,78.12080897669,523.3021,-76.2000,-1.4285,-0.0052,-0.0061,-1.433669978,-0.747438928,178.942508544,0.0616,0.0618,0.0553,0.0230,0.0231,0.0140,0.0234,0.0236,0.4431,ab001241,0*d0eec61a
#INSPVAXA,FILE,0,30.0,FINESTEERING,2319,305892.550,02000800,46eb,17139;INS_SOLUTION_GOOD,INS_RTKFIXED,17.59843385731,78.12080885022,523.3013,-76.2000,-1.4515,-0.0363,-0.0026,-1.395027098,-0.720795415,180.154620352,0.0616,0.0618,0.0553,0.0230,0.0231,0.0140,0.0234,0.0236,0.4431,ab001241,0*8dcf5f30
#INSPVAXA,FILE,0,30.0,FINESTEERING,2319,305892.600,02000800,46eb,17139;INS_SOLUTION_GOOD,INS_RTKFIXED,17.59843318439,78.12080879749,523.3008,-76.2000,-1.4616,-0.0535,-0.0111,-1.376685964,-0.696831659,180.530490273,0.0616,0.0618,0.0553,0.0230,0.0231,0.0140,0.0234,0.0236,0.4431,ab001241,0*7ee2d78c
#INSPVAXA,FILE,0,30.0,FINESTEERING,2319,305892.650,02000800,46eb,17139;INS_SOLUTION_GOOD,INS_RTKFIXED,17.59843250744,78.12080873875,523.3004,-76.2000,-1.4707,-0.0668,-0.0121,-1.350549691,-0.684588963,180.886309588,0.0616,0.0618,0.0553,0.0230,0.0231,0.0140,0.0234,0.0236,0.4431,ab001241,0*8674c63c
#INSPVAXA,FILE,0,30.0,FINESTEERING,2319,305892.700,02000800,46eb,17139;INS_SOLUTION_GOOD,INS_RTKFIXED,17.59843182630,78.12080867377,523.2996,-76.2000,-1.4799,-0.0787,-0.0147,-1.320288488,-0.669403236,181.220406209,0.0616,0.0618,0.0553,0.0230,0.0231,0.0140,0.0234,0.0236,0.4431,ab001241,0*541cacb0
#INSPVAXA,FILE,0,30.0,FINESTEERING,2319,305892.800,02000800,46eb,17139;INS_SOLUTION_GOOD,INS_RTKFIXED,17.59843045126,78.12080852989,523.2983,-76.2000,-1.5006,-0.0972,-0.0128,-1.277694884,-0.627014381,181.839797418,0.0616,0.0618,0.0553,0.0230,0.0231,0.0140,0.0234,0.0236,0.4431,ab001241,0*7f0a9512
#INSPVAXA,FILE,0,30.0,FINESTEERING,2319,305892.850,02000800,46eb,17139;INS_SOLUTION_GOOD,INS_RTKFIXED,17.59842975540,78.12080845180,523.2976,-76.2000,-1.5158,-0.1070,-0.0146,-1.269690836,-0.603875153,182.130830417,0.0616,0.0618,0.0553,0.0230,0.0231,0.0140,0.0234,0.0236,0.4431,ab001241,0*1b3f2246
#INSPVAXA,FILE,0,30.0,FINESTEERING,2319,305893.050,02000800,46eb,17139;INS_SOLUTION_GOOD,INS_RTKFIXED,17.59842690918,78.12080810218,523.2955,-76.2000,-1.5849,-0.1509,-0.0068,-1.262262988,-0.542731380,183.173848400,0.0611,0.0614,0.0553,0.0239,0.0239,0.0141,0.0235,0.0236,0.4432,ab000241,0*68fe114e
#INSPVAXA,FILE,0,28.5,FINESTEERING,2319,305893.150,02000800,46eb,17139;INS_SOLUTION_GOOD,INS_RTKFIXED,17.59842545232,78.12080789518,523.2944,-76.2000,-1.6377,-0.1647,-0.0106,-1.273947830,-0.490399826,183.599317222,0.0611,0.0614,0.0553,0.0239,0.0239,0.0141,0.0235,0.0236,0.4432,ab000241,0*df327422
#INSPVAXA,FILE,0,28.5,FINESTEERING,2319,305893.300,02000800,46eb,17139;INS_SOLUTION_GOOD,INS_RTKFIXED,17.59842316182,78.12080756667,523.2927,-76.2000,-1.7402,-0.1878,-0.0135,-1.294905066,-0.420509595,184.246831989,0.0611,0.0614,0.0553,0.0239,0.0239,0.0141,0.0235,0.0236,0.4432,ab000241,0*a8b4a53b
#INSPVAXA,FILE,0,28.5,FINESTEERING,2319,305893.450,02000800,46eb,17139;INS_SOLUTION_GOOD,INS_RTKFIXED,17.59842072703,78.12080719154,523.2917,-76.2000,-1.8487,-0.2266,-0.0009,-1.291122396,-0.378851134,184.816835213,0.0611,0.0614,0.0553,0.0239,0.0239,0.0141,0.0235,0.0236,0.4432,ab000241,0*62d7f5d6
#INSPVAXA,FILE,0,28.5,FINESTEERING,2319,305893.500,02000800,46eb,17139;INS_SOLUTION_GOOD,INS_RTKFIXED,17.59841988090,78.12080705524,523.2916,-76.2000,-1.8898,-0.2375,-0.0017,-1.290312360,-0.374752420,184.994795195,0.0611,0.0614,0.0553,0.0239,0.0239,0.0141,0.0235,0.0236,0.4432,ab000241,0*d25fcd82
#INSPVAXA,FILE,0,28.5,FINESTEERING,2319,305893.600,02000800,46eb,17139;INS_SOLUTION_GOOD,INS_RTKFIXED,17.59841813221,78.12080676785,523.2910,-76.2000,-1.9745,-0.2579,-0.0089,-1.314000894,-0.345222252,185.341802375,0.0611,0.0614,0.0553,0.0239,0.0239,0.0141,0.0235,0.0236,0.4432,ab000241,0*53421f9d
#INSPVAXA,FILE,0,28.5,FINESTEERING,2319,305893.700,02000800,46eb,17139;INS_SOLUTION_GOOD,INS_RTKFIXED,17.59841630701,78.12080646362,523.2908,-76.2000,-2.0600,-0.2806,-0.0013,-1.278057573,-0.322727114,185.652417880,0.0611,0.0614,0.0553,0.0239,0.0239,0.0141,0.0235,0.0236,0.4432,ab000241,0*989d04b4
#INSPVAXA,FILE,0,28.5,FINESTEERING,2319,305893.750,02000800,46eb,17139;INS_SOLUTION_GOOD,INS_RTKFIXED,17.59841536313,78.12080630029,523.2906,-76.2000,-2.1092,-0.3056,-0.0147,-1.270490201,-0.312065937,185.790156947,0.0611,0.0614,0.0553,0.0239,0.0239,0.0141,0.0235,0.0236,0.4432,ab000241,0*2a689e3f
#INSPVAXA,FILE,0,28.5,FINESTEERING,2319,305893.800,02000800,46eb,17139;INS_SOLUTION_GOOD,INS_RTKFIXED,17.59841439703,78.12080612655,523.2897,-76.2000,-2.1595,-0.3261,-0.0231,-1.283668398,-0.280654448,185.912023506,0.0611,0.0614,0.0553,0.0239,0.0239,0.0141,0.0235,0.0236,0.4432,ab000241,0*95a42d02
#INSPVAXA,FILE,0,28.5,FINESTEERING,2319,305893.900,02000800,46eb,17139;INS_SOLUTION_GOOD,INS_RTKFIXED,17.59841239615,78.12080576469,523.2877,-76.2000,-2.2634,-0.3376,-0.0185,-1.279204019,-0.191097236,186.132789274,0.0611,0.0614,0.0553,0.0239,0.0239,0.0141,0.0235,0.0236,0.4432,ab000241,0*a01eb3eb
#INSPVAXA,FILE,0,28.5,FINESTEERING,2319,305894.000,02000800,46eb,17139;INS_SOLUTION_GOOD,INS_RTKFIXED,17.59841029527,78.12080538710,523.2858,-76.2000,-2.3793,-0.3618,-0.0205,-1.262096649,-0.134816370,186.337115007,0.0611,0.0614,0.0553,0.0239,0.0239,0.0141,0.0235,0.0236,0.4432,ab000241,0*28ef7ee9
#INSPVAXA,FILE,0,28.5,FINESTEERING,2319,305894.100,02000800,46eb,17139;INS_SOLUTION_GOOD,INS_RTKFIXED,17.59840811815,78.12080500179,523.2848,-76.2000,-2.5045,-0.3987,-0.0081,-1.273536090,-0.091365409,186.487463455,0.0604,0.0607,0.0554,0.0243,0.0244,0.0143,0.0235,0.0236,0.4433,ab000241,0*8e0933d5
#INSPVAXA,FILE,0,30.0,FINESTEERING,2319,305894.250,02000800,46eb,17139;INS_SOLUTION_GOOD,INS_RTKFIXED,17.59840465395,78.12080438915,523.2855,-76.2000,-2.6864,-0.4246,0.0065,-1.280071950,-0.110292590,186.657943214,0.0604,0.0607,0.0554,0.0243,0.0244,0.0143,0.0235,0.0236,0.4433,ab000241,0*4ed88e5b
#INSPVAXA,FILE,0,30.0,FINESTEERING,2319,305894.300,02000800,46eb,17139;INS_SOLUTION_GOOD,INS_RTKFIXED,17.59840344723,78.12080417744,523.2860,-76.2000,-2.7392,-0.4351,0.0009,-1.278299921,-0.118435742,186.713747195,0.0604,0.0607,0.0554,0.0243,0.0244,0.0143,0.0235,0.0236,0.4433,ab000241,0*daa3bc03
#INSPVAXA,FILE,0,30.0,FINESTEERING,2319,305894.450,02000800,46eb,17139;INS_SOLUTION_GOOD,INS_RTKFIXED,17.59839968475,78.12080350270,523.2877,-76.2000,-2.8878,-0.4813,0.0046,-1.212146660,-0.140012346,186.822242339,0.0604,0.0607,0.0554,0.0243,0.0244,0.0143,0.0235,0.0236,0.4433,ab000241,0*ac75103d
#INSPVAXA,FILE,0,30.0,FINESTEERING,2319,305894.500,02000800,46eb,17139;INS_SOLUTION_GOOD,INS_RTKFIXED,17.59839838630,78.12080326479,523.2880,-76.2000,-2.9363,-0.4884,0.0011,-1.192924747,-0.138489937,186.837180928,0.0604,0.0607,0.0554,0.0243,0.0244,0.0143,0.0235,0.0236,0.4433,ab000241,0*999ac7f9
#INSPVAXA,FILE,0,30.0,FINESTEERING,2319,305894.550,02000800,46eb,17139;INS_SOLUTION_GOOD,INS_RTKFIXED,17.59839706505,78.12080302371,523.2882,-76.2000,-2.9896,-0.4948,-0.0052,-1.163321833,-0.118393270,186.849150804,0.0604,0.0607,0.0554,0.0243,0.0244,0.0143,0.0235,0.0236,0.4433,ab000241,0*c8ad0ed5
#INSPVAXA,FILE,0,30.0,FINESTEERING,2319,305894.600,02000800,46eb,17139;INS_SOLUTION_GOOD,INS_RTKFIXED,17.59839572225,78.12080277949,523.2882,-76.2000,-3.0340,-0.5019,-0.0030,-1.116945564,-0.112880508,186.864210886,0.0604,0.0607,0.0554,0.0243,0.0244,0.0143,0.0235,0.0236,0.4433,ab000241,0*85ea2fad
#INSPVAXA,FILE,0,30.0,FINESTEERING,2319,305894.650,02000800,46eb,17139;INS_SOLUTION_GOOD,INS_RTKFIXED,17.59839435640,78.12080253095,523.2881,-76.2000,-3.0865,-0.5107,-0.0109,-1.116096391,-0.100525684,186.882207758,0.0604,0.0607,0.0554,0.0243,0.0244,0.0143,0.0235,0.0236,0.4433,ab000241,0*6acd3c48
#INSPVAXA,FILE,0,30.0,FINESTEERING,2319,305894.700,02000800,46eb,17139;INS_SOLUTION_GOOD,INS_RTKFIXED,17.59839297029,78.12080228029,523.2884,-76.2000,-3.1283,-0.5132,0.0093,-1.096065634,-0.106736763,186.904293760,0.0604,0.0607,0.0554,0.0243,0.0244,0.0143,0.0235,0.0236,0.4433,ab000241,0*72ed826c
#INSPVAXA,FILE,0,30.0,FINESTEERING,2319,305894.750,02000800,46eb,17139;INS_SOLUTION_GOOD,INS_RTKFIXED,17.59839156152,78.12080202614,523.2886,-76.2000,-3.1782,-0.5227,0.0008,-1.081313317,-0.117926564,186.922758418,0.0604,0.0607,0.0554,0.0243,0.0244,0.0143,0.0235,0.0236,0.4433,ab000241,0*d40c0acd
#INSPVAXA,FILE,0,30.0,FINESTEERING,2319,305894.800,02000800,46eb,17139;INS_SOLUTION_GOOD,INS_RTKFIXED,17.59839013302,78.12080176845,523.2891,-76.2000,-3.2205,-0.5314,0.0089,-1.074417354,-0.109521375,186.939651911,0.0604,0.0607,0.0554,0.0243,0.0244,0.0143,0.0235,0.0236,0.4433,ab000241,0*2dcae12d
#INSPVAXA,FILE,0,30.0,FINESTEERING,2319,305894.850,02000800,46eb,17139;INS_SOLUTION_GOOD,INS_RTKFIXED,17.59838868218,78.12080150484,523.2892,-76.2000,-3.2691,-0.5452,-0.0051,-1.066779598,-0.123354201,186.950843231,0.0604,0.0607,0.0554,0.0243,0.0244,0.0143,0.0235,0.0236,0.4433,ab000241,0*042e12e4
#INSPVAXA,FILE,0,30.0,FINESTEERING,2319,305894.900,02000800,46eb,17139;INS_SOLUTION_GOOD,INS_RTKFIXED,17.59838721271,78.12080123849,523.2895,-76.2000,-3.3108,-0.5472,-0.0001,-1.096260764,-0.098385125,186.963851365,0.0604,0.0607,0.0554,0.0243,0.0244,0.0143,0.0235,0.0236,0.4433,ab000241,0*7f19d7e3
#INSPVAXA,FILE,0,30.0,FINESTEERING,2319,305894.950,02000800,46eb,17139;INS_SOLUTION_GOOD,INS_RTKFIXED,17.59838572221,78.12080097144,523.2896,-76.2000,-3.3542,-0.5467,0.0028,-1.075732600,-0.111159753,186.982257035,0.0604,0.0607,0.0554,0.0243,0.0244,0.0143,0.0235,0.0236,0.4433,ab000241,0*fb3de431
#INSPVAXA,FILE,0,30.0,FINESTEERING,2319,305895.000,02000000,46eb,17139;INS_SOLUTION_GOOD,INS_RTKFIXED,17.59838421291,78.12080070240,523.2899,-76.2000,-3.3979,-0.5542,-0.0033,-1.085953992,-0.079307607,187.007343744,0.0604,0.0607,0.0554,0.0243,0.0244,0.0143,0.0235,0.0236,0.4433,ab000241,0*f272ea1d
#INSPVAXA,FILE,0,30.0,FINESTEERING,2319,305895.050,02000000,46eb,17139;INS_SOLUTION_GOOD,INS_RTKFIXED,17.59838269241,78.12080043367,523.2897,-76.2000,-3.4347,-0.5675,-0.0052,-1.069620391,-0.098605294,187.030119859,0.0604,0.0608,0.0555,0.0239,0.0243,0.0142,0.0234,0.0235,0.4435,ab001241,0*52c0a565
#INSPVAXA,FILE,0,29.5,FINESTEERING,2319,305895.100,02000000,46eb,17139;INS_SOLUTION_GOOD,INS_RTKFIXED,17.59838116526,78.12080016919,523.2897,-76.2000,-3.4734,-0.5751,-0.0070,-1.085483066,-0.067899162,187.049435253,0.0604,0.0608,0.0555,0.0239,0.0243,0.0142,0.0234,0.0235,0.4435,ab001241,0*efdaf19a
#INSPVAXA,FILE,0,29.5,FINESTEERING,2319,305895.150,02000000,46eb,17139;INS_SOLUTION_GOOD,INS_RTKFIXED,17.59837961939,78.12079989944,523.2897,-76.2000,-3.5143,-0.5890,-0.0002,-1.053763887,-0.057301469,187.063007813,0.0604,0.0608,0.0555,0.0239,0.0243,0.0142,0.0234,0.0235,0.4435,ab001241,0*25401ede
#INSPVAXA,FILE,0,29.5,FINESTEERING,2319,305895.200,02000000,46eb,17139;INS_SOLUTION_GOOD,INS_RTKFIXED,17.59837805679,78.12079962357,523.2901,-76.2000,-3.5491,-0.6022,0.0042,-1.023955802,-0.050580378,187.072561429,0.0604,0.0608,0.0555,0.0239,0.0243,0.0142,0.0234,0.0235,0.4435,ab001241,0*497c60d6
#INSPVAXA,FILE,0,29.5,FINESTEERING,2319,305895.250,02000000,46eb,17139;INS_SOLUTION_GOOD,INS_RTKFIXED,17.59837647604,78.12079934158,523.2906,-76.2000,-3.5878,-0.6160,0.0061,-0.994283993,-0.046393911,187.078779965,0.0604,0.0608,0.0555,0.0239,0.0243,0.0142,0.0234,0.0235,0.4435,ab001241,0*1e5d285c
#INSPVAXA,FILE,0,29.5,FINESTEERING,2319,305895.300,02000000,46eb,17139;INS_SOLUTION_GOOD,INS_RTKFIXED,17.59837487943,78.12079905709,523.2916,-76.2000,-3.6230,-0.6159,0.0156,-1.006813919,-0.056314138,187.087339740,0.0604,0.0608,0.0555,0.0239,0.0243,0.0142,0.0234,0.0235,0.4435,ab001241,0*27a25fa6
#INSPVAXA,FILE,0,29.5,FINESTEERING,2319,305895.350,02000000,46eb,17139;INS_SOLUTION_GOOD,INS_RTKFIXED,17.59837326467,78.12079877422,523.2925,-76.2000,-3.6628,-0.6068,0.0149,-1.007125551,-0.090406996,187.100587763,0.0604,0.0608,0.0555,0.0239,0.0243,0.0142,0.0234,0.0235,0.4435,ab001241,0*3ebd9907
#INSPVAXA,FILE,0,29.5,FINESTEERING,2319,305895.400,02000000,46eb,17139;INS_SOLUTION_GOOD,INS_RTKFIXED,17.59837163269,78.12079849092,523.2934,-76.2000,-3.6991,-0.6131,0.0062,-0.991296077,-0.096029877,187.120352745,0.0604,0.0608,0.0555,0.0239,0.0243,0.0142,0.0234,0.0235,0.4435,ab001241,0*1d28c0a5
#INSPVAXA,FILE,0,29.5,FINESTEERING,2319,305895.450,02000000,46eb,17139;INS_SOLUTION_GOOD,INS_RTKFIXED,17.59836998310,78.12079820372,523.2938,-76.2000,-3.7380,-0.6221,0.0015,-0.981521037,-0.094275186,187.140252917,0.0604,0.0608,0.0555,0.0239,0.0243,0.0142,0.0234,0.0235,0.4435,ab001241,0*fb9fb5e6
#INSPVAXA,FILE,0,29.5,FINESTEERING,2319,305895.500,02000000,46eb,17139;INS_SOLUTION_GOOD,INS_RTKFIXED,17.59836831771,78.12079791289,523.2941,-76.2000,-3.7704,-0.6299,0.0025,-0.990585985,-0.084701031,187.162885236,0.0604,0.0608,0.0555,0.0239,0.0243,0.0142,0.0234,0.0235,0.4435,ab001241,0*844d81b6
#INSPVAXA,FILE,0,29.5,FINESTEERING,2319,305895.550,02000000,46eb,17139;INS_SOLUTION_GOOD,INS_RTKFIXED,17.59836663451,78.12079761813,523.2945,-76.2000,-3.8088,-0.6360,0.0000,-1.016030036,-0.082421381,187.183907885,0.0604,0.0608,0.0555,0.0239,0.0243,0.0142,0.0234,0.0235,0.4435,ab001241,0*693d8542
#INSPVAXA,FILE,0,29.5,FINESTEERING,2319,305895.600,02000000,46eb,17139;INS_SOLUTION_GOOD,INS_RTKFIXED,17.59836493535,78.12079732133,523.2951,-76.2000,-3.8446,-0.6404,0.0111,-1.013350963,-0.072371839,187.203154398,0.0604,0.0608,0.0555,0.0239,0.0243,0.0142,0.0234,0.0235,0.4435,ab001241,0*21998b4c
#INSPVAXA,FILE,0,29.5,FINESTEERING,2319,305895.650,02000000,46eb,17139;INS_SOLUTION_GOOD,INS_RTKFIXED,17.59836321879,78.12079701971,523.2957,-76.2000,-3.8825,-0.6532,0.0043,-1.021329883,-0.063734866,187.216677257,0.0604,0.0608,0.0555,0.0239,0.0243,0.0142,0.0234,0.0235,0.4435,ab001241,0*4be7c19d
#INSPVAXA,FILE,0,29.5,FINESTEERING,2319,305895.700,02000000,46eb,17139;INS_SOLUTION_GOOD,INS_RTKFIXED,17.59836148584,78.12079671293,523.2964,-76.2000,-3.9178,-0.6617,0.0115,-1.029555104,-0.054632640,187.223710131,0.0604,0.0608,0.0555,0.0239,0.0243,0.0142,0.0234,0.0235,0.4435,ab001241,0*3f5696f8
#INSPVAXA,FILE,0,29.5,FINESTEERING,2319,305895.750,02000000,46eb,17139;INS_SOLUTION_GOOD,INS_RTKFIXED,17.59835973512,78.12079640300,523.2969,-76.2000,-3.9555,-0.6675,0.0055,-1.053870325,-0.053962845,187.233825266,0.0604,0.0608,0.0555,0.0239,0.0243,0.0142,0.0234,0.0235,0.4435,ab001241,0*2f28e350
#INSPVAXA,FILE,0,29.5,FINESTEERING,2319,305895.800,02000000,46eb,17139;INS_SOLUTION_GOOD,INS_RTKFIXED,17.59835796631,78.12079609103,523.2976,-76.2000,-3.9980,-0.6711,0.0109,-1.074588198,-0.037032812,187.242262545,0.0604,0.0608,0.0555,0.0239,0.0243,0.0142,0.0234,0.0235,0.4435,ab001241,0*78904675
#INSPVAXA,FILE,0,29.5,FINESTEERING,2319,305895.850,02000000,46eb,17139;INS_SOLUTION_GOOD,INS_RTKFIXED,17.59835617955,78.12079577633,523.2982,-76.2000,-4.0342,-0.6770,0.0101,-1.033735817,-0.050890823,187.249468030,0.0604,0.0608,0.0555,0.0239,0.0243,0.0142,0.0234,0.0235,0.4435,ab001241,0*45ea3bbe
#INSPVAXA,FILE,0,29.5,FINESTEERING,2319,305895.900,02000000,46eb,17139;INS_SOLUTION_GOOD,INS_RTKFIXED,17.59835437614,78.12079545716,523.2992,-76.2000,-4.0707,-0.6887,0.0149,-0.967675860,-0.039532059,187.237067831,0.0604,0.0608,0.0555,0.0239,0.0243,0.0142,0.0234,0.0235,0.4435,ab001241,0*b339c93b
#INSPVAXA,FILE,0,29.5,FINESTEERING,2319,305895.950,02000000,46eb,17139;INS_SOLUTION_GOOD,INS_RTKFIXED,17.59835255396,78.12079513184,523.2996,-76.2000,-4.1111,-0.7025,-0.0013,-0.866577905,-0.009267160,187.195640788,0.0604,0.0608,0.0555,0.0239,0.0243,0.0142,0.0234,0.0235,0.4435,ab001241,0*693527df
#INSPVAXA,FILE,0,29.5,FINESTEERING,2319,305896.000,02000000,46eb,17139;INS_SOLUTION_GOOD,INS_RTKFIXED,17.59835071572,78.12079480093,523.2999,-76.2000,-4.1461,-0.7147,0.0072,-0.768733722,0.036130024,187.112051736,0.0604,0.0608,0.0555,0.0239,0.0243,0.0142,0.0234,0.0235,0.4435,ab001241,0*0ec2f57d
#INSPVAXA,FILE,0,29.5,FINESTEERING,2319,305896.050,02000000,46eb,17139;INS_SOLUTION_GOOD,INS_RTKFIXED,17.59834886691,78.12079446939,523.3002,-76.2000,-4.1804,-0.7244,0.0029,-0.706019296,0.045577675,186.986602192,0.0609,0.0614,0.0556,0.0232,0.0237,0.0140,0.0233,0.0233,0.4436,ab001241,0*e4b842c8
#INSPVAXA,FILE,0,19.5,FINESTEERING,2319,305896.100,02000000,46eb,17139;INS_SOLUTION_GOOD,INS_RTKFIXED,17.59834701100,78.12079414419,523.3005,-76.2000,-4.2161,-0.7167,0.0101,-0.684927671,0.046781117,186.830284171,0.0609,0.0614,0.0556,0.0232,0.0237,0.0140,0.0233,0.0233,0.4436,ab001241,0*d08c5a38
#INSPVAXA,FILE,0,19.5,FINESTEERING,2319,305896.150,02000000,46eb,17139;INS_SOLUTION_GOOD,INS_RTKFIXED,17.59834513811,78.12079382476,523.3012,-76.2000,-4.2521,-0.6984,0.0188,-0.697262087,0.021249837,186.671893436,0.0609,0.0614,0.0556,0.0232,0.0237,0.0140,0.0233,0.0233,0.4436,ab001241,0*c7b683be
#INSPVAXA,FILE,0,19.5,FINESTEERING,2319,305896.200,02000000,46eb,17139;INS_SOLUTION_GOOD,INS_RTKFIXED,17.59834324757,78.12079351340,523.3017,-76.2000,-4.2921,-0.6802,0.0107,-0.720114423,-0.006908634,186.513783731,0.0609,0.0614,0.0556,0.0232,0.0237,0.0140,0.0233,0.0233,0.4436,ab001241,0*ffb35718
#INSPVAXA,FILE,0,19.5,FINESTEERING,2319,305896.250,02000000,46eb,17139;INS_SOLUTION_GOOD,INS_RTKFIXED,17.59834133927,78.12079320931,523.3023,-76.2000,-4.3308,-0.6680,0.0123,-0.761361207,-0.033813451,186.363351175,0.0609,0.0614,0.0556,0.0232,0.0237,0.0140,0.0233,0.0233,0.4436,ab001241,0*d9ae8f61
#INSPVAXA,FILE,0,19.5,FINESTEERING,2319,305896.300,02000000,46eb,17139;INS_SOLUTION_GOOD,INS_RTKFIXED,17.59833941354,78.12079290999,523.3029,-76.2000,-4.3679,-0.6599,0.0132,-0.795627725,-0.063079748,186.210201952,0.0609,0.0614,0.0556,0.0232,0.0237,0.0140,0.0233,0.0233,0.4436,ab001241,0*2b8182d0
#INSPVAXA,FILE,0,19.5,FINESTEERING,2319,305896.350,02000000,46eb,17139;INS_SOLUTION_GOOD,INS_RTKFIXED,17.59833747091,78.12079261384,523.3035,-76.2000,-4.4033,-0.6540,0.0070,-0.847552108,-0.072853092,186.050705324,0.0609,0.0614,0.0556,0.0232,0.0237,0.0140,0.0233,0.0233,0.4436,ab001241,0*843a7c72
#INSPVAXA,FILE,0,19.5,FINESTEERING,2319,305896.400,02000000,46eb,17139;INS_SOLUTION_GOOD,INS_RTKFIXED,17.59833551258,78.12079231986,523.3039,-76.2000,-4.4361,-0.6472,0.0098,-0.878707718,-0.086944545,185.876561368,0.0609,0.0614,0.0556,0.0232,0.0237,0.0140,0.0233,0.0233,0.4436,ab001241,0*216c8c8c
#INSPVAXA,FILE,0,19.5,FINESTEERING,2319,305896.450,02000000,46eb,17139;INS_SOLUTION_GOOD,INS_RTKFIXED,17.59833353842,78.12079202794,523.3044,-76.2000,-4.4686,-0.6461,0.0093,-0.875111291,-0.075682147,185.685675980,0.0609,0.0614,0.0556,0.0232,0.0237,0.0140,0.0233,0.0233,0.4436,ab001241,0*63293698
#INSPVAXA,FILE,0,19.5,FINESTEERING,2319,305896.500,02000000,46eb,17139;INS_SOLUTION_GOOD,INS_RTKFIXED,17.59833155038,78.12079173553,523.3057,-76.2000,-4.4976,-0.6492,0.0400,-0.827026083,-0.077252127,185.468962189,0.0609,0.0614,0.0556,0.0232,0.0237,0.0140,0.0233,0.0233,0.4436,ab001241,0*a20a44e0
#INSPVAXA,FILE,0,19.5,FINESTEERING,2319,305896.550,02000000,46eb,17139;INS_SOLUTION_GOOD,INS_RTKFIXED,17.59832954686,78.12079144142,523.3070,-76.2000,-4.5333,-0.6511,0.0209,-0.826522152,-0.082536937,185.235832242,0.0609,0.0614,0.0556,0.0232,0.0237,0.0140,0.0233,0.0233,0.4436,ab001241,0*1e47a9f5
#INSPVAXA,FILE,0,19.5,FINESTEERING,2319,305896.600,02000000,46eb,17139;INS_SOLUTION_GOOD,INS_RTKFIXED,17.59832752702,78.12079115228,523.3080,-76.2000,-4.5688,-0.6318,0.0162,-0.829344406,-0.088649113,185.006269308,0.0609,0.0614,0.0556,0.0232,0.0237,0.0140,0.0233,0.0233,0.4436,ab001241,0*a36df7f9
#INSPVAXA,FILE,0,19.5,FINESTEERING,2319,305896.650,02000000,46eb,17139;INS_SOLUTION_GOOD,INS_RTKFIXED,17.59832548889,78.12079087345,523.3084,-76.2000,-4.6094,-0.6058,-0.0039,-0.840819630,-0.081545935,184.795970459,0.0609,0.0614,0.0556,0.0232,0.0237,0.0140,0.0233,0.0233,0.4436,ab001241,0*4267ac6d
#INSPVAXA,FILE,0,19.5,FINESTEERING,2319,305896.700,02000000,46eb,17139;INS_SOLUTION_GOOD,INS_RTKFIXED,17.59832343354,78.12079060725,523.3081,-76.2000,-4.6473,-0.5770,-0.0141,-0.820795994,-0.034578917,184.603917350,0.0609,0.0614,0.0556,0.0232,0.0237,0.0140,0.0233,0.0233,0.4436,ab001241,0*36d702b4
#INSPVAXA,FILE,0,19.5,FINESTEERING,2319,305896.750,02000000,46eb,17139;INS_SOLUTION_GOOD,INS_RTKFIXED,17.59832136141,78.12079034914,523.3072,-76.2000,-4.6808,-0.5649,-0.0259,-0.783177380,0.012775429,184.418695040,0.0609,0.0614,0.0556,0.0232,0.0237,0.0140,0.0233,0.0233,0.4436,ab001241,0*5a308796
#INSPVAXA,FILE,0,19.5,FINESTEERING,2319,305896.800,02000000,46eb,17139;INS_SOLUTION_GOOD,INS_RTKFIXED,17.59831927473,78.12079009599,523.3064,-76.2000,-4.7120,-0.5557,-0.0142,-0.750455580,0.068446234,184.230003346,0.0609,0.0614,0.0556,0.0232,0.0237,0.0140,0.0233,0.0233,0.4436,ab001241,0*ae2bb60a
#INSPVAXA,FILE,0,19.5,FINESTEERING,2319,305896.850,02000000,46eb,17139;INS_SOLUTION_GOOD,INS_RTKFIXED,17.59831717339,78.12078984567,523.3055,-76.2000,-4.7412,-0.5518,-0.0121,-0.734178901,0.130989616,184.034946467,0.0609,0.0614,0.0556,0.0232,0.0237,0.0140,0.0233,0.0233,0.4436,ab001241,0*40d6348a
#INSPVAXA,FILE,0,19.5,FINESTEERING,2319,305896.900,02000000,46eb,17139;INS_SOLUTION_GOOD,INS_RTKFIXED,17.59831505738,78.12078960080,523.3049,-76.2000,-4.7725,-0.5364,-0.0006,-0.712111082,0.190660093,183.831206506,0.0609,0.0614,0.0556,0.0232,0.0237,0.0140,0.0233,0.0233,0.4436,ab001241,0*0e78ab46
#INSPVAXA,FILE,0,19.5,FINESTEERING,2319,305896.950,02000000,46eb,17139;INS_SOLUTION_GOOD,INS_RTKFIXED,17.59831292797,78.12078936139,523.3050,-76.2000,-4.8015,-0.5222,0.0068,-0.711032643,0.238805680,183.624226609,0.0609,0.0614,0.0556,0.0232,0.0237,0.0140,0.0233,0.0233,0.4436,ab001241,0*0e1d1553
#INSPVAXA,FILE,0,19.5,FINESTEERING,2319,305897.000,02000000,46eb,17139;INS_SOLUTION_GOOD,INS_RTKFIXED,17.59831078471,78.12078912841,523.3056,-76.2000,-4.8294,-0.5101,0.0205,-0.692889525,0.267192788,183.413405797,0.0609,0.0614,0.0556,0.0232,0.0237,0.0140,0.0233,0.0233,0.4436,ab001241,0*0b14a542
#INSPVAXA,FILE,0,19.5,FINESTEERING,2319,305897.050,02000000,46eb,17139;INS_SOLUTION_GOOD,INS_RTKFIXED,17.59830863476,78.12078891489,523.3067,-76.2000,-4.8624,-0.4924,0.0279,-0.672013864,0.318406633,183.199575106,0.0620,0.0627,0.0556,0.0220,0.0226,0.0140,0.0230,0.0230,0.4438,ab001241,0*3b479e18
#INSPVAXA,FILE,0,19.5,FINESTEERING,2319,305897.100,02000000,46eb,17139;INS_SOLUTION_GOOD,INS_RTKFIXED,17.59830647979,78.12078872067,523.3080,-76.2000,-4.8902,-0.4774,0.0298,-0.688673411,0.353490923,182.984167663,0.0620,0.0627,0.0556,0.0220,0.0226,0.0140,0.0230,0.0230,0.4438,ab001241,0*f20ff012
#INSPVAXA,FILE,0,29.5,FINESTEERING,2319,305897.150,02000000,46eb,17139;INS_SOLUTION_GOOD,INS_RTKFIXED,17.59830431166,78.12078853747,523.3095,-76.2000,-4.9168,-0.4518,0.0300,-0.695991284,0.371879429,182.767751551,0.0620,0.0627,0.0556,0.0220,0.0226,0.0140,0.0230,0.0230,0.4438,ab001241,0*70bf1516
#INSPVAXA,FILE,0,29.5,FINESTEERING,2319,305897.200,02000000,46eb,17139;INS_SOLUTION_GOOD,INS_RTKFIXED,17.59830213065,78.12078836356,523.3115,-76.2000,-4.9451,-0.4347,0.0392,-0.723604138,0.373894997,182.549519166,0.0620,0.0627,0.0556,0.0220,0.0226,0.0140,0.0230,0.0230,0.4438,ab001241,0*f7490899
#INSPVAXA,FILE,0,29.5,FINESTEERING,2319,305897.250,02000000,46eb,17139;INS_SOLUTION_GOOD,INS_RTKFIXED,17.59829993674,78.12078819654,523.3131,-76.2000,-4.9706,-0.4217,0.0250,-0.725542598,0.351843678,182.322005757,0.0620,0.0627,0.0556,0.0220,0.0226,0.0140,0.0230,0.0230,0.4438,ab001241,0*4084875d
#INSPVAXA,FILE,0,29.5,FINESTEERING,2319,305897.300,02000000,46eb,17139;INS_SOLUTION_GOOD,INS_RTKFIXED,17.59829773025,78.12078803507,523.3149,-76.2000,-4.9963,-0.4090,0.0356,-0.698467872,0.348608482,182.084386377,0.0620,0.0627,0.0556,0.0220,0.0226,0.0140,0.0230,0.0230,0.4438,ab001241,0*17a5ecc8
#INSPVAXA,FILE,0,29.5,FINESTEERING,2319,305897.350,02000000,46eb,17139;INS_SOLUTION_GOOD,INS_RTKFIXED,17.59829551278,78.12078787832,523.3172,-76.2000,-5.0188,-0.4002,0.0474,-0.640453659,0.326273226,181.848684769,0.0620,0.0627,0.0556,0.0220,0.0226,0.0140,0.0230,0.0230,0.4438,ab001241,0*2b3d2ef9
#INSPVAXA,FILE,0,29.5,FINESTEERING,2319,305897.400,02000000,46eb,17139;INS_SOLUTION_GOOD,INS_RTKFIXED,17.59829328276,78.12078772523,523.3190,-76.2000,-5.0459,-0.3865,0.0268,-0.632728478,0.324674374,181.602573855,0.0620,0.0627,0.0556,0.0220,0.0226,0.0140,0.0230,0.0230,0.4438,ab001241,0*767460a9
#INSPVAXA,FILE,0,29.5,FINESTEERING,2319,305897.450,02000000,46eb,17139;INS_SOLUTION_GOOD,INS_RTKFIXED,17.59829104201,78.12078758257,523.3217,-76.2000,-5.0683,-0.3569,0.0610,-0.609280983,0.312827509,181.363203910,0.0620,0.0627,0.0556,0.0220,0.0226,0.0140,0.0230,0.0230,0.4438,ab001241,0*500638df
#INSPVAXA,FILE,0,29.5,FINESTEERING,2319,305897.500,02000000,46eb,17139;INS_SOLUTION_GOOD,INS_RTKFIXED,17.59828878934,78.12078745250,523.3246,-76.2000,-5.0921,-0.3294,0.0593,-0.626771169,0.286021127,181.131928146,0.0620,0.0627,0.0556,0.0220,0.0226,0.0140,0.0230,0.0230,0.4438,ab001241,0*4ec6077a
#INSPVAXA,FILE,0,29.5,FINESTEERING,2319,305897.550,02000000,46eb,17139;INS_SOLUTION_GOOD,INS_RTKFIXED,17.59828652626,78.12078733547,523.3285,-76.2000,-5.1163,-0.3020,0.0774,-0.631200703,0.234037106,180.901898682,0.0620,0.0627,0.0556,0.0220,0.0226,0.0140,0.0230,0.0230,0.4438,ab001241,0*f97b847c
#INSPVAXA,FILE,0,29.5,FINESTEERING,2319,305897.600,02000000,46eb,17139;INS_SOLUTION_GOOD,INS_RTKFIXED,17.59828425145,78.12078722882,523.3322,-76.2000,-5.1428,-0.2823,0.0698,-0.632632666,0.159020100,180.677157478,0.0620,0.0627,0.0556,0.0220,0.0226,0.0140,0.0230,0.0230,0.4438,ab001241,0*8f17f52c
#INSPVAXA,FILE,0,29.5,FINESTEERING,2319,305897.650,02000000,46eb,17139;INS_SOLUTION_GOOD,INS_RTKFIXED,17.59828196516,78.12078712961,523.3354,-76.2000,-5.1656,-0.2659,0.0518,-0.726792451,0.130744283,180.439285685,0.0620,0.0627,0.0556,0.0220,0.0226,0.0140,0.0230,0.0230,0.4438,ab001241,0*a6f7e69f
#INSPVAXA,FILE,0,29.5,FINESTEERING,2319,305897.700,02000000,46eb,17139;INS_SOLUTION_GOOD,INS_RTKFIXED,17.59827966600,78.12078703959,523.3377,-76.2000,-5.1929,-0.2447,0.0414,-0.808561680,0.073063091,180.197271281,0.0620,0.0627,0.0556,0.0220,0.0226,0.0140,0.0230,0.0230,0.4438,ab001241,0*d0dfbd3a
#INSPVAXA,FILE,0,29.5,FINESTEERING,2319,305897.750,02000000,46eb,17139;INS_SOLUTION_GOOD,INS_RTKFIXED,17.59827735479,78.12078696129,523.3391,-76.2000,-5.2160,-0.2188,0.0152,-0.912493077,0.035257275,179.952898404,0.0620,0.0627,0.0556,0.0220,0.0226,0.0140,0.0230,0.0230,0.4438,ab001241,0*fc359fc8
#INSPVAXA,FILE,0,29.5,FINESTEERING,2319,305897.800,02000000,46eb,17139;INS_SOLUTION_GOOD,INS_RTKFIXED,17.59827502981,78.12078689243,523.3397,-76.2000,-5.2484,-0.2011,-0.0073,-0.986080171,0.032886981,179.704209007,0.0620,0.0627,0.0556,0.0220,0.0226,0.0140,0.0230,0.0230,0.4438,ab001241,0*88f9f697
#INSPVAXA,FILE,0,29.5,FINESTEERING,2319,305897.850,02000000,46eb,17139;INS_SOLUTION_GOOD,INS_RTKFIXED,17.59827269475,78.12078683402,523.3404,-76.2000,-5.2686,-0.1712,0.0234,-0.986771702,0.026130587,179.464615538,0.0620,0.0627,0.0556,0.0220,0.0226,0.0140,0.0230,0.0230,0.4438,ab001241,0*2acf5ec3
#INSPVAXA,FILE,0,29.5,FINESTEERING,2319,305897.900,02000000,46eb,17139;INS_SOLUTION_GOOD,INS_RTKFIXED,17.59827034711,78.12078678759,523.3417,-76.2000,-5.2955,-0.1469,0.0276,-0.965240617,0.021305139,179.245859963,0.0620,0.0627,0.0556,0.0220,0.0226,0.0140,0.0230,0.0230,0.4438,ab001241,0*96c2bb38
#INSPVAXA,FILE,0,29.5,FINESTEERING,2319,305897.950,02000000,46eb,17139;INS_SOLUTION_GOOD,INS_RTKFIXED,17.59826798843,78.12078674802,523.3434,-76.2000,-5.3188,-0.1350,0.0450,-0.894636027,-0.004529971,179.035039562,0.0620,0.0627,0.0556,0.0220,0.0226,0.0140,0.0230,0.0230,0.4438,ab001241,0*7df716de
#INSPVAXA,FILE,0,29.5,FINESTEERING,2319,305898.000,02000000,46eb,17139;INS_SOLUTION_GOOD,INS_RTKFIXED,17.59826561773,78.12078671255,523.3452,-76.2000,-5.3416,-0.1270,0.0281,-0.884415303,-0.045014228,178.815983313,0.0620,0.0627,0.0556,0.0220,0.0226,0.0140,0.0230,0.0230,0.4438,ab001241,0*a963f582
#INSPVAXA,FILE,0,29.5,FINESTEERING,2319,305898.050,02000000,46eb,17139;INS_SOLUTION_GOOD,INS_RTKFIXED,17.59826323862,78.12078668907,523.3478,-76.2000,-5.3682,-0.1089,0.0535,-0.868362169,-0.098277402,178.585679215,0.0629,0.0636,0.0557,0.0210,0.0216,0.0140,0.0228,0.0227,0.4439,ab001241,0*36e1295c
#INSPVAXA,FILE,0,29.5,FINESTEERING,2319,305898.100,02000000,46eb,17139;INS_SOLUTION_GOOD,INS_RTKFIXED,17.59826085148,78.12078668634,523.3499,-76.2000,-5.3993,-0.0738,0.0413,-0.869963734,-0.135457011,178.357480633,0.0629,0.0636,0.0557,0.0210,0.0216,0.0140,0.0228,0.0227,0.4439,ab001241,0*152829ec
#INSPVAXA,FILE,0,30.5,FINESTEERING,2319,305898.150,02000000,46eb,17139;INS_SOLUTION_GOOD,INS_RTKFIXED,17.59825845138,78.12078669722,523.3508,-76.2000,-5.4243,-0.0478,0.0218,-0.913564353,-0.155840277,178.151337233,0.0629,0.0636,0.0557,0.0210,0.0216,0.0140,0.0228,0.0227,0.4439,ab001241,0*6b471cba
#INSPVAXA,FILE,0,30.5,FINESTEERING,2319,305898.200,02000000,46eb,17139;INS_SOLUTION_GOOD,INS_RTKFIXED,17.59825603676,78.12078672375,523.3505,-76.2000,-5.4527,-0.0105,-0.0157,-0.995045040,-0.172846858,177.969510865,0.0629,0.0636,0.0557,0.0210,0.0216,0.0140,0.0228,0.0227,0.4439,ab001241,0*ac524730
#INSPVAXA,FILE,0,30.5,FINESTEERING,2319,305898.250,02000000,46eb,17139;INS_SOLUTION_GOOD,INS_RTKFIXED,17.59825360917,78.12078676683,523.3500,-76.2000,-5.4811,0.0221,-0.0094,-1.075560431,-0.122698870,177.819396940,0.0629,0.0636,0.0557,0.0210,0.0216,0.0140,0.0228,0.0227,0.4439,ab001241,0*3fabec3f
#INSPVAXA,FILE,0,30.5,FINESTEERING,2319,305898.300,02000000,46eb,17139;INS_SOLUTION_GOOD,INS_RTKFIXED,17.59825116913,78.12078681828,523.3491,-76.2000,-5.5063,0.0317,-0.0193,-1.130798169,-0.100292430,177.678494463,0.0629,0.0636,0.0557,0.0210,0.0216,0.0140,0.0228,0.0227,0.4439,ab001241,0*b933622f
#INSPVAXA,FILE,0,30.5,FINESTEERING,2319,305898.350,02000000,46eb,17139;INS_SOLUTION_GOOD,INS_RTKFIXED,17.59824871759,78.12078687149,523.3487,-76.2000,-5.5294,0.0307,0.0030,-1.171107478,-0.083929457,177.531061621,0.0629,0.0636,0.0557,0.0210,0.0216,0.0140,0.0228,0.0227,0.4439,ab001241,0*9a437844
#INSPVAXA,FILE,0,30.5,FINESTEERING,2319,305898.400,02000000,46eb,17139;INS_SOLUTION_GOOD,INS_RTKFIXED,17.59824625388,78.12078692464,523.3490,-76.2000,-5.5578,0.0321,0.0065,-1.198072444,-0.084167422,177.370294627,0.0629,0.0636,0.0557,0.0210,0.0216,0.0140,0.0228,0.0227,0.4439,ab001241,0*fff8520f
#INSPVAXA,FILE,0,30.5,FINESTEERING,2319,305898.450,02000000,46eb,17139;INS_SOLUTION_GOOD,INS_RTKFIXED,17.59824377824,78.12078698043,523.3490,-76.2000,-5.5834,0.0455,0.0089,-1.204605642,-0.098676359,177.215152052,0.0629,0.0636,0.0557,0.0210,0.0216,0.0140,0.0228,0.0227,0.4439,ab001241,0*12e32de2
#INSPVAXA,FILE,0,30.5,FINESTEERING,2319,305898.500,02000000,46eb,17139;INS_SOLUTION_GOOD,INS_RTKFIXED,17.59824128961,78.12078704482,523.3494,-76.2000,-5.6121,0.0689,0.0140,-1.240627856,-0.130055592,177.076521487,0.0629,0.0636,0.0557,0.0210,0.0216,0.0140,0.0228,0.0227,0.4439,ab001241,0*41528951
#INSPVAXA,FILE,0,30.5,FINESTEERING,2319,305898.550,02000000,46eb,17139;INS_SOLUTION_GOOD,INS_RTKFIXED,17.59823878828,78.12078712093,523.3496,-76.2000,-5.6389,0.0962,0.0061,-1.242225980,-0.168548138,176.964785752,0.0629,0.0636,0.0557,0.0210,0.0216,0.0140,0.0228,0.0227,0.4439,ab001241,0*d57b27a8
#INSPVAXA,FILE,0,30.5,FINESTEERING,2319,305898.600,02000000,46eb,17139;INS_SOLUTION_GOOD,INS_RTKFIXED,17.59823627357,78.12078720684,523.3501,-76.2000,-5.6672,0.1119,0.0100,-1.262321832,-0.218106542,176.878080133,0.0629,0.0636,0.0557,0.0210,0.0216,0.0140,0.0228,0.0227,0.4439,ab001241,0*bbb7a9a2
#INSPVAXA,FILE,0,30.5,FINESTEERING,2319,305898.650,02000000,46eb,17139;INS_SOLUTION_GOOD,INS_RTKFIXED,17.59823374659,78.12078729826,523.3505,-76.2000,-5.6900,0.1180,0.0080,-1.273676220,-0.260985260,176.804885524,0.0629,0.0636,0.0557,0.0210,0.0216,0.0140,0.0228,0.0227,0.4439,ab001241,0*79cb4a6e
#INSPVAXA,FILE,0,30.5,FINESTEERING,2319,305898.700,02000000,46eb,17139;INS_SOLUTION_GOOD,INS_RTKFIXED,17.59823120691,78.12078739172,523.3517,-76.2000,-5.7198,0.1218,0.0244,-1.312027688,-0.292781007,176.729324238,0.0629,0.0636,0.0557,0.0210,0.0216,0.0140,0.0228,0.0227,0.4439,ab001241,0*cad585e7
#INSPVAXA,FILE,0,30.5,FINESTEERING,2319,305898.750,02000000,46eb,17139;INS_SOLUTION_GOOD,INS_RTKFIXED,17.59822865624,78.12078748549,523.3525,-76.2000,-5.7426,0.1250,0.0175,-1.345253088,-0.320659167,176.657200609,0.0629,0.0636,0.0557,0.0210,0.0216,0.0140,0.0228,0.0227,0.4439,ab001241,0*2b6cae0a
#INSPVAXA,FILE,0,30.5,FINESTEERING,2319,305898.800,02000000,46eb,17139;INS_SOLUTION_GOOD,INS_RTKFIXED,17.59822609296,78.12078758234,523.3531,-76.2000,-5.7701,0.1387,0.0035,-1.435674005,-0.339989228,176.592421261,0.0629,0.0636,0.0557,0.0210,0.0216,0.0140,0.0228,0.0227,0.4439,ab001241,0*0d25f954
#INSPVAXA,FILE,0,30.5,FINESTEERING,2319,305898.850,02000000,46eb,17139;INS_SOLUTION_GOOD,INS_RTKFIXED,17.59822351786,78.12078768727,523.3530,-76.2000,-5.7956,0.1622,-0.0053,-1.488173363,-0.334517046,176.545771171,0.0629,0.0636,0.0557,0.0210,0.0216,0.0140,0.0228,0.0227,0.4439,ab001241,0*a40941e0
#INSPVAXA,FILE,0,30.5,FINESTEERING,2319,305898.900,02000000,46eb,17139;INS_SOLUTION_GOOD,INS_RTKFIXED,17.59822092894,78.12078780150,523.3523,-76.2000,-5.8264,0.1790,-0.0251,-1.524349472,-0.291795648,176.519486654,0.0629,0.0636,0.0557,0.0210,0.0216,0.0140,0.0228,0.0227,0.4439,ab001241,0*e85d1c04
#INSPVAXA,FILE,0,30.5,FINESTEERING,2319,305898.950,02000000,46eb,17139;INS_SOLUTION_GOOD,INS_RTKFIXED,17.59821832757,78.12078791715,523.3506,-76.2000,-5.8516,0.1743,-0.0380,-1.544128732,-0.218086293,176.498124658,0.0629,0.0636,0.0557,0.0210,0.0216,0.0140,0.0228,0.0227,0.4439,ab001241,0*e6aee201
#INSPVAXA,FILE,0,30.5,FINESTEERING,2319,305899.000,02000000,46eb,17139;INS_SOLUTION_GOOD,INS_RTKFIXED,17.59821571240,78.12078803270,523.3487,-76.2000,-5.8822,0.1745,-0.0384,-1.549065582,-0.137355467,176.471726276,0.0629,0.0636,0.0557,0.0210,0.0216,0.0140,0.0228,0.0227,0.4439,ab001241,0*962680e0
#INSPVAXA,FILE,0,30.5,FINESTEERING,2319,305899.050,02000000,46eb,17139;INS_SOLUTION_GOOD,INS_RTKFIXED,17.59821308389,78.12078814308,523.3466,-76.2000,-5.9088,0.1664,-0.0344,-1.533711345,-0.070554555,176.444562693,0.0624,0.0632,0.0557,0.0204,0.0209,0.0140,0.0227,0.0226,0.4440,ab001241,0*71653fd6
#INSPVAXA,FILE,0,26.5,FINESTEERING,2319,305899.100,02000000,46eb,17139;INS_SOLUTION_GOOD,INS_RTKFIXED,17.59821044476,78.12078825237,523.3454,-76.2000,-5.9332,0.1722,-0.0085,-1.518419437,-0.060185999,176.418111608,0.0624,0.0632,0.0557,0.0204,0.0209,0.0140,0.0227,0.0226,0.4440,ab001241,0*97868aa8
#INSPVAXA,FILE,0,26.5,FINESTEERING,2319,305899.150,02000000,46eb,17139;INS_SOLUTION_GOOD,INS_RTKFIXED,17.59820779462,78.12078836565,523.3449,-76.2000,-5.9559,0.1848,-0.0067,-1.483694096,-0.098070961,176.405080611,0.0624,0.0632,0.0557,0.0204,0.0209,0.0140,0.0227,0.0226,0.4440,ab001241,0*205bcc3c
#INSPVAXA,FILE,0,26.5,FINESTEERING,2319,305899.200,02000000,46eb,17139;INS_SOLUTION_GOOD,INS_RTKFIXED,17.59820513303,78.12078848180,523.3451,-76.2000,-5.9813,0.1865,0.0104,-1.439476410,-0.159756441,176.404895928,0.0624,0.0632,0.0557,0.0204,0.0209,0.0140,0.0227,0.0226,0.4440,ab001241,0*17772e20
#INSPVAXA,FILE,0,26.5,FINESTEERING,2319,305899.250,02000000,46eb,17139;INS_SOLUTION_GOOD,INS_RTKFIXED,17.59820246087,78.12078859931,523.3460,-76.2000,-6.0030,0.1906,0.0300,-1.452154841,-0.217368070,176.404529519,0.0624,0.0632,0.0557,0.0204,0.0209,0.0140,0.0227,0.0226,0.4440,ab001241,0*4eb75753
#INSPVAXA,FILE,0,26.5,FINESTEERING,2319,305899.300,02000000,46eb,17139;INS_SOLUTION_GOOD,INS_RTKFIXED,17.59819977704,78.12078871768,523.3474,-76.2000,-6.0287,0.1899,0.0349,-1.504862314,-0.276027951,176.398425622,0.0624,0.0632,0.0557,0.0204,0.0209,0.0140,0.0227,0.0226,0.4440,ab001241,0*3098bace
#INSPVAXA,FILE,0,26.5,FINESTEERING,2319,305899.350,02000000,46eb,17139;INS_SOLUTION_GOOD,INS_RTKFIXED,17.59819708330,78.12078883575,523.3497,-76.2000,-6.0484,0.1955,0.0691,-1.589834810,-0.347093838,176.370995779,0.0624,0.0632,0.0557,0.0204,0.0209,0.0140,0.0227,0.0226,0.4440,ab001241,0*ba085d30
#INSPVAXA,FILE,0,26.5,FINESTEERING,2319,305899.400,02000000,46eb,17139;INS_SOLUTION_GOOD,INS_RTKFIXED,17.59819437695,78.12078895533,523.3520,-76.2000,-6.0777,0.1953,0.0384,-1.695336644,-0.393202810,176.341347902,0.0624,0.0632,0.0557,0.0204,0.0209,0.0140,0.0227,0.0226,0.4440,ab001241,0*e5f77f21
#INSPVAXA,FILE,0,26.5,FINESTEERING,2319,305899.450,02000000,46eb,17139;INS_SOLUTION_GOOD,INS_RTKFIXED,17.59819165841,78.12078907399,523.3528,-76.2000,-6.1018,0.1939,0.0073,-1.757384681,-0.427602352,176.297726082,0.0624,0.0632,0.0557,0.0204,0.0209,0.0140,0.0227,0.0226,0.4440,ab001241,0*677d61e1
#INSPVAXA,FILE,0,26.5,FINESTEERING,2319,305899.500,02000000,46eb,17139;INS_SOLUTION_GOOD,INS_RTKFIXED,17.59818892627,78.12078919898,523.3525,-76.2000,-6.1336,0.2132,-0.0267,-1.832205116,-0.380669730,176.272715545,0.0624,0.0632,0.0557,0.0204,0.0209,0.0140,0.0227,0.0226,0.4440,ab001241,0*24a3732e
#INSPVAXA,FILE,0,26.5,FINESTEERING,2319,305899.550,02000000,46eb,17139;INS_SOLUTION_GOOD,INS_RTKFIXED,17.59818618182,78.12078932551,523.3499,-76.2000,-6.1590,0.2082,-0.0662,-1.761037469,-0.283578928,176.252764801,0.0624,0.0632,0.0557,0.0204,0.0209,0.0140,0.0227,0.0226,0.4440,ab001241,0*2eec9090
#INSPVAXA,FILE,0,26.5,FINESTEERING,2319,305899.600,02000000,46eb,17139;INS_SOLUTION_GOOD,INS_RTKFIXED,17.59818342491,78.12078944879,523.3469,-76.2000,-6.1858,0.2011,-0.0651,-1.732252863,-0.150035078,176.232706620,0.0624,0.0632,0.0557,0.0204,0.0209,0.0140,0.0227,0.0226,0.4440,ab001241,0*ec10fd1a
#INSPVAXA,FILE,0,26.5,FINESTEERING,2319,305899.650,02000000,46eb,17139;INS_SOLUTION_GOOD,INS_RTKFIXED,17.59818065821,78.12078957051,523.3441,-76.2000,-6.2030,0.2007,-0.0466,-1.705068699,-0.026439388,176.213079488,0.0624,0.0632,0.0557,0.0204,0.0209,0.0140,0.0227,0.0226,0.4440,ab001241,0*da57a396
#INSPVAXA,FILE,0,26.5,FINESTEERING,2319,305899.700,02000000,46eb,17139;INS_SOLUTION_GOOD,INS_RTKFIXED,17.59817788101,78.12078969416,523.3419,-76.2000,-6.2240,0.2100,-0.0361,-1.750738731,0.059462492,176.204161576,0.0624,0.0632,0.0557,0.0204,0.0209,0.0140,0.0227,0.0226,0.4440,ab001241,0*945953b7
#INSPVAXA,FILE,0,26.5,FINESTEERING,2319,305899.750,02000000,46eb,17139;INS_SOLUTION_GOOD,INS_RTKFIXED,17.59817509460,78.12078982418,523.3406,-76.2000,-6.2434,0.2278,-0.0146,-1.804877495,0.119451383,176.210230422,0.0624,0.0632,0.0557,0.0204,0.0209,0.0140,0.0227,0.0226,0.4440,ab001241,0*213d88df
#INSPVAXA,FILE,0,26.5,FINESTEERING,2319,305899.800,02000000,46eb,17139;INS_SOLUTION_GOOD,INS_RTKFIXED,17.59817229969,78.12078996194,523.3404,-76.2000,-6.2640,0.2438,0.0076,-1.903918702,0.154102166,176.240351725,0.0624,0.0632,0.0557,0.0204,0.0209,0.0140,0.0227,0.0226,0.4440,ab001241,0*11bfc705
#INSPVAXA,FILE,0,26.5,FINESTEERING,2319,305899.850,02000000,46eb,17139;INS_SOLUTION_GOOD,INS_RTKFIXED,17.59816949581,78.12079010401,523.3409,-76.2000,-6.2786,0.2497,0.0216,-2.002261934,0.166605484,176.279364042,0.0624,0.0632,0.0557,0.0204,0.0209,0.0140,0.0227,0.0226,0.4440,ab001241,0*481c0572
#INSPVAXA,FILE,0,26.5,FINESTEERING,2319,305899.900,02000000,46eb,17139;INS_SOLUTION_GOOD,INS_RTKFIXED,17.59816668321,78.12079024619,523.3427,-76.2000,-6.2986,0.2432,0.0524,-2.066778445,0.166504594,176.316307571,0.0624,0.0632,0.0557,0.0204,0.0209,0.0140,0.0227,0.0226,0.4440,ab001241,0*d2f0de93
#INSPVAXA,FILE,0,26.5,FINESTEERING,2319,305899.950,02000000,46eb,17139;INS_SOLUTION_GOOD,INS_RTKFIXED,17.59816386263,78.12079038181,523.3463,-76.2000,-6.3171,0.2279,0.0901,-2.088432088,0.125258133,176.335705953,0.0624,0.0632,0.0557,0.0204,0.0209,0.0140,0.0227,0.0226,0.4440,ab001241,0*4265334c
#INSPVAXA,FILE,0,26.5,FINESTEERING,2319,305900.000,02000000,46eb,17139;INS_SOLUTION_GOOD,INS_RTKFIXED,17.59816103324,78.12079050952,523.3497,-76.2000,-6.3359,0.2131,0.0670,-2.134724741,0.099828850,176.345513365,0.0624,0.0632,0.0557,0.0204,0.0209,0.0140,0.0227,0.0226,0.4440,ab001241,0*d7fcabdc
#INSPVAXA,FILE,0,26.5,FINESTEERING,2319,305900.050,02000000,46eb,17139;INS_SOLUTION_GOOD,INS_RTKFIXED,17.59815818680,78.12079063487,523.3531,-76.2000,-6.3581,0.2196,0.0560,-2.150142405,0.052720777,176.362158881,0.0613,0.0622,0.0557,0.0201,0.0204,0.0139,0.0226,0.0224,0.4442,ab001241,0*394a750f
#INSPVAXA,FILE,0,26.5,FINESTEERING,2319,305900.100,02000000,46eb,17139;INS_SOLUTION_GOOD,INS_RTKFIXED,17.59815532139,78.12079075775,523.3552,-76.2000,-6.3816,0.2189,0.0350,-2.132360082,0.030709910,176.393610345,0.0613,0.0622,0.0557,0.0201,0.0204,0.0139,0.0226,0.0224,0.4442,ab001241,0*f81ae7fc
#INSPVAXA,FILE,0,26.5,FINESTEERING,2319,305900.150,02000000,46eb,17139;INS_SOLUTION_GOOD,INS_RTKFIXED,17.59815244608,78.12079088229,523.3570,-76.2000,-6.4043,0.2229,0.0312,-2.102452438,0.047392439,176.432176900,0.0613,0.0622,0.0557,0.0201,0.0204,0.0139,0.0226,0.0224,0.4442,ab001241,0*a03ffae2
#INSPVAXA,FILE,0,30.0,FINESTEERING,2319,305900.200,02000000,46eb,17139;INS_SOLUTION_GOOD,INS_RTKFIXED,17.59814956226,78.12079100320,523.3583,-76.2000,-6.4210,0.2119,0.0357,-2.045021635,0.025442460,176.469771902,0.0613,0.0622,0.0557,0.0201,0.0204,0.0139,0.0226,0.0224,0.4442,ab001241,0*bf1bc2ca
#INSPVAXA,FILE,0,30.0,FINESTEERING,2319,305900.250,02000000,46eb,17139;INS_SOLUTION_GOOD,INS_RTKFIXED,17.59814666920,78.12079111960,523.3595,-76.2000,-6.4395,0.2012,0.0211,-2.040081021,0.011516252,176.504920571,0.0613,0.0622,0.0557,0.0201,0.0204,0.0139,0.0226,0.0224,0.4442,ab001241,0*cefdbe77
#INSPVAXA,FILE,0,30.0,FINESTEERING,2319,305900.300,02000000,46eb,17139;INS_SOLUTION_GOOD,INS_RTKFIXED,17.59814376728,78.12079123149,523.3604,-76.2000,-6.4601,0.1943,0.0226,-2.031540423,-0.011799393,176.537570668,0.0613,0.0622,0.0557,0.0201,0.0204,0.0139,0.0226,0.0224,0.4442,ab001241,0*9c9ddeb0
#INSPVAXA,FILE,0,30.0,FINESTEERING,2319,305900.350,02000000,46eb,17139;INS_SOLUTION_GOOD,INS_RTKFIXED,17.59814085767,78.12079134549,523.3618,-76.2000,-6.4763,0.2032,0.0333,-2.015610360,-0.045683777,176.586020916,0.0613,0.0622,0.0557,0.0201,0.0204,0.0139,0.0226,0.0224,0.4442,ab001241,0*02bc00c8
#INSPVAXA,FILE,0,30.0,FINESTEERING,2319,305900.400,02000000,46eb,17139;INS_SOLUTION_GOOD,INS_RTKFIXED,17.59813793926,78.12079145857,523.3636,-76.2000,-6.4943,0.1958,0.0367,-2.002704242,-0.068744312,176.645808146,0.0613,0.0622,0.0557,0.0201,0.0204,0.0139,0.0226,0.0224,0.4442,ab001241,0*e5155b31
#INSPVAXA,FILE,0,30.0,FINESTEERING,2319,305900.450,02000000,46eb,17139;INS_SOLUTION_GOOD,INS_RTKFIXED,17.59813501179,78.12079156931,523.3653,-76.2000,-6.5146,0.1906,0.0342,-1.970992528,-0.104703210,176.709123056,0.0613,0.0622,0.0557,0.0201,0.0204,0.0139,0.0226,0.0224,0.4442,ab001241,0*99f55a9d
#INSPVAXA,FILE,0,30.0,FINESTEERING,2319,305900.500,02000000,46eb,17139;INS_SOLUTION_GOOD,INS_RTKFIXED,17.59813207509,78.12079167593,523.3673,-76.2000,-6.5357,0.1829,0.0456,-1.959335949,-0.125015476,176.765638165,0.0613,0.0622,0.0557,0.0201,0.0204,0.0139,0.0226,0.0224,0.4442,ab001241,0*a7d4fd97
#INSPVAXA,FILE,0,30.0,FINESTEERING,2319,305900.550,02000000,46eb,17139;INS_SOLUTION_GOOD,INS_RTKFIXED,17.59812912979,78.12079177764,523.3689,-76.2000,-6.5553,0.1727,0.0367,-1.978632379,-0.145344716,176.820781935,0.0613,0.0622,0.0557,0.0201,0.0204,0.0139,0.0226,0.0224,0.4442,ab001241,0*75fb48af
#INSPVAXA,FILE,0,30.0,FINESTEERING,2319,305900.600,02000000,46eb,17139;INS_SOLUTION_GOOD,INS_RTKFIXED,17.59812617455,78.12079187820,523.3700,-76.2000,-6.5776,0.1758,0.0199,-2.013862399,-0.177389736,176.875540826,0.0613,0.0622,0.0557,0.0201,0.0204,0.0139,0.0226,0.0224,0.4442,ab001241,0*a99c5d7f
#INSPVAXA,FILE,0,30.0,FINESTEERING,2319,305900.650,02000000,46eb,17139;INS_SOLUTION_GOOD,INS_RTKFIXED,17.59812321076,78.12079197837,523.3706,-76.2000,-6.5947,0.1749,0.0171,-2.028991168,-0.218222143,176.946677772,0.0613,0.0622,0.0557,0.0201,0.0204,0.0139,0.0226,0.0224,0.4442,ab001241,0*7ab272f0
#INSPVAXA,FILE,0,30.0,FINESTEERING,2319,305900.700,02000000,46eb,17139;INS_SOLUTION_GOOD,INS_RTKFIXED,17.59812023748,78.12079207854,523.3715,-76.2000,-6.6179,0.1745,0.0153,-2.039751165,-0.241408257,177.022417065,0.0613,0.0622,0.0557,0.0201,0.0204,0.0139,0.0226,0.0224,0.4442,ab001241,0*6de2550a
#INSPVAXA,FILE,0,30.0,FINESTEERING,2319,305900.750,02000000,46eb,17139;INS_SOLUTION_GOOD,INS_RTKFIXED,17.59811725548,78.12079217407,523.3719,-76.2000,-6.6377,0.1598,0.0027,-2.017071063,-0.264475833,177.104762429,0.0613,0.0622,0.0557,0.0201,0.0204,0.0139,0.0226,0.0224,0.4442,ab001241,0*f90c9c8e
#INSPVAXA,FILE,0,30.0,FINESTEERING,2319,305900.800,02000000,46eb,17139;INS_SOLUTION_GOOD,INS_RTKFIXED,17.59811426371,78.12079226254,523.3723,-76.2000,-6.6588,0.1468,0.0103,-2.028188706,-0.270994030,177.178130862,0.0613,0.0622,0.0557,0.0201,0.0204,0.0139,0.0226,0.0224,0.4442,ab001241,0*414dec33
#INSPVAXA,FILE,0,30.0,FINESTEERING,2319,305900.850,02000000,46eb,17139;INS_SOLUTION_GOOD,INS_RTKFIXED,17.59811126327,78.12079234681,523.3726,-76.2000,-6.6775,0.1417,0.0172,-2.021617379,-0.249133513,177.257413875,0.0613,0.0622,0.0557,0.0201,0.0204,0.0139,0.0226,0.0224,0.4442,ab001241,0*d1d540a2
#INSPVAXA,FILE,0,30.0,FINESTEERING,2319,305900.900,02000000,46eb,17139;INS_SOLUTION_GOOD,INS_RTKFIXED,17.59810825376,78.12079242817,523.3726,-76.2000,-6.6950,0.1358,0.0071,-1.994483847,-0.226730113,177.340006981,0.0613,0.0622,0.0557,0.0201,0.0204,0.0139,0.0226,0.0224,0.4442,ab001241,0*336545cd
#INSPVAXA,FILE,0,30.0,FINESTEERING,2319,305900.950,02000000,46eb,17139;INS_SOLUTION_GOOD,INS_RTKFIXED,17.59810523497,78.12079250608,523.3726,-76.2000,-6.7137,0.1242,-0.0006,-1.950422718,-0.186122262,177.431740278,0.0613,0.0622,0.0557,0.0201,0.0204,0.0139,0.0226,0.0224,0.4442,ab001241,0*fb3d7876
#INSPVAXA,FILE,0,30.0,FINESTEERING,2319,305901.000,02000000,46eb,17139;INS_SOLUTION_GOOD,INS_RTKFIXED,17.59810220636,78.12079257798,523.3722,-76.2000,-6.7362,0.1130,-0.0105,-1.894321740,-0.133477374,177.515894586,0.0613,0.0622,0.0557,0.0201,0.0204,0.0139,0.0226,0.0224,0.4442,ab001241,0*8ff27d7d
#INSPVAXA,FILE,0,30.0,FINESTEERING,2319,305901.050,02000000,46eb,17139;INS_SOLUTION_GOOD,INS_RTKFIXED,17.59809916583,78.12079263738,523.3717,-76.2000,-6.7566,0.0921,-0.0079,-1.824915899,-0.067666041,177.599672077,0.0605,0.0614,0.0557,0.0198,0.0200,0.0138,0.0224,0.0222,0.4443,ab001241,0*b9bab6e5
#INSPVAXA,FILE,0,27.5,FINESTEERING,2319,305901.100,02000000,46eb,17139;INS_SOLUTION_GOOD,INS_RTKFIXED,17.59809611287,78.12079268320,523.3718,-76.2000,-6.7785,0.0788,-0.0006,-1.813431299,-0.012912806,177.683874676,0.0605,0.0614,0.0557,0.0198,0.0200,0.0138,0.0224,0.0222,0.4443,ab001241,0*1bb7c3f0
#INSPVAXA,FILE,0,27.5,FINESTEERING,2319,305901.150,02000000,46eb,17139;INS_SOLUTION_GOOD,INS_RTKFIXED,17.59809305148,78.12079272401,523.3716,-76.2000,-6.7949,0.0734,-0.0149,-1.847495876,0.024258155,177.785925862,0.0605,0.0614,0.0557,0.0198,0.0200,0.0138,0.0224,0.0222,0.4443,ab001241,0*7fc69ff3
#INSPVAXA,FILE,0,27.5,FINESTEERING,2319,305901.200,02000000,46eb,17139;INS_SOLUTION_GOOD,INS_RTKFIXED,17.59808998235,78.12079276762,523.3726,-76.2000,-6.8127,0.0810,0.0266,-1.851837675,0.032080688,177.918389667,0.0605,0.0614,0.0557,0.0198,0.0200,0.0138,0.0224,0.0222,0.4443,ab001241,0*d3ee3ff1
#INSPVAXA,FILE,0,27.5,FINESTEERING,2319,305901.250,02000000,46eb,17139;INS_SOLUTION_GOOD,INS_RTKFIXED,17.59808690496,78.12079280974,523.3741,-76.2000,-6.8296,0.0706,0.0378,-1.791638040,0.044118197,178.070113117,0.0605,0.0614,0.0557,0.0198,0.0200,0.0138,0.0224,0.0222,0.4443,ab001241,0*054d816f
#INSPVAXA,FILE,0,27.5,FINESTEERING,2319,305901.300,02000000,46eb,17139;INS_SOLUTION_GOOD,INS_RTKFIXED,17.59808381934,78.12079284298,523.3765,-76.2000,-6.8484,0.0436,0.0490,-1.703550261,0.062048133,178.218731053,0.0605,0.0614,0.0557,0.0198,0.0200,0.0138,0.0224,0.0222,0.4443,ab001241,0*97860f35
#INSPVAXA,FILE,0,27.5,FINESTEERING,2319,305901.350,02000000,46eb,17139;INS_SOLUTION_GOOD,INS_RTKFIXED,17.59808072526,78.12079286064,523.3793,-76.2000,-6.8661,0.0087,0.0496,-1.608009932,0.064099527,178.348104435,0.0605,0.0614,0.0557,0.0198,0.0200,0.0138,0.0224,0.0222,0.4443,ab001241,0*334343bf
#INSPVAXA,FILE,0,27.5,FINESTEERING,2319,305901.400,02000000,46eb,17139;INS_SOLUTION_GOOD,INS_RTKFIXED,17.59807762201,78.12079286246,523.3818,-76.2000,-6.8865,-0.0235,0.0391,-1.521434801,0.098070156,178.448716395,0.0605,0.0614,0.0557,0.0198,0.0200,0.0138,0.0224,0.0222,0.4443,ab001241,0*3a7a0e84
#INSPVAXA,FILE,0,27.5,FINESTEERING,2319,305901.450,02000000,46eb,17139;INS_SOLUTION_GOOD,INS_RTKFIXED,17.59807450987,78.12079285813,523.3846,-76.2000,-6.9071,-0.0280,0.0477,-1.425206084,0.111198312,178.546449614,0.0605,0.0614,0.0557,0.0198,0.0200,0.0138,0.0224,0.0222,0.4443,ab001241,0*06bf2520
#INSPVAXA,FILE,0,27.5,FINESTEERING,2319,305901.500,02000000,46eb,17139;INS_SOLUTION_GOOD,INS_RTKFIXED,17.59807138765,78.12079284827,523.3869,-76.2000,-6.9297,-0.0363,0.0316,-1.350569012,0.108559701,178.631705857,0.0605,0.0614,0.0557,0.0198,0.0200,0.0138,0.0224,0.0222,0.4443,ab001241,0*a120f9c5
#INSPVAXA,FILE,0,27.5,FINESTEERING,2319,305901.550,02000000,46eb,17139;INS_SOLUTION_GOOD,INS_RTKFIXED,17.59806825587,78.12079283648,523.3888,-76.2000,-6.9511,-0.0409,0.0293,-1.280065033,0.146832181,178.715187168,0.0605,0.0614,0.0557,0.0198,0.0200,0.0138,0.0224,0.0222,0.4443,ab001241,0*69858f89
#INSPVAXA,FILE,0,27.5,FINESTEERING,2319,305901.600,02000000,46eb,17139;INS_SOLUTION_GOOD,INS_RTKFIXED,17.59806511603,78.12079281846,523.3908,-76.2000,-6.9667,-0.0552,0.0369,-1.218849724,0.134524264,178.780149327,0.0605,0.0614,0.0557,0.0198,0.0200,0.0138,0.0224,0.0222,0.4443,ab001241,0*f9b66e7e
#INSPVAXA,FILE,0,27.5,FINESTEERING,2319,305901.650,02000000,46eb,17139;INS_SOLUTION_GOOD,INS_RTKFIXED,17.59806196735,78.12079279498,523.3934,-76.2000,-6.9877,-0.0664,0.0518,-1.195489398,0.102254948,178.841976568,0.0605,0.0614,0.0557,0.0198,0.0200,0.0138,0.0224,0.0222,0.4443,ab001241,0*75e82ecf
#INSPVAXA,FILE,0,27.5,FINESTEERING,2319,305901.700,02000000,46eb,17139;INS_SOLUTION_GOOD,INS_RTKFIXED,17.59805881013,78.12079277011,523.3966,-76.2000,-7.0064,-0.0647,0.0653,-1.143789312,0.058365977,178.899156430,0.0605,0.0614,0.0557,0.0198,0.0200,0.0138,0.0224,0.0222,0.4443,ab001241,0*06e8a968
#INSPVAXA,FILE,0,27.5,FINESTEERING,2319,305901.750,02000000,46eb,17139;INS_SOLUTION_GOOD,INS_RTKFIXED,17.59805564370,78.12079274331,523.3997,-76.2000,-7.0259,-0.0707,0.0574,-1.067858901,-0.000929083,178.950583283,0.0605,0.0614,0.0557,0.0198,0.0200,0.0138,0.0224,0.0222,0.4443,ab001241,0*f734d2b2
#INSPVAXA,FILE,0,27.5,FINESTEERING,2319,305901.800,02000000,46eb,17139;INS_SOLUTION_GOOD,INS_RTKFIXED,17.59805246786,78.12079271172,523.4033,-76.2000,-7.0477,-0.0843,0.0752,-0.963965445,-0.079428011,178.983123798,0.0605,0.0614,0.0557,0.0198,0.0200,0.0138,0.0224,0.0222,0.4443,ab001241,0*cf5ac894
#INSPVAXA,FILE,0,27.5,FINESTEERING,2319,305901.850,02000000,46eb,17139;INS_SOLUTION_GOOD,INS_RTKFIXED,17.59804928148,78.12079267356,523.4066,-76.2000,-7.0727,-0.1002,0.0557,-0.882268570,-0.173947651,178.994579489,0.0605,0.0614,0.0557,0.0198,0.0200,0.0138,0.0224,0.0222,0.4443,ab001241,0*ea5b6521
#INSPVAXA,FILE,0,27.5,FINESTEERING,2319,305901.900,02000000,46eb,17139;INS_SOLUTION_GOOD,INS_RTKFIXED,17.59804608499,78.12079263153,523.4093,-76.2000,-7.0961,-0.1005,0.0425,-0.865606828,-0.262399638,178.986735809,0.0605,0.0614,0.0557,0.0198,0.0200,0.0138,0.0224,0.0222,0.4443,ab001241,0*b827a77e
#INSPVAXA,FILE,0,27.5,FINESTEERING,2319,305901.950,02000000,46eb,17139;INS_SOLUTION_GOOD,INS_RTKFIXED,17.59804287691,78.12079259157,523.4114,-76.2000,-7.1230,-0.0915,0.0258,-0.835647734,-0.325446747,178.971072876,0.0605,0.0614,0.0557,0.0198,0.0200,0.0138,0.0224,0.0222,0.4443,ab001241,0*4bc2af42
#INSPVAXA,FILE,0,27.5,FINESTEERING,2319,305902.000,02000000,46eb,17139;INS_SOLUTION_GOOD,INS_RTKFIXED,17.59803965750,78.12079255281,523.4123,-76.2000,-7.1454,-0.0923,0.0065,-0.791328610,-0.350380889,178.947083349,0.0605,0.0614,0.0557,0.0198,0.0200,0.0138,0.0224,0.0222,0.4443,ab001241,0*7a32bfb0
#INSPVAXA,FILE,0,27.5,FINESTEERING,2319,305902.050,02000000,46eb,17139;INS_SOLUTION_GOOD,INS_RTKFIXED,17.59803642102,78.12079251393,523.4129,-76.2000,-7.1701,-0.0887,-0.0063,-0.786367944,-0.339216547,178.906207899,0.0601,0.0609,0.0556,0.0195,0.0197,0.0136,0.0222,0.0218,0.4444,ab001241,0*4860d778
#INSPVAXA,FILE,0,27.5,FINESTEERING,2319,305902.100,02000000,46eb,17139;INS_SOLUTION_GOOD,INS_RTKFIXED,17.59803316716,78.12079247334,523.4125,-76.2000,-7.1960,-0.0899,-0.0119,-0.718365124,-0.301905891,178.844781983,0.0601,0.0609,0.0556,0.0195,0.0197,0.0136,0.0222,0.0218,0.4444,ab001241,0*6cff30a4
#INSPVAXA,FILE,0,27.5,FINESTEERING,2319,305902.150,02000000,46eb,17139;INS_SOLUTION_GOOD,INS_RTKFIXED,17.59802990240,78.12079243271,523.4117,-76.2000,-7.2193,-0.0897,-0.0335,-0.735438826,-0.206156789,178.761527695,0.0601,0.0609,0.0556,0.0195,0.0197,0.0136,0.0222,0.0218,0.4444,ab001241,0*06611cc7
#INSPVAXA,FILE,0,27.5,FINESTEERING,2319,305902.200,02000000,46eb,17139;INS_SOLUTION_GOOD,INS_RTKFIXED,17.59802662770,78.12079239502,523.4100,-76.2000,-7.2398,-0.0773,-0.0362,-0.706673727,-0.133838699,178.664637680,0.0601,0.0609,0.0556,0.0195,0.0197,0.0136,0.0222,0.0218,0.4444,ab001241,0*5c6e469c
#INSPVAXA,FILE,0,27.5,FINESTEERING,2319,305902.250,02000000,46eb,17139;INS_SOLUTION_GOOD,INS_RTKFIXED,17.59802334339,78.12079236522,523.4085,-76.2000,-7.2613,-0.0584,-0.0328,-0.721332062,-0.035651271,178.566760969,0.0601,0.0609,0.0556,0.0195,0.0197,0.0136,0.0222,0.0218,0.4444,ab001241,0*efc64d25
#INSPVAXA,FILE,0,27.5,FINESTEERING,2319,305902.300,02000000,46eb,17139;INS_SOLUTION_GOOD,INS_RTKFIXED,17.59802004990,78.12079234502,523.4075,-76.2000,-7.2832,-0.0390,-0.0092,-0.673946143,0.046049672,178.473999424,0.0601,0.0609,0.0556,0.0195,0.0197,0.0136,0.0222,0.0218,0.4444,ab001241,0*4476a5ea
#INSPVAXA,FILE,0,27.5,FINESTEERING,2319,305902.350,02000000,46eb,17139;INS_SOLUTION_GOOD,INS_RTKFIXED,17.59801674753,78.12079233078,523.4071,-76.2000,-7.3020,-0.0327,-0.0106,-0.671885108,0.085246834,178.380497354,0.0601,0.0609,0.0556,0.0195,0.0197,0.0136,0.0222,0.0218,0.4444,ab001241,0*138b3e0c
#INSPVAXA,FILE,0,27.5,FINESTEERING,2319,305902.400,02000000,46eb,17139;INS_SOLUTION_GOOD,INS_RTKFIXED,17.59801343797,78.12079232139,523.4085,-76.2000,-7.3182,-0.0164,0.0462,-0.719349918,0.072277861,178.289015666,0.0601,0.0609,0.0556,0.0195,0.0197,0.0136,0.0222,0.0218,0.4444,ab001241,0*1b6f2db6
#INSPVAXA,FILE,0,27.5,FINESTEERING,2319,305902.450,02000000,46eb,17139;INS_SOLUTION_GOOD,INS_RTKFIXED,17.59801012071,78.12079232031,523.4109,-76.2000,-7.3342,0.0042,0.0537,-0.793098572,0.032999553,178.202629003,0.0601,0.0609,0.0556,0.0195,0.0197,0.0136,0.0222,0.0218,0.4444,ab001241,0*de9a7a73
#INSPVAXA,FILE,0,27.5,FINESTEERING,2319,305902.500,02000000,46eb,17139;INS_SOLUTION_GOOD,INS_RTKFIXED,17.59800679507,78.12079232851,523.4140,-76.2000,-7.3538,0.0224,0.0637,-0.848732099,-0.029733797,178.125429752,0.0601,0.0609,0.0556,0.0195,0.0197,0.0136,0.0222,0.0218,0.4444,ab001241,0*3ef9c3a9
#INSPVAXA,FILE,0,27.5,FINESTEERING,2319,305902.550,02000000,46eb,17139;INS_SOLUTION_GOOD,INS_RTKFIXED,17.59800346075,78.12079234536,523.4177,-76.2000,-7.3738,0.0418,0.0726,-0.851442527,-0.128742446,178.053729847,0.0601,0.0609,0.0556,0.0195,0.0197,0.0136,0.0222,0.0218,0.4444,ab001241,0*25fda8b1
#INSPVAXA,FILE,0,27.5,FINESTEERING,2319,305902.600,02000000,46eb,17139;INS_SOLUTION_GOOD,INS_RTKFIXED,17.59800011793,78.12079236352,523.4212,-76.2000,-7.3934,0.0349,0.0558,-0.860677012,-0.180614961,177.979459333,0.0601,0.0609,0.0556,0.0195,0.0197,0.0136,0.0222,0.0218,0.4444,ab001241,0*a4cca742
#INSPVAXA,FILE,0,27.5,FINESTEERING,2319,305902.650,02000000,46eb,17139;INS_SOLUTION_GOOD,INS_RTKFIXED,17.59799676564,78.12079238016,523.4241,-76.2000,-7.4159,0.0334,0.0384,-0.888715972,-0.251233873,177.887958280,0.0601,0.0609,0.0556,0.0195,0.0197,0.0136,0.0222,0.0218,0.4444,ab001241,0*ba0791b9
#INSPVAXA,FILE,0,27.5,FINESTEERING,2319,305902.700,02000000,46eb,17139;INS_SOLUTION_GOOD,INS_RTKFIXED,17.59799340401,78.12079240128,523.4259,-76.2000,-7.4368,0.0455,0.0231,-0.869932922,-0.295333484,177.804459521,0.0601,0.0609,0.0556,0.0195,0.0197,0.0136,0.0222,0.0218,0.4444,ab001241,0*6dbc70e0
