#BESTVELA,FILE,0,33.5,FINESTEERING,2317,466183.300,02000800,10a2,17139;SOL_COMPUTED,INS_PPP,0.000,23.000,0.0258,224.336408,-0.0016,0*b79533a6
#BESTVELA,FILE,0,33.5,FINESTEERING,2317,466183.350,02000800,10a2,17139;SOL_COMPUTED,INS_PPP,0.000,23.000,0.0251,221.108184,0.0025,0*8f9bf44c
#BESTVELA,FILE,0,33.5,FINESTEERING,2317,466183.400,02000800,10a2,17139;SOL_COMPUTED,INS_PPP,0.000,23.000,0.0252,213.871495,0.0034,0*137fa1db
#BESTVELA,FILE,0,33.5,FINESTEERING,2317,466183.550,02000800,10a2,17139;SOL_COMPUTED,INS_PPP,0.000,23.000,0.0241,219.078492,0.0010,0*0f260229
#BESTVELA,FILE,0,33.5,FINESTEERING,2317,466183.600,02000800,10a2,17139;SOL_COMPUTED,INS_PPP,0.000,23.000,0.0245,215.893497,0.0029,0*61d57115
#BESTVELA,FILE,0,33.5,FINESTEERING,2317,466183.650,02000800,10a2,17139;SOL_COMPUTED,INS_PPP,0.000,23.000,0.0246,217.983944,0.0016,0*5266c190
#BESTVELA,FILE,0,33.5,FINESTEERING,2317,466183.800,02000800,10a2,17139;SOL_COMPUTED,INS_PPP,0.000,23.000,0.0228,212.981627,0.0006,0*0b76086d
#BESTVELA,FILE,0,33.5,FINESTEERING,2317,466183.850,02000800,10a2,17139;SOL_COMPUTED,INS_PPP,0.000,23.000,0.0226,212.658170,0.0002,0*43c4cc9d
#BESTVELA,FILE,0,33.5,FINESTEERING,2317,466183.900,02000800,10a2,17139;SOL_COMPUTED,INS_PPP,0.000,23.000,0.0263,210.857860,0.0017,0*2baae229
#BESTVELA,FILE,0,33.5,FINESTEERING,2317,466183.950,02000800,10a2,17139;SOL_COMPUTED,INS_PPP,0.000,23.000,0.0275,217.495518,0.0012,0*58796392
#BESTVELA,FILE,0,33.5,FINESTEERING,2317,466184.100,02000800,10a2,17139;SOL_COMPUTED,INS_PPP,0.000,14.000,0.0228,219.851298,0.0024,0*bfbdd0f7
#BESTVELA,FILE,0,35.5,FINESTEERING,2317,466184.150,02000800,10a2,17139;SOL_COMPUTED,INS_PPP,0.000,14.000,0.0264,225.654929,0.0130,0*78e38bb8
#BESTVELA,FILE,0,35.5,FINESTEERING,2317,466184.200,02000800,10a2,17139;SOL_COMPUTED,INS_PPP,0.000,14.000,0.0253,223.357367,0.0166,0*87f5846a
#BESTVELA,FILE,0,35.5,FINESTEERING,2317,466184.350,02000800,10a2,17139;SOL_COMPUTED,INS_PPP,0.000,14.000,0.0329,202.642994,0.0078,0*d185f769
#BESTVELA,FILE,0,35.5,FINESTEERING,2317,466184.400,02000800,10a2,17139;SOL_COMPUTED,INS_PPP,0.000,14.000,0.0412,208.480397,0.0022,0*6919c610
#BESTVELA,FILE,0,35.5,FINESTEERING,2317,466184.450,02000800,10a2,17139;SOL_COMPUTED,INS_PPP,0.000,14.000,0.0444,209.577799,-0.0020,0*53c13743
#BESTVELA,FILE,0,35.5,FINESTEERING,2317,466184.550,02000800,10a2,17139;SOL_COMPUTED,INS_PPP,0.000,14.000,0.0511,196.817691,0.0012,0*c75e1779
#BESTVELA,FILE,0,35.5,FINESTEERING,2317,466184.600,02000800,10a2,17139;SOL_COMPUTED,INS_PPP,0.000,14.000,0.0553,193.035691,0.0007,0*8add1730
#BESTVELA,FILE,0,35.5,FINESTEERING,2317,466184.700,02000800,10a2,17139;SOL_COMPUTED,INS_PPP,0.000,14.000,0.0581,198.769925,-0.0017,0*919a49cf
#BESTVELA,FILE,0,35.5,FINESTEERING,2317,466184.750,02000800,10a2,17139;SOL_COMPUTED,INS_PPP,0.000,14.000,0.0653,200.669244,-0.0003,0*2b22e104
#BESTVELA,FILE,0,35.5,FINESTEERING,2317,466184.850,02000800,10a2,17139;SOL_COMPUTED,INS_PPP,0.000,14.000,0.0637,198.900812,-0.0004,0*df390c92
#BESTVELA,FILE,0,35.5,FINESTEERING,2317,466184.900,02000800,10a2,17139;SOL_COMPUTED,INS_PPP,0.000,14.000,0.0689,196.967539,0.0013,0*7041baad
#BESTVELA,FILE,0,35.5,FINESTEERING,2317,466185.050,02000800,10a2,17139;SOL_COMPUTED,INS_PPP,0.000,15.000,0.0829,190.635776,-0.0023,0*f17eacdc
#BESTVELA,FILE,0,31.0,FINESTEERING,2317,466185.100,02000800,10a2,17139;SOL_COMPUTED,INS_PPP,0.000,15.000,0.0823,189.254297,-0.0016,0*342ed233
#BESTVELA,FILE,0,31.0,FINESTEERING,2317,466185.200,02000800,10a2,17139;SOL_COMPUTED,INS_PPP,0.000,15.000,0.0825,194.315788,-0.0011,0*d732aa38
#BESTVELA,FILE,0,31.0,FINESTEERING,2317,466185.250,02000800,10a2,17139;SOL_COMPUTED,INS_PPP,0.000,15.000,0.0860,193.714676,-0.0017,0*24726f0c
#BESTVELA,FILE,0,31.0,FINESTEERING,2317,466185.300,02000800,10a2,17139;SOL_COMPUTED,INS_PPP,0.000,15.000,0.0896,195.885006,-0.0005,0*c6d0bfc8
#BESTVELA,FILE,0,31.0,FINESTEERING,2317,466185.400,02000800,10a2,17139;SOL_COMPUTED,INS_PPP,0.000,15.000,0.0789,193.751289,-0.0106,0*ff13d720
#BESTVELA,FILE,0,31.0,FINESTEERING,2317,466185.500,02000800,10a2,17139;SOL_COMPUTED,INS_PPP,0.000,15.000,0.0653,196.697784,-0.0102,0*5f25cd8b
#BESTVELA,FILE,0,31.0,FINESTEERING,2317,466185.550,02000800,10a2,17139;SOL_COMPUTED,INS_PPP,0.000,15.000,0.0522,200.361099,-0.0047,0*bfd8ffec
#BESTVELA,FILE,0,31.0,FINESTEERING,2317,466185.700,02000800,10a2,17139;SOL_COMPUTED,INS_PPP,0.000,15.000,0.0155,233.901240,-0.0028,0*0fd1fc39
#BESTVELA,FILE,0,31.0,FINESTEERING,2317,466185.750,02000800,10a2,17139;SOL_COMPUTED,INS_PPP,0.000,15.000,0.0138,284.521753,0.0001,0*0e0bbad2
#BESTVELA,FILE,0,31.0,FINESTEERING,2317,466185.850,02000800,10a2,17139;SOL_COMPUTED,INS_PPP,0.000,15.000,0.0279,336.730727,-0.0023,0*225d2e51
#BESTVELA,FILE,0,31.0,FINESTEERING,2317,466185.900,02000800,10a2,17139;SOL_COMPUTED,INS_PPP,0.000,15.000,0.0507,346.374188,-0.0058,0*09c43dad
#BESTVELA,FILE,0,31.0,FINESTEERING,2317,466186.000,02000800,10a2,17139;SOL_COMPUTED,INS_PPP,0.000,15.000,0.0791,354.419751,-0.0014,0*3a8d4106
#BESTVELA,FILE,0,31.0,FINESTEERING,2317,466186.050,02000800,10a2,17139;SOL_COMPUTED,INS_PPP,0.000,16.000,0.0976,355.384699,-0.0005,0*6a7ee5e0
#BESTVELA,FILE,0,31.0,FINESTEERING,2317,466186.150,02000800,10a2,17139;SOL_COMPUTED,INS_PPP,0.000,16.000,0.1380,358.721543,-0.0017,0*7577ce6e
#BESTVELA,FILE,0,33.5,FINESTEERING,2317,466186.200,02000800,10a2,17139;SOL_COMPUTED,INS_PPP,0.000,16.000,0.1634,359.734108,-0.0025,0*6be49466
#BESTVELA,FILE,0,33.5,FINESTEERING,2317,466186.250,02000800,10a2,17139;SOL_COMPUTED,INS_PPP,0.000,16.000,0.1933,0.276020,-0.0059,0*6bfb3c5f
#BESTVELA,FILE,0,33.5,FINESTEERING,2317,466186.300,02000800,10a2,17139;SOL_COMPUTED,INS_PPP,0.000,16.000,0.2227,0.279770,-0.0061,0*bf8b6120
#BESTVELA,FILE,0,33.5,FINESTEERING,2317,466186.450,02000800,10a2,17139;SOL_COMPUTED,INS_PPP,0.000,16.000,0.3370,1.155565,-0.0010,0*449eadec
#BESTVELA,FILE,0,33.5,FINESTEERING,2317,466186.550,02000800,10a2,17139;SOL_COMPUTED,INS_PPP,0.000,16.000,0.4244,1.501753,0.0041,0*cd155c69
#BESTVELA,FILE,0,33.5,FINESTEERING,2317,466186.650,02000800,10a2,17139;SOL_COMPUTED,INS_PPP,0.000,16.000,0.5101,1.363564,0.0057,0*c0c72b18
#BESTVELA,FILE,0,33.5,FINESTEERING,2317,466186.700,02000800,10a2,17139;SOL_COMPUTED,INS_PPP,0.000,16.000,0.5547,1.559189,0.0009,0*34d337ac
#BESTVELA,FILE,0,33.5,FINESTEERING,2317,466186.750,02000800,10a2,17139;SOL_COMPUTED,INS_PPP,0.000,16.000,0.5987,1.489938,-0.0029,0*e1dd4d13
#BESTVELA,FILE,0,33.5,FINESTEERING,2317,466186.800,02000800,10a2,17139;SOL_COMPUTED,INS_PPP,0.000,16.000,0.6478,1.891827,-0.0042,0*fe887c3f
#BESTVELA,FILE,0,33.5,FINESTEERING,2317,466186.850,02000800,10a2,17139;SOL_COMPUTED,INS_PPP,0.000,16.000,0.7007,2.417384,-0.0068,0*3f4b6e44
#BESTVELA,FILE,0,33.5,FINESTEERING,2317,466186.900,02000800,10a2,17139;SOL_COMPUTED,INS_PPP,0.000,16.000,0.7468,2.761518,-0.0078,0*70d2d43e
#BESTVELA,FILE,0,33.5,FINESTEERING,2317,466186.950,02000800,10a2,17139;SOL_COMPUTED,INS_PPP,0.000,16.000,0.7945,3.303009,-0.0049,0*260d65a1
#BESTVELA,FILE,0,33.5,FINESTEERING,2317,466187.000,02000800,10a2,17139;SOL_COMPUTED,INS_PPP,0.000,16.000,0.8441,3.528466,0.0008,0*dbd1ec18
#BESTVELA,FILE,0,33.5,FINESTEERING,2317,466187.050,02000800,10a2,17139;SOL_COMPUTED,INS_PPP,0.000,17.000,0.8946,3.407917,0.0011,0*94372b3f
#BESTVELA,FILE,0,33.5,FINESTEERING,2317,466187.100,02000000,10a2,17139;SOL_COMPUTED,INS_PPP,0.000,17.000,0.9416,3.387160,-0.0005,0*39a2c832
#BESTVELA,FILE,0,36.5,FINESTEERING,2317,466187.150,02000000,10a2,17139;SOL_COMPUTED,INS_PPP,0.000,17.000,0.9891,3.330127,0.0010,0*5f849732
#BESTVELA,FILE,0,36.5,FINESTEERING,2317,466187.200,02000000,10a2,17139;SOL_COMPUTED,INS_PPP,0.000,17.000,1.0355,3.291168,-0.0016,0*cc9a3288
#BESTVELA,FILE,0,36.5,FINESTEERING,2317,466187.250,02000000,10a2,17139;SOL_COMPUTED,INS_PPP,0.000,17.000,1.0832,3.242447,0.0037,0*676014f2
#BESTVELA,FILE,0,36.5,FINESTEERING,2317,466187.300,02000000,10a2,17139;SOL_COMPUTED,INS_PPP,0.000,17.000,1.1320,2.990933,0.0042,0*5c360943
#BESTVELA,FILE,0,36.5,FINESTEERING,2317,466187.350,02000000,10a2,17139;SOL_COMPUTED,INS_PPP,0.000,17.000,1.1775,2.697994,0.0022,0*569b4147
#BESTVELA,FILE,0,36.5,FINESTEERING,2317,466187.400,02000000,10a2,17139;SOL_COMPUTED,INS_PPP,0.000,17.000,1.2280,2.543214,0.0005,0*b0fd19ae
#BESTVELA,FILE,0,36.5,FINESTEERING,2317,466187.450,02000000,10a2,17139;SOL_COMPUTED,INS_PPP,0.000,17.000,1.2767,2.695013,-0.0025,0*3b6ac75d
#BESTVELA,FILE,0,36.5,FINESTEERING,2317,466187.500,02000000,10a2,17139;SOL_COMPUTED,INS_PPP,0.000,17.000,1.3288,2.945592,-0.0016,0*a0010459
#BESTVELA,FILE,0,36.5,FINESTEERING,2317,466187.550,02000000,10a2,17139;SOL_COMPUTED,INS_PPP,0.000,17.000,1.3841,3.024040,-0.0057,0*7a3118d4
#BESTVELA,FILE,0,36.5,FINESTEERING,2317,466187.600,02000000,10a2,17139;SOL_COMPUTED,INS_PPP,0.000,17.000,1.4488,3.019526,-0.0092,0*86647b53
#BESTVELA,FILE,0,36.5,FINESTEERING,2317,466187.650,02000000,10a2,17139;SOL_COMPUTED,INS_PPP,0.000,17.000,1.5148,2.929489,-0.0069,0*e8aaeb8a
#BESTVELA,FILE,0,36.5,FINESTEERING,2317,466187.700,02000000,10a2,17139;SOL_COMPUTED,INS_PPP,0.000,17.000,1.6022,2.740265,-0.0283,0*0c5c4d3a
#BESTVELA,FILE,0,36.5,FINESTEERING,2317,466187.750,02000000,10a2,17139;SOL_COMPUTED,INS_PPP,0.000,17.000,1.7039,2.600803,-0.0493,0*4ebcb869
#BESTVELA,FILE,0,36.5,FINESTEERING,2317,466187.800,02000000,10a2,17139;SOL_COMPUTED,INS_PPP,0.000,17.000,1.7917,2.712352,-0.0509,0*62882b21
#BESTVELA,FILE,0,36.5,FINESTEERING,2317,466187.850,02000000,10a2,17139;SOL_COMPUTED,INS_PPP,0.000,17.000,1.8823,2.786897,-0.0281,0*e99af653
#BESTVELA,FILE,0,36.5,FINESTEERING,2317,466187.900,02000000,10a2,17139;SOL_COMPUTED,INS_PPP,0.000,17.000,1.9668,2.687759,0.0149,0*0875e46a
#BESTVELA,FILE,0,36.5,FINESTEERING,2317,466187.950,02000000,10a2,17139;SOL_COMPUTED,INS_PPP,0.000,17.000,2.0333,2.386458,0.0499,0*bf2e8207
#BESTVELA,FILE,0,36.5,FINESTEERING,2317,466188.000,02000000,10a2,17139;SOL_COMPUTED,INS_PPP,0.000,17.000,2.0752,2.415218,0.0734,0*dc338c61
#BESTVELA,FILE,0,36.5,FINESTEERING,2317,466188.050,02000000,10a2,17139;SOL_COMPUTED,INS_PPP,0.000,18.000,2.0980,2.619697,0.0730,0*3c01de4b
#BESTVELA,FILE,0,25.5,FINESTEERING,2317,466188.100,02000000,10a2,17139;SOL_COMPUTED,INS_PPP,0.000,18.000,2.1101,2.854994,0.0525,0*3399aeac
#BESTVELA,FILE,0,25.5,FINESTEERING,2317,466188.150,02000000,10a2,17139;SOL_COMPUTED,INS_PPP,0.000,18.000,2.1239,3.023122,0.0123,0*6697442d
#BESTVELA,FILE,0,25.5,FINESTEERING,2317,466188.200,02000000,10a2,17139;SOL_COMPUTED,INS_PPP,0.000,18.000,2.1471,2.886450,-0.0337,0*83663538
#BESTVELA,FILE,0,25.5,FINESTEERING,2317,466188.250,02000000,10a2,17139;SOL_COMPUTED,INS_PPP,0.000,18.000,2.1908,2.616122,-0.0650,0*351c2337
#BESTVELA,FILE,0,25.5,FINESTEERING,2317,466188.300,02000000,10a2,17139;SOL_COMPUTED,INS_PPP,0.000,18.000,2.2491,2.477271,-0.0868,0*88943df4
#BESTVELA,FILE,0,25.5,FINESTEERING,2317,466188.350,02000000,10a2,17139;SOL_COMPUTED,INS_PPP,0.000,18.000,2.3285,2.303352,-0.0874,0*8c984ada
#BESTVELA,FILE,0,25.5,FINESTEERING,2317,466188.400,02000000,10a2,17139;SOL_COMPUTED,INS_PPP,0.000,18.000,2.4241,2.047219,-0.0712,0*2ea3fd42
#BESTVELA,FILE,0,25.5,FINESTEERING,2317,466188.450,02000000,10a2,17139;SOL_COMPUTED,INS_PPP,0.000,18.000,2.5321,1.648268,-0.0500,0*95acc817
#BESTVELA,FILE,0,25.5,FINESTEERING,2317,466188.500,02000000,10a2,17139;SOL_COMPUTED,INS_PPP,0.000,18.000,2.6520,1.449722,-0.0316,0*7dfcd64b
#BESTVELA,FILE,0,25.5,FINESTEERING,2317,466188.550,02000000,10a2,17139;SOL_COMPUTED,INS_PPP,0.000,18.000,2.7529,1.646849,-0.0015,0*3b891b35
#BESTVELA,FILE,0,25.5,FINESTEERING,2317,466188.600,02000000,10a2,17139;SOL_COMPUTED,INS_PPP,0.000,18.000,2.8434,1.784458,0.0136,0*e35fe338
#BESTVELA,FILE,0,25.5,FINESTEERING,2317,466188.650,02000000,10a2,17139;SOL_COMPUTED,INS_PPP,0.000,18.000,2.9302,1.942765,0.0294,0*f92aa899
#BESTVELA,FILE,0,25.5,FINESTEERING,2317,466188.700,02000000,10a2,17139;SOL_COMPUTED,INS_PPP,0.000,18.000,3.0221,1.871081,0.0300,0*f8c4eb96
#BESTVELA,FILE,0,25.5,FINESTEERING,2317,466188.750,02000000,10a2,17139;SOL_COMPUTED,INS_PPP,0.000,18.000,3.0967,1.859811,0.0150,0*ff9cb45e
#BESTVELA,FILE,0,25.5,FINESTEERING,2317,466188.800,02000000,10a2,17139;SOL_COMPUTED,INS_PPP,0.000,18.000,3.1700,1.905428,-0.0055,0*7406e763
#BESTVELA,FILE,0,25.5,FINESTEERING,2317,466188.850,02000000,10a2,17139;SOL_COMPUTED,INS_PPP,0.000,18.000,3.2390,1.616459,-0.0356,0*05eec4aa
#BESTVELA,FILE,0,25.5,FINESTEERING,2317,466188.900,02000000,10a2,17139;SOL_COMPUTED,INS_PPP,0.000,18.000,3.3146,1.389187,-0.0541,0*79be2b61
#BESTVELA,FILE,0,25.5,FINESTEERING,2317,466188.950,02000000,10a2,17139;SOL_COMPUTED,INS_PPP,0.000,18.000,3.4048,1.151051,-0.0549,0*b6bbfe72
#BESTVELA,FILE,0,25.5,FINESTEERING,2317,466189.000,02000000,10a2,17139;SOL_COMPUTED,INS_PPP,0.000,18.000,3.5006,1.189141,-0.0418,0*c0d5d643
#BESTVELA,FILE,0,25.5,FINEBACKUPSTEERING,2317,466189.050,02000000,10a2,17139;SOL_COMPUTED,INS_PPP,0.000,19.000,3.5938,1.193890,-0.0178,0*cc369030
#BESTVELA,FILE,0,25.5,FINEBACKUPSTEERING,2317,466189.100,02000000,10a2,17139;SOL_COMPUTED,INS_PPP,0.000,19.000,3.6923,1.017892,-0.0181,0*3c934dd3
#BESTVELA,FILE,0,31.0,FINEBACKUPSTEERING,2317,466189.150,02000000,10a2,17139;SOL_COMPUTED,INS_PPP,0.000,19.000,3.7705,1.152706,0.0077,0*e3e79e3d
#BESTVELA,FILE,0,31.0,FINEBACKUPSTEERING,2317,466189.200,02000000,10a2,17139;SOL_COMPUTED,INS_PPP,0.000,19.000,3.8435,1.137942,0.0156,0*49ebd76b
#BESTVELA,FILE,0,31.0,FINEBACKUPSTEERING,2317,466189.250,02000000,10a2,17139;SOL_COMPUTED,INS_PPP,0.000,19.000,3.9141,1.134506,0.0260,0*8a110c3a
#BESTVELA,FILE,0,31.0,FINEBACKUPSTEERING,2317,466189.300,02000000,10a2,17139;SOL_COMPUTED,INS_PPP,0.000,19.000,3.9834,1.016447,0.0231,0*ed4ae098
#BESTVELA,FILE,0,31.0,FINEBACKUPSTEERING,2317,466189.350,02000000,10a2,17139;SOL_COMPUTED,INS_PPP,0.000,19.000,4.0422,0.973791,0.0114,0*f271dbc0
#BESTVELA,FILE,0,31.0,FINEBACKUPSTEERING,2317,466189.400,02000000,10a2,17139;SOL_COMPUTED,INS_PPP,0.000,19.000,4.1027,0.828181,-0.0031,0*6bc6251e
#BESTVELA,FILE,0,31.0,FINEBACKUPSTEERING,2317,466189.450,02000000,10a2,17139;SOL_COMPUTED,INS_PPP,0.000,19.000,4.1732,0.754667,-0.0114,0*3200e5d4
#BESTVELA,FILE,0,31.0,FINEBACKUPSTEERING,2317,466189.500,02000000,10a2,17139;SOL_COMPUTED,INS_PPP,0.000,19.000,4.2529,0.686716,-0.0255,0*89eefee8
#BESTVELA,FILE,0,31.0,FINEBACKUPSTEERING,2317,466189.550,02000000,10a2,17139;SOL_COMPUTED,INS_PPP,0.000,19.000,4.3247,0.517073,-0.0165,0*b63c9421
#BESTVELA,FILE,0,31.0,FINEBACKUPSTEERING,2317,466189.600,02000000,10a2,17139;SOL_COMPUTED,INS_PPP,0.000,19.000,4.3920,0.572730,-0.0039,0*339068ba
#BESTVELA,FILE,0,31.0,FINEBACKUPSTEERING,2317,466189.650,02000000,10a2,17139;SOL_COMPUTED,INS_PPP,0.000,19.000,4.4448,0.617272,0.0089,0*08435673
#BESTVELA,FILE,0,31.0,FINEBACKUPSTEERING,2317,466189.700,02000000,10a2,17139;SOL_COMPUTED,INS_PPP,0.000,19.000,4.5060,0.576814,0.0171,0*568eb6cb
#BESTVELA,FILE,0,31.0,FINEBACKUPSTEERING,2317,466189.750,02000000,10a2,17139;SOL_COMPUTED,INS_PPP,0.000,19.000,4.5754,0.134655,0.0238,0*faaafadc
#BESTVELA,FILE,0,31.0,FINEBACKUPSTEERING,2317,466189.800,02000000,10a2,17139;SOL_COMPUTED,INS_PPP,0.000,19.000,4.6482,359.879218,0.0283,0*1cd71ac1
#BESTVELA,FILE,0,31.0,FINEBACKUPSTEERING,2317,466189.850,02000000,10a2,17139;SOL_COMPUTED,INS_PPP,0.000,19.000,4.7063,359.746398,0.0091,0*3941d85f
#BESTVELA,FILE,0,31.0,FINEBACKUPSTEERING,2317,466189.900,02000000,10a2,17139;SOL_COMPUTED,INS_PPP,0.000,19.000,4.7846,359.495958,0.0178,0*f6069b53
#BESTVELA,FILE,0,31.0,FINEBACKUPSTEERING,2317,466189.950,02000000,10a2,17139;SOL_COMPUTED,INS_PPP,0.000,19.000,4.8533,359.440413,0.0172,0*082b699d
#BESTVELA,FILE,0,31.0,FINEBACKUPSTEERING,2317,466190.000,02000000,10a2,17139;SOL_COMPUTED,INS_PPP,0.000,19.000,4.9141,359.716661,-0.0076,0*03607368
#BESTVELA,FILE,0,31.0,FINEBACKUPSTEERING,2317,466190.050,02000000,10a2,17139;SOL_COMPUTED,INS_PPP,0.000,10.000,4.9782,359.750491,-0.0139,0*e083a760
#BESTVELA,FILE,0,31.0,FINEBACKUPSTEERING,2317,466190.100,02000000,10a2,17139;SOL_COMPUTED,INS_PPP,0.000,10.000,5.0277,359.850034,-0.0002,0*c66bb1ab
#BESTVELA,FILE,0,31.0,FINEBACKUPSTEERING,2317,466190.150,02000000,10a2,17139;SOL_COMPUTED,INS_PPP,0.000,10.000,5.0865,359.870215,0.0383,0*7541ccc7
#BESTVELA,FILE,0,31.0,FINEBACKUPSTEERING,2317,466190.200,02000000,10a2,17139;SOL_COMPUTED,INS_PPP,0.000,10.000,5.1686,0.245083,0.1586,0*edca86ca
#BESTVELA,FILE,0,31.0,FINEBACKUPSTEERING,2317,466190.250,02000000,10a2,17139;SOL_COMPUTED,INS_PPP,0.000,10.000,5.2710,359.974834,0.0851,0*7e613536
#BESTVELA,FILE,0,31.0,FINEBACKUPSTEERING,2317,466190.300,02000000,10a2,17139;SOL_COMPUTED,INS_PPP,0.000,10.000,5.2997,359.650017,0.0866,0*d1c7230a
#BESTVELA,FILE,0,31.0,FINEBACKUPSTEERING,2317,466190.350,02000000,10a2,17139;SOL_COMPUTED,INS_PPP,0.000,10.000,5.3407,359.720408,0.0410,0*c980ec9a
#BESTVELA,FILE,0,31.0,FINEBACKUPSTEERING,2317,466190.400,02000000,10a2,17139;SOL_COMPUTED,INS_PPP,0.000,10.000,5.3564,359.698494,0.0197,0*dc4d617e
#BESTVELA,FILE,0,31.0,FINEBACKUPSTEERING,2317,466190.450,02000000,10a2,17139;SOL_COMPUTED,INS_PPP,0.000,10.000,5.3441,359.731177,0.0409,0*89004377
#BESTVELA,FILE,0,31.0,FINEBACKUPSTEERING,2317,466190.500,02000000,10a2,17139;SOL_COMPUTED,INS_PPP,0.000,10.000,5.3417,359.617469,0.0588,0*37b5a52b
#BESTVELA,FILE,0,31.0,FINEBACKUPSTEERING,2317,466190.550,02000000,10a2,17139;SOL_COMPUTED,INS_PPP,0.000,10.000,5.3467,359.318015,0.0841,0*d48df927
#BESTVELA,FILE,0,31.0,FINEBACKUPSTEERING,2317,466190.600,02000000,10a2,17139;SOL_COMPUTED,INS_PPP,0.000,10.000,5.3514,359.174609,0.0813,0*6a963429
#BESTVELA,FILE,0,31.0,FINEBACKUPSTEERING,2317,466190.650,02000000,10a2,17139;SOL_COMPUTED,INS_PPP,0.000,10.000,5.3368,359.275583,0.0355,0*20a538ac
#BESTVELA,FILE,0,31.0,FINEBACKUPSTEERING,2317,466190.700,02000000,10a2,17139;SOL_COMPUTED,INS_PPP,0.000,10.000,5.2994,359.372923,0.0155,0*bb5064d5
#BESTVELA,FILE,0,31.0,FINEBACKUPSTEERING,2317,466190.750,02000000,10a2,17139;SOL_COMPUTED,INS_PPP,0.000,10.000,5.2726,359.399227,0.0148,0*c91342d3
#BESTVELA,FILE,0,31.0,FINEBACKUPSTEERING,2317,466190.800,02000000,10a2,17139;SOL_COMPUTED,INS_PPP,0.000,10.000,5.2614,359.294664,-0.0008,0*210d5fd2
#BESTVELA,FILE,0,31.0,FINEBACKUPSTEERING,2317,466190.850,02000000,10a2,17139;SOL_COMPUTED,INS_PPP,0.000,10.000,5.2534,359.249133,0.0042,0*b691368f
#BESTVELA,FILE,0,31.0,FINEBACKUPSTEERING,2317,466190.900,02000000,10a2,17139;SOL_COMPUTED,INS_PPP,0.000,10.000,5.2471,359.083470,0.0476,0*22beb74e
#BESTVELA,FILE,0,31.0,FINEBACKUPSTEERING,2317,466190.950,02000000,10a2,17139;SOL_COMPUTED,INS_PPP,0.000,10.000,5.2504,358.824799,0.0728,0*0ac1cd2a
#BESTVELA,FILE,0,31.0,FINEBACKUPSTEERING,2317,466191.000,02000000,10a2,17139;SOL_COMPUTED,INS_PPP,0.000,10.000,5.2451,358.645112,0.0732,0*e5b399a4
#BESTVELA,FILE,0,31.0,FINEBACKUPSTEERING,2317,466191.050,02000000,10a2,17139;SOL_COMPUTED,INS_PPP,0.000,11.000,5.2416,358.605590,0.0724,0*2602909b
#BESTVELA,FILE,0,26.5,FINEBACKUPSTEERING,2317,466191.100,02000000,10a2,17139;SOL_COMPUTED,INS_PPP,0.000,11.000,5.2280,358.692535,0.0801,0*08dc0e72
#BESTVELA,FILE,0,26.5,FINEBACKUPSTEERING,2317,466191.150,02000000,10a2,17139;SOL_COMPUTED,INS_PPP,0.000,11.000,5.2138,358.654656,0.0559,0*fb21ba04
#BESTVELA,FILE,0,26.5,FINEBACKUPSTEERING,2317,466191.200,02000000,10a2,17139;SOL_COMPUTED,INS_PPP,0.000,11.000,5.1960,358.685854,0.0488,0*7519f94c
#BESTVELA,FILE,0,26.5,FINEBACKUPSTEERING,2317,466191.250,02000000,10a2,17139;SOL_COMPUTED,INS_PPP,0.000,11.000,5.1751,358.447817,0.0258,0*e5a311c3
#BESTVELA,FILE,0,26.5,FINEBACKUPSTEERING,2317,466191.300,02000000,10a2,17139;SOL_COMPUTED,INS_PPP,0.000,11.000,5.1624,358.285885,0.0201,0*fc4db02a
#BESTVELA,FILE,0,26.5,FINEBACKUPSTEERING,2317,466191.350,02000000,10a2,17139;SOL_COMPUTED,INS_PPP,0.000,11.000,5.1437,358.298704,0.0134,0*cc058131
#BESTVELA,FILE,0,26.5,FINEBACKUPSTEERING,2317,466191.400,02000000,10a2,17139;SOL_COMPUTED,INS_PPP,0.000,11.000,5.1203,358.430916,0.0249,0*1c9e6947
#BESTVELA,FILE,0,26.5,FINEBACKUPSTEERING,2317,466191.450,02000000,10a2,17139;SOL_COMPUTED,INS_PPP,0.000,11.000,5.1078,358.195959,0.0473,0*f892a8e9
#BESTVELA,FILE,0,26.5,FINEBACKUPSTEERING,2317,466191.500,02000000,10a2,17139;SOL_COMPUTED,INS_PPP,0.000,11.000,5.0837,358.308405,0.0666,0*5cb6206c
#BESTVELA,FILE,0,26.5,FINEBACKUPSTEERING,2317,466191.550,02000000,10a2,17139;SOL_COMPUTED,INS_PPP,0.000,11.000,5.0599,358.410771,0.0622,0*1f5429b8
#BESTVELA,FILE,0,26.5,FINEBACKUPSTEERING,2317,466191.600,02000000,10a2,17139;SOL_COMPUTED,INS_PPP,0.000,11.000,5.0457,358.434341,0.0447,0*a1dd2199
#BESTVELA,FILE,0,26.5,FINEBACKUPSTEERING,2317,466191.650,02000000,10a2,17139;SOL_COMPUTED,INS_PPP,0.000,11.000,5.0188,358.727325,0.0214,0*f1938505
#BESTVELA,FILE,0,26.5,FINEBACKUPSTEERING,2317,466191.700,02000000,10a2,17139;SOL_COMPUTED,INS_PPP,0.000,11.000,5.0202,358.621333,-0.0088,0*9ac8f74e
#BESTVELA,FILE,0,26.5,FINEBACKUPSTEERING,2317,466191.750,02000000,10a2,17139;SOL_COMPUTED,INS_PPP,0.000,11.000,5.0569,358.293236,-0.0414,0*e9a5578c
#BESTVELA,FILE,0,26.5,FINEBACKUPSTEERING,2317,466191.800,02000000,10a2,17139;SOL_COMPUTED,INS_PPP,0.000,11.000,5.1318,357.933157,-0.0658,0*be1f66ff
#BESTVELA,FILE,0,26.5,FINEBACKUPSTEERING,2317,466191.850,02000000,10a2,17139;SOL_COMPUTED,INS_PPP,0.000,11.000,5.1728,358.309864,-0.0098,0*2579be88
#BESTVELA,FILE,0,26.5,FINEBACKUPSTEERING,2317,466191.900,02000000,10a2,17139;SOL_COMPUTED,INS_PPP,0.000,11.000,5.2108,358.443575,0.0484,0*2bba784a
#BESTVELA,FILE,0,26.5,FINEBACKUPSTEERING,2317,466191.950,02000000,10a2,17139;SOL_COMPUTED,INS_PPP,0.000,11.000,5.2874,358.345382,0.0850,0*684c62ab
#BESTVELA,FILE,0,26.5,FINEBACKUPSTEERING,2317,466192.000,02000000,10a2,17139;SOL_COMPUTED,INS_PPP,0.000,11.000,5.3473,358.316771,0.1019,0*35f45a49
#BESTVELA,FILE,0,26.5,FINEBACKUPSTEERING,2317,466192.050,02000000,10a2,17139;SOL_COMPUTED,INS_PPP,0.000,12.000,5.4037,358.383695,0.0957,0*ac865466
#BESTVELA,FILE,0,26.5,FINEBACKUPSTEERING,2317,466192.100,02000000,10a2,17139;SOL_COMPUTED,INS_PPP,0.000,12.000,5.4588,358.488514,0.0835,0*fbdc76b6
#BESTVELA,FILE,0,35.0,FINEBACKUPSTEERING,2317,466192.150,02000000,10a2,17139;SOL_COMPUTED,INS_PPP,0.000,12.000,5.5108,358.640672,0.0622,0*c26863ec
#BESTVELA,FILE,0,35.0,FINEBACKUPSTEERING,2317,466192.200,02000000,10a2,17139;SOL_COMPUTED,INS_PPP,0.000,12.000,5.5450,358.665234,0.0601,0*2c77899c
#BESTVELA,FILE,0,35.0,FINEBACKUPSTEERING,2317,466192.250,02000000,10a2,17139;SOL_COMPUTED,INS_PPP,0.000,12.000,5.5888,358.335976,0.0315,0*e1e5a307
#BESTVELA,FILE,0,35.0,FINEBACKUPSTEERING,2317,466192.300,02000000,10a2,17139;SOL_COMPUTED,INS_PPP,0.000,12.000,5.6184,358.334234,0.0550,0*4e78f7f1
#BESTVELA,FILE,0,35.0,FINEBACKUPSTEERING,2317,466192.350,02000000,10a2,17139;SOL_COMPUTED,INS_PPP,0.000,12.000,5.6721,358.335934,0.0478,0*937ca720
#BESTVELA,FILE,0,35.0,FINEBACKUPSTEERING,2317,466192.400,02000000,10a2,17139;SOL_COMPUTED,INS_PPP,0.000,12.000,5.7043,358.418391,0.0352,0*7662a35b
#BESTVELA,FILE,0,35.0,FINEBACKUPSTEERING,2317,466192.450,02000000,10a2,17139;SOL_COMPUTED,INS_PPP,0.000,12.000,5.7512,358.117221,0.0130,0*d6c26303
#BESTVELA,FILE,0,35.0,FINEBACKUPSTEERING,2317,466192.500,02000000,10a2,17139;SOL_COMPUTED,INS_PPP,0.000,12.000,5.8000,358.345380,0.0145,0*593a8ec9
#BESTVELA,FILE,0,35.0,FINEBACKUPSTEERING,2317,466192.550,02000000,10a2,17139;SOL_COMPUTED,INS_PPP,0.000,12.000,5.8600,358.670340,0.0429,0*1732e8f9
#BESTVELA,FILE,0,35.0,FINEBACKUPSTEERING,2317,466192.600,02000000,10a2,17139;SOL_COMPUTED,INS_PPP,0.000,12.000,5.9377,358.680879,0.0518,0*9c64a98c
#BESTVELA,FILE,0,35.0,FINEBACKUPSTEERING,2317,466192.650,02000000,10a2,17139;SOL_COMPUTED,INS_PPP,0.000,12.000,6.0260,358.607981,0.0260,0*b363c785
#BESTVELA,FILE,0,35.0,FINEBACKUPSTEERING,2317,466192.700,02000000,10a2,17139;SOL_COMPUTED,INS_PPP,0.000,12.000,6.0639,358.547567,0.0178,0*a4a18358
#BESTVELA,FILE,0,35.0,FINEBACKUPSTEERING,2317,466192.750,02000000,10a2,17139;SOL_COMPUTED,INS_PPP,0.000,12.000,6.1020,358.486236,0.0187,0*8d6417f3
#BESTVELA,FILE,0,35.0,FINEBACKUPSTEERING,2317,466192.800,02000000,10a2,17139;SOL_COMPUTED,INS_PPP,0.000,12.000,6.1756,358.538801,0.0578,0*acdfd34d
#BESTVELA,FILE,0,35.0,FINEBACKUPSTEERING,2317,466192.850,02000000,10a2,17139;SOL_COMPUTED,INS_PPP,0.000,12.000,6.2426,358.610638,0.0922,0*21128197
#BESTVELA,FILE,0,35.0,FINEBACKUPSTEERING,2317,466192.900,02000000,10a2,17139;SOL_COMPUTED,INS_PPP,0.000,12.000,6.2935,358.658724,0.1076,0*66128e71
#BESTVELA,FILE,0,35.0,FINEBACKUPSTEERING,2317,466192.950,02000000,10a2,17139;SOL_COMPUTED,INS_PPP,0.000,12.000,6.3475,358.962971,0.0797,0*cb18d1f8
#BESTVELA,FILE,0,35.0,FINEBACKUPSTEERING,2317,466193.000,02000000,10a2,17139;SOL_COMPUTED,INS_PPP,0.000,12.000,6.4148,358.924209,0.0180,0*52bbb23c
#BESTVELA,FILE,0,35.0,FINEBACKUPSTEERING,2317,466193.050,02000000,10a2,17139;SOL_COMPUTED,INS_PPP,0.000,13.000,6.4567,358.938819,0.0169,0*1dfaf43d
#BESTVELA,FILE,0,35.0,FINEBACKUPSTEERING,2317,466193.100,02000000,10a2,17139;SOL_COMPUTED,INS_PPP,0.000,13.000,6.5054,358.951464,0.0161,0*a89e1163
#BESTVELA,FILE,0,36.5,FINEBACKUPSTEERING,2317,466193.150,02000000,10a2,17139;SOL_COMPUTED,INS_PPP,0.000,13.000,6.5653,358.961772,0.0057,0*18820a8a
#BESTVELA,FILE,0,36.5,FINEBACKUPSTEERING,2317,466193.200,02000000,10a2,17139;SOL_COMPUTED,INS_PPP,0.000,13.000,6.6429,358.828299,0.0035,0*cb79521f
#BESTVELA,FILE,0,36.5,FINEBACKUPSTEERING,2317,466193.250,02000000,10a2,17139;SOL_COMPUTED,INS_PPP,0.000,13.000,6.7086,358.762149,0.0150,0*5b3770d3
#BESTVELA,FILE,0,36.5,FINEBACKUPSTEERING,2317,466193.300,02000000,10a2,17139;SOL_COMPUTED,INS_PPP,0.000,13.000,6.7981,358.616733,0.0476,0*475678ed
#BESTVELA,FILE,0,36.5,FINEBACKUPSTEERING,2317,466193.350,02000000,10a2,17139;SOL_COMPUTED,INS_PPP,0.000,13.000,6.8853,358.658318,0.0376,0*c45ee8b9
#BESTVELA,FILE,0,36.5,FINEBACKUPSTEERING,2317,466193.400,02000000,10a2,17139;SOL_COMPUTED,INS_PPP,0.000,13.000,6.9441,358.670466,0.0384,0*5769f6fb
#BESTVELA,FILE,0,36.5,FINEBACKUPSTEERING,2317,466193.450,02000000,10a2,17139;SOL_COMPUTED,INS_PPP,0.000,13.000,6.9845,358.776804,0.0703,0*9fda5c93
#BESTVELA,FILE,0,36.5,FINEBACKUPSTEERING,2317,466193.500,02000000,10a2,17139;SOL_COMPUTED,INS_PPP,0.000,13.000,7.0481,358.796110,0.0518,0*c9ec1c15
#BESTVELA,FILE,0,36.5,FINEBACKUPSTEERING,2317,466193.550,02000000,10a2,17139;SOL_COMPUTED,INS_PPP,0.000,13.000,7.1019,358.903288,0.0139,0*c3c9e8ca
#BESTVELA,FILE,0,36.5,FINEBACKUPSTEERING,2317,466193.600,02000000,10a2,17139;SOL_COMPUTED,INS_PPP,0.000,13.000,7.1482,358.852165,0.0187,0*2fd15216
#BESTVELA,FILE,0,36.5,FINEBACKUPSTEERING,2317,466193.650,02000000,10a2,17139;SOL_COMPUTED,INS_PPP,0.000,13.000,7.2123,358.604706,0.0210,0*e1c405db
#BESTVELA,FILE,0,36.5,FINEBACKUPSTEERING,2317,466193.700,02000000,10a2,17139;SOL_COMPUTED,INS_PPP,0.000,13.000,7.2712,358.532986,0.0317,0*490be3a7
#BESTVELA,FILE,0,36.5,FINEBACKUPSTEERING,2317,466193.750,02000000,10a2,17139;SOL_COMPUTED,INS_PPP,0.000,13.000,7.3533,358.495461,0.0442,0*303d4002
#BESTVELA,FILE,0,36.5,FINEBACKUPSTEERING,2317,466193.800,02000000,10a2,17139;SOL_COMPUTED,INS_PPP,0.000,13.000,7.4249,358.529684,0.0596,0*d0184893
#BESTVELA,FILE,0,36.5,FINEBACKUPSTEERING,2317,466193.850,02000000,10a2,17139;SOL_COMPUTED,INS_PPP,0.000,13.000,7.4892,358.627736,0.0617,0*5aad40d8
#BESTVELA,FILE,0,36.5,FINEBACKUPSTEERING,2317,466193.900,02000000,10a2,17139;SOL_COMPUTED,INS_PPP,0.000,13.000,7.5526,358.610806,0.0632,0*d1f9553f
#BESTVELA,FILE,0,36.5,FINEBACKUPSTEERING,2317,466193.950,02000000,10a2,17139;SOL_COMPUTED,INS_PPP,0.000,13.000,7.6193,358.804086,0.1019,0*7569d3a6
#BESTVELA,FILE,0,36.5,FINEBACKUPSTEERING,2317,466194.000,02000000,10a2,17139;SOL_COMPUTED,INS_PPP,0.000,13.000,7.7166,358.616349,0.0432,0*2a3994ff
#BESTVELA,FILE,0,36.5,FINEBACKUPSTEERING,2317,466194.050,02000000,10a2,17139;SOL_COMPUTED,INS_PPP,0.000,14.000,7.7832,358.787851,0.0529,0*afef3cc6
#BESTVELA,FILE,0,36.5,FINEBACKUPSTEERING,2317,466194.100,02000000,10a2,17139;SOL_COMPUTED,INS_PPP,0.000,14.000,7.8537,358.822281,0.0367,0*af43df0c
#BESTVELA,FILE,0,36.5,FINEBACKUPSTEERING,2317,466194.150,02000000,10a2,17139;SOL_COMPUTED,INS_PPP,0.000,14.000,7.9095,358.765343,0.0375,0*c73b6fd7
#BESTVELA,FILE,0,36.5,FINEBACKUPSTEERING,2317,466194.200,02000000,10a2,17139;SOL_COMPUTED,INS_PPP,0.000,14.000,7.9772,358.783623,0.0656,0*9994a55a
#BESTVELA,FILE,0,37.5,FINEBACKUPSTEERING,2317,466194.250,02000000,10a2,17139;SOL_COMPUTED,INS_PPP,0.000,14.000,8.0428,358.779003,0.0972,0*3ac48490
#BESTVELA,FILE,0,37.5,FINEBACKUPSTEERING,2317,466194.300,02000000,10a2,17139;SOL_COMPUTED,INS_PPP,0.000,14.000,8.1210,358.754996,0.0567,0*d22a333e
#BESTVELA,FILE,0,37.5,FINEBACKUPSTEERING,2317,466194.350,02000000,10a2,17139;SOL_COMPUTED,INS_PPP,0.000,14.000,8.1572,358.784882,0.0377,0*fee0a620
#BESTVELA,FILE,0,37.5,FINEBACKUPSTEERING,2317,466194.400,02000000,10a2,17139;SOL_COMPUTED,INS_PPP,0.000,14.000,8.2091,358.811643,0.0222,0*28ebe746
#BESTVELA,FILE,0,37.5,FINEBACKUPSTEERING,2317,466194.450,02000000,10a2,17139;SOL_COMPUTED,INS_PPP,0.000,14.000,8.2725,358.621555,-0.0018,0*6f48d8d8
#BESTVELA,FILE,0,37.5,FINEBACKUPSTEERING,2317,466194.500,02000000,10a2,17139;SOL_COMPUTED,INS_PPP,0.000,14.000,8.3185,358.656620,-0.0079,0*174cca48
#BESTVELA,FILE,0,37.5,FINESTEERING,2317,466194.550,02000000,10a2,17139;SOL_COMPUTED,INS_PPP,0.000,14.000,8.3739,358.752903,0.0045,0*ff93dab7
#BESTVELA,FILE,0,37.5,FINESTEERING,2317,466194.600,02000000,10a2,17139;SOL_COMPUTED,INS_PPP,0.000,14.000,8.4552,358.881222,0.0192,0*ac45c77a
#BESTVELA,FILE,0,37.5,FINESTEERING,2317,466194.650,02000000,10a2,17139;SOL_COMPUTED,INS_PPP,0.000,14.000,8.5779,358.884934,0.0602,0*c0cf9fa7
#BESTVELA,FILE,0,37.5,FINESTEERING,2317,466194.700,02000000,10a2,17139;SOL_COMPUTED,INS_PPP,0.000,14.000,8.6553,358.555489,-0.0013,0*b9daba65
#BESTVELA,FILE,0,37.5,FINESTEERING,2317,466194.750,02000000,10a2,17139;SOL_COMPUTED,INS_PPP,0.000,14.000,8.6830,358.432650,0.0254,0*ad6ac6fc
#BESTVELA,FILE,0,37.5,FINESTEERING,2317,466194.800,02000000,10a2,17139;SOL_COMPUTED,INS_PPP,0.000,14.000,8.7629,358.401604,0.1129,0*33add48c
#BESTVELA,FILE,0,37.5,FINESTEERING,2317,466194.850,02000000,10a2,17139;SOL_COMPUTED,INS_PPP,0.000,14.000,8.8259,358.415254,0.0112,0*50e648e7
#BESTVELA,FILE,0,37.5,FINESTEERING,2317,466194.900,02000000,10a2,17139;SOL_COMPUTED,INS_PPP,0.000,14.000,8.8421,358.744408,0.0095,0*89010905
#BESTVELA,FILE,0,37.5,FINESTEERING,2317,466194.950,02000000,10a2,17139;SOL_COMPUTED,INS_PPP,0.000,14.000,8.8713,358.727297,0.0249,0*9c1b8e4a
#BESTVELA,FILE,0,37.5,FINESTEERING,2317,466195.000,02000000,10a2,17139;SOL_COMPUTED,INS_PPP,0.000,14.000,8.9415,358.553834,0.0283,0*56438ec1
#BESTVELA,FILE,0,37.5,FINESTEERING,2317,466195.050,02000000,10a2,17139;SOL_COMPUTED,INS_PPP,0.000,15.000,9.0107,358.318112,0.0229,0*1281af76
#BESTVELA,FILE,0,32.5,FINESTEERING,2317,466195.100,02000000,10a2,17139;SOL_COMPUTED,INS_PPP,0.000,15.000,9.0781,358.230238,0.0546,0*517ca1d8
#BESTVELA,FILE,0,32.5,FINESTEERING,2317,466195.150,02000000,10a2,17139;SOL_COMPUTED,INS_PPP,0.000,15.000,9.1764,358.347055,0.0891,0*d6c81aa9
#BESTVELA,FILE,0,32.5,FINESTEERING,2317,466195.200,02000000,10a2,17139;SOL_COMPUTED,INS_PPP,0.000,15.000,9.2552,358.476279,0.1213,0*8ec0ada8
#BESTVELA,FILE,0,32.5,FINESTEERING,2317,466195.250,02000000,10a2,17139;SOL_COMPUTED,INS_PPP,0.000,15.000,9.3331,358.476452,0.1202,0*028f0f14
#BESTVELA,FILE,0,32.5,FINESTEERING,2317,466195.300,02000000,10a2,17139;SOL_COMPUTED,INS_PPP,0.000,15.000,9.3880,358.467297,0.1630,0*899743c8
#BESTVELA,FILE,0,32.5,FINESTEERING,2317,466195.350,02000000,10a2,17139;SOL_COMPUTED,INS_PPP,0.000,15.000,9.4425,358.318958,0.1271,0*95c53fa2
#BESTVELA,FILE,0,32.5,FINESTEERING,2317,466195.400,02000000,10a2,17139;SOL_COMPUTED,INS_PPP,0.000,15.000,9.4795,358.433385,0.1117,0*0e5d6d89
#BESTVELA,FILE,0,32.5,FINESTEERING,2317,466195.450,02000000,10a2,17139;SOL_COMPUTED,INS_PPP,0.000,15.000,9.5085,358.579705,0.0987,0*54804cc7
#BESTVELA,FILE,0,32.5,FINESTEERING,2317,466195.500,02000000,10a2,17139;SOL_COMPUTED,INS_PPP,0.000,15.000,9.5453,358.639176,0.0631,0*61949cfb
#BESTVELA,FILE,0,32.5,FINESTEERING,2317,466195.550,02000000,10a2,17139;SOL_COMPUTED,INS_PPP,0.000,15.000,9.5346,358.506556,0.0482,0*2c2712a7
#BESTVELA,FILE,0,32.5,FINESTEERING,2317,466195.600,02000000,10a2,17139;SOL_COMPUTED,INS_PPP,0.000,15.000,9.5235,358.417601,0.0342,0*bd96c7ff
#BESTVELA,FILE,0,32.5,FINESTEERING,2317,466195.650,02000000,10a2,17139;SOL_COMPUTED,INS_PPP,0.000,15.000,9.5210,358.381770,0.0246,0*f3e29265
#BESTVELA,FILE,0,32.5,FINESTEERING,2317,466195.700,02000000,10a2,17139;SOL_COMPUTED,INS_PPP,0.000,15.000,9.4923,358.504611,0.0004,0*650601af
#BESTVELA,FILE,0,32.5,FINESTEERING,2317,466195.750,02000000,10a2,17139;SOL_COMPUTED,INS_PPP,0.000,15.000,9.4724,358.555650,-0.0281,0*2380a680
#BESTVELA,FILE,0,32.5,FINESTEERING,2317,466195.800,02000000,10a2,17139;SOL_COMPUTED,INS_PPP,0.000,15.000,9.4080,358.435741,-0.0599,0*2b41a181
#BESTVELA,FILE,0,32.5,FINESTEERING,2317,466195.850,02000000,10a2,17139;SOL_COMPUTED,INS_PPP,0.000,15.000,9.3853,358.300042,-0.0245,0*b9688095
#BESTVELA,FILE,0,32.5,FINESTEERING,2317,466195.900,02000000,10a2,17139;SOL_COMPUTED,INS_PPP,0.000,15.000,9.3968,357.993780,-0.0291,0*f1c70015
#BESTVELA,FILE,0,32.5,FINESTEERING,2317,466195.950,02000000,10a2,17139;SOL_COMPUTED,INS_PPP,0.000,15.000,9.3821,358.166145,-0.0234,0*df202995
#BESTVELA,FILE,0,32.5,FINESTEERING,2317,466196.000,02000000,10a2,17139;SOL_COMPUTED,INS_PPP,0.000,15.000,9.3529,358.282900,0.0030,0*fdc20af9
#BESTVELA,FILE,0,32.5,FINESTEERING,2317,466196.050,02000000,10a2,17139;SOL_COMPUTED,INS_PPP,0.000,16.000,9.3465,358.312976,0.0019,0*4dd44331
#BESTVELA,FILE,0,32.5,FINESTEERING,2317,466196.100,02000000,10a2,17139;SOL_COMPUTED,INS_PPP,0.000,16.000,9.3293,358.224744,-0.0109,0*31750b81
#BESTVELA,FILE,0,34.0,FINESTEERING,2317,466196.150,02000000,10a2,17139;SOL_COMPUTED,INS_PPP,0.000,16.000,9.2986,358.177918,-0.0297,0*3057e5d8
#BESTVELA,FILE,0,34.0,FINESTEERING,2317,466196.200,02000000,10a2,17139;SOL_COMPUTED,INS_PPP,0.000,16.000,9.2811,358.318199,-0.0231,0*bfe0f49e
#BESTVELA,FILE,0,34.0,FINESTEERING,2317,466196.250,02000000,10a2,17139;SOL_COMPUTED,INS_PPP,0.000,16.000,9.2471,358.346969,-0.0252,0*f7fb4725
#BESTVELA,FILE,0,34.0,FINESTEERING,2317,466196.300,02000000,10a2,17139;SOL_COMPUTED,INS_PPP,0.000,16.000,9.2293,358.412037,0.0002,0*b586e077
#BESTVELA,FILE,0,34.0,FINESTEERING,2317,466196.350,02000000,10a2,17139;SOL_COMPUTED,INS_PPP,0.000,16.000,9.2318,358.468177,0.0466,0*75d682fb
#BESTVELA,FILE,0,34.0,FINESTEERING,2317,466196.400,02000000,10a2,17139;SOL_COMPUTED,INS_PPP,0.000,16.000,9.2499,358.336529,0.0615,0*0b804328
#BESTVELA,FILE,0,34.0,FINESTEERING,2317,466196.450,02000000,10a2,17139;SOL_COMPUTED,INS_PPP,0.000,16.000,9.2648,358.504561,0.0935,0*21166dd7
#BESTVELA,FILE,0,34.0,FINESTEERING,2317,466196.500,02000000,10a2,17139;SOL_COMPUTED,INS_PPP,0.000,16.000,9.2764,358.721717,0.1383,0*28046944
#BESTVELA,FILE,0,34.0,FINESTEERING,2317,466196.550,02000000,10a2,17139;SOL_COMPUTED,INS_PPP,0.000,16.000,9.2778,358.648989,0.1876,0*74c6237d
#BESTVELA,FILE,0,34.0,FINESTEERING,2317,466196.600,02000000,10a2,17139;SOL_COMPUTED,INS_PPP,0.000,16.000,9.2119,358.513094,0.2092,0*0f5fdd98
#BESTVELA,FILE,0,34.0,FINESTEERING,2317,466196.650,02000000,10a2,17139;SOL_COMPUTED,INS_PPP,0.000,16.000,9.1657,358.218668,0.1412,0*1d870938
#BESTVELA,FILE,0,34.0,FINESTEERING,2317,466196.700,02000000,10a2,17139;SOL_COMPUTED,INS_PPP,0.000,16.000,9.1066,358.173642,0.0727,0*cad60141
#BESTVELA,FILE,0,34.0,FINESTEERING,2317,466196.750,02000000,10a2,17139;SOL_COMPUTED,INS_PPP,0.000,16.000,9.0878,358.114763,-0.0039,0*4985c7f0
#BESTVELA,FILE,0,34.0,FINESTEERING,2317,466196.800,02000000,10a2,17139;SOL_COMPUTED,INS_PPP,0.000,16.000,9.0801,358.157284,-0.0677,0*3724b168
#BESTVELA,FILE,0,34.0,FINESTEERING,2317,466196.850,02000000,10a2,17139;SOL_COMPUTED,INS_PPP,0.000,16.000,9.0288,358.210816,-0.0129,0*cd3ffa82
#BESTVELA,FILE,0,34.0,FINESTEERING,2317,466196.900,02000000,10a2,17139;SOL_COMPUTED,INS_PPP,0.000,16.000,9.0612,358.003368,0.0025,0*d190c3f1
#BESTVELA,FILE,0,34.0,FINESTEERING,2317,466196.950,02000000,10a2,17139;SOL_COMPUTED,INS_PPP,0.000,16.000,9.0898,357.972097,0.0260,0*b5b97738
#BESTVELA,FILE,0,34.0,FINESTEERING,2317,466197.000,02000000,10a2,17139;SOL_COMPUTED,INS_PPP,0.000,16.000,9.1326,358.097293,0.0850,0*a81cbd6f
#BESTVELA,FILE,0,34.0,FINESTEERING,2317,466197.050,02000000,10a2,17139;SOL_COMPUTED,INS_PPP,0.000,17.000,9.1661,358.146010,0.0504,0*4e304b6c
#BESTVELA,FILE,0,33.5,FINESTEERING,2317,466197.100,02000000,10a2,17139;SOL_COMPUTED,INS_PPP,0.000,17.000,9.1604,358.332107,0.0706,0*2cb3706b
#BESTVELA,FILE,0,33.5,FINESTEERING,2317,466197.150,02000000,10a2,17139;SOL_COMPUTED,INS_PPP,0.000,17.000,9.1855,358.521934,0.1214,0*c471af07
#BESTVELA,FILE,0,33.5,FINESTEERING,2317,466197.200,02000000,10a2,17139;SOL_COMPUTED,INS_PPP,0.000,17.000,9.2192,358.659711,0.1309,0*8ee7951b
#BESTVELA,FILE,0,33.5,FINESTEERING,2317,466197.250,02000000,10a2,17139;SOL_COMPUTED,INS_PPP,0.000,17.000,9.2741,358.659587,0.0958,0*d8e1b218
#BESTVELA,FILE,0,33.5,FINESTEERING,2317,466197.300,02000000,10a2,17139;SOL_COMPUTED,INS_PPP,0.000,17.000,9.2892,358.555768,0.0981,0*5b8cc3be
#BESTVELA,FILE,0,33.5,FINESTEERING,2317,466197.350,02000000,10a2,17139;SOL_COMPUTED,INS_PPP,0.000,17.000,9.2876,358.585541,0.0934,0*b33505a6
#BESTVELA,FILE,0,33.5,FINESTEERING,2317,466197.400,02000000,10a2,17139;SOL_COMPUTED,INS_PPP,0.000,17.000,9.3189,358.474685,0.0803,0*17a27b3a
#BESTVELA,FILE,0,33.5,FINESTEERING,2317,466197.450,02000000,10a2,17139;SOL_COMPUTED,INS_PPP,0.000,17.000,9.3234,358.608412,0.0455,0*82d5b85a
#BESTVELA,FILE,0,33.5,FINESTEERING,2317,466197.500,02000000,10a2,17139;SOL_COMPUTED,INS_PPP,0.000,17.000,9.3340,358.695297,0.0486,0*818439e7
#BESTVELA,FILE,0,33.5,FINESTEERING,2317,466197.550,02000000,10a2,17139;SOL_COMPUTED,INS_PPP,0.000,17.000,9.3895,358.729291,0.0396,0*fc4a00d3
#BESTVELA,FILE,0,33.5,FINESTEERING,2317,466197.600,02000000,10a2,17139;SOL_COMPUTED,INS_PPP,0.000,17.000,9.4174,358.720443,0.0543,0*2f5cdabb
#BESTVELA,FILE,0,33.5,FINESTEERING,2317,466197.650,02000000,10a2,17139;SOL_COMPUTED,INS_PPP,0.000,17.000,9.4473,358.795286,-0.0086,0*16f9ba50
#BESTVELA,FILE,0,33.5,FINESTEERING,2317,466197.700,02000000,10a2,17139;SOL_COMPUTED,INS_PPP,0.000,17.000,9.4239,358.684153,0.0581,0*4cc0f6f9
#BESTVELA,FILE,0,33.5,FINESTEERING,2317,466197.750,02000000,10a2,17139;SOL_COMPUTED,INS_PPP,0.000,17.000,9.4690,358.377090,0.0491,0*59aaf8c9
#BESTVELA,FILE,0,33.5,FINESTEERING,2317,466197.800,02000000,10a2,17139;SOL_COMPUTED,INS_PPP,0.000,17.000,9.4891,358.306695,0.0396,0*d25672ee
#BESTVELA,FILE,0,33.5,FINESTEERING,2317,466197.850,02000000,10a2,17139;SOL_COMPUTED,INS_PPP,0.000,17.000,9.5009,358.310611,0.0471,0*1ea15a6d
#BESTVELA,FILE,0,33.5,FINESTEERING,2317,466197.900,02000000,10a2,17139;SOL_COMPUTED,INS_PPP,0.000,17.000,9.5385,358.315476,0.0654,0*8ef0cae2
#BESTVELA,FILE,0,33.5,FINESTEERING,2317,466197.950,02000000,10a2,17139;SOL_COMPUTED,INS_PPP,0.000,17.000,9.5853,358.135614,0.0664,0*b8fdbdca
#BESTVELA,FILE,0,33.5,FINESTEERING,2317,466198.000,02000000,10a2,17139;SOL_COMPUTED,INS_PPP,0.000,17.000,9.6034,358.085008,0.0365,0*75462ac0
#BESTVELA,FILE,0,33.5,FINESTEERING,2317,466198.050,02000000,10a2,17139;SOL_COMPUTED,INS_PPP,0.000,18.000,9.6148,358.060199,0.0309,0*0d090ba1
#BESTVELA,FILE,0,30.0,FINESTEERING,2317,466198.100,02000000,10a2,17139;SOL_COMPUTED,INS_PPP,0.000,18.000,9.6372,357.886235,0.0567,0*b0c023ca
#BESTVELA,FILE,0,30.0,FINESTEERING,2317,466198.150,02000000,10a2,17139;SOL_COMPUTED,INS_PPP,0.000,18.000,9.6716,357.879138,0.0457,0*1345e5b9
#BESTVELA,FILE,0,30.0,FINESTEERING,2317,466198.200,02000000,10a2,17139;SOL_COMPUTED,INS_PPP,0.000,18.000,9.6823,357.863928,0.0282,0*3ba9b3fb
#BESTVELA,FILE,0,30.0,FINESTEERING,2317,466198.250,02000000,10a2,17139;SOL_COMPUTED,INS_PPP,0.000,18.000,9.6859,358.008192,0.0750,0*9dc7eb41
#BESTVELA,FILE,0,30.0,FINESTEERING,2317,466198.300,02000000,10a2,17139;SOL_COMPUTED,INS_PPP,0.000,18.000,9.6970,358.063012,0.0716,0*62cdd7ee
#BESTVELA,FILE,0,30.0,FINESTEERING,2317,466198.350,02000000,10a2,17139;SOL_COMPUTED,INS_PPP,0.000,18.000,9.6888,358.080935,0.0736,0*e417c2e6
#BESTVELA,FILE,0,30.0,FINESTEERING,2317,466198.400,02000000,10a2,17139;SOL_COMPUTED,INS_PPP,0.000,18.000,9.6677,358.199334,0.0647,0*dcf14fe9
#BESTVELA,FILE,0,30.0,FINESTEERING,2317,466198.450,02000000,10a2,17139;SOL_COMPUTED,INS_PPP,0.000,18.000,9.6609,358.219323,0.0608,0*f02f9a83
#BESTVELA,FILE,0,30.0,FINESTEERING,2317,466198.500,02000000,10a2,17139;SOL_COMPUTED,INS_PPP,0.000,18.000,9.6401,358.134282,0.0350,0*ad12f850
#BESTVELA,FILE,0,30.0,FINESTEERING,2317,466198.550,02000000,10a2,17139;SOL_COMPUTED,INS_PPP,0.000,18.000,9.6107,358.146272,0.0561,0*d5deeae3
#BESTVELA,FILE,0,30.0,FINESTEERING,2317,466198.600,02000000,10a2,17139;SOL_COMPUTED,INS_PPP,0.000,18.000,9.6053,358.309409,0.0877,0*0a44ea56
#BESTVELA,FILE,0,30.0,FINESTEERING,2317,466198.650,02000000,10a2,17139;SOL_COMPUTED,INS_PPP,0.000,18.000,9.6406,358.233638,0.0725,0*00e6041e
#BESTVELA,FILE,0,30.0,FINESTEERING,2317,466198.700,02000000,10a2,17139;SOL_COMPUTED,INS_PPP,0.000,18.000,9.6598,358.193099,0.0889,0*665f2f1a
#BESTVELA,FILE,0,30.0,FINESTEERING,2317,466198.750,02000000,10a2,17139;SOL_COMPUTED,INS_PPP,0.000,18.000,9.6510,358.374398,0.0871,0*352c9d03
#BESTVELA,FILE,0,30.0,FINESTEERING,2317,466198.800,02000000,10a2,17139;SOL_COMPUTED,INS_PPP,0.000,18.000,9.6354,358.465634,0.0580,0*7352d170
#BESTVELA,FILE,0,30.0,FINESTEERING,2317,466198.850,02000000,10a2,17139;SOL_COMPUTED,INS_PPP,0.000,18.000,9.5809,358.576279,0.0793,0*beede397
#BESTVELA,FILE,0,30.0,FINESTEERING,2317,466198.900,02000000,10a2,17139;SOL_COMPUTED,INS_PPP,0.000,18.000,9.5085,358.676822,0.0796,0*01a9bbf3
#BESTVELA,FILE,0,30.0,FINESTEERING,2317,466198.950,02000000,10a2,17139;SOL_COMPUTED,INS_PPP,0.000,18.000,9.5051,358.566006,0.0994,0*995767cb
#BESTVELA,FILE,0,30.0,FINESTEERING,2317,466199.000,02000000,10a2,17139;SOL_COMPUTED,INS_PPP,0.000,18.000,9.4863,358.759018,0.0750,0*79f1f3e6
#BESTVELA,FILE,0,30.0,FINESTEERING,2317,466199.050,02000800,10a2,17139;SOL_COMPUTED,INS_PPP,0.000,9.000,9.4987,358.807298,0.0697,0*0c77076d
#BESTVELA,FILE,0,24.5,FINESTEERING,2317,466199.100,02000800,10a2,17139;SOL_COMPUTED,INS_PPP,0.000,9.000,9.5234,358.647545,0.0341,0*aac680c6
#BESTVELA,FILE,0,24.5,FINESTEERING,2317,466199.150,02000800,10a2,17139;SOL_COMPUTED,INS_PPP,0.000,9.000,9.5166,358.683408,0.0366,0*b2e2b67d
#BESTVELA,FILE,0,24.5,FINESTEERING,2317,466199.200,02000800,10a2,17139;SOL_COMPUTED,INS_PPP,0.000,9.000,9.4651,359.055042,0.0428,0*64077b73
#BESTVELA,FILE,0,24.5,FINESTEERING,2317,466199.250,02000800,10a2,17139;SOL_COMPUTED,INS_PPP,0.000,9.000,9.4140,359.353496,0.0842,0*5da538fd
#BESTVELA,FILE,0,24.5,FINESTEERING,2317,466199.300,02000800,10a2,17139;SOL_COMPUTED,INS_PPP,0.000,9.000,9.4254,359.227053,0.0949,0*b0656285
#BESTVELA,FILE,0,24.5,FINESTEERING,2317,466199.350,02000800,10a2,17139;SOL_COMPUTED,INS_PPP,0.000,9.000,9.4280,359.121508,0.0837,0*00f7762f
#BESTVELA,FILE,0,24.5,FINESTEERING,2317,466199.400,02000800,10a2,17139;SOL_COMPUTED,INS_PPP,0.000,9.000,9.4418,359.121529,0.0157,0*b00ae698
#BESTVELA,FILE,0,24.5,FINESTEERING,2317,466199.450,02000800,10a2,17139;SOL_COMPUTED,INS_PPP,0.000,9.000,9.4394,359.433325,0.0848,0*97dad0d9
#BESTVELA,FILE,0,24.5,FINESTEERING,2317,466199.500,02000800,10a2,17139;SOL_COMPUTED,INS_PPP,0.000,9.000,9.4250,359.694192,0.1434,0*17aca712
#BESTVELA,FILE,0,24.5,FINESTEERING,2317,466199.550,02000800,10a2,17139;SOL_COMPUTED,INS_PPP,0.000,9.000,9.4348,359.765611,0.1181,0*eabe876b
#BESTVELA,FILE,0,24.5,FINESTEERING,2317,466199.600,02000800,10a2,17139;SOL_COMPUTED,INS_PPP,0.000,9.000,9.4271,359.747811,0.1117,0*b39fce06
#BESTVELA,FILE,0,24.5,FINESTEERING,2317,466199.650,02000800,10a2,17139;SOL_COMPUTED,INS_PPP,0.000,9.000,9.4104,359.308943,0.0121,0*f0472929
#BESTVELA,FILE,0,24.5,FINESTEERING,2317,466199.700,02000800,10a2,17139;SOL_COMPUTED,INS_PPP,0.000,9.000,9.3132,359.500875,-0.0025,0*9cdf6af4
#BESTVELA,FILE,0,24.5,FINESTEERING,2317,466199.750,02000800,10a2,17139;SOL_COMPUTED,INS_PPP,0.000,9.000,9.2681,359.764851,-0.0313,0*e964a7cb
#BESTVELA,FILE,0,24.5,FINESTEERING,2317,466199.800,02000800,10a2,17139;SOL_COMPUTED,INS_PPP,0.000,9.000,9.2432,359.864820,0.0073,0*457bc9ef
#BESTVELA,FILE,0,24.5,FINESTEERING,2317,466199.850,02000800,10a2,17139;SOL_COMPUTED,INS_PPP,0.000,9.000,9.2577,359.680691,0.0337,0*59c60291
#BESTVELA,FILE,0,24.5,FINESTEERING,2317,466199.900,02000800,10a2,17139;SOL_COMPUTED,INS_PPP,0.000,9.000,9.2991,359.203701,-0.0005,0*4d58698e
#BESTVELA,FILE,0,24.5,FINESTEERING,2317,466199.950,02000800,10a2,17139;SOL_COMPUTED,INS_PPP,0.000,9.000,9.2796,359.454266,0.0806,0*2f0771cc
#BESTVELA,FILE,0,24.5,FINESTEERING,2317,466200.000,02000800,10a2,17139;SOL_COMPUTED,INS_PPP,0.000,9.000,9.2799,359.545607,0.1176,0*44d5dba3
#BESTVELA,FILE,0,24.5,FINESTEERING,2317,466200.050,02000800,10a2,17139;SOL_COMPUTED,INS_PPP,0.000,10.000,9.2378,359.667204,0.1590,0*34c948e4
#BESTVELA,FILE,0,24.5,FINESTEERING,2317,466200.100,02000800,10a2,17139;SOL_COMPUTED,INS_PPP,0.000,10.000,9.2034,359.571115,0.1398,0*98135e19
#BESTVELA,FILE,0,29.5,FINESTEERING,2317,466200.150,02000000,10a2,17139;SOL_COMPUTED,INS_PPP,0.000,10.000,9.1667,359.548910,0.0993,0*abf8d4bb
#BESTVELA,FILE,0,29.5,FINESTEERING,2317,466200.200,02000000,10a2,17139;SOL_COMPUTED,INS_PPP,0.000,10.000,9.1377,359.719503,0.0475,0*14b97d60
#BESTVELA,FILE,0,29.5,FINESTEERING,2317,466200.250,02000000,10a2,17139;SOL_COMPUTED,INS_PPP,0.000,10.000,9.0893,359.617910,0.0238,0*415f92df
#BESTVELA,FILE,0,29.5,FINESTEERING,2317,466200.300,02000000,10a2,17139;SOL_COMPUTED,INS_PPP,0.000,10.000,9.0552,359.427891,0.0158,0*9dfafcbb
#BESTVELA,FILE,0,29.5,FINESTEERING,2317,466200.350,02000000,10a2,17139;SOL_COMPUTED,INS_PPP,0.000,10.000,8.9852,359.378800,0.0190,0*4541832b
#BESTVELA,FILE,0,29.5,FINESTEERING,2317,466200.400,02000000,10a2,17139;SOL_COMPUTED,INS_PPP,0.000,10.000,8.9457,359.318128,0.0726,0*f8608390
#BESTVELA,FILE,0,29.5,FINESTEERING,2317,466200.450,02000000,10a2,17139;SOL_COMPUTED,INS_PPP,0.000,10.000,8.9584,359.203018,0.0856,0*2bbabd5a
#BESTVELA,FILE,0,29.5,FINESTEERING,2317,466200.500,02000000,10a2,17139;SOL_COMPUTED,INS_PPP,0.000,10.000,8.9959,358.892250,0.0565,0*00f8cfca
#BESTVELA,FILE,0,29.5,FINESTEERING,2317,466200.550,02000000,10a2,17139;SOL_COMPUTED,INS_PPP,0.000,10.000,8.9446,358.400305,0.0472,0*d8643b95
#BESTVELA,FILE,0,29.5,FINESTEERING,2317,466200.600,02000000,10a2,17139;SOL_COMPUTED,INS_PPP,0.000,10.000,8.9234,357.929500,0.0358,0*05ea60f0
#BESTVELA,FILE,0,29.5,FINESTEERING,2317,466200.650,02000000,10a2,17139;SOL_COMPUTED,INS_PPP,0.000,10.000,8.9150,358.315627,0.0519,0*871f2a9b
#BESTVELA,FILE,0,29.5,FINESTEERING,2317,466200.700,02000000,10a2,17139;SOL_COMPUTED,INS_PPP,0.000,10.000,8.8996,358.507592,0.0802,0*7199c99f
#BESTVELA,FILE,0,29.5,FINESTEERING,2317,466200.750,02000000,10a2,17139;SOL_COMPUTED,INS_PPP,0.000,10.000,8.8970,358.359324,0.0524,0*983fa39b
#BESTVELA,FILE,0,29.5,FINESTEERING,2317,466200.800,02000000,10a2,17139;SOL_COMPUTED,INS_PPP,0.000,10.000,8.8820,358.564581,0.0710,0*2ac0a23b
#BESTVELA,FILE,0,29.5,FINESTEERING,2317,466200.850,02000000,10a2,17139;SOL_COMPUTED,INS_PPP,0.000,10.000,8.8941,358.248235,0.1545,0*7d161816
#BESTVELA,FILE,0,29.5,FINESTEERING,2317,466200.900,02000000,10a2,17139;SOL_COMPUTED,INS_PPP,0.000,10.000,8.9195,358.577242,0.0637,0*40627809
#BESTVELA,FILE,0,29.5,FINESTEERING,2317,466200.950,02000000,10a2,17139;SOL_COMPUTED,INS_PPP,0.000,10.000,8.8146,359.030140,0.0281,0*d28a6a3e
#BESTVELA,FILE,0,29.5,FINESTEERING,2317,466201.000,02000000,10a2,17139;SOL_COMPUTED,INS_PPP,0.000,10.000,8.7768,359.152985,0.0697,0*c19878da
#BESTVELA,FILE,0,29.5,FINESTEERING,2317,466201.050,02000000,10a2,17139;SOL_COMPUTED,INS_PPP,0.000,11.000,8.7282,359.424739,0.0568,0*8c759743
#BESTVELA,FILE,0,29.5,FINESTEERING,2317,466201.100,02000000,10a2,17139;SOL_COMPUTED,INS_PPP,0.000,11.000,8.7014,359.351688,0.0546,0*68047738
#BESTVELA,FILE,0,32.5,FINESTEERING,2317,466201.150,02000000,10a2,17139;SOL_COMPUTED,INS_PPP,0.000,11.000,8.6355,359.506264,0.0276,0*beab6ae5
#BESTVELA,FILE,0,32.5,FINESTEERING,2317,466201.200,02000000,10a2,17139;SOL_COMPUTED,INS_PPP,0.000,11.000,8.5871,359.270932,-0.0140,0*9c40eac0
#BESTVELA,FILE,0,32.5,FINESTEERING,2317,466201.250,02000000,10a2,17139;SOL_COMPUTED,INS_PPP,0.000,11.000,8.5258,359.027573,0.0119,0*0a31aabf
#BESTVELA,FILE,0,32.5,FINESTEERING,2317,466201.300,02000000,10a2,17139;SOL_COMPUTED,INS_PPP,0.000,11.000,8.5172,359.027296,0.0274,0*7ce5ca52
#BESTVELA,FILE,0,32.5,FINESTEERING,2317,466201.350,02000000,10a2,17139;SOL_COMPUTED,INS_PPP,0.000,11.000,8.5257,358.793624,0.0235,0*8fa73e88
#BESTVELA,FILE,0,32.5,FINESTEERING,2317,466201.400,02000000,10a2,17139;SOL_COMPUTED,INS_PPP,0.000,11.000,8.5054,358.667870,0.0335,0*d8ef7fb6
#BESTVELA,FILE,0,32.5,FINESTEERING,2317,466201.450,02000000,10a2,17139;SOL_COMPUTED,INS_PPP,0.000,11.000,8.4792,358.641986,0.0605,0*bdb146ff
#BESTVELA,FILE,0,32.5,FINESTEERING,2317,466201.500,02000000,10a2,17139;SOL_COMPUTED,INS_PPP,0.000,11.000,8.4595,358.586589,0.0711,0*4c6c398e
#BESTVELA,FILE,0,32.5,FINESTEERING,2317,466201.550,02000000,10a2,17139;SOL_COMPUTED,INS_PPP,0.000,11.000,8.4311,358.577629,0.0843,0*bda5bac3
#BESTVELA,FILE,0,32.5,FINESTEERING,2317,466201.600,02000000,10a2,17139;SOL_COMPUTED,INS_PPP,0.000,11.000,8.3667,358.783083,0.0078,0*7f7992b0
#BESTVELA,FILE,0,32.5,FINESTEERING,2317,466201.650,02000000,10a2,17139;SOL_COMPUTED,INS_PPP,0.000,11.000,8.3061,358.573770,0.0134,0*325386a4
#BESTVELA,FILE,0,32.5,FINESTEERING,2317,466201.700,02000000,10a2,17139;SOL_COMPUTED,INS_PPP,0.000,11.000,8.2097,358.677428,-0.0028,0*4c89ec68
#BESTVELA,FILE,0,32.5,FINESTEERING,2317,466201.750,02000000,10a2,17139;SOL_COMPUTED,INS_PPP,0.000,11.000,8.1653,358.917426,-0.0147,0*9150f5f3
#BESTVELA,FILE,0,32.5,FINESTEERING,2317,466201.800,02000000,10a2,17139;SOL_COMPUTED,INS_PPP,0.000,11.000,8.0880,358.966307,0.0011,0*077c313e
#BESTVELA,FILE,0,32.5,FINESTEERING,2317,466201.850,02000000,10a2,17139;SOL_COMPUTED,INS_PPP,0.000,11.000,8.0386,358.719798,0.0321,0*eb06252c
#BESTVELA,FILE,0,32.5,FINESTEERING,2317,466201.900,02000000,10a2,17139;SOL_COMPUTED,INS_PPP,0.000,11.000,8.0454,359.025473,0.0642,0*068b7e7b
#BESTVELA,FILE,0,32.5,FINESTEERING,2317,466201.950,02000000,10a2,17139;SOL_COMPUTED,INS_PPP,0.000,11.000,8.0800,358.645528,-0.0021,0*5ed3275b
#BESTVELA,FILE,0,32.5,FINESTEERING,2317,466202.000,02000000,10a2,17139;SOL_COMPUTED,INS_PPP,0.000,11.000,8.0399,358.534542,-0.0159,0*fe14e152
#BESTVELA,FILE,0,32.5,FINESTEERING,2317,466202.050,02000000,10a2,17139;SOL_COMPUTED,INS_PPP,0.000,12.000,7.9803,358.359027,-0.0396,0*2dfce9bd
#BESTVELA,FILE,0,31.0,FINESTEERING,2317,466202.100,02000000,10a2,17139;SOL_COMPUTED,INS_PPP,0.000,12.000,7.9453,358.186054,0.0036,0*ec4518a4
#BESTVELA,FILE,0,31.0,FINESTEERING,2317,466202.150,02000000,10a2,17139;SOL_COMPUTED,INS_PPP,0.000,12.000,7.8486,358.476634,-0.0192,0*db5ccd53
#BESTVELA,FILE,0,31.0,FINESTEERING,2317,466202.200,02000000,10a2,17139;SOL_COMPUTED,INS_PPP,0.000,12.000,7.8007,358.626254,0.0331,0*3daae971
#BESTVELA,FILE,0,31.0,FINESTEERING,2317,466202.250,02000000,10a2,17139;SOL_COMPUTED,INS_PPP,0.000,12.000,7.7927,359.090412,-0.0422,0*b04db445
#BESTVELA,FILE,0,31.0,FINESTEERING,2317,466202.300,02000000,10a2,17139;SOL_COMPUTED,INS_PPP,0.000,12.000,7.7712,358.945758,-0.0342,0*8c40c5c2
#BESTVELA,FILE,0,31.0,FINESTEERING,2317,466202.350,02000000,10a2,17139;SOL_COMPUTED,INS_PPP,0.000,12.000,7.6958,358.685008,-0.0277,0*3219aba0
#BESTVELA,FILE,0,31.0,FINESTEERING,2317,466202.400,02000000,10a2,17139;SOL_COMPUTED,INS_PPP,0.000,12.000,7.6822,358.059351,0.0002,0*b1b009b4
#BESTVELA,FILE,0,31.0,FINESTEERING,2317,466202.450,02000000,10a2,17139;SOL_COMPUTED,INS_PPP,0.000,12.000,7.6230,358.213849,-0.0508,0*38a7f9d3
#BESTVELA,FILE,0,31.0,FINESTEERING,2317,466202.500,02000000,10a2,17139;SOL_COMPUTED,INS_PPP,0.000,12.000,7.5187,358.491917,0.0114,0*1e7c3fe4
#BESTVELA,FILE,0,31.0,FINESTEERING,2317,466202.550,02000000,10a2,17139;SOL_COMPUTED,INS_PPP,0.000,12.000,7.4984,358.786040,0.0521,0*e5a3d738
#BESTVELA,FILE,0,31.0,FINESTEERING,2317,466202.600,02000000,10a2,17139;SOL_COMPUTED,INS_PPP,0.000,12.000,7.4593,359.266298,0.0450,0*80ba7958
#BESTVELA,FILE,0,31.0,FINESTEERING,2317,466202.650,02000000,10a2,17139;SOL_COMPUTED,INS_PPP,0.000,12.000,7.3773,359.429138,0.0998,0*bd444859
#BESTVELA,FILE,0,31.0,FINESTEERING,2317,466202.700,02000000,10a2,17139;SOL_COMPUTED,INS_PPP,0.000,12.000,7.3178,358.783579,0.0640,0*1766b68f
#BESTVELA,FILE,0,31.0,FINESTEERING,2317,466202.750,02000000,10a2,17139;SOL_COMPUTED,INS_PPP,0.000,12.000,7.3038,358.778773,0.0718,0*81ddc564
#BESTVELA,FILE,0,31.0,FINESTEERING,2317,466202.800,02000000,10a2,17139;SOL_COMPUTED,INS_PPP,0.000,12.000,7.2232,358.614159,0.0435,0*4dac1075
#BESTVELA,FILE,0,31.0,FINESTEERING,2317,466202.850,02000000,10a2,17139;SOL_COMPUTED,INS_PPP,0.000,12.000,7.0918,358.870792,0.0303,0*7efa1a25
#BESTVELA,FILE,0,31.0,FINESTEERING,2317,466202.900,02000000,10a2,17139;SOL_COMPUTED,INS_PPP,0.000,12.000,7.0310,359.277759,0.0719,0*dc2f391b
#BESTVELA,FILE,0,31.0,FINESTEERING,2317,466202.950,02000000,10a2,17139;SOL_COMPUTED,INS_PPP,0.000,12.000,6.9882,359.348503,0.0601,0*a802eeca
#BESTVELA,FILE,0,31.0,FINESTEERING,2317,466203.000,02000000,10a2,17139;SOL_COMPUTED,INS_PPP,0.000,12.000,6.8934,359.328600,0.0557,0*b67322b2
#BESTVELA,FILE,0,31.0,FINESTEERING,2317,466203.050,02000000,10a2,17139;SOL_COMPUTED,INS_PPP,0.000,13.000,6.8086,359.392557,0.0417,0*846c0536
#BESTVELA,FILE,0,30.0,FINESTEERING,2317,466203.100,02000000,10a2,17139;SOL_COMPUTED,INS_PPP,0.000,13.000,6.7256,359.148080,0.0685,0*1b75b014
#BESTVELA,FILE,0,30.0,FINESTEERING,2317,466203.150,02000000,10a2,17139;SOL_COMPUTED,INS_PPP,0.000,13.000,6.6281,358.897895,0.0653,0*a8efbafa
#BESTVELA,FILE,0,30.0,FINESTEERING,2317,466203.200,02000000,10a2,17139;SOL_COMPUTED,INS_PPP,0.000,13.000,6.4736,359.380643,0.0531,0*0579c352
#BESTVELA,FILE,0,30.0,FINESTEERING,2317,466203.250,02000000,10a2,17139;SOL_COMPUTED,INS_PPP,0.000,13.000,6.4132,359.276129,0.0777,0*d06089d6
#BESTVELA,FILE,0,30.0,FINESTEERING,2317,466203.300,02000000,10a2,17139;SOL_COMPUTED,INS_PPP,0.000,13.000,6.3558,359.667243,0.0614,0*4fc177af
#BESTVELA,FILE,0,30.0,FINESTEERING,2317,466203.350,02000000,10a2,17139;SOL_COMPUTED,INS_PPP,0.000,13.000,6.2832,359.449240,0.0609,0*1168f9dd
#BESTVELA,FILE,0,30.0,FINESTEERING,2317,466203.400,02000000,10a2,17139;SOL_COMPUTED,INS_PPP,0.000,13.000,6.2612,359.156522,0.0386,0*87987bb0
#BESTVELA,FILE,0,30.0,FINESTEERING,2317,466203.450,02000000,10a2,17139;SOL_COMPUTED,INS_PPP,0.000,13.000,6.1871,359.243735,0.0613,0*c98ddc8a
#BESTVELA,FILE,0,30.0,FINESTEERING,2317,466203.500,02000000,10a2,17139;SOL_COMPUTED,INS_PPP,0.000,13.000,6.1531,359.037591,0.0202,0*0d4adc16
#BESTVELA,FILE,0,30.0,FINESTEERING,2317,466203.550,02000000,10a2,17139;SOL_COMPUTED,INS_PPP,0.000,13.000,6.0882,359.106064,0.0127,0*ed402061
#BESTVELA,FILE,0,30.0,FINESTEERING,2317,466203.600,02000000,10a2,17139;SOL_COMPUTED,INS_PPP,0.000,13.000,5.9937,359.469149,0.0310,0*9ce8a0fb
#BESTVELA,FILE,0,30.0,FINESTEERING,2317,466203.650,02000000,10a2,17139;SOL_COMPUTED,INS_PPP,0.000,13.000,5.9140,359.216487,0.0180,0*6410be4a
#BESTVELA,FILE,0,30.0,FINESTEERING,2317,466203.700,02000000,10a2,17139;SOL_COMPUTED,INS_PPP,0.000,13.000,5.8553,359.191827,0.0055,0*bdefef80
#BESTVELA,FILE,0,30.0,FINESTEERING,2317,466203.750,02000000,10a2,17139;SOL_COMPUTED,INS_PPP,0.000,13.000,5.7957,359.406927,-0.0159,0*996465b9
#BESTVELA,FILE,0,30.0,FINESTEERING,2317,466203.800,02000000,10a2,17139;SOL_COMPUTED,INS_PPP,0.000,13.000,5.7314,359.617968,0.0060,0*a0372c68
#BESTVELA,FILE,0,30.0,FINESTEERING,2317,466203.850,02000000,10a2,17139;SOL_COMPUTED,INS_PPP,0.000,13.000,5.6614,0.421696,0.0015,0*d49e9621
#BESTVELA,FILE,0,30.0,FINESTEERING,2317,466203.900,02000000,10a2,17139;SOL_COMPUTED,INS_PPP,0.000,13.000,5.5943,0.808243,-0.0091,0*f8d4c27b
#BESTVELA,FILE,0,30.0,FINESTEERING,2317,466203.950,02000000,10a2,17139;SOL_COMPUTED,INS_PPP,0.000,13.000,5.5249,1.133199,-0.0137,0*8e08e8bf
#BESTVELA,FILE,0,30.0,FINESTEERING,2317,466204.000,02000000,10a2,17139;SOL_COMPUTED,INS_PPP,0.000,13.000,5.4602,1.391094,-0.0154,0*04bfeb2d
#BESTVELA,FILE,0,30.0,FINESTEERING,2317,466204.050,02000000,10a2,17139;SOL_COMPUTED,INS_PPP,0.000,14.000,5.3894,1.826183,0.0364,0*f34ad230
#BESTVELA,FILE,0,29.5,FINESTEERING,2317,466204.100,02000000,10a2,17139;SOL_COMPUTED,INS_PPP,0.000,14.000,5.3696,2.346910,0.0447,0*caabd6df
#BESTVELA,FILE,0,29.5,FINESTEERING,2317,466204.150,02000000,10a2,17139;SOL_COMPUTED,INS_PPP,0.000,14.000,5.3083,2.684141,0.0531,0*2341ebcf
#BESTVELA,FILE,0,29.5,FINESTEERING,2317,466204.200,02000000,10a2,17139;SOL_COMPUTED,INS_PPP,0.000,14.000,5.2500,2.820714,0.0242,0*acac852f
#BESTVELA,FILE,0,29.5,FINESTEERING,2317,466204.250,02000000,10a2,17139;SOL_COMPUTED,INS_PPP,0.000,14.000,5.1894,3.145950,0.0307,0*dd95d6b7
#BESTVELA,FILE,0,29.5,FINESTEERING,2317,466204.300,02000000,10a2,17139;SOL_COMPUTED,INS_PPP,0.000,14.000,5.1243,3.474372,0.0545,0*0f620f30
#BESTVELA,FILE,0,29.5,FINESTEERING,2317,466204.350,02000000,10a2,17139;SOL_COMPUTED,INS_PPP,0.000,14.000,5.0716,3.723271,0.0821,0*c313bf1f
#BESTVELA,FILE,0,29.5,FINESTEERING,2317,466204.400,02000000,10a2,17139;SOL_COMPUTED,INS_PPP,0.000,14.000,5.0223,4.158593,0.0807,0*c1e187fb
#BESTVELA,FILE,0,29.5,FINESTEERING,2317,466204.450,02000000,10a2,17139;SOL_COMPUTED,INS_PPP,0.000,14.000,4.9753,4.746921,0.0748,0*e2dc2d23
#BESTVELA,FILE,0,29.5,FINESTEERING,2317,466204.500,02000000,10a2,17139;SOL_COMPUTED,INS_PPP,0.000,14.000,4.9080,5.384482,0.0542,0*f1f9bc5d
#BESTVELA,FILE,0,29.5,FINESTEERING,2317,466204.550,02000000,10a2,17139;SOL_COMPUTED,INS_PPP,0.000,14.000,4.8200,7.200688,0.0363,0*dfcca169
#BESTVELA,FILE,0,29.5,FINESTEERING,2317,466204.600,02000000,10a2,17139;SOL_COMPUTED,INS_PPP,0.000,14.000,4.7314,9.045185,0.0033,0*8dde7cb1
#BESTVELA,FILE,0,29.5,FINESTEERING,2317,466204.650,02000000,10a2,17139;SOL_COMPUTED,INS_PPP,0.000,14.000,4.6476,10.735399,-0.0116,0*eb5e7a01
#BESTVELA,FILE,0,29.5,FINESTEERING,2317,466204.700,02000000,10a2,17139;SOL_COMPUTED,INS_PPP,0.000,14.000,4.5771,12.450086,-0.0093,0*280c39b8
#BESTVELA,FILE,0,29.5,FINESTEERING,2317,466204.750,02000000,10a2,17139;SOL_COMPUTED,INS_PPP,0.000,14.000,4.4982,14.004940,-0.0001,0*189ea73a
#BESTVELA,FILE,0,29.5,FINESTEERING,2317,466204.800,02000000,10a2,17139;SOL_COMPUTED,INS_PPP,0.000,14.000,4.4577,15.718310,0.0050,0*645afe1b
#BESTVELA,FILE,0,29.5,FINESTEERING,2317,466204.850,02000000,10a2,17139;SOL_COMPUTED,INS_PPP,0.000,14.000,4.3779,17.406986,-0.0068,0*beaaec8a
#BESTVELA,FILE,0,29.5,FINESTEERING,2317,466204.900,02000000,10a2,17139;SOL_COMPUTED,INS_PPP,0.000,14.000,4.3175,18.755680,-0.0248,0*aeb5bba3
#BESTVELA,FILE,0,29.5,FINESTEERING,2317,466204.950,02000000,10a2,17139;SOL_COMPUTED,INS_PPP,0.000,14.000,4.2716,19.475152,-0.0486,0*ce91997c
#BESTVELA,FILE,0,29.5,FINESTEERING,2317,466205.000,02000000,10a2,17139;SOL_COMPUTED,INS_PPP,0.000,14.000,4.2571,19.926046,-0.0891,0*92ed2cd5
#BESTVELA,FILE,0,29.5,FINESTEERING,2317,466205.050,02000000,10a2,17139;SOL_COMPUTED,INS_PPP,0.000,15.000,4.2457,21.120063,-0.0830,0*f36ccc39
#BESTVELA,FILE,0,29.5,FINESTEERING,2317,466205.100,02000000,10a2,17139;SOL_COMPUTED,INS_PPP,0.000,15.000,4.2348,22.207998,-0.1002,0*a9531b48
#BESTVELA,FILE,0,30.0,FINESTEERING,2317,466205.150,02000000,10a2,17139;SOL_COMPUTED,INS_PPP,0.000,15.000,4.2146,23.211078,-0.1390,0*aa068075
#BESTVELA,FILE,0,30.0,FINESTEERING,2317,466205.200,02000000,10a2,17139;SOL_COMPUTED,INS_PPP,0.000,15.000,4.1862,24.612318,-0.1320,0*687706d4
#BESTVELA,FILE,0,30.0,FINESTEERING,2317,466205.250,02000000,10a2,17139;SOL_COMPUTED,INS_PPP,0.000,15.000,4.1603,26.393779,-0.1176,0*fd3d3da2
#BESTVELA,FILE,0,30.0,FINESTEERING,2317,466205.300,02000000,10a2,17139;SOL_COMPUTED,INS_PPP,0.000,15.000,4.1714,29.194078,-0.0655,0*24de9913
#BESTVELA,FILE,0,30.0,FINESTEERING,2317,466205.350,02000000,10a2,17139;SOL_COMPUTED,INS_PPP,0.000,15.000,4.1688,31.746768,-0.0696,0*1949010b
#BESTVELA,FILE,0,30.0,FINESTEERING,2317,466205.400,02000000,10a2,17139;SOL_COMPUTED,INS_PPP,0.000,15.000,4.1414,34.536408,-0.1035,0*ac0f844d
