#BESTPOSA,FILE,0,33.5,FINESTEERING,2317,466183.350,02000800,cdba,17139;SOL_COMPUTED,INS_PPP,17.60146736251,78.12664813614,526.7188,-76.2000,WGS84,0.0832,0.0876,0.1042,"TSTR",23.000,0.000,38,36,36,35,10,00,7f,30*ff56dd11
#BESTPOSA,FILE,0,33.5,FINESTEERING,2317,466183.400,02000800,cdba,17139;SOL_COMPUTED,INS_PPP,17.60146735893,78.12664813067,526.7189,-76.2000,WGS84,0.0832,0.0876,0.1042,"TSTR",23.000,0.000,38,36,36,35,10,00,7f,30*4be488ec
#BESTPOSA,FILE,0,33.5,FINESTEERING,2317,466183.550,02000800,cdba,17139;SOL_COMPUTED,INS_PPP,17.60146734542,78.12664811631,526.7193,-76.2000,WGS84,0.0832,0.0876,0.1042,"TSTR",23.000,0.000,38,36,36,35,10,00,7f,30*959d0a1d
#BESTPOSA,FILE,0,33.5,FINESTEERING,2317,466183.600,02000800,cdba,17139;SOL_COMPUTED,INS_PPP,17.60146734147,78.12664811091,526.7194,-76.2000,WGS84,0.0832,0.0876,0.1042,"TSTR",23.000,0.000,38,36,36,35,10,00,7f,30*251e74ec
#BESTPOSA,FILE,0,33.5,FINESTEERING,2317,466183.650,02000800,cdba,17139;SOL_COMPUTED,INS_PPP,17.60146733682,78.12664810518,526.7196,-76.2000,WGS84,0.0832,0.0876,0.1042,"TSTR",23.000,0.000,38,36,36,35,10,00,7f,30*36d54e06
#BESTPOSA,FILE,0,33.5,FINESTEERING,2317,466183.750,02000800,cdba,17139;SOL_COMPUTED,INS_PPP,17.60146732720,78.12664809355,526.7198,-76.2000,WGS84,0.0832,0.0876,0.1042,"TSTR",23.000,0.000,38,36,36,35,10,00,7f,30*3936eef5
#BESTPOSA,FILE,0,33.5,FINESTEERING,2317,466183.800,02000800,cdba,17139;SOL_COMPUTED,INS_PPP,17.60146732249,78.12664808854,526.7199,-76.2000,WGS84,0.0832,0.0876,0.1042,"TSTR",23.000,0.000,38,36,36,35,10,00,7f,30*76bde998
#BESTPOSA,FILE,0,33.5,FINESTEERING,2317,466183.850,02000800,cdba,17139;SOL_COMPUTED,INS_PPP,17.60146731821,78.12664808448,526.7200,-76.2000,WGS84,0.0832,0.0876,0.1042,"TSTR",23.000,0.000,38,36,36,35,10,00,7f,30*ad6bb2c1
#BESTPOSA,FILE,0,33.5,FINESTEERING,2317,466183.900,02000800,cdba,17139;SOL_COMPUTED,INS_PPP,17.60146731267,78.12664807988,526.7201,-76.2000,WGS84,0.0832,0.0876,0.1042,"TSTR",23.000,0.000,38,36,36,35,10,00,7f,30*e1f6880a
#BESTPOSA,FILE,0,33.5,FINESTEERING,2317,466184.050,02000800,cdba,17139;SOL_COMPUTED,INS_PPP,17.60146729925,78.12664806204,526.7205,-76.2000,WGS84,0.0864,0.0907,0.1044,"TSTR",14.000,0.000,38,37,37,35,10,00,7f,30*a2b08177
#BESTPOSA,FILE,0,33.5,FINESTEERING,2317,466184.150,02000800,cdba,17139;SOL_COMPUTED,INS_PPP,17.60146729663,78.12664805262,526.7210,-76.2000,WGS84,0.0864,0.0907,0.1044,"TSTR",14.000,0.000,38,37,37,35,10,00,7f,30*4d434ffb
#BESTPOSA,FILE,0,35.5,FINESTEERING,2317,466184.200,02000800,cdba,17139;SOL_COMPUTED,INS_PPP,17.60146729568,78.12664804780,526.7217,-76.2000,WGS84,0.0864,0.0907,0.1044,"TSTR",14.000,0.000,38,37,37,35,10,00,7f,30*dad14a05
#BESTPOSA,FILE,0,35.5,FINESTEERING,2317,466184.300,02000800,cdba,17139;SOL_COMPUTED,INS_PPP,17.60146728722,78.12664803998,526.7233,-76.2000,WGS84,0.0864,0.0907,0.1044,"TSTR",14.000,0.000,38,37,37,35,10,00,7f,30*4bbaf084
#BESTPOSA,FILE,0,35.5,FINESTEERING,2317,466184.400,02000800,cdba,17139;SOL_COMPUTED,INS_PPP,17.60146726987,78.12664803248,526.7242,-76.2000,WGS84,0.0864,0.0907,0.1044,"TSTR",14.000,0.000,38,37,37,35,10,00,7f,30*6bb3fedf
#BESTPOSA,FILE,0,35.5,FINESTEERING,2317,466184.450,02000800,cdba,17139;SOL_COMPUTED,INS_PPP,17.60146725913,78.12664802545,526.7242,-76.2000,WGS84,0.0864,0.0907,0.1044,"TSTR",14.000,0.000,38,37,37,35,10,00,7f,30*1c1bc388
#BESTPOSA,FILE,0,35.5,FINESTEERING,2317,466184.550,02000800,cdba,17139;SOL_COMPUTED,INS_PPP,17.60146722943,78.12664801478,526.7242,-76.2000,WGS84,0.0864,0.0907,0.1044,"TSTR",14.000,0.000,38,37,37,35,10,00,7f,30*67e898af
#BESTPOSA,FILE,0,35.5,FINESTEERING,2317,466184.600,02000800,cdba,17139;SOL_COMPUTED,INS_PPP,17.60146721132,78.12664801096,526.7243,-76.2000,WGS84,0.0864,0.0907,0.1044,"TSTR",14.000,0.000,38,37,37,35,10,00,7f,30*eef3e629
#BESTPOSA,FILE,0,35.5,FINESTEERING,2317,466184.700,02000800,cdba,17139;SOL_COMPUTED,INS_PPP,17.60146717346,78.12664800509,526.7243,-76.2000,WGS84,0.0864,0.0907,0.1044,"TSTR",14.000,0.000,38,37,37,35,10,00,7f,30*77edb560
#BESTPOSA,FILE,0,35.5,FINESTEERING,2317,466184.750,02000800,cdba,17139;SOL_COMPUTED,INS_PPP,17.60146715245,78.12664799764,526.7244,-76.2000,WGS84,0.0864,0.0907,0.1044,"TSTR",14.000,0.000,38,37,37,35,10,00,7f,30*ac33ed2e
#BESTPOSA,FILE,0,35.5,FINESTEERING,2317,466184.800,02000800,cdba,17139;SOL_COMPUTED,INS_PPP,17.60146713058,78.12664799074,526.7244,-76.2000,WGS84,0.0864,0.0907,0.1044,"TSTR",14.000,0.000,38,37,37,35,10,00,7f,30*890103ae
#BESTPOSA,FILE,0,35.5,FINESTEERING,2317,466184.850,02000800,cdba,17139;SOL_COMPUTED,INS_PPP,17.60146710836,78.12664798289,526.7244,-76.2000,WGS84,0.0864,0.0907,0.1044,"TSTR",14.000,0.000,38,37,37,35,10,00,7f,30*f5cc155f
#BESTPOSA,FILE,0,35.5,FINESTEERING,2317,466185.000,02000800,cdba,17139;SOL_COMPUTED,INS_PPP,17.60146703085,78.12664796499,526.7247,-76.2000,WGS84,0.0864,0.0907,0.1044,"TSTR",14.000,0.000,38,37,37,35,10,00,7f,30*7e296fad
#BESTPOSA,FILE,0,31.0,FINESTEERING,2317,466185.100,02000800,cdba,17139;SOL_COMPUTED,INS_PPP,17.60146697348,78.12664796003,526.7246,-76.2000,WGS84,0.0900,0.0945,0.1058,"TSTR",15.000,0.000,38,36,36,35,10,00,7f,30*cb94438d
#BESTPOSA,FILE,0,31.0,FINESTEERING,2317,466185.150,02000800,cdba,17139;SOL_COMPUTED,INS_PPP,17.60146694463,78.12664795655,526.7246,-76.2000,WGS84,0.0900,0.0945,0.1058,"TSTR",15.000,0.000,38,36,36,35,10,00,7f,30*6fd94dcc
#BESTPOSA,FILE,0,31.0,FINESTEERING,2317,466185.250,02000800,cdba,17139;SOL_COMPUTED,INS_PPP,17.60146688676,78.12664794739,526.7245,-76.2000,WGS84,0.0900,0.0945,0.1058,"TSTR",15.000,0.000,38,36,36,35,10,00,7f,30*ebdb5646
#BESTPOSA,FILE,0,31.0,FINESTEERING,2317,466185.300,02000800,cdba,17139;SOL_COMPUTED,INS_PPP,17.60146685619,78.12664794007,526.7245,-76.2000,WGS84,0.0900,0.0945,0.1058,"TSTR",15.000,0.000,38,36,36,35,10,00,7f,30*6d5f09b2
#BESTPOSA,FILE,0,31.0,FINESTEERING,2317,466185.400,02000800,cdba,17139;SOL_COMPUTED,INS_PPP,17.60146679287,78.12664792903,526.7240,-76.2000,WGS84,0.0900,0.0945,0.1058,"TSTR",15.000,0.000,38,36,36,35,10,00,7f,30*926c5a1a
#BESTPOSA,FILE,0,31.0,FINESTEERING,2317,466185.450,02000800,cdba,17139;SOL_COMPUTED,INS_PPP,17.60146676371,78.12664792471,526.7237,-76.2000,WGS84,0.0900,0.0945,0.1058,"TSTR",15.000,0.000,38,36,36,35,10,00,7f,30*b3ef23cc
#BESTPOSA,FILE,0,31.0,FINESTEERING,2317,466185.550,02000800,cdba,17139;SOL_COMPUTED,INS_PPP,17.60146671987,78.12664791704,526.7233,-76.2000,WGS84,0.0900,0.0945,0.1058,"TSTR",15.000,0.000,38,36,36,35,10,00,7f,30*ef44260c
#BESTPOSA,FILE,0,31.0,FINESTEERING,2317,466185.650,02000800,cdba,17139;SOL_COMPUTED,INS_PPP,17.60146669486,78.12664791117,526.7229,-76.2000,WGS84,0.0900,0.0945,0.1058,"TSTR",15.000,0.000,38,36,36,35,10,00,7f,30*ecc265cc
#BESTPOSA,FILE,0,31.0,FINESTEERING,2317,466185.700,02000800,cdba,17139;SOL_COMPUTED,INS_PPP,17.60146669413,78.12664790960,526.7228,-76.2000,WGS84,0.0900,0.0945,0.1058,"TSTR",15.000,0.000,38,36,36,35,10,00,7f,30*f4ec74ab
#BESTPOSA,FILE,0,31.0,FINESTEERING,2317,466185.750,02000800,cdba,17139;SOL_COMPUTED,INS_PPP,17.60146669856,78.12664790780,526.7227,-76.2000,WGS84,0.0900,0.0945,0.1058,"TSTR",15.000,0.000,38,36,36,35,10,00,7f,30*3fa40c37
#BESTPOSA,FILE,0,31.0,FINESTEERING,2317,466185.850,02000800,cdba,17139;SOL_COMPUTED,INS_PPP,17.60146672465,78.12664790273,526.7227,-76.2000,WGS84,0.0900,0.0945,0.1058,"TSTR",15.000,0.000,38,36,36,35,10,00,7f,30*4a854e70
#BESTPOSA,FILE,0,31.0,FINESTEERING,2317,466185.950,02000800,cdba,17139;SOL_COMPUTED,INS_PPP,17.60146678064,78.12664790024,526.7225,-76.2000,WGS84,0.0900,0.0945,0.1058,"TSTR",15.000,0.000,38,36,36,35,10,00,7f,30*3599f0b4
#BESTPOSA,FILE,0,31.0,FINESTEERING,2317,466186.000,02000800,cdba,17139;SOL_COMPUTED,INS_PPP,17.60146681859,78.12664790110,526.7225,-76.2000,WGS84,0.0900,0.0945,0.1058,"TSTR",15.000,0.000,38,36,36,35,10,00,7f,30*78b2d031
#BESTPOSA,FILE,0,31.0,FINESTEERING,2317,466186.100,02000800,cdba,17139;SOL_COMPUTED,INS_PPP,17.60146692153,78.12664790483,526.7224,-76.2000,WGS84,0.0934,0.0982,0.1081,"TSTR",16.000,0.000,38,36,36,35,10,00,7f,30*277f0498
#BESTPOSA,FILE,0,33.5,FINESTEERING,2317,466186.200,02000800,cdba,17139;SOL_COMPUTED,INS_PPP,17.60146706425,78.12664791450,526.7222,-76.2000,WGS84,0.0934,0.0982,0.1081,"TSTR",16.000,0.000,38,36,36,35,10,00,7f,30*5e780009
#BESTPOSA,FILE,0,33.5,FINESTEERING,2317,466186.250,02000800,cdba,17139;SOL_COMPUTED,INS_PPP,17.60146715205,78.12664792051,526.7221,-76.2000,WGS84,0.0934,0.0982,0.1081,"TSTR",16.000,0.000,38,36,36,35,10,00,7f,30*a7da4816
#BESTPOSA,FILE,0,33.5,FINESTEERING,2317,466186.300,02000800,cdba,17139;SOL_COMPUTED,INS_PPP,17.60146725197,78.12664792672,526.7220,-76.2000,WGS84,0.0934,0.0982,0.1081,"TSTR",16.000,0.000,38,36,36,35,10,00,7f,30*69dfe91d
#BESTPOSA,FILE,0,33.5,FINESTEERING,2317,466186.450,02000800,cdba,17139;SOL_COMPUTED,INS_PPP,17.60146765006,78.12664794973,526.7216,-76.2000,WGS84,0.0934,0.0982,0.1081,"TSTR",16.000,0.000,38,36,36,35,10,00,7f,30*6d8721d0
#BESTPOSA,FILE,0,33.5,FINESTEERING,2317,466186.500,02000800,cdba,17139;SOL_COMPUTED,INS_PPP,17.60146781947,78.12664795955,526.7218,-76.2000,WGS84,0.0934,0.0982,0.1081,"TSTR",16.000,0.000,38,36,36,35,10,00,7f,30*2e54be35
#BESTPOSA,FILE,0,33.5,FINESTEERING,2317,466186.600,02000800,cdba,17139;SOL_COMPUTED,INS_PPP,17.60146821464,78.12664798042,526.7224,-76.2000,WGS84,0.0934,0.0982,0.1081,"TSTR",16.000,0.000,38,36,36,35,10,00,7f,30*34b31d06
#BESTPOSA,FILE,0,33.5,FINESTEERING,2317,466186.650,02000800,cdba,17139;SOL_COMPUTED,INS_PPP,17.60146844395,78.12664799151,526.7227,-76.2000,WGS84,0.0934,0.0982,0.1081,"TSTR",16.000,0.000,38,36,36,35,10,00,7f,30*eee86886
#BESTPOSA,FILE,0,33.5,FINESTEERING,2317,466186.700,02000800,cdba,17139;SOL_COMPUTED,INS_PPP,17.60146869139,78.12664800290,526.7229,-76.2000,WGS84,0.0934,0.0982,0.1081,"TSTR",16.000,0.000,38,36,36,35,10,00,7f,30*0d7d46e8
#BESTPOSA,FILE,0,33.5,FINESTEERING,2317,466186.750,02000800,cdba,17139;SOL_COMPUTED,INS_PPP,17.60146895958,78.12664801491,526.7229,-76.2000,WGS84,0.0934,0.0982,0.1081,"TSTR",16.000,0.000,38,36,36,35,10,00,7f,30*c1169a18
#BESTPOSA,FILE,0,33.5,FINESTEERING,2317,466186.800,02000800,cdba,17139;SOL_COMPUTED,INS_PPP,17.60146925055,78.12664802944,526.7226,-76.2000,WGS84,0.0934,0.0982,0.1081,"TSTR",16.000,0.000,38,36,36,35,10,00,7f,30*cf79f5b8
#BESTPOSA,FILE,0,33.5,FINESTEERING,2317,466186.850,02000800,cdba,17139;SOL_COMPUTED,INS_PPP,17.60146956340,78.12664804694,526.7223,-76.2000,WGS84,0.0934,0.0982,0.1081,"TSTR",16.000,0.000,38,36,36,35,10,00,7f,30*2832e487
#BESTPOSA,FILE,0,33.5,FINESTEERING,2317,466186.900,02000800,cdba,17139;SOL_COMPUTED,INS_PPP,17.60146989668,78.12664806718,526.7220,-76.2000,WGS84,0.0934,0.0982,0.1081,"TSTR",16.000,0.000,38,36,36,35,10,00,7f,30*ad48fc81
#BESTPOSA,FILE,0,33.5,FINESTEERING,2317,466186.950,02000800,cdba,17139;SOL_COMPUTED,INS_PPP,17.60147025373,78.12664809323,526.7217,-76.2000,WGS84,0.0934,0.0982,0.1081,"TSTR",16.000,0.000,38,36,36,35,10,00,7f,30*bdd94ee8
#BESTPOSA,FILE,0,33.5,FINESTEERING,2317,466187.000,02000800,cdba,17139;SOL_COMPUTED,INS_PPP,17.60147063152,78.12664812218,526.7215,-76.2000,WGS84,0.0934,0.0982,0.1081,"TSTR",16.000,0.000,38,36,36,35,10,00,7f,30*5078a760
#BESTPOSA,FILE,0,33.5,FINESTEERING,2317,466187.050,02000800,cdba,17139;SOL_COMPUTED,INS_PPP,17.60147103274,78.12664815291,526.7215,-76.2000,WGS84,0.0949,0.0999,0.1108,"TSTR",17.000,0.000,37,35,35,34,10,00,7f,30*28a2f638
#BESTPOSA,FILE,0,33.5,FINESTEERING,2317,466187.100,02000000,cdba,17139;SOL_COMPUTED,INS_PPP,17.60147145718,78.12664818647,526.7215,-76.2000,WGS84,0.0949,0.0999,0.1108,"TSTR",17.000,0.000,37,35,35,34,10,00,7f,30*4d686ad5
#BESTPOSA,FILE,0,36.5,FINESTEERING,2317,466187.150,02000000,cdba,17139;SOL_COMPUTED,INS_PPP,17.60147190105,78.12664821974,526.7215,-76.2000,WGS84,0.0949,0.0999,0.1108,"TSTR",17.000,0.000,37,35,35,34,10,00,7f,30*393d92d4
#BESTPOSA,FILE,0,36.5,FINESTEERING,2317,466187.200,02000000,cdba,17139;SOL_COMPUTED,INS_PPP,17.60147236654,78.12664825396,526.7214,-76.2000,WGS84,0.0949,0.0999,0.1108,"TSTR",17.000,0.000,37,35,35,34,10,00,7f,30*9149163c
#BESTPOSA,FILE,0,36.5,FINESTEERING,2317,466187.250,02000000,cdba,17139;SOL_COMPUTED,INS_PPP,17.60147285437,78.12664828957,526.7215,-76.2000,WGS84,0.0949,0.0999,0.1108,"TSTR",17.000,0.000,37,35,35,34,10,00,7f,30*22e85a9a
#BESTPOSA,FILE,0,36.5,FINESTEERING,2317,466187.300,02000000,cdba,17139;SOL_COMPUTED,INS_PPP,17.60147336250,78.12664832472,526.7217,-76.2000,WGS84,0.0949,0.0999,0.1108,"TSTR",17.000,0.000,37,35,35,34,10,00,7f,30*7ead557d
#BESTPOSA,FILE,0,36.5,FINESTEERING,2317,466187.350,02000000,cdba,17139;SOL_COMPUTED,INS_PPP,17.60147389104,78.12664835799,526.7219,-76.2000,WGS84,0.0949,0.0999,0.1108,"TSTR",17.000,0.000,37,35,35,34,10,00,7f,30*a458bf9b
#BESTPOSA,FILE,0,36.5,FINESTEERING,2317,466187.400,02000000,cdba,17139;SOL_COMPUTED,INS_PPP,17.60147444422,78.12664839126,526.7219,-76.2000,WGS84,0.0949,0.0999,0.1108,"TSTR",17.000,0.000,37,35,35,34,10,00,7f,30*eda95590
#BESTPOSA,FILE,0,36.5,FINESTEERING,2317,466187.450,02000000,cdba,17139;SOL_COMPUTED,INS_PPP,17.60147501840,78.12664842468,526.7219,-76.2000,WGS84,0.0949,0.0999,0.1108,"TSTR",17.000,0.000,37,35,35,34,10,00,7f,30*37760903
#BESTPOSA,FILE,0,36.5,FINESTEERING,2317,466187.500,02000000,cdba,17139;SOL_COMPUTED,INS_PPP,17.60147561544,78.12664846097,526.7218,-76.2000,WGS84,0.0949,0.0999,0.1108,"TSTR",17.000,0.000,37,35,35,34,10,00,7f,30*546b386a
#BESTPOSA,FILE,0,36.5,FINESTEERING,2317,466187.550,02000000,cdba,17139;SOL_COMPUTED,INS_PPP,17.60147624018,78.12664850087,526.7215,-76.2000,WGS84,0.0949,0.0999,0.1108,"TSTR",17.000,0.000,37,35,35,34,10,00,7f,30*59853eb2
#BESTPOSA,FILE,0,36.5,FINESTEERING,2317,466187.600,02000000,cdba,17139;SOL_COMPUTED,INS_PPP,17.60147689201,78.12664854216,526.7210,-76.2000,WGS84,0.0949,0.0999,0.1108,"TSTR",17.000,0.000,37,35,35,34,10,00,7f,30*0727e70a
#BESTPOSA,FILE,0,36.5,FINESTEERING,2317,466187.650,02000000,cdba,17139;SOL_COMPUTED,INS_PPP,17.60147757340,78.12664858283,526.7204,-76.2000,WGS84,0.0949,0.0999,0.1108,"TSTR",17.000,0.000,37,35,35,34,10,00,7f,30*2585d963
#BESTPOSA,FILE,0,36.5,FINESTEERING,2317,466187.700,02000000,cdba,17139;SOL_COMPUTED,INS_PPP,17.60147829074,78.12664862441,526.7190,-76.2000,WGS84,0.0949,0.0999,0.1108,"TSTR",17.000,0.000,37,35,35,34,10,00,7f,30*2da881a8
#BESTPOSA,FILE,0,36.5,FINESTEERING,2317,466187.750,02000000,cdba,17139;SOL_COMPUTED,INS_PPP,17.60147904324,78.12664866634,526.7168,-76.2000,WGS84,0.0949,0.0999,0.1108,"TSTR",17.000,0.000,37,35,35,34,10,00,7f,30*1e3faf5e
#BESTPOSA,FILE,0,36.5,FINESTEERING,2317,466187.800,02000000,cdba,17139;SOL_COMPUTED,INS_PPP,17.60147983608,78.12664871136,526.7143,-76.2000,WGS84,0.0949,0.0999,0.1108,"TSTR",17.000,0.000,37,35,35,34,10,00,7f,30*d65f7275
#BESTPOSA,FILE,0,36.5,FINESTEERING,2317,466187.850,02000000,cdba,17139;SOL_COMPUTED,INS_PPP,17.60148067276,78.12664875894,526.7124,-76.2000,WGS84,0.0949,0.0999,0.1108,"TSTR",17.000,0.000,37,35,35,34,10,00,7f,30*9b19d27b
#BESTPOSA,FILE,0,36.5,FINESTEERING,2317,466187.900,02000000,cdba,17139;SOL_COMPUTED,INS_PPP,17.60148155369,78.12664880909,526.7122,-76.2000,WGS84,0.0949,0.0999,0.1108,"TSTR",17.000,0.000,37,35,35,34,10,00,7f,30*31fd5f9a
#BESTPOSA,FILE,0,36.5,FINESTEERING,2317,466187.950,02000000,cdba,17139;SOL_COMPUTED,INS_PPP,17.60148246911,78.12664885595,526.7139,-76.2000,WGS84,0.0949,0.0999,0.1108,"TSTR",17.000,0.000,37,35,35,34,10,00,7f,30*085a89ad
#BESTPOSA,FILE,0,36.5,FINESTEERING,2317,466188.000,02000000,cdba,17139;SOL_COMPUTED,INS_PPP,17.60148340637,78.12664890308,526.7170,-76.2000,WGS84,0.0949,0.0999,0.1108,"TSTR",17.000,0.000,37,35,35,34,10,00,7f,30*2a413096
#BESTPOSA,FILE,0,36.5,FINESTEERING,2317,466188.050,02000000,cdba,17139;SOL_COMPUTED,INS_PPP,17.60148436022,78.12664894864,526.7206,-76.2000,WGS84,0.0957,0.1010,0.1137,"TSTR",18.000,0.000,37,35,35,34,10,00,7f,30*53b51a46
#BESTPOSA,FILE,0,25.5,FINESTEERING,2317,466188.100,02000000,cdba,17139;SOL_COMPUTED,INS_PPP,17.60148532574,78.12664899173,526.7236,-76.2000,WGS84,0.0957,0.1010,0.1137,"TSTR",18.000,0.000,37,35,35,34,10,00,7f,30*5bdb3516
#BESTPOSA,FILE,0,25.5,FINESTEERING,2317,466188.150,02000000,cdba,17139;SOL_COMPUTED,INS_PPP,17.60148629498,78.12664903836,526.7250,-76.2000,WGS84,0.0957,0.1010,0.1137,"TSTR",18.000,0.000,37,35,35,34,10,00,7f,30*29716674
#BESTPOSA,FILE,0,25.5,FINESTEERING,2317,466188.200,02000000,cdba,17139;SOL_COMPUTED,INS_PPP,17.60148726989,78.12664908461,526.7242,-76.2000,WGS84,0.0957,0.1010,0.1137,"TSTR",18.000,0.000,37,35,35,34,10,00,7f,30*16a1a2ee
#BESTPOSA,FILE,0,25.5,FINESTEERING,2317,466188.250,02000000,cdba,17139;SOL_COMPUTED,INS_PPP,17.60148826111,78.12664912741,526.7215,-76.2000,WGS84,0.0957,0.1010,0.1137,"TSTR",18.000,0.000,37,35,35,34,10,00,7f,30*69c64146
#BESTPOSA,FILE,0,25.5,FINESTEERING,2317,466188.300,02000000,cdba,17139;SOL_COMPUTED,INS_PPP,17.60148927654,78.12664916802,526.7175,-76.2000,WGS84,0.0957,0.1010,0.1137,"TSTR",18.000,0.000,37,35,35,34,10,00,7f,30*f283df8a
#BESTPOSA,FILE,0,25.5,FINESTEERING,2317,466188.350,02000000,cdba,17139;SOL_COMPUTED,INS_PPP,17.60149032691,78.12664920670,526.7130,-76.2000,WGS84,0.0957,0.1010,0.1137,"TSTR",18.000,0.000,37,35,35,34,10,00,7f,30*c8a33422
#BESTPOSA,FILE,0,25.5,FINESTEERING,2317,466188.400,02000000,cdba,17139;SOL_COMPUTED,INS_PPP,17.60149141951,78.12664924255,526.7088,-76.2000,WGS84,0.0957,0.1010,0.1137,"TSTR",18.000,0.000,37,35,35,34,10,00,7f,30*3d851776
#BESTPOSA,FILE,0,25.5,FINESTEERING,2317,466188.450,02000000,cdba,17139;SOL_COMPUTED,INS_PPP,17.60149255880,78.12664927405,526.7055,-76.2000,WGS84,0.0957,0.1010,0.1137,"TSTR",18.000,0.000,37,35,35,34,10,00,7f,30*e846e2ab
#BESTPOSA,FILE,0,25.5,FINESTEERING,2317,466188.500,02000000,cdba,17139;SOL_COMPUTED,INS_PPP,17.60149375249,78.12664930089,526.7030,-76.2000,WGS84,0.0957,0.1010,0.1137,"TSTR",18.000,0.000,37,35,35,34,10,00,7f,30*1fc7e908
#BESTPOSA,FILE,0,25.5,FINESTEERING,2317,466188.550,02000000,cdba,17139;SOL_COMPUTED,INS_PPP,17.60149499033,78.12664933277,526.7021,-76.2000,WGS84,0.0957,0.1010,0.1137,"TSTR",18.000,0.000,37,35,35,34,10,00,7f,30*906f310b
#BESTPOSA,FILE,0,25.5,FINESTEERING,2317,466188.600,02000000,cdba,17139;SOL_COMPUTED,INS_PPP,17.60149627140,78.12664936830,526.7022,-76.2000,WGS84,0.0957,0.1010,0.1137,"TSTR",18.000,0.000,37,35,35,34,10,00,7f,30*baa5ed84
#BESTPOSA,FILE,0,25.5,FINESTEERING,2317,466188.650,02000000,cdba,17139;SOL_COMPUTED,INS_PPP,17.60149759263,78.12664940885,526.7032,-76.2000,WGS84,0.0957,0.1010,0.1137,"TSTR",18.000,0.000,37,35,35,34,10,00,7f,30*d6217cff
#BESTPOSA,FILE,0,25.5,FINESTEERING,2317,466188.700,02000000,cdba,17139;SOL_COMPUTED,INS_PPP,17.60149895379,78.12664945135,526.7045,-76.2000,WGS84,0.0957,0.1010,0.1137,"TSTR",18.000,0.000,37,35,35,34,10,00,7f,30*7fd03580
#BESTPOSA,FILE,0,25.5,FINESTEERING,2317,466188.750,02000000,cdba,17139;SOL_COMPUTED,INS_PPP,17.60150034773,78.12664949496,526.7055,-76.2000,WGS84,0.0957,0.1010,0.1137,"TSTR",18.000,0.000,37,35,35,34,10,00,7f,30*f27fb79f
#BESTPOSA,FILE,0,25.5,FINESTEERING,2317,466188.800,02000000,cdba,17139;SOL_COMPUTED,INS_PPP,17.60150177712,78.12664954126,526.7057,-76.2000,WGS84,0.0957,0.1010,0.1137,"TSTR",18.000,0.000,37,35,35,34,10,00,7f,30*7f8dafff
#BESTPOSA,FILE,0,25.5,FINESTEERING,2317,466188.850,02000000,cdba,17139;SOL_COMPUTED,INS_PPP,17.60150323601,78.12664958084,526.7044,-76.2000,WGS84,0.0957,0.1010,0.1137,"TSTR",18.000,0.000,37,35,35,34,10,00,7f,30*8bbeaa69
#BESTPOSA,FILE,0,25.5,FINESTEERING,2317,466188.900,02000000,cdba,17139;SOL_COMPUTED,INS_PPP,17.60150472738,78.12664961579,526.7021,-76.2000,WGS84,0.0957,0.1010,0.1137,"TSTR",18.000,0.000,37,35,35,34,10,00,7f,30*6f6f29bd
#BESTPOSA,FILE,0,25.5,FINESTEERING,2317,466188.950,02000000,cdba,17139;SOL_COMPUTED,INS_PPP,17.60150626176,78.12664964358,526.6991,-76.2000,WGS84,0.0957,0.1010,0.1137,"TSTR",18.000,0.000,37,35,35,34,10,00,7f,30*4f569642
#BESTPOSA,FILE,0,25.5,FINESTEERING,2317,466189.000,02000000,cdba,17139;SOL_COMPUTED,INS_PPP,17.60150783747,78.12664967244,526.6965,-76.2000,WGS84,0.0957,0.1010,0.1137,"TSTR",18.000,0.000,37,35,35,34,10,00,7f,30*19291b79
#BESTPOSA,FILE,0,25.5,FINEBACKUPSTEERING,2317,466189.050,02000000,cdba,17139;SOL_COMPUTED,INS_PPP,17.60150945135,78.12664969779,526.6950,-76.2000,WGS84,0.0961,0.1018,0.1168,"TSTR",19.000,0.000,34,33,33,30,10,00,7f,30*a560db1f
#BESTPOSA,FILE,0,25.5,FINEBACKUPSTEERING,2317,466189.100,02000000,cdba,17139;SOL_COMPUTED,INS_PPP,17.60151110502,78.12664971422,526.6939,-76.2000,WGS84,0.0961,0.1018,0.1168,"TSTR",19.000,0.000,34,33,33,30,10,00,7f,30*98bba17a
#BESTPOSA,FILE,0,31.0,FINEBACKUPSTEERING,2317,466189.150,02000000,cdba,17139;SOL_COMPUTED,INS_PPP,17.60151279634,78.12664973543,526.6939,-76.2000,WGS84,0.0961,0.1018,0.1168,"TSTR",19.000,0.000,34,33,33,30,10,00,7f,30*937e2e90
#BESTPOSA,FILE,0,31.0,FINEBACKUPSTEERING,2317,466189.200,02000000,cdba,17139;SOL_COMPUTED,INS_PPP,17.60151452222,78.12664975737,526.6945,-76.2000,WGS84,0.0961,0.1018,0.1168,"TSTR",19.000,0.000,34,33,33,30,10,00,7f,30*512c72d0
#BESTPOSA,FILE,0,31.0,FINEBACKUPSTEERING,2317,466189.250,02000000,cdba,17139;SOL_COMPUTED,INS_PPP,17.60151628179,78.12664977825,526.6954,-76.2000,WGS84,0.0961,0.1018,0.1168,"TSTR",19.000,0.000,34,33,33,30,10,00,7f,30*961a2f67
#BESTPOSA,FILE,0,31.0,FINEBACKUPSTEERING,2317,466189.300,02000000,cdba,17139;SOL_COMPUTED,INS_PPP,17.60151807235,78.12664979726,526.6963,-76.2000,WGS84,0.0961,0.1018,0.1168,"TSTR",19.000,0.000,34,33,33,30,10,00,7f,30*0ae23cf8
#BESTPOSA,FILE,0,31.0,FINEBACKUPSTEERING,2317,466189.350,02000000,cdba,17139;SOL_COMPUTED,INS_PPP,17.60151988672,78.12664981764,526.6971,-76.2000,WGS84,0.0961,0.1018,0.1168,"TSTR",19.000,0.000,34,33,33,30,10,00,7f,30*fb357f63
#BESTPOSA,FILE,0,31.0,FINEBACKUPSTEERING,2317,466189.400,02000000,cdba,17139;SOL_COMPUTED,INS_PPP,17.60152172623,78.12664983233,526.6974,-76.2000,WGS84,0.0961,0.1018,0.1168,"TSTR",19.000,0.000,34,33,33,30,10,00,7f,30*c8767f10
#BESTPOSA,FILE,0,31.0,FINEBACKUPSTEERING,2317,466189.450,02000000,cdba,17139;SOL_COMPUTED,INS_PPP,17.60152359731,78.12664984401,526.6969,-76.2000,WGS84,0.0961,0.1018,0.1168,"TSTR",19.000,0.000,34,33,33,30,10,00,7f,30*1559fa9d
#BESTPOSA,FILE,0,31.0,FINEBACKUPSTEERING,2317,466189.500,02000000,cdba,17139;SOL_COMPUTED,INS_PPP,17.60152550216,78.12664985753,526.6960,-76.2000,WGS84,0.0961,0.1018,0.1168,"TSTR",19.000,0.000,34,33,33,30,10,00,7f,30*e18a179f
#BESTPOSA,FILE,0,31.0,FINEBACKUPSTEERING,2317,466189.550,02000000,cdba,17139;SOL_COMPUTED,INS_PPP,17.60152744039,78.12664986103,526.6951,-76.2000,WGS84,0.0961,0.1018,0.1168,"TSTR",19.000,0.000,34,33,33,30,10,00,7f,30*88fc90a7
#BESTPOSA,FILE,0,31.0,FINEBACKUPSTEERING,2317,466189.600,02000000,cdba,17139;SOL_COMPUTED,INS_PPP,17.60152941288,78.12664986883,526.6946,-76.2000,WGS84,0.0961,0.1018,0.1168,"TSTR",19.000,0.000,34,33,33,30,10,00,7f,30*ac285f4a
#BESTPOSA,FILE,0,31.0,FINEBACKUPSTEERING,2317,466189.650,02000000,cdba,17139;SOL_COMPUTED,INS_PPP,17.60153141288,78.12664987905,526.6946,-76.2000,WGS84,0.0961,0.1018,0.1168,"TSTR",19.000,0.000,34,33,33,30,10,00,7f,30*b76b4e61
#BESTPOSA,FILE,0,31.0,FINEBACKUPSTEERING,2317,466189.700,02000000,cdba,17139;SOL_COMPUTED,INS_PPP,17.60153343290,78.12664988869,526.6951,-76.2000,WGS84,0.0961,0.1018,0.1168,"TSTR",19.000,0.000,34,33,33,30,10,00,7f,30*56507ccb
#BESTPOSA,FILE,0,31.0,FINEBACKUPSTEERING,2317,466189.750,02000000,cdba,17139;SOL_COMPUTED,INS_PPP,17.60153548560,78.12664988830,526.6960,-76.2000,WGS84,0.0961,0.1018,0.1168,"TSTR",19.000,0.000,34,33,33,30,10,00,7f,30*1c9ba888
#BESTPOSA,FILE,0,31.0,FINEBACKUPSTEERING,2317,466189.800,02000000,cdba,17139;SOL_COMPUTED,INS_PPP,17.60153756632,78.12664987486,526.6974,-76.2000,WGS84,0.0961,0.1018,0.1168,"TSTR",19.000,0.000,34,33,33,30,10,00,7f,30*f5b8bb63
#BESTPOSA,FILE,0,31.0,FINEBACKUPSTEERING,2317,466189.850,02000000,cdba,17139;SOL_COMPUTED,INS_PPP,17.60153967422,78.12664986028,526.6986,-76.2000,WGS84,0.0961,0.1018,0.1168,"TSTR",19.000,0.000,34,33,33,30,10,00,7f,30*984d5697
#BESTPOSA,FILE,0,31.0,FINEBACKUPSTEERING,2317,466189.900,02000000,cdba,17139;SOL_COMPUTED,INS_PPP,17.60154182048,78.12664983059,526.6995,-76.2000,WGS84,0.0961,0.1018,0.1168,"TSTR",19.000,0.000,34,33,33,30,10,00,7f,30*0c28b122
#BESTPOSA,FILE,0,31.0,FINEBACKUPSTEERING,2317,466189.950,02000000,cdba,17139;SOL_COMPUTED,INS_PPP,17.60154399533,78.12664979936,526.7006,-76.2000,WGS84,0.0961,0.1018,0.1168,"TSTR",19.000,0.000,34,33,33,30,10,00,7f,30*6b7bbc63
#BESTPOSA,FILE,0,31.0,FINEBACKUPSTEERING,2317,466190.000,02000000,cdba,17139;SOL_COMPUTED,INS_PPP,17.60154620072,78.12664977465,526.7009,-76.2000,WGS84,0.0961,0.1018,0.1168,"TSTR",19.000,0.000,34,33,33,30,10,00,7f,30*ee4fc6b8
#BESTPOSA,FILE,0,31.0,FINEBACKUPSTEERING,2317,466190.050,02000000,cdba,17139;SOL_COMPUTED,INS_PPP,17.60154843563,78.12664974798,526.7004,-76.2000,WGS84,0.0960,0.1021,0.1196,"TSTR",10.000,0.000,32,30,30,29,10,00,7f,30*c081e78b
#BESTPOSA,FILE,0,31.0,FINEBACKUPSTEERING,2317,466190.100,02000000,cdba,17139;SOL_COMPUTED,INS_PPP,17.60155069293,78.12664972344,526.7003,-76.2000,WGS84,0.0960,0.1021,0.1196,"TSTR",10.000,0.000,32,30,30,29,10,00,7f,30*e9196afe
#BESTPOSA,FILE,0,31.0,FINEBACKUPSTEERING,2317,466190.150,02000000,cdba,17139;SOL_COMPUTED,INS_PPP,17.60155298205,78.12664969894,526.7013,-76.2000,WGS84,0.0960,0.1021,0.1196,"TSTR",10.000,0.000,32,30,30,29,10,00,7f,30*f2422af8
#BESTPOSA,FILE,0,31.0,FINEBACKUPSTEERING,2317,466190.200,02000000,cdba,17139;SOL_COMPUTED,INS_PPP,17.60155531411,78.12664968177,526.7067,-76.2000,WGS84,0.0960,0.1021,0.1196,"TSTR",10.000,0.000,32,30,30,29,10,00,7f,30*115e9a37
#BESTPOSA,FILE,0,31.0,FINEBACKUPSTEERING,2317,466190.250,02000000,cdba,17139;SOL_COMPUTED,INS_PPP,17.60155767968,78.12664966803,526.7120,-76.2000,WGS84,0.0960,0.1021,0.1196,"TSTR",10.000,0.000,32,30,30,29,10,00,7f,30*067d1291
#BESTPOSA,FILE,0,31.0,FINEBACKUPSTEERING,2317,466190.300,02000000,cdba,17139;SOL_COMPUTED,INS_PPP,17.60156005768,78.12664963861,526.7171,-76.2000,WGS84,0.0960,0.1021,0.1196,"TSTR",10.000,0.000,32,30,30,29,10,00,7f,30*75283e2a
#BESTPOSA,FILE,0,31.0,FINEBACKUPSTEERING,2317,466190.350,02000000,cdba,17139;SOL_COMPUTED,INS_PPP,17.60156245794,78.12664960837,526.7205,-76.2000,WGS84,0.0960,0.1021,0.1196,"TSTR",10.000,0.000,32,30,30,29,10,00,7f,30*64b968eb
#BESTPOSA,FILE,0,31.0,FINEBACKUPSTEERING,2317,466190.400,02000000,cdba,17139;SOL_COMPUTED,INS_PPP,17.60156487175,78.12664957335,526.7223,-76.2000,WGS84,0.0960,0.1021,0.1196,"TSTR",10.000,0.000,32,30,30,29,10,00,7f,30*a4120141
#BESTPOSA,FILE,0,31.0,FINEBACKUPSTEERING,2317,466190.450,02000000,cdba,17139;SOL_COMPUTED,INS_PPP,17.60156729276,78.12664954114,526.7238,-76.2000,WGS84,0.0960,0.1021,0.1196,"TSTR",10.000,0.000,32,30,30,29,10,00,7f,30*4d54d2e7
#BESTPOSA,FILE,0,31.0,FINEBACKUPSTEERING,2317,466190.500,02000000,cdba,17139;SOL_COMPUTED,INS_PPP,17.60156971220,78.12664950643,526.7268,-76.2000,WGS84,0.0960,0.1021,0.1196,"TSTR",10.000,0.000,32,30,30,29,10,00,7f,30*cacc3c17
#BESTPOSA,FILE,0,31.0,FINEBACKUPSTEERING,2317,466190.550,02000000,cdba,17139;SOL_COMPUTED,INS_PPP,17.60157213508,78.12664945904,526.7304,-76.2000,WGS84,0.0960,0.1021,0.1196,"TSTR",10.000,0.000,32,30,30,29,10,00,7f,30*4d60c164
#BESTPOSA,FILE,0,31.0,FINEBACKUPSTEERING,2317,466190.600,02000000,cdba,17139;SOL_COMPUTED,INS_PPP,17.60157456078,78.12664940677,526.7344,-76.2000,WGS84,0.0960,0.1021,0.1196,"TSTR",10.000,0.000,32,30,30,29,10,00,7f,30*c7a84380
#BESTPOSA,FILE,0,31.0,FINEBACKUPSTEERING,2317,466190.650,02000000,cdba,17139;SOL_COMPUTED,INS_PPP,17.60157697566,78.12664935772,526.7373,-76.2000,WGS84,0.0960,0.1021,0.1196,"TSTR",10.000,0.000,32,30,30,29,10,00,7f,30*cba6d51d
#BESTPOSA,FILE,0,31.0,FINEBACKUPSTEERING,2317,466190.700,02000000,cdba,17139;SOL_COMPUTED,INS_PPP,17.60157937844,78.12664930822,526.7387,-76.2000,WGS84,0.0960,0.1021,0.1196,"TSTR",10.000,0.000,32,30,30,29,10,00,7f,30*84e7a130
#BESTPOSA,FILE,0,31.0,FINEBACKUPSTEERING,2317,466190.750,02000000,cdba,17139;SOL_COMPUTED,INS_PPP,17.60158177055,78.12664926598,526.7396,-76.2000,WGS84,0.0960,0.1021,0.1196,"TSTR",10.000,0.000,32,30,30,29,10,00,7f,30*dafa668b
#BESTPOSA,FILE,0,31.0,FINEBACKUPSTEERING,2317,466190.800,02000000,cdba,17139;SOL_COMPUTED,INS_PPP,17.60158415801,78.12664921508,526.7395,-76.2000,WGS84,0.0960,0.1021,0.1196,"TSTR",10.000,0.000,32,30,30,29,10,00,7f,30*ec83d764
#BESTPOSA,FILE,0,31.0,FINEBACKUPSTEERING,2317,466190.850,02000000,cdba,17139;SOL_COMPUTED,INS_PPP,17.60158654059,78.12664916647,526.7395,-76.2000,WGS84,0.0960,0.1021,0.1196,"TSTR",10.000,0.000,32,30,30,29,10,00,7f,30*5bdf84aa
#BESTPOSA,FILE,0,31.0,FINEBACKUPSTEERING,2317,466190.900,02000000,cdba,17139;SOL_COMPUTED,INS_PPP,17.60158892422,78.12664911050,526.7408,-76.2000,WGS84,0.0960,0.1021,0.1196,"TSTR",10.000,0.000,32,30,30,29,10,00,7f,30*7a6fc45b
#BESTPOSA,FILE,0,31.0,FINEBACKUPSTEERING,2317,466190.950,02000000,cdba,17139;SOL_COMPUTED,INS_PPP,17.60159131075,78.12664904051,526.7434,-76.2000,WGS84,0.0960,0.1021,0.1196,"TSTR",10.000,0.000,32,30,30,29,10,00,7f,30*f96a9264
#BESTPOSA,FILE,0,31.0,FINEBACKUPSTEERING,2317,466191.000,02000000,cdba,17139;SOL_COMPUTED,INS_PPP,17.60159369442,78.12664896540,526.7467,-76.2000,WGS84,0.0960,0.1021,0.1196,"TSTR",10.000,0.000,32,30,30,29,10,00,7f,30*8ad8ab80
#BESTPOSA,FILE,0,31.0,FINEBACKUPSTEERING,2317,466191.050,02000000,cdba,17139;SOL_COMPUTED,INS_PPP,17.60159607604,78.12664888321,526.7498,-76.2000,WGS84,0.0958,0.1026,0.1221,"TSTR",11.000,0.000,32,29,29,29,10,00,7f,30*dc3b77ed
#BESTPOSA,FILE,0,26.5,FINEBACKUPSTEERING,2317,466191.100,02000000,cdba,17139;SOL_COMPUTED,INS_PPP,17.60159845024,78.12664879988,526.7527,-76.2000,WGS84,0.0958,0.1026,0.1221,"TSTR",11.000,0.000,32,29,29,29,10,00,7f,30*fd9169a1
#BESTPOSA,FILE,0,26.5,FINEBACKUPSTEERING,2317,466191.150,02000000,cdba,17139;SOL_COMPUTED,INS_PPP,17.60160081646,78.12664871400,526.7551,-76.2000,WGS84,0.0958,0.1026,0.1221,"TSTR",11.000,0.000,32,29,29,29,10,00,7f,30*1edd77b5
#BESTPOSA,FILE,0,26.5,FINEBACKUPSTEERING,2317,466191.200,02000000,cdba,17139;SOL_COMPUTED,INS_PPP,17.60160317592,78.12664863639,526.7572,-76.2000,WGS84,0.0958,0.1026,0.1221,"TSTR",11.000,0.000,32,29,29,29,10,00,7f,30*c1aae5ef
#BESTPOSA,FILE,0,26.5,FINEBACKUPSTEERING,2317,466191.250,02000000,cdba,17139;SOL_COMPUTED,INS_PPP,17.60160552796,78.12664854437,526.7581,-76.2000,WGS84,0.0958,0.1026,0.1221,"TSTR",11.000,0.000,32,29,29,29,10,00,7f,30*42d7ee22
#BESTPOSA,FILE,0,26.5,FINEBACKUPSTEERING,2317,466191.300,02000000,cdba,17139;SOL_COMPUTED,INS_PPP,17.60160787194,78.12664844876,526.7586,-76.2000,WGS84,0.0958,0.1026,0.1221,"TSTR",11.000,0.000,32,29,29,29,10,00,7f,30*7bf5a7e9
#BESTPOSA,FILE,0,26.5,FINEBACKUPSTEERING,2317,466191.350,02000000,cdba,17139;SOL_COMPUTED,INS_PPP,17.60161020757,78.12664835176,526.7591,-76.2000,WGS84,0.0958,0.1026,0.1221,"TSTR",11.000,0.000,32,29,29,29,10,00,7f,30*a1d04c90
#BESTPOSA,FILE,0,26.5,FINEBACKUPSTEERING,2317,466191.400,02000000,cdba,17139;SOL_COMPUTED,INS_PPP,17.60161253598,78.12664826179,526.7598,-76.2000,WGS84,0.0958,0.1026,0.1221,"TSTR",11.000,0.000,32,29,29,29,10,00,7f,30*d61d1526
#BESTPOSA,FILE,0,26.5,FINEBACKUPSTEERING,2317,466191.450,02000000,cdba,17139;SOL_COMPUTED,INS_PPP,17.60161486406,78.12664816087,526.7611,-76.2000,WGS84,0.0958,0.1026,0.1221,"TSTR",11.000,0.000,32,29,29,29,10,00,7f,30*7d89d036
#BESTPOSA,FILE,0,26.5,FINEBACKUPSTEERING,2317,466191.500,02000000,cdba,17139;SOL_COMPUTED,INS_PPP,17.60161718452,78.12664806255,526.7633,-76.2000,WGS84,0.0958,0.1026,0.1221,"TSTR",11.000,0.000,32,29,29,29,10,00,7f,30*eb483e47
#BESTPOSA,FILE,0,26.5,FINEBACKUPSTEERING,2317,466191.550,02000000,cdba,17139;SOL_COMPUTED,INS_PPP,17.60161949037,78.12664797345,526.7657,-76.2000,WGS84,0.0958,0.1026,0.1221,"TSTR",11.000,0.000,32,29,29,29,10,00,7f,30*9197cfa8
#BESTPOSA,FILE,0,26.5,FINEBACKUPSTEERING,2317,466191.600,02000000,cdba,17139;SOL_COMPUTED,INS_PPP,17.60162178749,78.12664788149,526.7675,-76.2000,WGS84,0.0958,0.1026,0.1221,"TSTR",11.000,0.000,32,29,29,29,10,00,7f,30*506db42b
#BESTPOSA,FILE,0,26.5,FINEBACKUPSTEERING,2317,466191.650,02000000,cdba,17139;SOL_COMPUTED,INS_PPP,17.60162406851,78.12664780378,526.7685,-76.2000,WGS84,0.0958,0.1026,0.1221,"TSTR",11.000,0.000,32,29,29,29,10,00,7f,30*ca955c31
#BESTPOSA,FILE,0,26.5,FINEBACKUPSTEERING,2317,466191.700,02000000,cdba,17139;SOL_COMPUTED,INS_PPP,17.60162633818,78.12664772524,526.7681,-76.2000,WGS84,0.0958,0.1026,0.1221,"TSTR",11.000,0.000,32,29,29,29,10,00,7f,30*fce38c6e
#BESTPOSA,FILE,0,26.5,FINEBACKUPSTEERING,2317,466191.750,02000000,cdba,17139;SOL_COMPUTED,INS_PPP,17.60162861646,78.12664763510,526.7661,-76.2000,WGS84,0.0958,0.1026,0.1221,"TSTR",11.000,0.000,32,29,29,29,10,00,7f,30*b6f4ccd2
#BESTPOSA,FILE,0,26.5,FINEBACKUPSTEERING,2317,466191.800,02000000,cdba,17139;SOL_COMPUTED,INS_PPP,17.60163092471,78.12664752852,526.7625,-76.2000,WGS84,0.0958,0.1026,0.1221,"TSTR",11.000,0.000,32,29,29,29,10,00,7f,30*7171f68c
#BESTPOSA,FILE,0,26.5,FINEBACKUPSTEERING,2317,466191.850,02000000,cdba,17139;SOL_COMPUTED,INS_PPP,17.60163325440,78.12664743425,526.7604,-76.2000,WGS84,0.0958,0.1026,0.1221,"TSTR",11.000,0.000,32,29,29,29,10,00,7f,30*d6c25798
#BESTPOSA,FILE,0,26.5,FINEBACKUPSTEERING,2317,466191.900,02000000,cdba,17139;SOL_COMPUTED,INS_PPP,17.60163561278,78.12664734153,526.7607,-76.2000,WGS84,0.0958,0.1026,0.1221,"TSTR",11.000,0.000,32,29,29,29,10,00,7f,30*3b6a38ea
#BESTPOSA,FILE,0,26.5,FINEBACKUPSTEERING,2317,466191.950,02000000,cdba,17139;SOL_COMPUTED,INS_PPP,17.60163800082,78.12664724883,526.7631,-76.2000,WGS84,0.0958,0.1026,0.1221,"TSTR",11.000,0.000,32,29,29,29,10,00,7f,30*450d920a
#BESTPOSA,FILE,0,26.5,FINEBACKUPSTEERING,2317,466192.000,02000000,cdba,17139;SOL_COMPUTED,INS_PPP,17.60164041124,78.12664715556,526.7673,-76.2000,WGS84,0.0958,0.1026,0.1221,"TSTR",11.000,0.000,32,29,29,29,10,00,7f,30*04dad142
#BESTPOSA,FILE,0,26.5,FINEBACKUPSTEERING,2317,466192.050,02000000,cdba,17139;SOL_COMPUTED,INS_PPP,17.60164284963,78.12664706238,526.7718,-76.2000,WGS84,0.0955,0.1029,0.1243,"TSTR",12.000,0.000,32,30,30,30,10,00,7f,30*3a943ab7
#BESTPOSA,FILE,0,26.5,FINEBACKUPSTEERING,2317,466192.100,02000000,cdba,17139;SOL_COMPUTED,INS_PPP,17.60164530945,78.12664697092,526.7758,-76.2000,WGS84,0.0955,0.1029,0.1243,"TSTR",12.000,0.000,32,30,30,30,10,00,7f,30*88e2fcc6
#BESTPOSA,FILE,0,35.0,FINEBACKUPSTEERING,2317,466192.150,02000000,cdba,17139;SOL_COMPUTED,INS_PPP,17.60164778652,78.12664689105,526.7796,-76.2000,WGS84,0.0955,0.1029,0.1243,"TSTR",12.000,0.000,32,30,30,30,10,00,7f,30*bb4c1729
#BESTPOSA,FILE,0,35.0,FINEBACKUPSTEERING,2317,466192.200,02000000,cdba,17139;SOL_COMPUTED,INS_PPP,17.60165027794,78.12664681237,526.7833,-76.2000,WGS84,0.0955,0.1029,0.1243,"TSTR",12.000,0.000,32,30,30,30,10,00,7f,30*71970fb6
#BESTPOSA,FILE,0,35.0,FINEBACKUPSTEERING,2317,466192.250,02000000,cdba,17139;SOL_COMPUTED,INS_PPP,17.60165278785,78.12664672177,526.7862,-76.2000,WGS84,0.0955,0.1029,0.1243,"TSTR",12.000,0.000,32,30,30,30,10,00,7f,30*60679cea
#BESTPOSA,FILE,0,35.0,FINEBACKUPSTEERING,2317,466192.300,02000000,cdba,17139;SOL_COMPUTED,INS_PPP,17.60165531811,78.12664662934,526.7896,-76.2000,WGS84,0.0955,0.1029,0.1243,"TSTR",12.000,0.000,32,30,30,30,10,00,7f,30*da805e96
#BESTPOSA,FILE,0,35.0,FINEBACKUPSTEERING,2317,466192.350,02000000,cdba,17139;SOL_COMPUTED,INS_PPP,17.60165787578,78.12664653022,526.7929,-76.2000,WGS84,0.0955,0.1029,0.1243,"TSTR",12.000,0.000,32,30,30,30,10,00,7f,30*34b6a8c9
#BESTPOSA,FILE,0,35.0,FINEBACKUPSTEERING,2317,466192.400,02000000,cdba,17139;SOL_COMPUTED,INS_PPP,17.60166044630,78.12664643693,526.7954,-76.2000,WGS84,0.0955,0.1029,0.1243,"TSTR",12.000,0.000,32,30,30,30,10,00,7f,30*bcf87c5c
#BESTPOSA,FILE,0,35.0,FINEBACKUPSTEERING,2317,466192.450,02000000,cdba,17139;SOL_COMPUTED,INS_PPP,17.60166303200,78.12664633335,526.7968,-76.2000,WGS84,0.0955,0.1029,0.1243,"TSTR",12.000,0.000,32,30,30,30,10,00,7f,30*de2de8ee
#BESTPOSA,FILE,0,35.0,FINEBACKUPSTEERING,2317,466192.500,02000000,cdba,17139;SOL_COMPUTED,INS_PPP,17.60166563609,78.12664623583,526.7987,-76.2000,WGS84,0.0955,0.1029,0.1243,"TSTR",12.000,0.000,32,30,30,30,10,00,7f,30*434b4ddb
#BESTPOSA,FILE,0,35.0,FINEBACKUPSTEERING,2317,466192.550,02000000,cdba,17139;SOL_COMPUTED,INS_PPP,17.60166827014,78.12664615018,526.8011,-76.2000,WGS84,0.0955,0.1029,0.1243,"TSTR",12.000,0.000,32,30,30,30,10,00,7f,30*134b0072
#BESTPOSA,FILE,0,35.0,FINEBACKUPSTEERING,2317,466192.600,02000000,cdba,17139;SOL_COMPUTED,INS_PPP,17.60167094171,78.12664606911,526.8041,-76.2000,WGS84,0.0955,0.1029,0.1243,"TSTR",12.000,0.000,32,30,30,30,10,00,7f,30*f4a1cb33
#BESTPOSA,FILE,0,35.0,FINEBACKUPSTEERING,2317,466192.650,02000000,cdba,17139;SOL_COMPUTED,INS_PPP,17.60167364806,78.12664598449,526.8073,-76.2000,WGS84,0.0955,0.1029,0.1243,"TSTR",12.000,0.000,32,30,30,30,10,00,7f,30*534ba1ca
#BESTPOSA,FILE,0,35.0,FINEBACKUPSTEERING,2317,466192.700,02000000,cdba,17139;SOL_COMPUTED,INS_PPP,17.60167637369,78.12664589985,526.8099,-76.2000,WGS84,0.0955,0.1029,0.1243,"TSTR",12.000,0.000,32,30,30,30,10,00,7f,30*6b1ae2da
#BESTPOSA,FILE,0,35.0,FINEBACKUPSTEERING,2317,466192.750,02000000,cdba,17139;SOL_COMPUTED,INS_PPP,17.60167912756,78.12664580666,526.8113,-76.2000,WGS84,0.0955,0.1029,0.1243,"TSTR",12.000,0.000,32,30,30,30,10,00,7f,30*c74d3775
#BESTPOSA,FILE,0,35.0,FINEBACKUPSTEERING,2317,466192.800,02000000,cdba,17139;SOL_COMPUTED,INS_PPP,17.60168191735,78.12664570575,526.8139,-76.2000,WGS84,0.0955,0.1029,0.1243,"TSTR",12.000,0.000,32,30,30,30,10,00,7f,30*fd7fbadd
#BESTPOSA,FILE,0,35.0,FINEBACKUPSTEERING,2317,466192.850,02000000,cdba,17139;SOL_COMPUTED,INS_PPP,17.60168473723,78.12664561521,526.8181,-76.2000,WGS84,0.0955,0.1029,0.1243,"TSTR",12.000,0.000,32,30,30,30,10,00,7f,30*21d8f617
#BESTPOSA,FILE,0,35.0,FINEBACKUPSTEERING,2317,466192.900,02000000,cdba,17139;SOL_COMPUTED,INS_PPP,17.60168758205,78.12664552703,526.8235,-76.2000,WGS84,0.0955,0.1029,0.1243,"TSTR",12.000,0.000,32,30,30,30,10,00,7f,30*97bdc550
#BESTPOSA,FILE,0,35.0,FINEBACKUPSTEERING,2317,466192.950,02000000,cdba,17139;SOL_COMPUTED,INS_PPP,17.60169045038,78.12664545000,526.8279,-76.2000,WGS84,0.0955,0.1029,0.1243,"TSTR",12.000,0.000,32,30,30,30,10,00,7f,30*905e283c
#BESTPOSA,FILE,0,35.0,FINEBACKUPSTEERING,2317,466193.000,02000000,cdba,17139;SOL_COMPUTED,INS_PPP,17.60169334122,78.12664537415,526.8298,-76.2000,WGS84,0.0955,0.1029,0.1243,"TSTR",12.000,0.000,32,30,30,30,10,00,7f,30*8ce43008
#BESTPOSA,FILE,0,35.0,FINEBACKUPSTEERING,2317,466193.050,02000000,cdba,17139;SOL_COMPUTED,INS_PPP,17.60169624522,78.12664529981,526.8311,-76.2000,WGS84,0.0950,0.1025,0.1261,"TSTR",13.000,0.000,31,30,30,30,10,00,7f,30*07babebc
#BESTPOSA,FILE,0,35.0,FINEBACKUPSTEERING,2317,466193.100,02000000,cdba,17139;SOL_COMPUTED,INS_PPP,17.60169916818,78.12664522603,526.8328,-76.2000,WGS84,0.0950,0.1025,0.1261,"TSTR",13.000,0.000,31,30,30,30,10,00,7f,30*c1e0d5f0
#BESTPOSA,FILE,0,36.5,FINEBACKUPSTEERING,2317,466193.150,02000000,cdba,17139;SOL_COMPUTED,INS_PPP,17.60170212041,78.12664514927,526.8339,-76.2000,WGS84,0.0950,0.1025,0.1261,"TSTR",13.000,0.000,31,30,30,30,10,00,7f,30*9fd43521
#BESTPOSA,FILE,0,36.5,FINEBACKUPSTEERING,2317,466193.200,02000000,cdba,17139;SOL_COMPUTED,INS_PPP,17.60170510518,78.12664506850,526.8345,-76.2000,WGS84,0.0950,0.1025,0.1261,"TSTR",13.000,0.000,31,30,30,30,10,00,7f,30*a7d8b2b5
#BESTPOSA,FILE,0,36.5,FINEBACKUPSTEERING,2317,466193.250,02000000,cdba,17139;SOL_COMPUTED,INS_PPP,17.60170812173,78.12664497821,526.8349,-76.2000,WGS84,0.0950,0.1025,0.1261,"TSTR",13.000,0.000,31,30,30,30,10,00,7f,30*d7bf3025
#BESTPOSA,FILE,0,36.5,FINEBACKUPSTEERING,2317,466193.300,02000000,cdba,17139;SOL_COMPUTED,INS_PPP,17.60171117509,78.12664488262,526.8363,-76.2000,WGS84,0.0950,0.1025,0.1261,"TSTR",13.000,0.000,31,30,30,30,10,00,7f,30*1d0516df
#BESTPOSA,FILE,0,36.5,FINEBACKUPSTEERING,2317,466193.350,02000000,cdba,17139;SOL_COMPUTED,INS_PPP,17.60171425768,78.12664479123,526.8386,-76.2000,WGS84,0.0950,0.1025,0.1261,"TSTR",13.000,0.000,31,30,30,30,10,00,7f,30*f44f7134
#BESTPOSA,FILE,0,36.5,FINEBACKUPSTEERING,2317,466193.400,02000000,cdba,17139;SOL_COMPUTED,INS_PPP,17.60171736609,78.12664470153,526.8412,-76.2000,WGS84,0.0950,0.1025,0.1261,"TSTR",13.000,0.000,31,30,30,30,10,00,7f,30*7092c1c7
#BESTPOSA,FILE,0,36.5,FINEBACKUPSTEERING,2317,466193.450,02000000,cdba,17139;SOL_COMPUTED,INS_PPP,17.60172049567,78.12664461559,526.8453,-76.2000,WGS84,0.0950,0.1025,0.1261,"TSTR",13.000,0.000,31,30,30,30,10,00,7f,30*f3fc7345
#BESTPOSA,FILE,0,36.5,FINEBACKUPSTEERING,2317,466193.500,02000000,cdba,17139;SOL_COMPUTED,INS_PPP,17.60172365668,78.12664452942,526.8489,-76.2000,WGS84,0.0950,0.1025,0.1261,"TSTR",13.000,0.000,31,30,30,30,10,00,7f,30*1aa9dd6e
#BESTPOSA,FILE,0,36.5,FINEBACKUPSTEERING,2317,466193.550,02000000,cdba,17139;SOL_COMPUTED,INS_PPP,17.60172683899,78.12664445122,526.8514,-76.2000,WGS84,0.0950,0.1025,0.1261,"TSTR",13.000,0.000,31,30,30,30,10,00,7f,30*94bf7a4c
#BESTPOSA,FILE,0,36.5,FINEBACKUPSTEERING,2317,466193.600,02000000,cdba,17139;SOL_COMPUTED,INS_PPP,17.60173004695,78.12664436548,526.8533,-76.2000,WGS84,0.0950,0.1025,0.1261,"TSTR",13.000,0.000,31,30,30,30,10,00,7f,30*4fea0585
#BESTPOSA,FILE,0,36.5,FINEBACKUPSTEERING,2317,466193.650,02000000,cdba,17139;SOL_COMPUTED,INS_PPP,17.60173328526,78.12664427128,526.8551,-76.2000,WGS84,0.0950,0.1025,0.1261,"TSTR",13.000,0.000,31,30,30,30,10,00,7f,30*9b636506
#BESTPOSA,FILE,0,36.5,FINEBACKUPSTEERING,2317,466193.700,02000000,cdba,17139;SOL_COMPUTED,INS_PPP,17.60173655602,78.12664416603,526.8568,-76.2000,WGS84,0.0950,0.1025,0.1261,"TSTR",13.000,0.000,31,30,30,30,10,00,7f,30*d4fb6f71
#BESTPOSA,FILE,0,36.5,FINEBACKUPSTEERING,2317,466193.750,02000000,cdba,17139;SOL_COMPUTED,INS_PPP,17.60173986077,78.12664405829,526.8589,-76.2000,WGS84,0.0950,0.1025,0.1261,"TSTR",13.000,0.000,31,30,30,30,10,00,7f,30*89eaaa2c
#BESTPOSA,FILE,0,36.5,FINEBACKUPSTEERING,2317,466193.800,02000000,cdba,17139;SOL_COMPUTED,INS_PPP,17.60174319529,78.12664395248,526.8621,-76.2000,WGS84,0.0950,0.1025,0.1261,"TSTR",13.000,0.000,31,30,30,30,10,00,7f,30*252931b0
#BESTPOSA,FILE,0,36.5,FINEBACKUPSTEERING,2317,466193.850,02000000,cdba,17139;SOL_COMPUTED,INS_PPP,17.60174656311,78.12664385231,526.8655,-76.2000,WGS84,0.0950,0.1025,0.1261,"TSTR",13.000,0.000,31,30,30,30,10,00,7f,30*e31fbee3
#BESTPOSA,FILE,0,36.5,FINEBACKUPSTEERING,2317,466193.900,02000000,cdba,17139;SOL_COMPUTED,INS_PPP,17.60174995708,78.12664375043,526.8689,-76.2000,WGS84,0.0950,0.1025,0.1261,"TSTR",13.000,0.000,31,30,30,30,10,00,7f,30*0471e834
#BESTPOSA,FILE,0,36.5,FINEBACKUPSTEERING,2317,466193.950,02000000,cdba,17139;SOL_COMPUTED,INS_PPP,17.60175338174,78.12664365664,526.8733,-76.2000,WGS84,0.0950,0.1025,0.1261,"TSTR",13.000,0.000,31,30,30,30,10,00,7f,30*f2143b9d
#BESTPOSA,FILE,0,36.5,FINEBACKUPSTEERING,2317,466194.000,02000000,cdba,17139;SOL_COMPUTED,INS_PPP,17.60175683895,78.12664355904,526.8770,-76.2000,WGS84,0.0950,0.1025,0.1261,"TSTR",13.000,0.000,31,30,30,30,10,00,7f,30*bf1ae926
#BESTPOSA,FILE,0,36.5,FINEBACKUPSTEERING,2317,466194.050,02000000,cdba,17139;SOL_COMPUTED,INS_PPP,17.60176032104,78.12664346640,526.8810,-76.2000,WGS84,0.0947,0.1022,0.1274,"TSTR",14.000,0.000,32,30,30,30,10,00,7f,30*aad616f3
#BESTPOSA,FILE,0,36.5,FINEBACKUPSTEERING,2317,466194.100,02000000,cdba,17139;SOL_COMPUTED,INS_PPP,17.60176383994,78.12664337278,526.8842,-76.2000,WGS84,0.0947,0.1022,0.1274,"TSTR",14.000,0.000,32,30,30,30,10,00,7f,30*fdef57a0
#BESTPOSA,FILE,0,36.5,FINEBACKUPSTEERING,2317,466194.150,02000000,cdba,17139;SOL_COMPUTED,INS_PPP,17.60176739161,78.12664327852,526.8871,-76.2000,WGS84,0.0947,0.1022,0.1274,"TSTR",14.000,0.000,32,30,30,30,10,00,7f,30*46993b8c
#BESTPOSA,FILE,0,36.5,FINEBACKUPSTEERING,2317,466194.200,02000000,cdba,17139;SOL_COMPUTED,INS_PPP,17.60177097994,78.12664317892,526.8911,-76.2000,WGS84,0.0947,0.1022,0.1274,"TSTR",14.000,0.000,32,30,30,30,10,00,7f,30*6187f6d9
#BESTPOSA,FILE,0,37.5,FINEBACKUPSTEERING,2317,466194.250,02000000,cdba,17139;SOL_COMPUTED,INS_PPP,17.60177460166,78.12664307694,526.8957,-76.2000,WGS84,0.0947,0.1022,0.1274,"TSTR",14.000,0.000,32,30,30,30,10,00,7f,30*28bac907
#BESTPOSA,FILE,0,37.5,FINEBACKUPSTEERING,2317,466194.300,02000000,cdba,17139;SOL_COMPUTED,INS_PPP,17.60177825068,78.12664297916,526.8996,-76.2000,WGS84,0.0947,0.1022,0.1274,"TSTR",14.000,0.000,32,30,30,30,10,00,7f,30*940ceb30
#BESTPOSA,FILE,0,37.5,FINEBACKUPSTEERING,2317,466194.350,02000000,cdba,17139;SOL_COMPUTED,INS_PPP,17.60178191669,78.12664287794,526.9032,-76.2000,WGS84,0.0947,0.1022,0.1274,"TSTR",14.000,0.000,32,30,30,30,10,00,7f,30*e818e445
#BESTPOSA,FILE,0,37.5,FINEBACKUPSTEERING,2317,466194.400,02000000,cdba,17139;SOL_COMPUTED,INS_PPP,17.60178560645,78.12664278148,526.9052,-76.2000,WGS84,0.0947,0.1022,0.1274,"TSTR",14.000,0.000,32,30,30,30,10,00,7f,30*f68ed77c
#BESTPOSA,FILE,0,37.5,FINEBACKUPSTEERING,2317,466194.450,02000000,cdba,17139;SOL_COMPUTED,INS_PPP,17.60178932706,78.12664267385,526.9057,-76.2000,WGS84,0.0947,0.1022,0.1274,"TSTR",14.000,0.000,32,30,30,30,10,00,7f,30*a80dd213
#BESTPOSA,FILE,0,37.5,FINEBACKUPSTEERING,2317,466194.500,02000000,cdba,17139;SOL_COMPUTED,INS_PPP,17.60179307105,78.12664256399,526.9063,-76.2000,WGS84,0.0947,0.1022,0.1274,"TSTR",14.000,0.000,32,30,30,30,10,00,7f,30*b9346ce1
#BESTPOSA,FILE,0,37.5,FINESTEERING,2317,466194.550,02000000,cdba,17139;SOL_COMPUTED,INS_PPP,17.60179683332,78.12664245986,526.9065,-76.2000,WGS84,0.0947,0.1022,0.1274,"TSTR",14.000,0.000,32,30,30,30,10,00,7f,30*70c77b23
#BESTPOSA,FILE,0,37.5,FINESTEERING,2317,466194.600,02000000,cdba,17139;SOL_COMPUTED,INS_PPP,17.60180063794,78.12664236425,526.9069,-76.2000,WGS84,0.0947,0.1022,0.1274,"TSTR",14.000,0.000,32,30,30,30,10,00,7f,30*cc61bfd0
#BESTPOSA,FILE,0,37.5,FINESTEERING,2317,466194.650,02000000,cdba,17139;SOL_COMPUTED,INS_PPP,17.60180448550,78.12664226819,526.9084,-76.2000,WGS84,0.0947,0.1022,0.1274,"TSTR",14.000,0.000,32,30,30,30,10,00,7f,30*3856a22e
#BESTPOSA,FILE,0,37.5,FINESTEERING,2317,466194.700,02000000,cdba,17139;SOL_COMPUTED,INS_PPP,17.60180835648,78.12664215840,526.9111,-76.2000,WGS84,0.0947,0.1022,0.1274,"TSTR",14.000,0.000,32,30,30,30,10,00,7f,30*819b7a5e
#BESTPOSA,FILE,0,37.5,FINESTEERING,2317,466194.750,02000000,cdba,17139;SOL_COMPUTED,INS_PPP,17.60181225953,78.12664203466,526.9134,-76.2000,WGS84,0.0947,0.1022,0.1274,"TSTR",14.000,0.000,32,30,30,30,10,00,7f,30*486a03da
#BESTPOSA,FILE,0,37.5,FINESTEERING,2317,466194.800,02000000,cdba,17139;SOL_COMPUTED,INS_PPP,17.60181620058,78.12664189964,526.9169,-76.2000,WGS84,0.0947,0.1022,0.1274,"TSTR",14.000,0.000,32,30,30,30,10,00,7f,30*8214d070
#BESTPOSA,FILE,0,37.5,FINESTEERING,2317,466194.850,02000000,cdba,17139;SOL_COMPUTED,INS_PPP,17.60182015531,78.12664177161,526.9212,-76.2000,WGS84,0.0947,0.1022,0.1274,"TSTR",14.000,0.000,32,30,30,30,10,00,7f,30*9c7c46c7
#BESTPOSA,FILE,0,37.5,FINESTEERING,2317,466194.900,02000000,cdba,17139;SOL_COMPUTED,INS_PPP,17.60182413200,78.12664166232,526.9237,-76.2000,WGS84,0.0947,0.1022,0.1274,"TSTR",14.000,0.000,32,30,30,30,10,00,7f,30*4b18aa81
#BESTPOSA,FILE,0,37.5,FINESTEERING,2317,466194.950,02000000,cdba,17139;SOL_COMPUTED,INS_PPP,17.60182813004,78.12664155070,526.9260,-76.2000,WGS84,0.0947,0.1022,0.1274,"TSTR",14.000,0.000,32,30,30,30,10,00,7f,30*b05194c8
#BESTPOSA,FILE,0,37.5,FINESTEERING,2317,466195.000,02000000,cdba,17139;SOL_COMPUTED,INS_PPP,17.60183216352,78.12664143016,526.9274,-76.2000,WGS84,0.0947,0.1022,0.1274,"TSTR",14.000,0.000,32,30,30,30,10,00,7f,30*d6273414
#BESTPOSA,FILE,0,37.5,FINESTEERING,2317,466195.050,02000000,cdba,17139;SOL_COMPUTED,INS_PPP,17.60183621736,78.12664129038,526.9290,-76.2000,WGS84,0.0944,0.1020,0.1282,"TSTR",15.000,0.000,34,31,31,31,10,00,7f,30*bc59e0f1
#BESTPOSA,FILE,0,32.5,FINESTEERING,2317,466195.100,02000000,cdba,17139;SOL_COMPUTED,INS_PPP,17.60184030392,78.12664113415,526.9319,-76.2000,WGS84,0.0944,0.1020,0.1282,"TSTR",15.000,0.000,34,31,31,31,10,00,7f,30*df8bda87
#BESTPOSA,FILE,0,32.5,FINESTEERING,2317,466195.150,02000000,cdba,17139;SOL_COMPUTED,INS_PPP,17.60184443191,78.12664097668,526.9362,-76.2000,WGS84,0.0944,0.1020,0.1282,"TSTR",15.000,0.000,34,31,31,31,10,00,7f,30*a9459ade
#BESTPOSA,FILE,0,32.5,FINESTEERING,2317,466195.200,02000000,cdba,17139;SOL_COMPUTED,INS_PPP,17.60184859387,78.12664083513,526.9418,-76.2000,WGS84,0.0944,0.1020,0.1282,"TSTR",15.000,0.000,34,31,31,31,10,00,7f,30*bad50070
#BESTPOSA,FILE,0,32.5,FINESTEERING,2317,466195.250,02000000,cdba,17139;SOL_COMPUTED,INS_PPP,17.60185278975,78.12664070143,526.9486,-76.2000,WGS84,0.0944,0.1020,0.1282,"TSTR",15.000,0.000,34,31,31,31,10,00,7f,30*b3746dfe
#BESTPOSA,FILE,0,32.5,FINESTEERING,2317,466195.300,02000000,cdba,17139;SOL_COMPUTED,INS_PPP,17.60185701286,78.12664055793,526.9568,-76.2000,WGS84,0.0944,0.1020,0.1282,"TSTR",15.000,0.000,34,31,31,31,10,00,7f,30*a0c6e8b2
#BESTPOSA,FILE,0,32.5,FINESTEERING,2317,466195.350,02000000,cdba,17139;SOL_COMPUTED,INS_PPP,17.60186126173,78.12664040453,526.9643,-76.2000,WGS84,0.0944,0.1020,0.1282,"TSTR",15.000,0.000,34,31,31,31,10,00,7f,30*9a40fea0
#BESTPOSA,FILE,0,32.5,FINESTEERING,2317,466195.400,02000000,cdba,17139;SOL_COMPUTED,INS_PPP,17.60186552810,78.12664026163,526.9706,-76.2000,WGS84,0.0944,0.1020,0.1282,"TSTR",15.000,0.000,34,31,31,31,10,00,7f,30*6d30591d
#BESTPOSA,FILE,0,32.5,FINESTEERING,2317,466195.450,02000000,cdba,17139;SOL_COMPUTED,INS_PPP,17.60186980438,78.12664012346,526.9760,-76.2000,WGS84,0.0944,0.1020,0.1282,"TSTR",15.000,0.000,34,31,31,31,10,00,7f,30*ed49e26d
#BESTPOSA,FILE,0,32.5,FINESTEERING,2317,466195.500,02000000,cdba,17139;SOL_COMPUTED,INS_PPP,17.60187409387,78.12663999635,526.9805,-76.2000,WGS84,0.0944,0.1020,0.1282,"TSTR",15.000,0.000,34,31,31,31,10,00,7f,30*f5dfeef4
#BESTPOSA,FILE,0,32.5,FINESTEERING,2317,466195.550,02000000,cdba,17139;SOL_COMPUTED,INS_PPP,17.60187838340,78.12663986441,526.9846,-76.2000,WGS84,0.0944,0.1020,0.1282,"TSTR",15.000,0.000,34,31,31,31,10,00,7f,30*ec817e87
#BESTPOSA,FILE,0,32.5,FINESTEERING,2317,466195.600,02000000,cdba,17139;SOL_COMPUTED,INS_PPP,17.60188267239,78.12663971896,526.9880,-76.2000,WGS84,0.0944,0.1020,0.1282,"TSTR",15.000,0.000,34,31,31,31,10,00,7f,30*602ab2c6
#BESTPOSA,FILE,0,32.5,FINESTEERING,2317,466195.650,02000000,cdba,17139;SOL_COMPUTED,INS_PPP,17.60188695476,78.12663957105,526.9905,-76.2000,WGS84,0.0944,0.1020,0.1282,"TSTR",15.000,0.000,34,31,31,31,10,00,7f,30*bf177153
#BESTPOSA,FILE,0,32.5,FINESTEERING,2317,466195.700,02000000,cdba,17139;SOL_COMPUTED,INS_PPP,17.60189122490,78.12663943624,526.9929,-76.2000,WGS84,0.0944,0.1020,0.1282,"TSTR",15.000,0.000,34,31,31,31,10,00,7f,30*1d813656
#BESTPOSA,FILE,0,32.5,FINESTEERING,2317,466195.750,02000000,cdba,17139;SOL_COMPUTED,INS_PPP,17.60189548731,78.12663930227,526.9943,-76.2000,WGS84,0.0944,0.1020,0.1282,"TSTR",15.000,0.000,34,31,31,31,10,00,7f,30*dcb7a186
#BESTPOSA,FILE,0,32.5,FINESTEERING,2317,466195.800,02000000,cdba,17139;SOL_COMPUTED,INS_PPP,17.60189972487,78.12663916565,526.9941,-76.2000,WGS84,0.0944,0.1020,0.1282,"TSTR",15.000,0.000,34,31,31,31,10,00,7f,30*64a90169
#BESTPOSA,FILE,0,32.5,FINESTEERING,2317,466195.850,02000000,cdba,17139;SOL_COMPUTED,INS_PPP,17.60190396522,78.12663901494,526.9942,-76.2000,WGS84,0.0944,0.1020,0.1282,"TSTR",15.000,0.000,34,31,31,31,10,00,7f,30*d6c89ea0
#BESTPOSA,FILE,0,32.5,FINESTEERING,2317,466195.900,02000000,cdba,17139;SOL_COMPUTED,INS_PPP,17.60190821014,78.12663883822,526.9944,-76.2000,WGS84,0.0944,0.1020,0.1282,"TSTR",15.000,0.000,34,31,31,31,10,00,7f,30*d6626522
#BESTPOSA,FILE,0,32.5,FINESTEERING,2317,466195.950,02000000,cdba,17139;SOL_COMPUTED,INS_PPP,17.60191245069,78.12663867307,526.9946,-76.2000,WGS84,0.0944,0.1020,0.1282,"TSTR",15.000,0.000,34,31,31,31,10,00,7f,30*4ff36454
#BESTPOSA,FILE,0,32.5,FINESTEERING,2317,466196.000,02000000,cdba,17139;SOL_COMPUTED,INS_PPP,17.60191668227,78.12663851827,526.9949,-76.2000,WGS84,0.0944,0.1020,0.1282,"TSTR",15.000,0.000,34,31,31,31,10,00,7f,30*cce745b9
#BESTPOSA,FILE,0,32.5,FINESTEERING,2317,466196.050,02000000,cdba,17139;SOL_COMPUTED,INS_PPP,17.60192091100,78.12663835696,526.9957,-76.2000,WGS84,0.0942,0.1021,0.1287,"TSTR",16.000,0.000,34,33,33,32,10,00,7f,30*2fddc194
#BESTPOSA,FILE,0,32.5,FINESTEERING,2317,466196.100,02000000,cdba,17139;SOL_COMPUTED,INS_PPP,17.60192513091,78.12663818691,526.9960,-76.2000,WGS84,0.0942,0.1021,0.1287,"TSTR",16.000,0.000,34,33,33,32,10,00,7f,30*5c593e88
#BESTPOSA,FILE,0,34.0,FINESTEERING,2317,466196.150,02000000,cdba,17139;SOL_COMPUTED,INS_PPP,17.60192933741,78.12663801246,526.9958,-76.2000,WGS84,0.0942,0.1021,0.1287,"TSTR",16.000,0.000,34,33,33,32,10,00,7f,30*531e4372
#BESTPOSA,FILE,0,34.0,FINESTEERING,2317,466196.200,02000000,cdba,17139;SOL_COMPUTED,INS_PPP,17.60193353382,78.12663784942,526.9950,-76.2000,WGS84,0.0942,0.1021,0.1287,"TSTR",16.000,0.000,34,33,33,32,10,00,7f,30*394ca51a
#BESTPOSA,FILE,0,34.0,FINESTEERING,2317,466196.250,02000000,cdba,17139;SOL_COMPUTED,INS_PPP,17.60193771451,78.12663768402,526.9943,-76.2000,WGS84,0.0942,0.1021,0.1287,"TSTR",16.000,0.000,34,33,33,32,10,00,7f,30*f3a03cb4
#BESTPOSA,FILE,0,34.0,FINESTEERING,2317,466196.300,02000000,cdba,17139;SOL_COMPUTED,INS_PPP,17.60194188922,78.12663752982,526.9943,-76.2000,WGS84,0.0942,0.1021,0.1287,"TSTR",16.000,0.000,34,33,33,32,10,00,7f,30*34e800f6
#BESTPOSA,FILE,0,34.0,FINESTEERING,2317,466196.350,02000000,cdba,17139;SOL_COMPUTED,INS_PPP,17.60194606649,78.12663737707,526.9958,-76.2000,WGS84,0.0942,0.1021,0.1287,"TSTR",16.000,0.000,34,33,33,32,10,00,7f,30*b01d852a
#BESTPOSA,FILE,0,34.0,FINESTEERING,2317,466196.400,02000000,cdba,17139;SOL_COMPUTED,INS_PPP,17.60195024646,78.12663721503,526.9987,-76.2000,WGS84,0.0942,0.1021,0.1287,"TSTR",16.000,0.000,34,33,33,32,10,00,7f,30*9197cda1
#BESTPOSA,FILE,0,34.0,FINESTEERING,2317,466196.450,02000000,cdba,17139;SOL_COMPUTED,INS_PPP,17.60195443250,78.12663706968,527.0031,-76.2000,WGS84,0.0942,0.1021,0.1287,"TSTR",16.000,0.000,34,33,33,32,10,00,7f,30*93ea501e
#BESTPOSA,FILE,0,34.0,FINESTEERING,2317,466196.500,02000000,cdba,17139;SOL_COMPUTED,INS_PPP,17.60195862814,78.12663693224,527.0095,-76.2000,WGS84,0.0942,0.1021,0.1287,"TSTR",16.000,0.000,34,33,33,32,10,00,7f,30*dec6c213
#BESTPOSA,FILE,0,34.0,FINESTEERING,2317,466196.550,02000000,cdba,17139;SOL_COMPUTED,INS_PPP,17.60196282837,78.12663679687,527.0185,-76.2000,WGS84,0.0942,0.1021,0.1287,"TSTR",16.000,0.000,34,33,33,32,10,00,7f,30*a83e5947
#BESTPOSA,FILE,0,34.0,FINESTEERING,2317,466196.600,02000000,cdba,17139;SOL_COMPUTED,INS_PPP,17.60196700154,78.12663665608,527.0289,-76.2000,WGS84,0.0942,0.1021,0.1287,"TSTR",16.000,0.000,34,33,33,32,10,00,7f,30*aae06f85
#BESTPOSA,FILE,0,34.0,FINESTEERING,2317,466196.650,02000000,cdba,17139;SOL_COMPUTED,INS_PPP,17.60197114930,78.12663648994,527.0383,-76.2000,WGS84,0.0942,0.1021,0.1287,"TSTR",16.000,0.000,34,33,33,32,10,00,7f,30*f647cb52
#BESTPOSA,FILE,0,34.0,FINESTEERING,2317,466196.700,02000000,cdba,17139;SOL_COMPUTED,INS_PPP,17.60197527226,78.12663631882,527.0437,-76.2000,WGS84,0.0942,0.1021,0.1287,"TSTR",16.000,0.000,34,33,33,32,10,00,7f,30*b3c5f58f
#BESTPOSA,FILE,0,34.0,FINESTEERING,2317,466196.750,02000000,cdba,17139;SOL_COMPUTED,INS_PPP,17.60197937381,78.12663614517,527.0447,-76.2000,WGS84,0.0942,0.1021,0.1287,"TSTR",16.000,0.000,34,33,33,32,10,00,7f,30*12831646
#BESTPOSA,FILE,0,34.0,FINESTEERING,2317,466196.800,02000000,cdba,17139;SOL_COMPUTED,INS_PPP,17.60198346294,78.12663598044,527.0432,-76.2000,WGS84,0.0942,0.1021,0.1287,"TSTR",16.000,0.000,34,33,33,32,10,00,7f,30*b9fd47ed
#BESTPOSA,FILE,0,34.0,FINESTEERING,2317,466196.850,02000000,cdba,17139;SOL_COMPUTED,INS_PPP,17.60198753686,78.12663581638,527.0421,-76.2000,WGS84,0.0942,0.1021,0.1287,"TSTR",16.000,0.000,34,33,33,32,10,00,7f,30*3ef9e8b8
#BESTPOSA,FILE,0,34.0,FINESTEERING,2317,466196.900,02000000,cdba,17139;SOL_COMPUTED,INS_PPP,17.60199162116,78.12663564659,527.0420,-76.2000,WGS84,0.0942,0.1021,0.1287,"TSTR",16.000,0.000,34,33,33,32,10,00,7f,30*130ee279
#BESTPOSA,FILE,0,34.0,FINESTEERING,2317,466196.950,02000000,cdba,17139;SOL_COMPUTED,INS_PPP,17.60199570424,78.12663546854,527.0442,-76.2000,WGS84,0.0942,0.1021,0.1287,"TSTR",16.000,0.000,34,33,33,32,10,00,7f,30*815f8f74
#BESTPOSA,FILE,0,34.0,FINESTEERING,2317,466197.000,02000000,cdba,17139;SOL_COMPUTED,INS_PPP,17.60199981082,78.12663529758,527.0482,-76.2000,WGS84,0.0942,0.1021,0.1287,"TSTR",16.000,0.000,34,33,33,32,10,00,7f,30*297cd0e2
#BESTPOSA,FILE,0,34.0,FINESTEERING,2317,466197.050,02000000,cdba,17139;SOL_COMPUTED,INS_PPP,17.60200392985,78.12663512593,527.0522,-76.2000,WGS84,0.0942,0.1020,0.1289,"TSTR",17.000,0.000,35,33,33,32,10,00,7f,30*1148b4ff
#BESTPOSA,FILE,0,33.5,FINESTEERING,2317,466197.100,02000000,cdba,17139;SOL_COMPUTED,INS_PPP,17.60200805192,78.12663497800,527.0571,-76.2000,WGS84,0.0942,0.1020,0.1289,"TSTR",17.000,0.000,35,33,33,32,10,00,7f,30*72606c25
#BESTPOSA,FILE,0,33.5,FINESTEERING,2317,466197.150,02000000,cdba,17139;SOL_COMPUTED,INS_PPP,17.60201219286,78.12663483178,527.0642,-76.2000,WGS84,0.0942,0.1020,0.1289,"TSTR",17.000,0.000,35,33,33,32,10,00,7f,30*9b37d9ef
#BESTPOSA,FILE,0,33.5,FINESTEERING,2317,466197.200,02000000,cdba,17139;SOL_COMPUTED,INS_PPP,17.60201635205,78.12663470110,527.0714,-76.2000,WGS84,0.0942,0.1020,0.1289,"TSTR",17.000,0.000,35,33,33,32,10,00,7f,30*1e47fd64
#BESTPOSA,FILE,0,33.5,FINESTEERING,2317,466197.250,02000000,cdba,17139;SOL_COMPUTED,INS_PPP,17.60202052516,78.12663457807,527.0775,-76.2000,WGS84,0.0942,0.1020,0.1289,"TSTR",17.000,0.000,35,33,33,32,10,00,7f,30*17f5f9a4
#BESTPOSA,FILE,0,33.5,FINESTEERING,2317,466197.300,02000000,cdba,17139;SOL_COMPUTED,INS_PPP,17.60202470289,78.12663444523,527.0833,-76.2000,WGS84,0.0942,0.1020,0.1289,"TSTR",17.000,0.000,35,33,33,32,10,00,7f,30*e24a4c4c
#BESTPOSA,FILE,0,33.5,FINESTEERING,2317,466197.350,02000000,cdba,17139;SOL_COMPUTED,INS_PPP,17.60202888364,78.12663431386,527.0896,-76.2000,WGS84,0.0942,0.1020,0.1289,"TSTR",17.000,0.000,35,33,33,32,10,00,7f,30*365ed52e
#BESTPOSA,FILE,0,33.5,FINESTEERING,2317,466197.400,02000000,cdba,17139;SOL_COMPUTED,INS_PPP,17.60203308435,78.12663417368,527.0944,-76.2000,WGS84,0.0942,0.1020,0.1289,"TSTR",17.000,0.000,35,33,33,32,10,00,7f,30*da9362f0
#BESTPOSA,FILE,0,33.5,FINESTEERING,2317,466197.450,02000000,cdba,17139;SOL_COMPUTED,INS_PPP,17.60203728199,78.12663403811,527.0978,-76.2000,WGS84,0.0942,0.1020,0.1289,"TSTR",17.000,0.000,35,33,33,32,10,00,7f,30*c11dffbf
#BESTPOSA,FILE,0,33.5,FINESTEERING,2317,466197.500,02000000,cdba,17139;SOL_COMPUTED,INS_PPP,17.60204148814,78.12663391622,527.1008,-76.2000,WGS84,0.0942,0.1020,0.1289,"TSTR",17.000,0.000,35,33,33,32,10,00,7f,30*44ad493c
#BESTPOSA,FILE,0,33.5,FINESTEERING,2317,466197.550,02000000,cdba,17139;SOL_COMPUTED,INS_PPP,17.60204571261,78.12663379780,527.1032,-76.2000,WGS84,0.0942,0.1020,0.1289,"TSTR",17.000,0.000,35,33,33,32,10,00,7f,30*1b046c67
#BESTPOSA,FILE,0,33.5,FINESTEERING,2317,466197.600,02000000,cdba,17139;SOL_COMPUTED,INS_PPP,17.60204993942,78.12663367768,527.1066,-76.2000,WGS84,0.0942,0.1020,0.1289,"TSTR",17.000,0.000,35,33,33,32,10,00,7f,30*710a91ee
#BESTPOSA,FILE,0,33.5,FINESTEERING,2317,466197.650,02000000,cdba,17139;SOL_COMPUTED,INS_PPP,17.60205417607,78.12663356953,527.1089,-76.2000,WGS84,0.0942,0.1020,0.1289,"TSTR",17.000,0.000,35,33,33,32,10,00,7f,30*fa1d99ed
#BESTPOSA,FILE,0,33.5,FINESTEERING,2317,466197.700,02000000,cdba,17139;SOL_COMPUTED,INS_PPP,17.60205841971,78.12663344468,527.1124,-76.2000,WGS84,0.0942,0.1020,0.1289,"TSTR",17.000,0.000,35,33,33,32,10,00,7f,30*68a29fe1
#BESTPOSA,FILE,0,33.5,FINESTEERING,2317,466197.750,02000000,cdba,17139;SOL_COMPUTED,INS_PPP,17.60206268711,78.12663329442,527.1163,-76.2000,WGS84,0.0942,0.1020,0.1289,"TSTR",17.000,0.000,35,33,33,32,10,00,7f,30*cc4b5e81
#BESTPOSA,FILE,0,33.5,FINESTEERING,2317,466197.800,02000000,cdba,17139;SOL_COMPUTED,INS_PPP,17.60206696037,78.12663314291,527.1198,-76.2000,WGS84,0.0942,0.1020,0.1289,"TSTR",17.000,0.000,35,33,33,32,10,00,7f,30*773e030f
#BESTPOSA,FILE,0,33.5,FINESTEERING,2317,466197.850,02000000,cdba,17139;SOL_COMPUTED,INS_PPP,17.60207124309,78.12663298985,527.1230,-76.2000,WGS84,0.0942,0.1020,0.1289,"TSTR",17.000,0.000,35,33,33,32,10,00,7f,30*f91256a2
#BESTPOSA,FILE,0,33.5,FINESTEERING,2317,466197.900,02000000,cdba,17139;SOL_COMPUTED,INS_PPP,17.60207554214,78.12663283537,527.1266,-76.2000,WGS84,0.0942,0.1020,0.1289,"TSTR",17.000,0.000,35,33,33,32,10,00,7f,30*6ee1b1a8
