#CORRIMUDATAA,FILE,0,33.5,FINESTEERING,2317,466183.400,02000800,e5fc,17139;2317,466183.400000000,-0.0000067370845657,-0.0000364873252814,-0.0000103853766849,0.0027076019843706,-0.0004324467003666,0.0018932993292700*cdfb4c83
#CORRIMUDATAA,FILE,0,33.5,FINESTEERING,2317,466183.450,02000800,e5fc,17139;2317,466183.450000000,0.0000095190606656,-0.0000067145350638,0.0000281531296467,0.0007659216390813,-0.0010494409125795,-0.0010328612910762*8ab25874
#CORRIMUDATAA,FILE,0,33.5,FINESTEERING,2317,466183.500,02000800,e5fc,17139;2317,466183.500000000,0.0000170913450487,0.0000444280704818,0.0000147479272274,-0.0011055966560859,-0.0001603144258500,-0.0017418927477031*508fab5c
#CORRIMUDATAA,FILE,0,33.5,FINESTEERING,2317,466183.650,02000800,e5fc,17139;2317,466183.650000000,-0.0000178379688132,-0.0000021615832009,0.0000108743309933,0.0005986001126894,-0.0008045064891667,-0.0003912713773188*6b49946e
#CORRIMUDATAA,FILE,0,33.5,FINESTEERING,2317,466183.750,02000800,e5fc,17139;2317,466183.750000000,0.0000021485688814,-0.0000055762819611,-0.0000144696085471,-0.0003226008200787,0.0002504388448927,-0.0005469536976045*ef056479
#CORRIMUDATAA,FILE,0,33.5,FINESTEERING,2317,466183.800,02000800,e5fc,17139;2317,466183.800000000,-0.0000192454647276,0.0000203781357950,-0.0000182689700627,0.0013414005830154,0.0003929891719013,-0.0007375039337938*7aed57f5
#CORRIMUDATAA,FILE,0,33.5,FINESTEERING,2317,466183.850,02000800,e5fc,17139;2317,466183.850000000,-0.0000140862244422,0.0000361550048430,0.0000170147598925,0.0010463488264798,0.0000348508856559,0.0000981640225836*c6158cd2
#CORRIMUDATAA,FILE,0,33.5,FINESTEERING,2317,466184.000,02000800,e5fc,17139;2317,466184.000000000,0.0000043821747565,-0.0000539064083830,-0.0000088428423174,-0.0004829980825915,0.0005276360182742,0.0004689483573645*e1f5b556
#CORRIMUDATAA,FILE,0,33.5,FINESTEERING,2317,466184.050,02000800,e5fc,17139;2317,466184.050000000,-0.0000030976736067,-0.0000037413159131,-0.0000020741179983,0.0002266025171361,0.0001722317205004,0.0000918639628429*d78c26ba
#CORRIMUDATAA,FILE,0,33.5,FINESTEERING,2317,466184.100,02000800,e5fc,17139;2317,466184.100000000,-0.0000119478420802,-0.0000151252985863,0.0000096227136998,0.0012476072282040,0.0010731049122675,0.0003010623172172*e1cfbba2
#CORRIMUDATAA,FILE,0,35.5,FINESTEERING,2317,466184.250,02000800,e5fc,17139;2317,466184.250000000,-0.0002254193742331,-0.0000168327996070,-0.0000716883565483,0.0030243465091020,-0.0039327924198423,0.0014003672366796*dfa7d8e8
#CORRIMUDATAA,FILE,0,35.5,FINESTEERING,2317,466184.300,02000800,e5fc,17139;2317,466184.300000000,-0.0002614339758116,-0.0000325771433660,0.0000368601240694,0.0032194141095647,-0.0037694383090629,-0.0015519064136394*dc985931
#CORRIMUDATAA,FILE,0,35.5,FINESTEERING,2317,466184.350,02000800,e5fc,17139;2317,466184.350000000,-0.0001804630210539,0.0000441455579011,0.0001037189086843,-0.0000184315881922,-0.0023811357605870,-0.0046387164958296*eeb861de
#CORRIMUDATAA,FILE,0,35.5,FINESTEERING,2317,466184.400,02000800,e5fc,17139;2317,466184.400000000,-0.0000934951443008,-0.0000307115669315,0.0000676239906246,-0.0026295734400322,-0.0022025024598754,-0.0052003862331928*019e3cba
#CORRIMUDATAA,FILE,0,35.5,FINESTEERING,2317,466184.450,02000800,e5fc,17139;2317,466184.450000000,-0.0000383851263854,-0.0000945604975660,-0.0000263253927653,-0.0028643570689219,-0.0026560146306064,-0.0052098665211320*0d49ab37
#CORRIMUDATAA,FILE,0,35.5,FINESTEERING,2317,466184.600,02000800,e5fc,17139;2317,466184.600000000,0.0000293058573265,-0.0000033661319509,0.0000226594433125,0.0013911679072827,-0.0046773316183297,0.0013570132137149*c3f69e82
#CORRIMUDATAA,FILE,0,35.5,FINESTEERING,2317,466184.700,02000800,e5fc,17139;2317,466184.700000000,0.0000062003150521,0.0000377883690893,0.0000539203745496,-0.0017240874004556,-0.0013547667645481,-0.0000600425830893*bc062038
#CORRIMUDATAA,FILE,0,35.5,FINESTEERING,2317,466184.750,02000800,e5fc,17139;2317,466184.750000000,0.0000492466295504,-0.0001041808318419,0.0000103909649710,-0.0039206601321426,-0.0023644641342188,0.0011991729295590*9a3be158
#CORRIMUDATAA,FILE,0,35.5,FINESTEERING,2317,466184.850,02000800,e5fc,17139;2317,466184.850000000,0.0000324197200717,-0.0000594081853361,-0.0000136248855030,0.0023469204857142,-0.0016788591758330,0.0000683231637329*583a609d
#CORRIMUDATAA,FILE,0,35.5,FINESTEERING,2317,466184.900,02000800,e5fc,17139;2317,466184.900000000,-0.0000203086766274,-0.0001115158251271,0.0000148839188443,0.0009265842302736,-0.0035073049352779,0.0018166188479363*e94bbf36
#CORRIMUDATAA,FILE,0,35.5,FINESTEERING,2317,466185.000,02000800,e5fc,17139;2317,466185.000000000,0.0000561429898614,-0.0000217605433507,0.0000033268276308,0.0015733992931137,-0.0044566838256317,-0.0012384861286776*5b615072
#CORRIMUDATAA,FILE,0,31.0,FINESTEERING,2317,466185.100,02000800,e5fc,17139;2317,466185.100000000,0.0000605141423961,0.0000828262431486,0.0000385894454004,0.0002704148554297,-0.0013818106227799,-0.0010662581851829*c0b44305
#CORRIMUDATAA,FILE,0,31.0,FINESTEERING,2317,466185.150,02000800,e5fc,17139;2317,466185.150000000,0.0000170453679849,0.0000440248523643,0.0000431132183265,-0.0011096163117960,-0.0005603358739160,0.0008463702706794*038eddcc
#CORRIMUDATAA,FILE,0,31.0,FINESTEERING,2317,466185.250,02000800,e5fc,17139;2317,466185.250000000,0.0000321728081204,0.0000382717327747,0.0000026494199300,-0.0006741843628112,-0.0016218936522318,-0.0001012222929495*d8450141
#CORRIMUDATAA,FILE,0,31.0,FINESTEERING,2317,466185.300,02000800,e5fc,17139;2317,466185.300000000,0.0000350545623711,-0.0001090104847250,-0.0000083814589254,0.0009145960571533,-0.0026670721102496,0.0008212057900845*7af2238d
#CORRIMUDATAA,FILE,0,31.0,FINESTEERING,2317,466185.350,02000800,e5fc,17139;2317,466185.350000000,0.0000837458099602,-0.0001149878584729,-0.0000115046407924,-0.0003527487835353,-0.0019086576629765,-0.0014639835837162*7c98b026
#CORRIMUDATAA,FILE,0,31.0,FINESTEERING,2317,466185.450,02000800,e5fc,17139;2317,466185.450000000,0.0002203119878335,-0.0000244555120704,0.0000372693733378,0.0019358300714468,0.0067918030537011,0.0029925573120008*6431441b
#CORRIMUDATAA,FILE,0,31.0,FINESTEERING,2317,466185.500,02000800,e5fc,17139;2317,466185.500000000,0.0001611646676707,-0.0000190631978366,0.0000240186019972,-0.0010519890926574,0.0071605996952338,0.0004694631122877*59d92475
#CORRIMUDATAA,FILE,0,31.0,FINESTEERING,2317,466185.600,02000800,e5fc,17139;2317,466185.600000000,0.0001658768935547,0.0000546125873229,-0.0000255846739669,-0.0001596201735531,0.0119363036423539,-0.0004732298369153*c29deb88
#CORRIMUDATAA,FILE,0,31.0,FINESTEERING,2317,466185.650,02000800,e5fc,17139;2317,466185.650000000,0.0001558462086466,0.0000435944777864,-0.0000163942319259,0.0009408661364562,0.0119949714408766,0.0004714561749093*dfb94f96
#CORRIMUDATAA,FILE,0,31.0,FINESTEERING,2317,466185.700,02000800,e5fc,17139;2317,466185.700000000,0.0001400474944351,0.0000492686290846,0.0000276278006835,0.0008565341257437,0.0160438621495439,0.0019908130823857*c6f040d0
#CORRIMUDATAA,FILE,0,31.0,FINESTEERING,2317,466185.800,02000800,e5fc,17139;2317,466185.800000000,0.0000772912947477,0.0000078921001643,-0.0000181262340597,-0.0012253293396438,0.0123135791177856,0.0009805319377539*100712ca
#CORRIMUDATAA,FILE,0,31.0,FINESTEERING,2317,466185.850,02000800,e5fc,17139;2317,466185.850000000,0.0000598282814172,-0.0000127536236535,-0.0000459170495823,-0.0003367112383316,0.0133129137308585,0.0002586679255210*9eac8d8c
#CORRIMUDATAA,FILE,0,31.0,FINESTEERING,2317,466185.950,02000800,e5fc,17139;2317,466185.950000000,0.0000792584077968,-0.0000052713609221,0.0000116176507960,0.0011366889194163,0.0139072506783246,0.0017607740848074*45143e47
#CORRIMUDATAA,FILE,0,31.0,FINESTEERING,2317,466186.100,02000800,e5fc,17139;2317,466186.100000000,0.0001290437643675,0.0000000433693771,-0.0000269434368492,-0.0004072392663334,0.0199570540522650,-0.0000554284044364*552afeb7
#CORRIMUDATAA,FILE,0,33.5,FINESTEERING,2317,466186.150,02000800,e5fc,17139;2317,466186.150000000,0.0001080952396794,0.0000155222115773,-0.0000237441859869,0.0005187706273293,0.0225822637488724,0.0015008885439244*f4f12cdc
#CORRIMUDATAA,FILE,0,33.5,FINESTEERING,2317,466186.200,02000800,e5fc,17139;2317,466186.200000000,0.0000795506637417,0.0000310215022547,-0.0000186478585124,0.0002360268948158,0.0238791178301415,-0.0010343149780703*a97b949e
#CORRIMUDATAA,FILE,0,33.5,FINESTEERING,2317,466186.350,02000800,e5fc,17139;2317,466186.350000000,0.0002035333972745,0.0000727545274978,-0.0000829031396219,-0.0013081409051140,0.0344033030763895,-0.0004433239302278*a5d8f461
#CORRIMUDATAA,FILE,0,33.5,FINESTEERING,2317,466186.400,02000800,e5fc,17139;2317,466186.400000000,0.0002345400008881,0.0000564907790734,-0.0000843849288317,-0.0002234868384305,0.0341096108553400,0.0016210838157981*afc430d7
#CORRIMUDATAA,FILE,0,33.5,FINESTEERING,2317,466186.450,02000800,e5fc,17139;2317,466186.450000000,0.0002174180746121,0.0000175771445056,-0.0000986035648706,0.0005175640883844,0.0419742367249781,0.0030381755807367*0d676910
#CORRIMUDATAA,FILE,0,33.5,FINESTEERING,2317,466186.500,02000800,e5fc,17139;2317,466186.500000000,0.0001121083939500,-0.0000024281200169,-0.0000618075080407,-0.0002559830220660,0.0395783107158504,0.0043944859789843*58f2c268
#CORRIMUDATAA,FILE,0,33.5,FINESTEERING,2317,466186.600,02000800,e5fc,17139;2317,466186.600000000,-0.0000117602855152,-0.0000504166406798,-0.0000206898632276,0.0000127405928069,0.0370132904827502,0.0024188824746121*b717a1cb
#CORRIMUDATAA,FILE,0,33.5,FINESTEERING,2317,466186.650,02000800,e5fc,17139;2317,466186.650000000,-0.0000815061805873,-0.0001740911921185,0.0000022327216573,-0.0006560929136282,0.0481316832571489,0.0000828783299900*0491d1bd
#CORRIMUDATAA,FILE,0,33.5,FINESTEERING,2317,466186.700,02000800,e5fc,17139;2317,466186.700000000,-0.0000537925188904,-0.0001531898434599,0.0000246277373154,-0.0010930378947976,0.0414293383833565,-0.0021753886718307*43a398ca
#CORRIMUDATAA,FILE,0,33.5,FINESTEERING,2317,466186.750,02000800,e5fc,17139;2317,466186.750000000,0.0000138118742015,-0.0001845885525663,0.0000559835289284,-0.0018538244225241,0.0476398617881464,-0.0041832655140367*be574179
#CORRIMUDATAA,FILE,0,33.5,FINESTEERING,2317,466186.800,02000800,e5fc,17139;2317,466186.800000000,0.0000857502293490,-0.0001880987089584,0.0000708192667587,0.0000856058915887,0.0539686934102635,-0.0031477363676933*b6741d39
#CORRIMUDATAA,FILE,0,33.5,FINESTEERING,2317,466186.850,02000800,e5fc,17139;2317,466186.850000000,0.0000687810820720,-0.0001366771860062,0.0000987730553012,0.0035253185078109,0.0497861353741546,-0.0014441867987278*1f90132c
#CORRIMUDATAA,FILE,0,33.5,FINESTEERING,2317,466186.900,02000800,e5fc,17139;2317,466186.900000000,0.0000572894682413,-0.0001094451271179,0.0001489830966988,0.0024278735247580,0.0444595274630575,-0.0001164143540124*4f75fc99
#CORRIMUDATAA,FILE,0,33.5,FINESTEERING,2317,466186.950,02000800,e5fc,17139;2317,466186.950000000,0.0000918214035593,0.0000376431889615,0.0002678105912994,-0.0014975587307603,0.0538761832299600,0.0006401367340888*29b9f6e5
#CORRIMUDATAA,FILE,0,33.5,FINESTEERING,2317,466187.000,02000800,e5fc,17139;2317,466187.000000000,0.0000791985067737,0.0002808670793536,0.0002394498958506,-0.0005839444560070,0.0470455903550545,0.0036903828700085*69ef0736
#CORRIMUDATAA,FILE,0,33.5,FINESTEERING,2317,466187.050,02000800,e5fc,17139;2317,466187.050000000,0.0000678982334192,0.0002399213134535,0.0001836650974277,0.0002666842870951,0.0419852730831638,0.0021533201191563*5e4878f2
#CORRIMUDATAA,FILE,0,33.5,FINESTEERING,2317,466187.100,02000000,e5fc,17139;2317,466187.100000000,0.0000684369828076,0.0002852531804457,0.0002079374432201,-0.0019882349367251,0.0522436907751269,0.0000016036375825*5872171a
#CORRIMUDATAA,FILE,0,36.5,FINESTEERING,2317,466187.150,02000000,e5fc,17139;2317,466187.150000000,0.0000806528299905,0.0002645721239986,0.0001958163943702,-0.0015327827089638,0.0423719755368287,0.0008360897549219*f0f1aba6
#CORRIMUDATAA,FILE,0,36.5,FINESTEERING,2317,466187.200,02000000,e5fc,17139;2317,466187.200000000,0.0000806275074470,0.0002363046879982,0.0003032770872458,0.0008400569419628,0.0462985122385315,-0.0012269428080989*4e33a0b9
#CORRIMUDATAA,FILE,0,36.5,FINESTEERING,2317,466187.250,02000000,e5fc,17139;2317,466187.250000000,0.0000147847105788,0.0001421783764433,0.0004976953848031,0.0011636882732765,0.0499703701693234,0.0049564107718252*429bf2b7
#CORRIMUDATAA,FILE,0,36.5,FINESTEERING,2317,466187.300,02000000,e5fc,17139;2317,466187.300000000,-0.0000299858546215,0.0000598758568710,0.0005487457558304,-0.0011579544157943,0.0466397616917125,0.0018108740062185*c7fb9bf1
#CORRIMUDATAA,FILE,0,36.5,FINESTEERING,2317,466187.350,02000000,e5fc,17139;2317,466187.350000000,-0.0000504623861812,0.0000008749097960,0.0004664220369933,-0.0043542200369915,0.0422603063936405,0.0004438929005024*cd45412f
#CORRIMUDATAA,FILE,0,36.5,FINESTEERING,2317,466187.400,02000000,e5fc,17139;2317,466187.400000000,-0.0000581387811249,-0.0000722387752324,0.0004862703276874,-0.0044468731035931,0.0548482374949231,-0.0014866787465258*a618dd40
#CORRIMUDATAA,FILE,0,36.5,FINESTEERING,2317,466187.450,02000000,e5fc,17139;2317,466187.450000000,-0.0000019955407906,-0.0001048224661064,0.0004235487504359,-0.0012997733008097,0.0517640388021984,-0.0015087405492943*456d64a7
#CORRIMUDATAA,FILE,0,36.5,FINESTEERING,2317,466187.500,02000000,e5fc,17139;2317,466187.500000000,0.0000127036414260,-0.0000247790921511,0.0004589920753580,0.0013576223438767,0.0493674595270279,-0.0010905831519424*31ed4882
#CORRIMUDATAA,FILE,0,36.5,FINESTEERING,2317,466187.550,02000000,e5fc,17139;2317,466187.550000000,0.0000571957091704,0.0000149833151597,0.0006835158645520,0.0013112845695390,0.0635969820961766,-0.0016940078726664*d0f385f8
#CORRIMUDATAA,FILE,0,36.5,FINESTEERING,2317,466187.600,02000000,e5fc,17139;2317,466187.600000000,0.0000955601852797,0.0000678883750290,0.0006439609455916,-0.0025834407263543,0.0649475357019302,-0.0027350546277739*8963e06c
#CORRIMUDATAA,FILE,0,36.5,FINESTEERING,2317,466187.650,02000000,e5fc,17139;2317,466187.650000000,0.0000873400499634,0.0000628399049819,0.0005282170393995,-0.0030567974535321,0.0612716892217973,-0.0044197251591408*a569c942
#CORRIMUDATAA,FILE,0,36.5,FINESTEERING,2317,466187.700,02000000,e5fc,17139;2317,466187.700000000,0.0005210702780276,0.0000726233625051,0.0005795803753199,-0.0040444541205317,0.0935942560368538,-0.0150121585686754*5dc149cc
#CORRIMUDATAA,FILE,0,36.5,FINESTEERING,2317,466187.750,02000000,e5fc,17139;2317,466187.750000000,0.0009707399474203,0.0000389829809132,0.0005317438863390,-0.0014648529107407,0.0992418076618388,-0.0177672193208063*94d44237
#CORRIMUDATAA,FILE,0,36.5,FINESTEERING,2317,466187.800,02000000,e5fc,17139;2317,466187.800000000,0.0011883933131864,-0.0000082272226132,0.0006256530182699,0.0018384356300582,0.0961286075680710,-0.0054281280170007*509c0cdb
#CORRIMUDATAA,FILE,0,36.5,FINESTEERING,2317,466187.850,02000000,e5fc,17139;2317,466187.850000000,0.0009091408554663,-0.0000476216016104,0.0006849356664592,0.0011701990043834,0.0765777175821243,0.0148733698530074*17fc621e
#CORRIMUDATAA,FILE,0,36.5,FINESTEERING,2317,466187.900,02000000,e5fc,17139;2317,466187.900000000,0.0002244728752126,-0.0000984078366849,0.0009213577113460,-0.0020006038112983,0.0684226366663023,0.0399144640117599*428b324b
#CORRIMUDATAA,FILE,0,36.5,FINESTEERING,2317,466187.950,02000000,e5fc,17139;2317,466187.950000000,-0.0009481131076085,-0.0002847529842971,0.0008552809587429,-0.0039697333526091,0.0403636940537418,0.0374270536353134*4d775d06
#CORRIMUDATAA,FILE,0,36.5,FINESTEERING,2317,466188.000,02000000,e5fc,17139;2317,466188.000000000,-0.0018370788434090,-0.0003698356237070,0.0008764772944739,-0.0046448663267372,0.0243691472298127,0.0290891887756702*7421b4e8
#CORRIMUDATAA,FILE,0,36.5,FINESTEERING,2317,466188.050,02000000,e5fc,17139;2317,466188.050000000,-0.0020482714406551,-0.0000992421999414,0.0007931521389071,-0.0022874111747165,0.0176882083868581,0.0084330953057694*7e9e7dbe
#CORRIMUDATAA,FILE,0,25.5,FINESTEERING,2317,466188.100,02000000,e5fc,17139;2317,466188.100000000,-0.0021431644889590,0.0001026478832104,0.0008874984162440,0.0015779855557072,0.0252730698224731,-0.0121155387013562*05842ec2
#CORRIMUDATAA,FILE,0,25.5,FINESTEERING,2317,466188.150,02000000,e5fc,17139;2317,466188.150000000,-0.0013881503807227,0.0003576772224651,0.0010244652673375,0.0017540559382727,0.0431717912949637,-0.0367852668050424*391c4603
#CORRIMUDATAA,FILE,0,25.5,FINESTEERING,2317,466188.200,02000000,e5fc,17139;2317,466188.200000000,-0.0000190134085860,0.0004521824984096,0.0008915225758861,-0.0030391864080260,0.0547575076642204,-0.0448239297201401*a38e74f5
#CORRIMUDATAA,FILE,0,25.5,FINESTEERING,2317,466188.250,02000000,e5fc,17139;2317,466188.250000000,0.0010718890687770,0.0004131787560018,0.0008245581535397,-0.0071772579171463,0.0677207045746376,-0.0366958002137848*bccd3f43
#CORRIMUDATAA,FILE,0,25.5,FINESTEERING,2317,466188.300,02000000,e5fc,17139;2317,466188.300000000,0.0018801258667502,0.0003499949402912,0.0008256273471908,-0.0033622145149537,0.0760284991036418,-0.0237058074439383*863fda6f
#CORRIMUDATAA,FILE,0,25.5,FINESTEERING,2317,466188.350,02000000,e5fc,17139;2317,466188.350000000,0.0022084796072748,0.0001524349504203,0.0009541616914481,-0.0013193116575842,0.0824505486509703,-0.0065308849439310*87b4fa95
#CORRIMUDATAA,FILE,0,25.5,FINESTEERING,2317,466188.400,02000000,e5fc,17139;2317,466188.400000000,0.0020722445226568,-0.0000957597500414,0.0010463474934787,-0.0040871425221674,0.0849389616189079,0.0119085051569211*64724955
#CORRIMUDATAA,FILE,0,25.5,FINESTEERING,2317,466188.450,02000000,e5fc,17139;2317,466188.450000000,0.0014399919108273,-0.0002665516201813,0.0009180818584327,-0.0090170242563217,0.0797525299481033,0.0162512234053141*a893eff3
#CORRIMUDATAA,FILE,0,25.5,FINESTEERING,2317,466188.500,02000000,e5fc,17139;2317,466188.500000000,0.0011196245832351,-0.0005618326833918,0.0009817921517561,-0.0088716708617564,0.1002518308265953,0.0198245635651804*78f6b447
#CORRIMUDATAA,FILE,0,25.5,FINESTEERING,2317,466188.550,02000000,e5fc,17139;2317,466188.550000000,0.0003757487915499,-0.0004401020302542,0.0009001841970386,-0.0026624096651576,0.0875163500128173,0.0316805319639624*db134ab5
#CORRIMUDATAA,FILE,0,25.5,FINESTEERING,2317,466188.600,02000000,e5fc,17139;2317,466188.600000000,-0.0001086268125657,-0.0003323845593424,0.0009665904556471,0.0020535218820106,0.0836085232095347,0.0203082113933023*d1d14ef6
#CORRIMUDATAA,FILE,0,25.5,FINESTEERING,2317,466188.650,02000000,e5fc,17139;2317,466188.650000000,-0.0004069763441115,-0.0002151609662919,0.0010628257754471,-0.0001565897984620,0.0807111325223444,0.0149222554748143*84eb5645
#CORRIMUDATAA,FILE,0,25.5,FINESTEERING,2317,466188.700,02000000,e5fc,17139;2317,466188.700000000,-0.0006036449362748,-0.0000044217172125,0.0010836608035258,-0.0034567292939947,0.0815780315746360,0.0055954808054139*6b955c16
#CORRIMUDATAA,FILE,0,25.5,FINESTEERING,2317,466188.750,02000000,e5fc,17139;2317,466188.750000000,-0.0005900677729593,-0.0000021279260825,0.0010201968360563,-0.0027069231748430,0.0721322383647697,-0.0056229767931952*d2d77c29
#CORRIMUDATAA,FILE,0,25.5,FINESTEERING,2317,466188.800,02000000,e5fc,17139;2317,466188.800000000,-0.0004398079942791,0.0002459249575297,0.0012721686739618,-0.0042702642040938,0.0913027696388131,-0.0212008111951491*29511398
#CORRIMUDATAA,FILE,0,25.5,FINESTEERING,2317,466188.850,02000000,e5fc,17139;2317,466188.850000000,0.0001548892008716,-0.0000063639421503,0.0011170854193844,-0.0044590651471687,0.0874670478500959,-0.0280302559442384*4fef9c3d
#CORRIMUDATAA,FILE,0,25.5,FINESTEERING,2317,466188.900,02000000,e5fc,17139;2317,466188.900000000,0.0006558778887297,-0.0002145464070773,0.0009519229623393,-0.0082340598127570,0.0826711565910891,-0.0188929603662024*f4cdc5fc
#CORRIMUDATAA,FILE,0,25.5,FINESTEERING,2317,466188.950,02000000,e5fc,17139;2317,466188.950000000,0.0011871335424266,-0.0004278915287436,0.0011441484692815,-0.0124861661426137,0.1018272884846741,-0.0093288334864307*1890839f
#CORRIMUDATAA,FILE,0,25.5,FINESTEERING,2317,466189.000,02000000,e5fc,17139;2317,466189.000000000,0.0010466440148349,-0.0004114937194082,0.0011055510809810,-0.0025736757705536,0.0898953830251554,0.0078873628296886*bf3d32c1
#CORRIMUDATAA,FILE,0,25.5,FINEBACKUPSTEERING,2317,466189.050,02000000,e5fc,17139;2317,466189.050000000,0.0006871227061222,-0.0004123243999756,0.0010947780493221,0.0020633267216948,0.0784903516614187,0.0220806171310390*4602d0dc
#CORRIMUDATAA,FILE,0,25.5,FINEBACKUPSTEERING,2317,466189.100,02000000,e5fc,17139;2317,466189.100000000,0.0004042757409518,-0.0006937833755736,0.0012870583070551,-0.0042330730200926,0.0867466339443580,0.0064973929297486*e15083bb
#CORRIMUDATAA,FILE,0,31.0,FINEBACKUPSTEERING,2317,466189.150,02000000,e5fc,17139;2317,466189.150000000,0.0001051324881233,-0.0003587898076615,0.0013961621006928,-0.0107083848491037,0.0851658524933187,0.0210201077982904*cfc0d054
#CORRIMUDATAA,FILE,0,31.0,FINEBACKUPSTEERING,2317,466189.200,02000000,e5fc,17139;2317,466189.200000000,-0.0001263756820116,-0.0001782297756389,0.0011464533987066,-0.0021952543029234,0.0639937647652662,0.0097190179370999*5fea4065
#CORRIMUDATAA,FILE,0,31.0,FINEBACKUPSTEERING,2317,466189.250,02000000,e5fc,17139;2317,466189.250000000,-0.0003247682057971,-0.0001442765543880,0.0014352735431765,-0.0027733701066977,0.0730564563315732,0.0087510189614960*ee783eb8
#CORRIMUDATAA,FILE,0,31.0,FINEBACKUPSTEERING,2317,466189.300,02000000,e5fc,17139;2317,466189.300000000,-0.0005080518706795,-0.0002640765217273,0.0014288842974414,-0.0027995396626491,0.0630685016545425,-0.0013361554327290*7c1db460
#CORRIMUDATAA,FILE,0,31.0,FINEBACKUPSTEERING,2317,466189.350,02000000,e5fc,17139;2317,466189.350000000,-0.0003198839957659,-0.0001305537977460,0.0013456461693933,-0.0076701014041231,0.0570963613712953,-0.0030927122257750*0e4543e5
#CORRIMUDATAA,FILE,0,31.0,FINEBACKUPSTEERING,2317,466189.400,02000000,e5fc,17139;2317,466189.400000000,0.0000205915489391,-0.0001721933951429,0.0014902658099157,-0.0083019386333120,0.0703160924688450,-0.0115620124478361*d33017e9
#CORRIMUDATAA,FILE,0,31.0,FINEBACKUPSTEERING,2317,466189.450,02000000,e5fc,17139;2317,466189.450000000,0.0003944065300561,-0.0001085084648619,0.0015766342232668,-0.0104994956080518,0.0826930488716878,-0.0165567503175905*65f35f10
#CORRIMUDATAA,FILE,0,31.0,FINEBACKUPSTEERING,2317,466189.500,02000000,e5fc,17139;2317,466189.500000000,0.0004922134357265,0.0000883499004281,0.0012888285919650,-0.0055079870886177,0.0704325027219022,-0.0079735105740449*18361137
#CORRIMUDATAA,FILE,0,31.0,FINEBACKUPSTEERING,2317,466189.550,02000000,e5fc,17139;2317,466189.550000000,0.0006046884231505,-0.0002696842239340,0.0016792259432068,-0.0084407398970066,0.0847863728715078,0.0009104876589940*88dbe15f
#CORRIMUDATAA,FILE,0,31.0,FINEBACKUPSTEERING,2317,466189.600,02000000,e5fc,17139;2317,466189.600000000,0.0004877613478632,0.0000505822653474,0.0016566276397340,-0.0081650430387842,0.0720058895804350,0.0082206473432913*322eb611
#CORRIMUDATAA,FILE,0,31.0,FINEBACKUPSTEERING,2317,466189.650,02000000,e5fc,17139;2317,466189.650000000,0.0004538705058497,0.0001471629514477,0.0016703686808631,-0.0001717287789176,0.0558275339760016,0.0089436157183846*cd249c30
#CORRIMUDATAA,FILE,0,31.0,FINEBACKUPSTEERING,2317,466189.700,02000000,e5fc,17139;2317,466189.700000000,0.0011979713677703,0.0004900053886184,0.0020656009886520,-0.0067883197469805,0.0681147247509444,0.0082971460287944*b0e1b801
#CORRIMUDATAA,FILE,0,31.0,FINEBACKUPSTEERING,2317,466189.750,02000000,e5fc,17139;2317,466189.750000000,0.0008785218360083,0.0002674152500568,0.0018090385562176,-0.0095710712490497,0.0554239051381029,0.0077354630887497*2b3cb758
#CORRIMUDATAA,FILE,0,31.0,FINEBACKUPSTEERING,2317,466189.800,02000000,e5fc,17139;2317,466189.800000000,0.0005958327291517,-0.0004448234672150,0.0018105189267912,-0.0166463286677833,0.0557334563118253,0.0098629944334272*4471a763
#CORRIMUDATAA,FILE,0,31.0,FINEBACKUPSTEERING,2317,466189.850,02000000,e5fc,17139;2317,466189.850000000,0.0003529107484883,-0.0001540025846789,0.0015715883480263,-0.0132304550614798,0.0524281131750790,-0.0046259649880074*ee676b74
#CORRIMUDATAA,FILE,0,31.0,FINEBACKUPSTEERING,2317,466189.900,02000000,e5fc,17139;2317,466189.900000000,-0.0001454956341998,-0.0006107188452917,0.0017911934443966,-0.0131128019508088,0.0699579535825268,-0.0058596258705566*83624231
#CORRIMUDATAA,FILE,0,31.0,FINEBACKUPSTEERING,2317,466189.950,02000000,e5fc,17139;2317,466189.950000000,-0.0001763879559605,-0.0006015608190465,0.0012213371042378,-0.0104236380829658,0.0606274945544198,0.0059350923183193*66f81bb0
#CORRIMUDATAA,FILE,0,31.0,FINEBACKUPSTEERING,2317,466190.000,02000000,e5fc,17139;2317,466190.000000000,-0.0001706093856641,-0.0003024713028642,0.0011287519371079,-0.0027322545532647,0.0715874142712581,-0.0200450649786137*496b39fb
#CORRIMUDATAA,FILE,0,31.0,FINEBACKUPSTEERING,2317,466190.050,02000000,e5fc,17139;2317,466190.050000000,0.0002119000428703,0.0003126970686490,0.0011592509166879,0.0020395730971086,0.0761776549766123,-0.0193544464431957*4d926493
#CORRIMUDATAA,FILE,0,31.0,FINEBACKUPSTEERING,2317,466190.100,02000000,e5fc,17139;2317,466190.100000000,0.0005877233227082,0.0005825218599695,0.0008820090838899,-0.0055246582357793,0.0607765594876826,0.0107076354758083*b4284320
#CORRIMUDATAA,FILE,0,31.0,FINEBACKUPSTEERING,2317,466190.150,02000000,e5fc,17139;2317,466190.150000000,0.0002125904015206,0.0005626264225965,0.0007461401182619,-0.0001586630438392,0.0464943005963474,0.0211329876899148*1c3b9bef
#CORRIMUDATAA,FILE,0,31.0,FINEBACKUPSTEERING,2317,466190.200,02000000,e5fc,17139;2317,466190.200000000,-0.0012203872005302,0.0010151290609261,0.0009826709112919,0.0031293633638423,0.0462922919914484,0.1014802240581022*8b98dede
#CORRIMUDATAA,FILE,0,31.0,FINEBACKUPSTEERING,2317,466190.250,02000000,e5fc,17139;2317,466190.250000000,-0.0018716924347679,0.0016287404638892,0.0007777016715638,-0.0046615166273147,0.0545524068788375,-0.0254396389858793*5fb1b149
#CORRIMUDATAA,FILE,0,31.0,FINEBACKUPSTEERING,2317,466190.300,02000000,e5fc,17139;2317,466190.300000000,-0.0016687750187689,0.0010031610244190,0.0003968704789955,-0.0187957607556816,0.0591380339407406,-0.0001589344856501*3f43cd07
#CORRIMUDATAA,FILE,0,31.0,FINEBACKUPSTEERING,2317,466190.350,02000000,e5fc,17139;2317,466190.350000000,-0.0010696657048154,0.0011050688499336,0.0001106081007444,-0.0084551489166193,0.0635095550466879,-0.0374265944964962*2927aa91
#CORRIMUDATAA,FILE,0,31.0,FINEBACKUPSTEERING,2317,466190.400,02000000,e5fc,17139;2317,466190.400000000,-0.0003198618540366,0.0008678577408387,0.0002608394488736,0.0076261221742500,0.0541286928415655,-0.0274585911190745*08f5f875
#CORRIMUDATAA,FILE,0,31.0,FINEBACKUPSTEERING,2317,466190.450,02000000,e5fc,17139;2317,466190.450000000,-0.0000123398499038,0.0004831343209553,0.0005868363668573,0.0111449953821550,0.0103624857293315,-0.0027587668801712*0d50aef9
#CORRIMUDATAA,FILE,0,31.0,FINEBACKUPSTEERING,2317,466190.500,02000000,e5fc,17139;2317,466190.500000000,-0.0000678741679350,0.0005562953540731,0.0009809082839163,-0.0020546169639024,-0.0149404452969133,0.0330460425115016*f4633588
#CORRIMUDATAA,FILE,0,31.0,FINEBACKUPSTEERING,2317,466190.550,02000000,e5fc,17139;2317,466190.550000000,-0.0008175472110665,-0.0000644657669888,0.0009214116892144,-0.0120667163392073,-0.0124735847803372,0.0162754542392773*d1f21311
#CORRIMUDATAA,FILE,0,31.0,FINEBACKUPSTEERING,2317,466190.600,02000000,e5fc,17139;2317,466190.600000000,-0.0012409846586567,-0.0000274919178309,0.0006858226413580,-0.0184534822931379,-0.0073819426115984,0.0044170275542865*d767b5fe
#CORRIMUDATAA,FILE,0,31.0,FINEBACKUPSTEERING,2317,466190.650,02000000,e5fc,17139;2317,466190.650000000,-0.0008451857748278,0.0004345585395781,0.0004834634816506,-0.0069284709329023,-0.0017343130696091,-0.0292121288334638*485b9ac2
#CORRIMUDATAA,FILE,0,31.0,FINEBACKUPSTEERING,2317,466190.700,02000000,e5fc,17139;2317,466190.700000000,-0.0003568146253342,0.0003097974109618,0.0004734678498132,0.0115204457889932,-0.0085984553354428,-0.0287216800408387*9e1cedb7
#CORRIMUDATAA,FILE,0,31.0,FINEBACKUPSTEERING,2317,466190.750,02000000,e5fc,17139;2317,466190.750000000,0.0001427742805853,0.0004039768487869,0.0006143646913348,0.0028711700488018,-0.0082162258985802,-0.0069534794439783*9d442954
#CORRIMUDATAA,FILE,0,31.0,FINEBACKUPSTEERING,2317,466190.800,02000000,e5fc,17139;2317,466190.800000000,0.0005983635874578,0.0003661338621089,0.0007663433900396,-0.0060507332122406,-0.0068361514160522,-0.0174624803084405*38d1f7f9
#CORRIMUDATAA,FILE,0,31.0,FINEBACKUPSTEERING,2317,466190.850,02000000,e5fc,17139;2317,466190.850000000,0.0006496048539087,0.0006327683462970,0.0006611988418732,-0.0085662783551063,-0.0088521904505639,0.0003389363537830*81b2b66a
#CORRIMUDATAA,FILE,0,31.0,FINEBACKUPSTEERING,2317,466190.900,02000000,e5fc,17139;2317,466190.900000000,0.0002078287864016,0.0002551730854183,0.0005719689733992,-0.0021629765325394,-0.0102548706992902,0.0293686299952469*6150bc80
#CORRIMUDATAA,FILE,0,31.0,FINEBACKUPSTEERING,2317,466190.950,02000000,e5fc,17139;2317,466190.950000000,-0.0001766585280795,-0.0002804493292348,0.0007012116487102,-0.0106386667733029,-0.0131838272609835,0.0332956560652265*2889b0da
#CORRIMUDATAA,FILE,0,31.0,FINEBACKUPSTEERING,2317,466191.000,02000000,e5fc,17139;2317,466191.000000000,-0.0005183258192864,-0.0004318450684702,0.0004855648712289,-0.0125373710089710,-0.0108009651102685,0.0105421463730733*b6b19546
#CORRIMUDATAA,FILE,0,31.0,FINEBACKUPSTEERING,2317,466191.050,02000000,e5fc,17139;2317,466191.050000000,-0.0006531537812476,-0.0005045798752815,0.0003751921179366,-0.0025847986245417,-0.0082783659220395,-0.0056330162259092*8b389244
#CORRIMUDATAA,FILE,0,26.5,FINEBACKUPSTEERING,2317,466191.100,02000000,e5fc,17139;2317,466191.100000000,-0.0005953561568723,-0.0005594004559348,0.0004953483481749,0.0056132597395306,-0.0094904159974972,0.0017794609682661*ce402c4e
#CORRIMUDATAA,FILE,0,26.5,FINEBACKUPSTEERING,2317,466191.150,02000000,e5fc,17139;2317,466191.150000000,-0.0003769713176310,-0.0007486879153305,0.0007565876424325,0.0006833171570939,-0.0103409701300582,-0.0103729531917904*240fde05
#CORRIMUDATAA,FILE,0,26.5,FINEBACKUPSTEERING,2317,466191.200,02000000,e5fc,17139;2317,466191.200000000,-0.0002679644424269,-0.0002400687680442,0.0006453020725628,-0.0051174360038304,-0.0091635648951086,-0.0103905557739480*6fb509f6
#CORRIMUDATAA,FILE,0,26.5,FINEBACKUPSTEERING,2317,466191.250,02000000,e5fc,17139;2317,466191.250000000,0.0000535527608636,-0.0005349042562175,0.0007150275440517,-0.0066771169067244,-0.0101121688013289,-0.0191134242512674*5674608a
#CORRIMUDATAA,FILE,0,26.5,FINEBACKUPSTEERING,2317,466191.300,02000000,e5fc,17139;2317,466191.300000000,0.0003622066980252,-0.0007927008048123,0.0005863043718612,-0.0047862660525970,-0.0087371695192204,-0.0093841778226029*e0ae1edb
#CORRIMUDATAA,FILE,0,26.5,FINEBACKUPSTEERING,2317,466191.350,02000000,e5fc,17139;2317,466191.350000000,0.0005293960848980,-0.0009922830561600,0.0006251193547590,-0.0047070741889106,-0.0122336352313774,-0.0005297466904678*f4293b80
#CORRIMUDATAA,FILE,0,26.5,FINEBACKUPSTEERING,2317,466191.400,02000000,e5fc,17139;2317,466191.400000000,0.0006213872354502,-0.0003476528185273,0.0005684098416144,-0.0059416769489967,-0.0124321915589851,0.0040452516183652*8770075c
#CORRIMUDATAA,FILE,0,26.5,FINEBACKUPSTEERING,2317,466191.450,02000000,e5fc,17139;2317,466191.450000000,0.0002830494269147,-0.0007546924164797,0.0004741228878848,0.0028047173308195,-0.0225355235851037,0.0183321631781052*ec3a4bbe
#CORRIMUDATAA,FILE,0,26.5,FINEBACKUPSTEERING,2317,466191.500,02000000,e5fc,17139;2317,466191.500000000,-0.0002213032775963,-0.0009195319650694,0.0002984760838586,-0.0054537835906484,-0.0341702857129815,0.0159954915054536*f94a8e9e
#CORRIMUDATAA,FILE,0,26.5,FINEBACKUPSTEERING,2317,466191.550,02000000,e5fc,17139;2317,466191.550000000,-0.0002947722714205,-0.0000749918179205,0.0000482161386686,-0.0008200168796273,-0.0298751192663168,0.0011143715749664*2db301a1
#CORRIMUDATAA,FILE,0,26.5,FINEBACKUPSTEERING,2317,466191.600,02000000,e5fc,17139;2317,466191.600000000,-0.0001891313332447,-0.0002795931019718,-0.0001290670074034,-0.0006409466641376,-0.0141443088373279,-0.0164564061211174*3b4fa51d
#CORRIMUDATAA,FILE,0,26.5,FINEBACKUPSTEERING,2317,466191.650,02000000,e5fc,17139;2317,466191.650000000,0.0005319360065476,0.0004640184144420,-0.0001806574442962,0.0056620699512014,-0.0076520084921828,-0.0214063996190508*7122ec4c
#CORRIMUDATAA,FILE,0,26.5,FINEBACKUPSTEERING,2317,466191.700,02000000,e5fc,17139;2317,466191.700000000,0.0015166449711633,0.0005789383777006,-0.0001485638164134,0.0039754336329501,0.0127683261730632,-0.0276055963207412*c60dae1a
#CORRIMUDATAA,FILE,0,26.5,FINEBACKUPSTEERING,2317,466191.750,02000000,e5fc,17139;2317,466191.750000000,0.0024428175493875,0.0000456433306498,-0.0002636746968803,-0.0062541035303503,0.0508203112628134,-0.0323407503472990*cd57e90e
#CORRIMUDATAA,FILE,0,26.5,FINEBACKUPSTEERING,2317,466191.800,02000000,e5fc,17139;2317,466191.800000000,0.0029995820138332,-0.0006487261389708,-0.0004918573164067,-0.0134843564609888,0.0723238170939554,-0.0282158277451266*13336785
#CORRIMUDATAA,FILE,0,26.5,FINEBACKUPSTEERING,2317,466191.850,02000000,e5fc,17139;2317,466191.850000000,0.0027306887377592,-0.0003870586907553,-0.0004327788369440,0.0009292772052960,0.0420071893472919,0.0287688038075929*b85b2cb2
#CORRIMUDATAA,FILE,0,26.5,FINEBACKUPSTEERING,2317,466191.900,02000000,e5fc,17139;2317,466191.900000000,0.0022392745792185,-0.0003230344418342,-0.0001385227353988,0.0251667700662726,0.0218287443331035,0.0610199657454006*1cb5f51e
#CORRIMUDATAA,FILE,0,26.5,FINEBACKUPSTEERING,2317,466191.950,02000000,e5fc,17139;2317,466191.950000000,0.0004817607514587,-0.0006903756684525,0.0001459456064715,-0.0007236465597331,0.0160161191903426,0.0405068944722304*891945b6
#CORRIMUDATAA,FILE,0,26.5,FINEBACKUPSTEERING,2317,466192.000,02000000,e5fc,17139;2317,466192.000000000,-0.0006606330784686,-0.0005870264539730,0.0001057238058668,-0.0072330010178078,0.0297819411613623,0.0309885596711189*adce59e8
#CORRIMUDATAA,FILE,0,26.5,FINEBACKUPSTEERING,2317,466192.050,02000000,e5fc,17139;2317,466192.050000000,-0.0011660330753439,-0.0002027394992875,-0.0000975769862461,-0.0112582525247458,0.0493942764132466,-0.0039634643613020*874f2264
#CORRIMUDATAA,FILE,0,26.5,FINEBACKUPSTEERING,2317,466192.100,02000000,e5fc,17139;2317,466192.100000000,-0.0009879162889696,-0.0000391416286908,-0.0001852957398165,0.0031045240729929,0.0497674885779159,-0.0174768384154119*693cd141
#CORRIMUDATAA,FILE,0,35.0,FINEBACKUPSTEERING,2317,466192.150,02000000,e5fc,17139;2317,466192.150000000,-0.0005218297429658,0.0003367619663228,-0.0002104823072568,0.0116850221389151,0.0435162253702891,-0.0068228747967425*8f0e3422
#CORRIMUDATAA,FILE,0,35.0,FINEBACKUPSTEERING,2317,466192.200,02000000,e5fc,17139;2317,466192.200000000,-0.0004373060081509,0.0004481019098948,-0.0001211118340455,0.0066226267528158,0.0495918429668022,-0.0057309246043689*4b5f98b1
#CORRIMUDATAA,FILE,0,35.0,FINEBACKUPSTEERING,2317,466192.250,02000000,e5fc,17139;2317,466192.250000000,-0.0001750161491076,-0.0001582828818460,-0.0000572233600241,-0.0076555986556315,0.0437653700170374,-0.0156350940809136*fa443fef
#CORRIMUDATAA,FILE,0,35.0,FINEBACKUPSTEERING,2317,466192.300,02000000,e5fc,17139;2317,466192.300000000,-0.0003447714940108,-0.0002751352044969,-0.0001226190229926,-0.0071949934565148,0.0400632396620658,0.0170374387443703*37207d8a
#CORRIMUDATAA,FILE,0,35.0,FINEBACKUPSTEERING,2317,466192.350,02000000,e5fc,17139;2317,466192.350000000,-0.0006530878506233,-0.0004639418614283,0.0000136553627025,-0.0023988795116188,0.0501260318864713,-0.0053530972527275*373d9eba
#CORRIMUDATAA,FILE,0,35.0,FINEBACKUPSTEERING,2317,466192.400,02000000,e5fc,17139;2317,466192.400000000,-0.0001002391077052,-0.0002153227701451,-0.0000691718549320,0.0004579956482377,0.0529985619300899,-0.0166402354196136*63e77248
#CORRIMUDATAA,FILE,0,35.0,FINEBACKUPSTEERING,2317,466192.450,02000000,e5fc,17139;2317,466192.450000000,0.0006681469827386,-0.0004978123039320,-0.0001650480409801,-0.0002260360524484,0.0514689469894136,-0.0194900572218081*74c8ac49
#CORRIMUDATAA,FILE,0,35.0,FINEBACKUPSTEERING,2317,466192.500,02000000,e5fc,17139;2317,466192.500000000,0.0013808810665568,-0.0004906013983878,-0.0003287078360872,-0.0055032529937187,0.0586157975028580,0.0023599016514424*2a3936cf
#CORRIMUDATAA,FILE,0,35.0,FINEBACKUPSTEERING,2317,466192.550,02000000,e5fc,17139;2317,466192.550000000,0.0009301208917601,0.0001708210965457,-0.0001647850185850,0.0120540728732246,0.0506507484028305,0.0150693920594707*6babd532
#CORRIMUDATAA,FILE,0,35.0,FINEBACKUPSTEERING,2317,466192.600,02000000,e5fc,17139;2317,466192.600000000,0.0000621733332552,0.0001749308773439,0.0000197090855712,0.0132602188985652,0.0462132066814862,0.0116763790417907*94d41cd4
#CORRIMUDATAA,FILE,0,35.0,FINEBACKUPSTEERING,2317,466192.650,02000000,e5fc,17139;2317,466192.650000000,-0.0006791892762268,0.0002028824472912,0.0000491736352438,-0.0078781869752510,0.0630404699264656,-0.0069283837595135*d1bc0257
#CORRIMUDATAA,FILE,0,35.0,FINEBACKUPSTEERING,2317,466192.700,02000000,e5fc,17139;2317,466192.700000000,-0.0005491209617128,0.0005258040554113,-0.0002302545747391,-0.0122146884390662,0.0643450452905079,-0.0083423740664154*3757764e
#CORRIMUDATAA,FILE,0,35.0,FINEBACKUPSTEERING,2317,466192.750,02000000,e5fc,17139;2317,466192.750000000,-0.0004800150553611,0.0001247976318254,-0.0003777019170858,-0.0055454229121649,0.0562955428829339,-0.0154545983237719*fc5cae5a
#CORRIMUDATAA,FILE,0,35.0,FINEBACKUPSTEERING,2317,466192.800,02000000,e5fc,17139;2317,466192.800000000,-0.0007241822045928,-0.0003437713811950,-0.0003925105901839,0.0133719714509503,0.0594587899872099,0.0304347633671094*1d1def71
#CORRIMUDATAA,FILE,0,35.0,FINEBACKUPSTEERING,2317,466192.850,02000000,e5fc,17139;2317,466192.850000000,-0.0014104310894590,-0.0003514730355889,0.0000062541481507,0.0097574820167913,0.0507975497648758,0.0302305632092785*daa355f5
#CORRIMUDATAA,FILE,0,35.0,FINEBACKUPSTEERING,2317,466192.900,02000000,e5fc,17139;2317,466192.900000000,-0.0016160523208430,-0.0001232243806378,0.0000166970272415,-0.0095333701268430,0.0591677588385932,0.0231748743711098*60764740
#CORRIMUDATAA,FILE,0,35.0,FINEBACKUPSTEERING,2317,466192.950,02000000,e5fc,17139;2317,466192.950000000,-0.0011186789464523,0.0006301917497128,-0.0001040243522155,-0.0003099744705133,0.0705083215692678,-0.0273201679634507*61fd7716
#CORRIMUDATAA,FILE,0,35.0,FINEBACKUPSTEERING,2317,466193.000,02000000,e5fc,17139;2317,466193.000000000,-0.0002089277274044,0.0008773646904892,-0.0000615916219632,0.0139171359055110,0.0733454772815471,-0.0549099223878966*cf1fc0ce
#CORRIMUDATAA,FILE,0,35.0,FINEBACKUPSTEERING,2317,466193.050,02000000,e5fc,17139;2317,466193.050000000,0.0004056309017192,0.0007259247186097,-0.0000989034743259,-0.0034112425944357,0.0554881564417502,-0.0133083502925802*543a279d
#CORRIMUDATAA,FILE,0,35.0,FINEBACKUPSTEERING,2317,466193.100,02000000,e5fc,17139;2317,466193.100000000,0.0008100781857659,0.0010497542535625,-0.0001664709560139,-0.0040471901759470,0.0569993822088854,0.0033187614045504*2f58b395
#CORRIMUDATAA,FILE,0,36.5,FINEBACKUPSTEERING,2317,466193.150,02000000,e5fc,17139;2317,466193.150000000,0.0007955471896782,0.0012003544852082,-0.0002282127852145,0.0003374638671240,0.0637806956641764,-0.0122842387445472*899d4f85
#CORRIMUDATAA,FILE,0,36.5,FINEBACKUPSTEERING,2317,466193.200,02000000,e5fc,17139;2317,466193.200000000,0.0005378030787495,0.0007276689634775,-0.0002017848742412,-0.0005188203385750,0.0612642375026008,-0.0068296629515655*39047b32
#CORRIMUDATAA,FILE,0,36.5,FINEBACKUPSTEERING,2317,466193.250,02000000,e5fc,17139;2317,466193.250000000,0.0004863762247774,0.0003528221716415,-0.0002320508799980,-0.0003960562622742,0.0736663919380278,-0.0003635696226672*cc5b8441
#CORRIMUDATAA,FILE,0,36.5,FINEBACKUPSTEERING,2317,466193.300,02000000,e5fc,17139;2317,466193.300000000,0.0001888155503374,-0.0001158636279950,-0.0001395728654551,0.0019848369839605,0.0638115990053720,0.0242746427262150*9c6c5dc7
#CORRIMUDATAA,FILE,0,36.5,FINEBACKUPSTEERING,2317,466193.350,02000000,e5fc,17139;2317,466193.350000000,-0.0000220261399184,-0.0001603470906136,0.0000289067077185,0.0006527464563857,0.0601913867499953,0.0077579822477801*c168d450
#CORRIMUDATAA,FILE,0,36.5,FINEBACKUPSTEERING,2317,466193.400,02000000,e5fc,17139;2317,466193.400000000,-0.0002508860132198,0.0000613118415504,-0.0000045701370589,-0.0017669337097825,0.0576283875637774,0.0035278694779520*966a139f
#CORRIMUDATAA,FILE,0,36.5,FINEBACKUPSTEERING,2317,466193.450,02000000,e5fc,17139;2317,466193.450000000,-0.0002076314474008,0.0002143885900882,0.0000040085229230,-0.0031553171769149,0.0575090153715464,0.0318891038002177*2bfe4c15
#CORRIMUDATAA,FILE,0,36.5,FINEBACKUPSTEERING,2317,466193.500,02000000,e5fc,17139;2317,466193.500000000,-0.0001629258370372,0.0004718124867722,-0.0001436449673637,0.0006134570389722,0.0640682497028381,-0.0139683111898135*23073927
#CORRIMUDATAA,FILE,0,36.5,FINEBACKUPSTEERING,2317,466193.550,02000000,e5fc,17139;2317,466193.550000000,0.0003930620850113,0.0006428596182505,-0.0000758048126453,0.0054356193011328,0.0632750506423882,-0.0201376103012931*ccf8bbfd
#CORRIMUDATAA,FILE,0,36.5,FINEBACKUPSTEERING,2317,466193.600,02000000,e5fc,17139;2317,466193.600000000,0.0007722898039441,0.0005145196208468,-0.0000764940125567,0.0010273529637429,0.0750399166230833,-0.0154412954803311*6f769635
#CORRIMUDATAA,FILE,0,36.5,FINEBACKUPSTEERING,2317,466193.650,02000000,e5fc,17139;2317,466193.650000000,0.0009654849295663,0.0001722163659662,-0.0001049321623173,-0.0071743281750502,0.0656340217745584,0.0047780407120800*e3fb696b
#CORRIMUDATAA,FILE,0,36.5,FINEBACKUPSTEERING,2317,466193.700,02000000,e5fc,17139;2317,466193.700000000,0.0005911183714017,-0.0005344665329776,-0.0001777095962780,-0.0082899552433883,0.0591081434591126,0.0023402364427445*f064bf07
#CORRIMUDATAA,FILE,0,36.5,FINEBACKUPSTEERING,2317,466193.750,02000000,e5fc,17139;2317,466193.750000000,0.0003592033055554,-0.0005923866914569,-0.0001610932594276,-0.0007661572319852,0.0626124252337362,0.0061580450604867*a9180443
#CORRIMUDATAA,FILE,0,36.5,FINEBACKUPSTEERING,2317,466193.800,02000000,e5fc,17139;2317,466193.800000000,0.0000717543547954,-0.0006754297935515,-0.0000257675206779,0.0048228639668893,0.0638526804311028,0.0232593631255812*cb2f4bfd
#CORRIMUDATAA,FILE,0,36.5,FINEBACKUPSTEERING,2317,466193.850,02000000,e5fc,17139;2317,466193.850000000,-0.0001718638708449,-0.0005534952456743,-0.0000069336625984,0.0008131317971255,0.0623328052681846,0.0020663070578681*c30b52ee
#CORRIMUDATAA,FILE,0,36.5,FINEBACKUPSTEERING,2317,466193.900,02000000,e5fc,17139;2317,466193.900000000,0.0001249150114902,-0.0003491384433332,0.0000420762061875,0.0005534236883406,0.0739028356133291,-0.0012461521757501*5eec1dda
#CORRIMUDATAA,FILE,0,36.5,FINEBACKUPSTEERING,2317,466193.950,02000000,e5fc,17139;2317,466193.950000000,0.0000253035729559,-0.0001251551256822,-0.0000382103657944,-0.0025861522486840,0.0589271636993084,0.0215219637825747*965aef20
#CORRIMUDATAA,FILE,0,36.5,FINEBACKUPSTEERING,2317,466194.000,02000000,e5fc,17139;2317,466194.000000000,0.0000669690626439,0.0001356906747130,-0.0000762463273735,-0.0017813312086403,0.0559420741418917,-0.0210835433122290*739a32f1
#CORRIMUDATAA,FILE,0,36.5,FINEBACKUPSTEERING,2317,466194.050,02000000,e5fc,17139;2317,466194.050000000,-0.0002331246530687,0.0003751428738030,-0.0001763300539058,0.0003653709696970,0.0695529573038900,-0.0015624788072575*e2bfc55a
#CORRIMUDATAA,FILE,0,36.5,FINEBACKUPSTEERING,2317,466194.100,02000000,e5fc,17139;2317,466194.100000000,-0.0003379054202950,0.0004378097231051,-0.0001851563728455,0.0050601326561634,0.0690079849184932,-0.0124145832880466*c549cd35
#CORRIMUDATAA,FILE,0,36.5,FINEBACKUPSTEERING,2317,466194.150,02000000,e5fc,17139;2317,466194.150000000,-0.0005168552408212,0.0003067594461550,-0.0000767056805123,-0.0000366156624089,0.0611875166001990,0.0006673088483345*10972bf5
#CORRIMUDATAA,FILE,0,36.5,FINEBACKUPSTEERING,2317,466194.200,02000000,e5fc,17139;2317,466194.200000000,-0.0011267274916225,0.0001077078789500,-0.0000502327602989,0.0020616561591542,0.0678243230912939,0.0216943183684963*1459e890
#CORRIMUDATAA,FILE,0,37.5,FINEBACKUPSTEERING,2317,466194.250,02000000,e5fc,17139;2317,466194.250000000,-0.0015538590369425,-0.0001252277418530,0.0000661205030897,-0.0038807960925765,0.0598376630047342,0.0190803599827928*a143a244
#CORRIMUDATAA,FILE,0,37.5,FINEBACKUPSTEERING,2317,466194.300,02000000,e5fc,17139;2317,466194.300000000,-0.0012455484876085,0.0001295873409967,0.0002253760587846,0.0028347082554168,0.0575148997668990,-0.0201920796441401*59b95f18
#CORRIMUDATAA,FILE,0,37.5,FINEBACKUPSTEERING,2317,466194.350,02000000,e5fc,17139;2317,466194.350000000,-0.0010514869550479,-0.0000428430715793,0.0003482895555432,0.0012030267022046,0.0763555132889192,-0.0134596407501144*1bf0cdf8
#CORRIMUDATAA,FILE,0,37.5,FINEBACKUPSTEERING,2317,466194.400,02000000,e5fc,17139;2317,466194.400000000,-0.0000074373268281,0.0003461582437426,0.0003242086875566,-0.0064938634087829,0.0772988233236044,-0.0287164966089095*69f5cff5
#CORRIMUDATAA,FILE,0,37.5,FINEBACKUPSTEERING,2317,466194.450,02000000,e5fc,17139;2317,466194.450000000,0.0003167986671615,-0.0000480412568428,0.0002760463897205,-0.0043577238730863,0.0610935416724891,-0.0248665157837488*e29467b0
#CORRIMUDATAA,FILE,0,37.5,FINEBACKUPSTEERING,2317,466194.500,02000000,e5fc,17139;2317,466194.500000000,0.0005973575920418,-0.0001808260216066,0.0001647645356403,-0.0087512074427992,0.0644514775289488,-0.0009636769112561*48f80bab
#CORRIMUDATAA,FILE,0,37.5,FINESTEERING,2317,466194.550,02000000,e5fc,17139;2317,466194.550000000,0.0014169361368195,0.0004636893854285,0.0002109540883505,0.0005614623963126,0.0702070319599547,-0.0080542516114333*50dd0ec3
#CORRIMUDATAA,FILE,0,37.5,FINESTEERING,2317,466194.600,02000000,e5fc,17139;2317,466194.600000000,0.0008795352896465,0.0007954834369319,0.0002245885519865,-0.0016374172430164,0.0640538874854205,0.0032180025029027*a09fd98c
#CORRIMUDATAA,FILE,0,37.5,FINESTEERING,2317,466194.650,02000000,e5fc,17139;2317,466194.650000000,0.0003808018745019,0.0011462473893001,0.0000508701076657,-0.0029969960881346,0.0721454676216648,0.0234165842865030*2ed620de
#CORRIMUDATAA,FILE,0,37.5,FINESTEERING,2317,466194.700,02000000,e5fc,17139;2317,466194.700000000,0.0002840296057296,0.0005974218424998,0.0000728461362855,0.0034529994297223,0.0661887694053977,0.0100239328011237*03438a66
#CORRIMUDATAA,FILE,0,37.5,FINESTEERING,2317,466194.750,02000000,e5fc,17139;2317,466194.750000000,-0.0002718812959838,-0.0005403037712196,0.0001145554207290,-0.0088458965864102,0.0644198220755202,0.0049082404838576*973d631d
#CORRIMUDATAA,FILE,0,37.5,FINESTEERING,2317,466194.800,02000000,e5fc,17139;2317,466194.800000000,-0.0005449149126446,-0.0011689424186839,0.0001535914381334,-0.0061737033488961,0.0577773936769450,0.0392394795298894*543097b2
#CORRIMUDATAA,FILE,0,37.5,FINESTEERING,2317,466194.850,02000000,e5fc,17139;2317,466194.850000000,0.0001222996482359,-0.0008224590920009,0.0002924678127140,-0.0028406118653279,0.0640387448314861,-0.0139699610788373*6f409184
#CORRIMUDATAA,FILE,0,37.5,FINESTEERING,2317,466194.900,02000000,e5fc,17139;2317,466194.900000000,0.0003333529386896,0.0000596294337356,0.0003387997070397,0.0053505255890305,0.0678003877701283,-0.0302827955243987*fabb80bb
#CORRIMUDATAA,FILE,0,37.5,FINESTEERING,2317,466194.950,02000000,e5fc,17139;2317,466194.950000000,0.0011051678291928,0.0002169987624515,0.0003015020865496,0.0092504092978676,0.0673287440252015,0.0074793674472402*58ee532f
#CORRIMUDATAA,FILE,0,37.5,FINESTEERING,2317,466195.000,02000000,e5fc,17139;2317,466195.000000000,0.0012501933403102,0.0000723869587415,0.0001171185062115,-0.0174846585832495,0.0657397709134980,-0.0170155368183152*e8b32098
#CORRIMUDATAA,FILE,0,37.5,FINESTEERING,2317,466195.050,02000000,e5fc,17139;2317,466195.050000000,0.0015811189219781,-0.0002106734967618,-0.0000794830931953,-0.0142204469615570,0.0603224967061217,-0.0013839002545404*db4f3ac9
#CORRIMUDATAA,FILE,0,32.5,FINESTEERING,2317,466195.100,02000000,e5fc,17139;2317,466195.100000000,0.0009461316762177,-0.0011626685754947,-0.0001697858891151,-0.0016000020829745,0.0552810588754759,0.0270318590391759*42699871
#CORRIMUDATAA,FILE,0,32.5,FINESTEERING,2317,466195.150,02000000,e5fc,17139;2317,466195.150000000,0.0002726242515385,-0.0015740899551386,-0.0000427359071566,0.0040037627047937,0.0652941257661530,0.0282242841993025*0bcb20c3
#CORRIMUDATAA,FILE,0,32.5,FINESTEERING,2317,466195.200,02000000,e5fc,17139;2317,466195.200000000,-0.0006744597030694,-0.0008367795800133,0.0002596813615557,0.0055969694557293,0.0521362868084964,0.0244648170934459*4973e356
#CORRIMUDATAA,FILE,0,32.5,FINESTEERING,2317,466195.250,02000000,e5fc,17139;2317,466195.250000000,-0.0011885413241844,-0.0001729569617059,0.0002524174116403,0.0018682561497119,0.0462484909437677,0.0193235711989284*9fcd5d33
#CORRIMUDATAA,FILE,0,32.5,FINESTEERING,2317,466195.300,02000000,e5fc,17139;2317,466195.300000000,-0.0024669452442237,-0.0004750141842898,0.0001104095349475,-0.0084082183599141,0.0491218947926301,0.0272438038607857*09f48db3
#CORRIMUDATAA,FILE,0,32.5,FINESTEERING,2317,466195.350,02000000,e5fc,17139;2317,466195.350000000,-0.0026308747491489,-0.0007950663364297,0.0000343156589664,-0.0095166326270294,0.0451991357670874,-0.0145499173922351*1ea11f4a
#CORRIMUDATAA,FILE,0,32.5,FINESTEERING,2317,466195.400,02000000,e5fc,17139;2317,466195.400000000,-0.0022776873487807,-0.0004497085480813,0.0000636852310641,0.0000787275947415,0.0420635989278105,-0.0256554684633841*40ca20e9
#CORRIMUDATAA,FILE,0,32.5,FINESTEERING,2317,466195.450,02000000,e5fc,17139;2317,466195.450000000,-0.0021993057182425,-0.0000704179464990,0.0001530982327711,0.0110625003423598,0.0428157158626474,-0.0214566775608281*f4697248
#CORRIMUDATAA,FILE,0,32.5,FINESTEERING,2317,466195.500,02000000,e5fc,17139;2317,466195.500000000,-0.0017903704436654,0.0004869701600163,0.0002436700601490,0.0046450930414666,0.0232587132645723,-0.0222083128995176*eb85909a
#CORRIMUDATAA,FILE,0,32.5,FINESTEERING,2317,466195.550,02000000,e5fc,17139;2317,466195.550000000,-0.0016222312874687,0.0003393218567144,0.0002352730398775,-0.0042296847472012,0.0048584773764821,-0.0034970561001597*ee83e13b
#CORRIMUDATAA,FILE,0,32.5,FINESTEERING,2317,466195.600,02000000,e5fc,17139;2317,466195.600000000,-0.0021552903624499,-0.0000443591767449,0.0000031029140882,-0.0164021339535479,-0.0055902397243962,-0.0205880714117125*54907607
#CORRIMUDATAA,FILE,0,32.5,FINESTEERING,2317,466195.650,02000000,e5fc,17139;2317,466195.650000000,-0.0015500811420922,-0.0001178400823661,-0.0000947491481190,-0.0021769747267947,-0.0068399809067966,-0.0142022871419828*0d18df37
#CORRIMUDATAA,FILE,0,32.5,FINESTEERING,2317,466195.700,02000000,e5fc,17139;2317,466195.700000000,-0.0010230806484592,0.0002425986882430,-0.0000506345581073,0.0063118933155951,-0.0081243020691264,-0.0003868982238714*1a037eba
#CORRIMUDATAA,FILE,0,32.5,FINESTEERING,2317,466195.750,02000000,e5fc,17139;2317,466195.750000000,-0.0010444708433199,0.0004927673337076,0.0000500113553513,0.0057796913816506,-0.0085810791198017,-0.0326626805701079*d5469e9c
#CORRIMUDATAA,FILE,0,32.5,FINESTEERING,2317,466195.800,02000000,e5fc,17139;2317,466195.800000000,0.0001322980320413,0.0001525460509571,0.0001144818874696,0.0038603344744880,-0.0072305369585923,-0.0171725187728464*0c814e1c
#CORRIMUDATAA,FILE,0,32.5,FINESTEERING,2317,466195.850,02000000,e5fc,17139;2317,466195.850000000,0.0001453581397425,-0.0004811913388462,0.0000732323599720,-0.0092931898523437,-0.0086176054321258,0.0076861689615049*5b0d6a3e
#CORRIMUDATAA,FILE,0,32.5,FINESTEERING,2317,466195.900,02000000,e5fc,17139;2317,466195.900000000,0.0000315291956340,-0.0015616038368587,-0.0000382955352098,-0.0094000959203201,-0.0085767652165620,0.0098965809563837*82eb3c7b
#CORRIMUDATAA,FILE,0,32.5,FINESTEERING,2317,466195.950,02000000,e5fc,17139;2317,466195.950000000,-0.0001981477865373,-0.0014882124220115,-0.0000238010418204,-0.0031370293354995,-0.0082562729864313,-0.0062888883846157*cd4177d8
#CORRIMUDATAA,FILE,0,32.5,FINESTEERING,2317,466196.000,02000000,e5fc,17139;2317,466196.000000000,-0.0000973625409324,-0.0009394755129727,0.0001586766037497,0.0113565423697962,-0.0086124667243464,0.0087275011296997*1fb11e78
#CORRIMUDATAA,FILE,0,32.5,FINESTEERING,2317,466196.050,02000000,e5fc,17139;2317,466196.050000000,0.0000990858496183,-0.0007329528495888,0.0002845696189865,-0.0041183529265085,-0.0093915923809138,0.0055802565072690*460efd1e
#CORRIMUDATAA,FILE,0,32.5,FINESTEERING,2317,466196.100,02000000,e5fc,17139;2317,466196.100000000,0.0004226073223852,-0.0004782078178603,0.0000077052558849,-0.0105363669528415,-0.0091106643348067,-0.0149090475916464*f8916bb3
#CORRIMUDATAA,FILE,0,34.0,FINESTEERING,2317,466196.150,02000000,e5fc,17139;2317,466196.150000000,0.0010377465428728,-0.0006528699273891,-0.0001276130508795,-0.0060416051092926,-0.0070799427855840,-0.0126185029866570*49a96017
#CORRIMUDATAA,FILE,0,34.0,FINESTEERING,2317,466196.200,02000000,e5fc,17139;2317,466196.200000000,0.0014608892796503,-0.0002226052453985,-0.0001389673806225,0.0031304738871114,-0.0084952032443228,-0.0103038430876839*394a8832
#CORRIMUDATAA,FILE,0,34.0,FINESTEERING,2317,466196.250,02000000,e5fc,17139;2317,466196.250000000,0.0023963191054830,-0.0001606808743628,-0.0000666080764516,0.0119944039427831,-0.0160748616111172,0.0015013586214110*871cac24
#CORRIMUDATAA,FILE,0,34.0,FINESTEERING,2317,466196.300,02000000,e5fc,17139;2317,466196.300000000,0.0024605278118629,0.0002662668397380,-0.0000433686638778,0.0061856156300211,-0.0110468205416387,0.0172376428326427*e0129ce2
#CORRIMUDATAA,FILE,0,34.0,FINESTEERING,2317,466196.350,02000000,e5fc,17139;2317,466196.350000000,0.0020769756141806,0.0001121527968872,0.0000592206093467,-0.0017577083447690,-0.0133099866225032,0.0340839875676941*6b112369
#CORRIMUDATAA,FILE,0,34.0,FINESTEERING,2317,466196.400,02000000,e5fc,17139;2317,466196.400000000,0.0015958121731685,-0.0000956630951566,-0.0000437175085513,-0.0029681244669509,-0.0127434251102387,0.0247438516149838*2d5e4da1
#CORRIMUDATAA,FILE,0,34.0,FINESTEERING,2317,466196.450,02000000,e5fc,17139;2317,466196.450000000,0.0006745099299186,0.0003546328602922,-0.0000288842606204,0.0015973539727174,-0.0108437226334883,0.0270551058730128*c89e6ba4
#CORRIMUDATAA,FILE,0,34.0,FINESTEERING,2317,466196.500,02000000,e5fc,17139;2317,466196.500000000,-0.0005494317037752,0.0010368283221591,0.0000598020086652,0.0079370401459173,-0.0261570159799899,0.0372873373182416*1780a389
#CORRIMUDATAA,FILE,0,34.0,FINESTEERING,2317,466196.550,02000000,e5fc,17139;2317,466196.550000000,-0.0021364762847230,0.0012931554336774,0.0000939068723251,0.0063258337029044,-0.0464619327193195,0.0561824169010435*a0f59da6
#CORRIMUDATAA,FILE,0,34.0,FINESTEERING,2317,466196.600,02000000,e5fc,17139;2317,466196.600000000,-0.0029298137549362,0.0006565037829620,0.0000688851072944,-0.0011359026016963,-0.0689813954136995,0.0276879685932868*fa76e0c6
#CORRIMUDATAA,FILE,0,34.0,FINESTEERING,2317,466196.650,02000000,e5fc,17139;2317,466196.650000000,-0.0034053000192045,-0.0002371854613314,-0.0000814002654967,-0.0137056260254858,-0.0358726472168870,-0.0262552791975950*2d258534
#CORRIMUDATAA,FILE,0,34.0,FINESTEERING,2317,466196.700,02000000,e5fc,17139;2317,466196.700000000,-0.0016353848203447,-0.0007288559988812,-0.0001456205095491,-0.0107532912317701,0.0023422476185999,-0.0807141017115572*df35731a
#CORRIMUDATAA,FILE,0,34.0,FINESTEERING,2317,466196.750,02000000,e5fc,17139;2317,466196.750000000,0.0009213930568864,-0.0006976900761373,-0.0002149968946547,0.0073516800655741,0.0221643501871351,-0.0882651191908944*d357abeb
#CORRIMUDATAA,FILE,0,34.0,FINESTEERING,2317,466196.800,02000000,e5fc,17139;2317,466196.800000000,0.0022769607857545,-0.0008315156857566,0.0001235971487527,0.0050576584601814,0.0121582178129815,-0.0476072818011283*ff24ece3
#CORRIMUDATAA,FILE,0,34.0,FINESTEERING,2317,466196.850,02000000,e5fc,17139;2317,466196.850000000,0.0031408399059090,-0.0005309521275148,0.0000876743365962,0.0005724837250250,-0.0213740031246460,0.0102806572292965*37fc1dc4
#CORRIMUDATAA,FILE,0,34.0,FINESTEERING,2317,466196.900,02000000,e5fc,17139;2317,466196.900000000,0.0024580558165789,-0.0005767989175103,0.0000059125949283,-0.0072974389926646,-0.0134812501907768,0.0218509992426036*3039fc2a
#CORRIMUDATAA,FILE,0,34.0,FINESTEERING,2317,466196.950,02000000,e5fc,17139;2317,466196.950000000,0.0022681787553419,-0.0009774486797729,-0.0002258061222027,-0.0098520941636404,-0.0011729166954030,0.0395610784390290*f653f43d
#CORRIMUDATAA,FILE,0,34.0,FINESTEERING,2317,466197.000,02000000,e5fc,17139;2317,466197.000000000,0.0009312905657663,-0.0005968104457660,-0.0002845173210929,0.0032452000373985,0.0144377696993761,0.0456292016922342*822438ce
#CORRIMUDATAA,FILE,0,34.0,FINESTEERING,2317,466197.050,02000000,e5fc,17139;2317,466197.050000000,0.0004629060515537,-0.0007611957260776,-0.0001095094685459,0.0022461656154898,0.0208676307827685,-0.0160795911933466*fb2fbd1f
#CORRIMUDATAA,FILE,0,33.5,FINESTEERING,2317,466197.100,02000000,e5fc,17139;2317,466197.100000000,0.0003732738857850,0.0001275379212516,-0.0000217090941964,0.0104372669417371,0.0107297043835163,0.0199555834019667*c3bbe2f4
#CORRIMUDATAA,FILE,0,33.5,FINESTEERING,2317,466197.150,02000000,e5fc,17139;2317,466197.150000000,-0.0005152962304620,0.0002668113459534,0.0000111325405788,0.0039196512281449,0.0096335503606408,0.0404603878206279*202a8ee6
#CORRIMUDATAA,FILE,0,33.5,FINESTEERING,2317,466197.200,02000000,e5fc,17139;2317,466197.200000000,-0.0011556913730130,0.0012721936929703,-0.0000249389636368,0.0024632565094941,0.0205348898015192,0.0018498778137139*43de00c7
#CORRIMUDATAA,FILE,0,33.5,FINESTEERING,2317,466197.250,02000000,e5fc,17139;2317,466197.250000000,-0.0008480686806902,0.0016591316424450,-0.0000668957091361,0.0040958216753569,0.0275877356088745,-0.0246346086886796*e6c23313
#CORRIMUDATAA,FILE,0,33.5,FINESTEERING,2317,466197.300,02000000,e5fc,17139;2317,466197.300000000,-0.0012087090495858,0.0016596375181884,-0.0001372339656655,0.0015887730897055,0.0212315646005830,-0.0102935908791509*57eef64b
#CORRIMUDATAA,FILE,0,33.5,FINESTEERING,2317,466197.350,02000000,e5fc,17139;2317,466197.350000000,-0.0009076524375084,0.0011900272289372,-0.0002137770625440,0.0022352995738916,0.0189646498395866,0.0143515731536699*fc44ee38
#CORRIMUDATAA,FILE,0,33.5,FINESTEERING,2317,466197.400,02000000,e5fc,17139;2317,466197.400000000,-0.0010559117729460,0.0005800059902638,-0.0001391434450519,-0.0061261696623515,0.0246297791807433,-0.0271423212987536*9a119bba
#CORRIMUDATAA,FILE,0,33.5,FINESTEERING,2317,466197.450,02000000,e5fc,17139;2317,466197.450000000,-0.0003277287332833,0.0009719884614713,-0.0001376315761215,0.0057986942463174,0.0364155488444055,-0.0330318690941141*8b4f5b15
#CORRIMUDATAA,FILE,0,33.5,FINESTEERING,2317,466197.500,02000000,e5fc,17139;2317,466197.500000000,0.0002099506462954,0.0016051972126278,-0.0000217076741746,0.0115894128871750,0.0241193019744140,-0.0038175855793958*a885e717
#CORRIMUDATAA,FILE,0,33.5,FINESTEERING,2317,466197.550,02000000,e5fc,17139;2317,466197.550000000,0.0002049504042920,0.0014894978392893,-0.0000779271850049,-0.0027985237231078,0.0186371741169958,-0.0141990048007586*9adc6b59
#CORRIMUDATAA,FILE,0,33.5,FINESTEERING,2317,466197.600,02000000,e5fc,17139;2317,466197.600000000,0.0001961677068020,0.0020545176433905,-0.0001697718196557,-0.0007013339762525,0.0272930336029508,0.0142263241096474*c9e19c04
#CORRIMUDATAA,FILE,0,33.5,FINESTEERING,2317,466197.650,02000000,e5fc,17139;2317,466197.650000000,0.0006270273989271,0.0024786209202766,-0.0002530454028933,0.0005249288203855,0.0326669585402204,-0.0307556715283370*ebafc202
#CORRIMUDATAA,FILE,0,33.5,FINESTEERING,2317,466197.700,02000000,e5fc,17139;2317,466197.700000000,0.0003224228861487,0.0012219093278681,-0.0001988211279920,0.0046548815014114,0.0182643537721882,0.0423721852826033*6285d2cd
#CORRIMUDATAA,FILE,0,33.5,FINESTEERING,2317,466197.750,02000000,e5fc,17139;2317,466197.750000000,0.0000469301598793,0.0003672741742823,-0.0001904464475010,0.0005012429994114,0.0204501648718438,0.0098045461723304*00bb4ec3
