#INSPVAXA,FILE,0,33.5,FINESTEERING,2317,466183.350,02000800,46eb,17139;INS_SOLUTION_GOOD,INS_PPP,17.60146701777,78.12664968674,525.2199,-76.2000,-0.0187,-0.0159,0.0025,1.291989123,-0.660244113,3.991836360,0.0832,0.0876,0.1042,0.0205,0.0210,0.0135,0.0187,0.0184,0.7998,ab001041,0*e631c807
#INSPVAXA,FILE,0,33.5,FINESTEERING,2317,466183.450,02000800,46eb,17139;INS_SOLUTION_GOOD,INS_PPP,17.60146700914,78.12664967700,525.2202,-76.2000,-0.0207,-0.0132,0.0011,1.290366274,-0.660813306,3.988958702,0.0832,0.0876,0.1042,0.0205,0.0210,0.0135,0.0187,0.0184,0.7998,ab001041,0*4dbd8096
#INSPVAXA,FILE,0,33.5,FINESTEERING,2317,466183.500,02000800,46eb,17139;INS_SOLUTION_GOOD,INS_PPP,17.60146700448,78.12664967183,525.2203,-76.2000,-0.0196,-0.0146,-0.0006,1.293759000,-0.658703909,3.989294370,0.0832,0.0876,0.1042,0.0205,0.0210,0.0135,0.0187,0.0184,0.7998,ab001041,0*985bd584
#INSPVAXA,FILE,0,33.5,FINESTEERING,2317,466183.550,02000800,46eb,17139;INS_SOLUTION_GOOD,INS_PPP,17.60146700072,78.12664966646,525.2204,-76.2000,-0.0190,-0.0151,0.0010,1.293833296,-0.660364865,3.991351211,0.0832,0.0876,0.1042,0.0205,0.0210,0.0135,0.0187,0.0184,0.7998,ab001041,0*dece6676
#INSPVAXA,FILE,0,33.5,FINESTEERING,2317,466183.600,02000800,46eb,17139;INS_SOLUTION_GOOD,INS_PPP,17.60146699648,78.12664966094,525.2206,-76.2000,-0.0197,-0.0149,0.0028,1.294244444,-0.661661476,3.991472257,0.0832,0.0876,0.1042,0.0205,0.0210,0.0135,0.0187,0.0184,0.7998,ab001041,0*e1ffcc35
#INSPVAXA,FILE,0,33.5,FINESTEERING,2317,466183.750,02000800,46eb,17139;INS_SOLUTION_GOOD,INS_PPP,17.60146698203,78.12664964426,525.2210,-76.2000,-0.0202,-0.0152,0.0008,1.291469620,-0.662384555,3.991194666,0.0832,0.0876,0.1042,0.0205,0.0210,0.0135,0.0187,0.0184,0.7998,ab001041,0*54885277
#INSPVAXA,FILE,0,33.5,FINESTEERING,2317,466183.800,02000800,46eb,17139;INS_SOLUTION_GOOD,INS_PPP,17.60146697687,78.12664963892,525.2210,-76.2000,-0.0202,-0.0131,0.0005,1.292673951,-0.664349155,3.991907312,0.0832,0.0876,0.1042,0.0205,0.0210,0.0135,0.0187,0.0184,0.7998,ab001041,0*8220f87b
#INSPVAXA,FILE,0,33.5,FINESTEERING,2317,466183.900,02000800,46eb,17139;INS_SOLUTION_GOOD,INS_PPP,17.60146696750,78.12664962916,525.2212,-76.2000,-0.0208,-0.0148,0.0015,1.297301531,-0.663052424,3.989684256,0.0832,0.0876,0.1042,0.0205,0.0210,0.0135,0.0187,0.0184,0.7998,ab001041,0*96118952
#INSPVAXA,FILE,0,33.5,FINESTEERING,2317,466183.950,02000800,46eb,17139;INS_SOLUTION_GOOD,INS_PPP,17.60146696188,78.12664962318,525.2213,-76.2000,-0.0214,-0.0159,0.0012,1.295814888,-0.662949684,3.990332798,0.0832,0.0876,0.1042,0.0205,0.0210,0.0135,0.0187,0.0184,0.7998,ab001041,0*cd84da5f
#INSPVAXA,FILE,0,33.5,FINESTEERING,2317,466184.000,02000800,46eb,17139;INS_SOLUTION_GOOD,INS_PPP,17.60146695729,78.12664961729,525.2215,-76.2000,-0.0203,-0.0160,0.0018,1.292213911,-0.664445017,3.990721034,0.0832,0.0876,0.1042,0.0205,0.0210,0.0135,0.0187,0.0184,0.7998,ab001041,0*a4b0f119
#INSPVAXA,FILE,0,33.5,FINESTEERING,2317,466184.050,02000800,46eb,17139;INS_SOLUTION_GOOD,INS_PPP,17.60146695355,78.12664961212,525.2216,-76.2000,-0.0197,-0.0153,0.0007,1.293546330,-0.663890130,3.990751469,0.0864,0.0907,0.1044,0.0218,0.0224,0.0146,0.0189,0.0187,0.7998,ab001041,0*d749960a
#INSPVAXA,FILE,0,33.5,FINESTEERING,2317,466184.200,02000800,46eb,17139;INS_SOLUTION_GOOD,INS_PPP,17.60146694466,78.12664959841,525.2229,-76.2000,-0.0265,-0.0185,0.0167,1.289763701,-0.685623487,3.997472994,0.0864,0.0907,0.1044,0.0218,0.0224,0.0146,0.0189,0.0187,0.7998,ab001041,0*576f5ef9
#INSPVAXA,FILE,0,35.5,FINESTEERING,2317,466184.250,02000800,46eb,17139;INS_SOLUTION_GOOD,INS_PPP,17.60146693752,78.12664959372,525.2237,-76.2000,-0.0304,-0.0142,0.0164,1.286278082,-0.702591272,3.999945744,0.0864,0.0907,0.1044,0.0218,0.0224,0.0146,0.0189,0.0187,0.7998,ab001041,0*5b235698
#INSPVAXA,FILE,0,35.5,FINESTEERING,2317,466184.300,02000800,46eb,17139;INS_SOLUTION_GOOD,INS_PPP,17.60146692981,78.12664959083,525.2245,-76.2000,-0.0334,-0.0125,0.0132,1.286993884,-0.712909603,3.995055371,0.0864,0.0907,0.1044,0.0218,0.0224,0.0146,0.0189,0.0187,0.7998,ab001041,0*382d4462
#INSPVAXA,FILE,0,35.5,FINESTEERING,2317,466184.450,02000800,46eb,17139;INS_SOLUTION_GOOD,INS_PPP,17.60146689847,78.12664957768,525.2254,-76.2000,-0.0401,-0.0198,-0.0017,1.280602402,-0.727002124,3.989590583,0.0864,0.0907,0.1044,0.0218,0.0224,0.0146,0.0189,0.0187,0.7998,ab001041,0*45e057d0
#INSPVAXA,FILE,0,35.5,FINESTEERING,2317,466184.550,02000800,46eb,17139;INS_SOLUTION_GOOD,INS_PPP,17.60146687053,78.12664956693,525.2254,-76.2000,-0.0481,-0.0145,0.0012,1.281353534,-0.718983837,3.996356160,0.0864,0.0907,0.1044,0.0218,0.0224,0.0146,0.0189,0.0187,0.7998,ab001041,0*39f9f127
#INSPVAXA,FILE,0,35.5,FINESTEERING,2317,466184.600,02000800,46eb,17139;INS_SOLUTION_GOOD,INS_PPP,17.60146685276,78.12664956265,525.2255,-76.2000,-0.0537,-0.0148,0.0005,1.283362271,-0.718006857,3.993810828,0.0864,0.0907,0.1044,0.0218,0.0224,0.0146,0.0189,0.0187,0.7998,ab001041,0*518853f8
#INSPVAXA,FILE,0,35.5,FINESTEERING,2317,466184.700,02000800,46eb,17139;INS_SOLUTION_GOOD,INS_PPP,17.60146681472,78.12664955449,525.2255,-76.2000,-0.0560,-0.0168,-0.0015,1.292792270,-0.720264370,3.987517777,0.0864,0.0907,0.1044,0.0218,0.0224,0.0146,0.0189,0.0187,0.7998,ab001041,0*c36e1c2b
#INSPVAXA,FILE,0,35.5,FINESTEERING,2317,466184.750,02000800,46eb,17139;INS_SOLUTION_GOOD,INS_PPP,17.60146679497,78.12664954852,525.2256,-76.2000,-0.0582,-0.0208,-0.0001,1.287144522,-0.714516091,3.988359594,0.0864,0.0907,0.1044,0.0218,0.0224,0.0146,0.0189,0.0187,0.7998,ab001041,0*d94ed895
#INSPVAXA,FILE,0,35.5,FINESTEERING,2317,466184.900,02000800,46eb,17139;INS_SOLUTION_GOOD,INS_PPP,17.60146672763,78.12664952969,525.2257,-76.2000,-0.0664,-0.0179,0.0015,1.275741097,-0.712246050,3.989676834,0.0864,0.0907,0.1044,0.0218,0.0224,0.0146,0.0189,0.0187,0.7998,ab001041,0*5d4be1c5
#INSPVAXA,FILE,0,35.5,FINESTEERING,2317,466184.950,02000800,46eb,17139;INS_SOLUTION_GOOD,INS_PPP,17.60146670258,78.12664952427,525.2259,-76.2000,-0.0716,-0.0174,0.0014,1.276702981,-0.712588461,3.989538754,0.0864,0.0907,0.1044,0.0218,0.0224,0.0146,0.0189,0.0187,0.7998,ab001041,0*1d1c0979
#INSPVAXA,FILE,0,35.5,FINESTEERING,2317,466185.050,02000800,46eb,17139;INS_SOLUTION_GOOD,INS_PPP,17.60146664622,78.12664951482,525.2259,-76.2000,-0.0779,-0.0158,-0.0025,1.275824551,-0.702061212,3.989098398,0.0900,0.0945,0.1058,0.0227,0.0234,0.0156,0.0191,0.0188,0.7998,ab001041,0*62c60b22
#INSPVAXA,FILE,0,31.0,FINESTEERING,2317,466185.100,02000800,46eb,17139;INS_SOLUTION_GOOD,INS_PPP,17.60146661911,78.12664951235,525.2258,-76.2000,-0.0786,-0.0157,-0.0019,1.281784955,-0.700079863,3.986276042,0.0900,0.0945,0.1058,0.0227,0.0234,0.0156,0.0191,0.0188,0.7998,ab001041,0*67b52336
#INSPVAXA,FILE,0,31.0,FINESTEERING,2317,466185.200,02000800,46eb,17139;INS_SOLUTION_GOOD,INS_PPP,17.60146656256,78.12664950427,525.2257,-76.2000,-0.0800,-0.0208,-0.0012,1.283086754,-0.699729632,3.983012209,0.0900,0.0945,0.1058,0.0227,0.0234,0.0156,0.0191,0.0188,0.7998,ab001041,0*a4db6263
#INSPVAXA,FILE,0,31.0,FINESTEERING,2317,466185.250,02000800,46eb,17139;INS_SOLUTION_GOOD,INS_PPP,17.60146653340,78.12664949899,525.2257,-76.2000,-0.0816,-0.0204,-0.0018,1.285136441,-0.696577181,3.983211371,0.0900,0.0945,0.1058,0.0227,0.0234,0.0156,0.0191,0.0188,0.7998,ab001041,0*3a513fba
#INSPVAXA,FILE,0,31.0,FINESTEERING,2317,466185.300,02000800,46eb,17139;INS_SOLUTION_GOOD,INS_PPP,17.60146650311,78.12664949406,525.2257,-76.2000,-0.0847,-0.0196,0.0000,1.275571697,-0.694741221,3.983821111,0.0900,0.0945,0.1058,0.0227,0.0234,0.0156,0.0191,0.0188,0.7998,ab001041,0*a87adc33
#INSPVAXA,FILE,0,31.0,FINESTEERING,2317,466185.450,02000800,46eb,17139;INS_SOLUTION_GOOD,INS_PPP,17.60146641687,78.12664948076,525.2250,-76.2000,-0.0697,-0.0160,-0.0068,1.269198567,-0.668166947,3.983027726,0.0900,0.0945,0.1058,0.0227,0.0234,0.0156,0.0191,0.0188,0.7998,ab001041,0*09aacd2c
#INSPVAXA,FILE,0,31.0,FINESTEERING,2317,466185.500,02000800,46eb,17139;INS_SOLUTION_GOOD,INS_PPP,17.60146639378,78.12664947672,525.2247,-76.2000,-0.0604,-0.0176,-0.0102,1.269149922,-0.655875808,3.981680233,0.0900,0.0945,0.1058,0.0227,0.0234,0.0156,0.0191,0.0188,0.7998,ab001041,0*78614eec
#INSPVAXA,FILE,0,31.0,FINESTEERING,2317,466185.600,02000800,46eb,17139;INS_SOLUTION_GOOD,INS_PPP,17.60146636427,78.12664946909,525.2243,-76.2000,-0.0363,-0.0167,-0.0065,1.274608168,-0.640867557,3.985122209,0.0900,0.0945,0.1058,0.0227,0.0234,0.0156,0.0191,0.0188,0.7998,ab001041,0*4724fbca
#INSPVAXA,FILE,0,31.0,FINESTEERING,2317,466185.650,02000800,46eb,17139;INS_SOLUTION_GOOD,INS_PPP,17.60146635705,78.12664946568,525.2240,-76.2000,-0.0231,-0.0141,-0.0063,1.278161488,-0.630517496,3.985831613,0.0900,0.0945,0.1058,0.0227,0.0234,0.0156,0.0191,0.0188,0.7998,ab001041,0*a2dd61a9
#INSPVAXA,FILE,0,31.0,FINESTEERING,2317,466185.700,02000800,46eb,17139;INS_SOLUTION_GOOD,INS_PPP,17.60146635769,78.12664946390,525.2239,-76.2000,-0.0081,-0.0126,-0.0028,1.279488731,-0.625074516,3.983747949,0.0900,0.0945,0.1058,0.0227,0.0234,0.0156,0.0191,0.0188,0.7998,ab001041,0*3328ede8
#INSPVAXA,FILE,0,31.0,FINESTEERING,2317,466185.800,02000800,46eb,17139;INS_SOLUTION_GOOD,INS_PPP,17.60146637464,78.12664945871,525.2238,-76.2000,0.0194,-0.0142,-0.0013,1.282428796,-0.613358627,3.985245171,0.0900,0.0945,0.1058,0.0227,0.0234,0.0156,0.0191,0.0188,0.7998,ab001041,0*b673b253
#INSPVAXA,FILE,0,31.0,FINESTEERING,2317,466185.850,02000800,46eb,17139;INS_SOLUTION_GOOD,INS_PPP,17.60146639236,78.12664945656,525.2238,-76.2000,0.0318,-0.0122,-0.0026,1.282595736,-0.607378735,3.988658853,0.0900,0.0945,0.1058,0.0227,0.0234,0.0156,0.0191,0.0188,0.7998,ab001041,0*120a20f6
#INSPVAXA,FILE,0,31.0,FINESTEERING,2317,466185.900,02000800,46eb,17139;INS_SOLUTION_GOOD,INS_PPP,17.60146641754,78.12664945565,525.2237,-76.2000,0.0453,-0.0100,-0.0055,1.278945417,-0.612862757,3.988958388,0.0900,0.0945,0.1058,0.0227,0.0234,0.0156,0.0191,0.0188,0.7998,ab001041,0*9d666fb7
#INSPVAXA,FILE,0,31.0,FINESTEERING,2317,466186.000,02000800,46eb,17139;INS_SOLUTION_GOOD,INS_PPP,17.60146648754,78.12664945561,525.2237,-76.2000,0.0805,-0.0076,-0.0014,1.280323928,-0.602316092,3.987245222,0.0900,0.0945,0.1058,0.0227,0.0234,0.0156,0.0191,0.0188,0.7998,ab001041,0*2138e446
#INSPVAXA,FILE,0,31.0,FINESTEERING,2317,466186.050,02000800,46eb,17139;INS_SOLUTION_GOOD,INS_PPP,17.60146653492,78.12664945656,525.2236,-76.2000,0.0968,-0.0073,-0.0004,1.279503994,-0.601157320,3.989442252,0.0934,0.0982,0.1081,0.0231,0.0241,0.0165,0.0191,0.0188,0.7998,ab001041,0*c16c0d11
#INSPVAXA,FILE,0,31.0,FINESTEERING,2317,466186.200,02000800,46eb,17139;INS_SOLUTION_GOOD,INS_PPP,17.60146673761,78.12664946832,525.2234,-76.2000,0.1652,-0.0019,-0.0027,1.283638346,-0.581804997,3.993307793,0.0934,0.0982,0.1081,0.0231,0.0241,0.0165,0.0191,0.0188,0.7998,ab001041,0*afed027b
#INSPVAXA,FILE,0,33.5,FINESTEERING,2317,466186.250,02000800,46eb,17139;INS_SOLUTION_GOOD,INS_PPP,17.60146682727,78.12664947350,525.2232,-76.2000,0.1943,-0.0011,-0.0061,1.287538569,-0.574039159,3.995440662,0.0934,0.0982,0.1081,0.0231,0.0241,0.0165,0.0191,0.0188,0.7998,ab001041,0*79d556f1
#INSPVAXA,FILE,0,33.5,FINESTEERING,2317,466186.300,02000800,46eb,17139;INS_SOLUTION_GOOD,INS_PPP,17.60146693036,78.12664947911,525.2231,-76.2000,0.2267,-0.0001,-0.0063,1.290907082,-0.560568589,3.998493831,0.0934,0.0982,0.1081,0.0231,0.0241,0.0165,0.0191,0.0188,0.7998,ab001041,0*a2a215c8
#INSPVAXA,FILE,0,33.5,FINESTEERING,2317,466186.350,02000800,46eb,17139;INS_SOLUTION_GOOD,INS_PPP,17.60146704893,78.12664948519,525.2229,-76.2000,0.2613,0.0012,-0.0071,1.295211955,-0.549411856,4.004386827,0.0934,0.0982,0.1081,0.0231,0.0241,0.0165,0.0191,0.0188,0.7998,ab001041,0*dda416ce
#INSPVAXA,FILE,0,33.5,FINESTEERING,2317,466186.400,02000800,46eb,17139;INS_SOLUTION_GOOD,INS_PPP,17.60146718360,78.12664949187,525.2227,-76.2000,0.3009,0.0042,-0.0052,1.298360447,-0.534773583,4.010473523,0.0934,0.0982,0.1081,0.0231,0.0241,0.0165,0.0191,0.0188,0.7998,ab001041,0*bf7be460
#INSPVAXA,FILE,0,33.5,FINESTEERING,2317,466186.550,02000800,46eb,17139;INS_SOLUTION_GOOD,INS_PPP,17.60146769608,78.12664952162,525.2231,-76.2000,0.4215,0.0117,0.0042,1.297276090,-0.518905148,4.020728679,0.0934,0.0982,0.1081,0.0231,0.0241,0.0165,0.0191,0.0188,0.7998,ab001041,0*2046481c
#INSPVAXA,FILE,0,33.5,FINESTEERING,2317,466186.600,02000800,46eb,17139;INS_SOLUTION_GOOD,INS_PPP,17.60146790275,78.12664953311,525.2235,-76.2000,0.4636,0.0149,0.0064,1.292443955,-0.517444857,4.021194818,0.0934,0.0982,0.1081,0.0231,0.0241,0.0165,0.0191,0.0188,0.7998,ab001041,0*8a3c85ae
#INSPVAXA,FILE,0,33.5,FINESTEERING,2317,466186.700,02000800,46eb,17139;INS_SOLUTION_GOOD,INS_PPP,17.60146837748,78.12664956043,525.2241,-76.2000,0.5552,0.0196,0.0014,1.272394824,-0.525092288,4.018481237,0.0934,0.0982,0.1081,0.0231,0.0241,0.0165,0.0191,0.0188,0.7998,ab001041,0*eefb4791
#INSPVAXA,FILE,0,33.5,FINESTEERING,2317,466186.750,02000800,46eb,17139;INS_SOLUTION_GOOD,INS_PPP,17.60146864666,78.12664957521,525.2240,-76.2000,0.6035,0.0208,-0.0025,1.261569909,-0.520633703,4.015094236,0.0934,0.0982,0.1081,0.0231,0.0241,0.0165,0.0191,0.0188,0.7998,ab001041,0*5ede541b
#INSPVAXA,FILE,0,33.5,FINESTEERING,2317,466186.800,02000800,46eb,17139;INS_SOLUTION_GOOD,INS_PPP,17.60146893856,78.12664959210,525.2238,-76.2000,0.6528,0.0257,-0.0038,1.252399589,-0.516562993,4.011092622,0.0934,0.0982,0.1081,0.0231,0.0241,0.0165,0.0191,0.0188,0.7998,ab001041,0*054d860b
#INSPVAXA,FILE,0,33.5,FINESTEERING,2317,466186.850,02000800,46eb,17139;INS_SOLUTION_GOOD,INS_PPP,17.60146925200,78.12664961153,525.2236,-76.2000,0.7029,0.0334,-0.0064,1.244898093,-0.514374705,4.004478300,0.0934,0.0982,0.1081,0.0231,0.0241,0.0165,0.0191,0.0188,0.7998,ab001041,0*7704a17d
#INSPVAXA,FILE,0,33.5,FINESTEERING,2317,466186.900,02000800,46eb,17139;INS_SOLUTION_GOOD,INS_PPP,17.60146958698,78.12664963338,525.2232,-76.2000,0.7518,0.0389,-0.0076,1.239095691,-0.508102660,3.993404925,0.0934,0.0982,0.1081,0.0231,0.0241,0.0165,0.0191,0.0188,0.7998,ab001041,0*87a6d1f4
#INSPVAXA,FILE,0,33.5,FINESTEERING,2317,466186.950,02000800,46eb,17139;INS_SOLUTION_GOOD,INS_PPP,17.60146994561,78.12664965736,525.2229,-76.2000,0.7997,0.0393,-0.0058,1.248252168,-0.503726211,3.978723099,0.0934,0.0982,0.1081,0.0231,0.0241,0.0165,0.0191,0.0188,0.7998,ab001041,0*1256834a
#INSPVAXA,FILE,0,33.5,FINESTEERING,2317,466187.000,02000800,46eb,17139;INS_SOLUTION_GOOD,INS_PPP,17.60147032479,78.12664968204,525.2227,-76.2000,0.8466,0.0429,-0.0003,1.266134082,-0.500647493,3.965525564,0.0934,0.0982,0.1081,0.0231,0.0241,0.0165,0.0191,0.0188,0.7998,ab001041,0*1a0cb2df
#INSPVAXA,FILE,0,33.5,FINESTEERING,2317,466187.050,02000800,46eb,17139;INS_SOLUTION_GOOD,INS_PPP,17.60147072648,78.12664970928,525.2226,-76.2000,0.8941,0.0467,0.0004,1.279446821,-0.498496254,3.954238968,0.0949,0.0999,0.1108,0.0228,0.0240,0.0172,0.0188,0.0185,0.7998,ab000241,0*47823f64
#INSPVAXA,FILE,0,33.5,FINESTEERING,2317,466187.100,02000000,46eb,17139;INS_SOLUTION_GOOD,INS_PPP,17.60147115250,78.12664973897,525.2226,-76.2000,0.9415,0.0475,-0.0014,1.295798718,-0.494158404,3.944096238,0.0949,0.0999,0.1108,0.0228,0.0240,0.0172,0.0188,0.0185,0.7998,ab000241,0*9d2bf1f5
#INSPVAXA,FILE,0,36.5,FINESTEERING,2317,466187.150,02000000,46eb,17139;INS_SOLUTION_GOOD,INS_PPP,17.60147159803,78.12664976827,525.2225,-76.2000,0.9885,0.0494,0.0001,1.312567144,-0.489855385,3.930753346,0.0949,0.0999,0.1108,0.0228,0.0240,0.0172,0.0188,0.0185,0.7998,ab000241,0*980609f4
#INSPVAXA,FILE,0,36.5,FINESTEERING,2317,466187.200,02000000,46eb,17139;INS_SOLUTION_GOOD,INS_PPP,17.60147206523,78.12664980000,525.2224,-76.2000,1.0342,0.0547,-0.0021,1.323513500,-0.485716732,3.910052439,0.0949,0.0999,0.1108,0.0228,0.0240,0.0172,0.0188,0.0185,0.7998,ab000241,0*7c8e918f
#INSPVAXA,FILE,0,36.5,FINESTEERING,2317,466187.250,02000000,46eb,17139;INS_SOLUTION_GOOD,INS_PPP,17.60147255390,78.12664983431,525.2225,-76.2000,1.0796,0.0586,0.0034,1.329544040,-0.485851487,3.881016238,0.0949,0.0999,0.1108,0.0228,0.0240,0.0172,0.0188,0.0185,0.7998,ab000241,0*38a58f08
#INSPVAXA,FILE,0,36.5,FINESTEERING,2317,466187.300,02000000,46eb,17139;INS_SOLUTION_GOOD,INS_PPP,17.60147306247,78.12664986922,525.2226,-76.2000,1.1274,0.0595,0.0044,1.331169772,-0.487768248,3.848763642,0.0949,0.0999,0.1108,0.0228,0.0240,0.0172,0.0188,0.0185,0.7998,ab000241,0*d00c8a85
#INSPVAXA,FILE,0,36.5,FINESTEERING,2317,466187.350,02000000,46eb,17139;INS_SOLUTION_GOOD,INS_PPP,17.60147359156,78.12664990286,525.2228,-76.2000,1.1757,0.0573,0.0024,1.330244975,-0.488560972,3.820658500,0.0949,0.0999,0.1108,0.0228,0.0240,0.0172,0.0188,0.0185,0.7998,ab000241,0*2152e2a9
#INSPVAXA,FILE,0,36.5,FINESTEERING,2317,466187.400,02000000,46eb,17139;INS_SOLUTION_GOOD,INS_PPP,17.60147414487,78.12664993733,525.2229,-76.2000,1.2268,0.0577,0.0008,1.325890248,-0.490428752,3.797154050,0.0949,0.0999,0.1108,0.0228,0.0240,0.0172,0.0188,0.0185,0.7998,ab000241,0*c2cf9026
#INSPVAXA,FILE,0,36.5,FINESTEERING,2317,466187.450,02000000,46eb,17139;INS_SOLUTION_GOOD,INS_PPP,17.60147472043,78.12664997199,525.2229,-76.2000,1.2799,0.0613,-0.0025,1.321661277,-0.487146926,3.772390023,0.0949,0.0999,0.1108,0.0228,0.0240,0.0172,0.0188,0.0185,0.7998,ab000241,0*d28f8e17
#INSPVAXA,FILE,0,36.5,FINESTEERING,2317,466187.500,02000000,46eb,17139;INS_SOLUTION_GOOD,INS_PPP,17.60147531975,78.12665000829,525.2227,-76.2000,1.3370,0.0672,-0.0020,1.322779426,-0.481089666,3.741203553,0.0949,0.0999,0.1108,0.0228,0.0240,0.0172,0.0188,0.0185,0.7998,ab000241,0*0e300c2f
#INSPVAXA,FILE,0,36.5,FINESTEERING,2317,466187.550,02000000,46eb,17139;INS_SOLUTION_GOOD,INS_PPP,17.60147594663,78.12665004808,525.2224,-76.2000,1.3957,0.0710,-0.0062,1.324407093,-0.476385818,3.703317476,0.0949,0.0999,0.1108,0.0228,0.0240,0.0172,0.0188,0.0185,0.7998,ab000241,0*501e9121
#INSPVAXA,FILE,0,36.5,FINESTEERING,2317,466187.600,02000000,46eb,17139;INS_SOLUTION_GOOD,INS_PPP,17.60147660150,78.12665008824,525.2220,-76.2000,1.4636,0.0720,-0.0101,1.330370687,-0.467973089,3.667525874,0.0949,0.0999,0.1108,0.0228,0.0240,0.0172,0.0188,0.0185,0.7998,ab000241,0*51a66de1
#INSPVAXA,FILE,0,36.5,FINESTEERING,2317,466187.650,02000000,46eb,17139;INS_SOLUTION_GOOD,INS_PPP,17.60147728639,78.12665012824,525.2213,-76.2000,1.5324,0.0741,-0.0077,1.334591960,-0.457024067,3.635238692,0.0949,0.0999,0.1108,0.0228,0.0240,0.0172,0.0188,0.0185,0.7998,ab000241,0*ae64b629
#INSPVAXA,FILE,0,36.5,FINESTEERING,2317,466187.700,02000000,46eb,17139;INS_SOLUTION_GOOD,INS_PPP,17.60147801140,78.12665016995,525.2199,-76.2000,1.6225,0.0758,-0.0288,1.336558486,-0.427777776,3.607731644,0.0949,0.0999,0.1108,0.0228,0.0240,0.0172,0.0188,0.0185,0.7998,ab000241,0*e1eb1b38
#INSPVAXA,FILE,0,36.5,FINESTEERING,2317,466187.750,02000000,46eb,17139;INS_SOLUTION_GOOD,INS_PPP,17.60147877868,78.12665021303,525.2177,-76.2000,1.7287,0.0809,-0.0495,1.336261750,-0.368494694,3.577950826,0.0949,0.0999,0.1108,0.0228,0.0240,0.0172,0.0188,0.0185,0.7998,ab000241,0*76387985
#INSPVAXA,FILE,0,36.5,FINESTEERING,2317,466187.800,02000000,46eb,17139;INS_SOLUTION_GOOD,INS_PPP,17.60147958957,78.12665025954,525.2151,-76.2000,1.8219,0.0896,-0.0510,1.335484684,-0.296168506,3.540618792,0.0949,0.0999,0.1108,0.0228,0.0240,0.0172,0.0188,0.0185,0.7998,ab000241,0*b95e8f0c
#INSPVAXA,FILE,0,36.5,FINESTEERING,2317,466187.850,02000000,46eb,17139;INS_SOLUTION_GOOD,INS_PPP,17.60148043855,78.12665030877,525.2132,-76.2000,1.8996,0.0955,-0.0280,1.332531744,-0.248873404,3.495913843,0.0949,0.0999,0.1108,0.0228,0.0240,0.0172,0.0188,0.0185,0.7998,ab000241,0*3519762b
#INSPVAXA,FILE,0,36.5,FINESTEERING,2317,466187.900,02000000,46eb,17139;INS_SOLUTION_GOOD,INS_PPP,17.60148131817,78.12665036057,525.2131,-76.2000,1.9528,0.0967,0.0155,1.326101185,-0.259600566,3.446387363,0.0949,0.0999,0.1108,0.0228,0.0240,0.0172,0.0188,0.0185,0.7998,ab000241,0*07c1fb04
#INSPVAXA,FILE,0,36.5,FINESTEERING,2317,466187.950,02000000,46eb,17139;INS_SOLUTION_GOOD,INS_PPP,17.60148221677,78.12665041178,525.2148,-76.2000,1.9863,0.0948,0.0518,1.304897146,-0.335344354,3.395681340,0.0949,0.0999,0.1108,0.0228,0.0240,0.0172,0.0188,0.0185,0.7998,ab000241,0*2c54b490
#INSPVAXA,FILE,0,36.5,FINESTEERING,2317,466188.000,02000000,46eb,17139;INS_SOLUTION_GOOD,INS_PPP,17.60148312739,78.12665046195,525.2181,-76.2000,2.0083,0.0927,0.0753,1.286719521,-0.453172250,3.342819917,0.0949,0.0999,0.1108,0.0228,0.0240,0.0172,0.0188,0.0185,0.7998,ab000241,0*a6c0e2c8
#INSPVAXA,FILE,0,36.5,FINESTEERING,2317,466188.050,02000000,46eb,17139;INS_SOLUTION_GOOD,INS_PPP,17.60148405049,78.12665050622,525.2218,-76.2000,2.0279,0.0925,0.0741,1.287175499,-0.585478806,3.289062264,0.0957,0.1010,0.1137,0.0223,0.0242,0.0177,0.0185,0.0183,0.7983,ab001241,0*afc4b8ee
#INSPVAXA,FILE,0,25.5,FINESTEERING,2317,466188.100,02000000,46eb,17139;INS_SOLUTION_GOOD,INS_PPP,17.60148499233,78.12665054533,525.2247,-76.2000,2.0568,0.0972,0.0528,1.298422208,-0.692672210,3.234854137,0.0957,0.1010,0.1137,0.0223,0.0242,0.0177,0.0185,0.0183,0.7983,ab001241,0*2570595f
#INSPVAXA,FILE,0,25.5,FINESTEERING,2317,466188.150,02000000,46eb,17139;INS_SOLUTION_GOOD,INS_PPP,17.60148595262,78.12665058544,525.2261,-76.2000,2.1037,0.0984,0.0112,1.323674523,-0.738248882,3.179707119,0.0957,0.1010,0.1137,0.0223,0.0242,0.0177,0.0185,0.0183,0.7983,ab001241,0*93d80a49
#INSPVAXA,FILE,0,25.5,FINESTEERING,2317,466188.200,02000000,46eb,17139;INS_SOLUTION_GOOD,INS_PPP,17.60148693496,78.12665062574,525.2252,-76.2000,2.1630,0.0961,-0.0355,1.350347638,-0.713824449,3.130097519,0.0957,0.1010,0.1137,0.0223,0.0242,0.0177,0.0185,0.0183,0.7983,ab001241,0*542914be
#INSPVAXA,FILE,0,25.5,FINESTEERING,2317,466188.250,02000000,46eb,17139;INS_SOLUTION_GOOD,INS_PPP,17.60148794692,78.12665066419,525.2224,-76.2000,2.2353,0.0910,-0.0671,1.373451579,-0.632207384,3.085910389,0.0957,0.1010,0.1137,0.0223,0.0242,0.0177,0.0185,0.0183,0.7983,ab001241,0*83bf3a05
#INSPVAXA,FILE,0,25.5,FINESTEERING,2317,466188.300,02000000,46eb,17139;INS_SOLUTION_GOOD,INS_PPP,17.60148899270,78.12665070230,525.2183,-76.2000,2.3140,0.0934,-0.0887,1.391073434,-0.509817517,3.039628001,0.0957,0.1010,0.1137,0.0223,0.0242,0.0177,0.0185,0.0183,0.7983,ab001241,0*8505e29b
#INSPVAXA,FILE,0,25.5,FINESTEERING,2317,466188.350,02000000,46eb,17139;INS_SOLUTION_GOOD,INS_PPP,17.60149007536,78.12665074170,525.2137,-76.2000,2.3979,0.0961,-0.0885,1.395957858,-0.379419150,2.985268671,0.0957,0.1010,0.1137,0.0223,0.0242,0.0177,0.0185,0.0183,0.7983,ab001241,0*f732d7a4
#INSPVAXA,FILE,0,25.5,FINESTEERING,2317,466188.400,02000000,46eb,17139;INS_SOLUTION_GOOD,INS_PPP,17.60149119625,78.12665078160,525.2096,-76.2000,2.4846,0.0951,-0.0714,1.386307540,-0.265676887,2.926719824,0.0957,0.1010,0.1137,0.0223,0.0242,0.0177,0.0185,0.0183,0.7983,ab001241,0*99a120f4
#INSPVAXA,FILE,0,25.5,FINESTEERING,2317,466188.450,02000000,46eb,17139;INS_SOLUTION_GOOD,INS_PPP,17.60149235561,78.12665081992,525.2063,-76.2000,2.5754,0.0881,-0.0490,1.363437220,-0.185623172,2.872573520,0.0957,0.1010,0.1137,0.0223,0.0242,0.0177,0.0185,0.0183,0.7983,ab001241,0*0e4202b8
#INSPVAXA,FILE,0,25.5,FINESTEERING,2317,466188.500,02000000,46eb,17139;INS_SOLUTION_GOOD,INS_PPP,17.60149355945,78.12665085577,525.2039,-76.2000,2.6684,0.0874,-0.0296,1.329384853,-0.146522700,2.824019003,0.0957,0.1010,0.1137,0.0223,0.0242,0.0177,0.0185,0.0183,0.7983,ab001241,0*03b3859b
#INSPVAXA,FILE,0,25.5,FINESTEERING,2317,466188.550,02000000,46eb,17139;INS_SOLUTION_GOOD,INS_PPP,17.60149480142,78.12665089286,525.2030,-76.2000,2.7548,0.0909,-0.0002,1.309504652,-0.134035015,2.771583901,0.0957,0.1010,0.1137,0.0223,0.0242,0.0177,0.0185,0.0183,0.7983,ab001241,0*e1ac225b
#INSPVAXA,FILE,0,25.5,FINESTEERING,2317,466188.600,02000000,46eb,17139;INS_SOLUTION_GOOD,INS_PPP,17.60149608119,78.12665093280,525.2032,-76.2000,2.8366,0.0981,0.0147,1.291743534,-0.145297930,2.713910393,0.0957,0.1010,0.1137,0.0223,0.0242,0.0177,0.0185,0.0183,0.7983,ab001241,0*4211ff1d
#INSPVAXA,FILE,0,25.5,FINESTEERING,2317,466188.650,02000000,46eb,17139;INS_SOLUTION_GOOD,INS_PPP,17.60149739773,78.12665097493,525.2042,-76.2000,2.9169,0.1006,0.0297,1.284939865,-0.172124245,2.650474825,0.0957,0.1010,0.1137,0.0223,0.0242,0.0177,0.0185,0.0183,0.7983,ab001241,0*e8f95e6d
#INSPVAXA,FILE,0,25.5,FINESTEERING,2317,466188.700,02000000,46eb,17139;INS_SOLUTION_GOOD,INS_PPP,17.60149875120,78.12665101733,525.2055,-76.2000,2.9995,0.1002,0.0305,1.284356785,-0.211876074,2.587270256,0.0957,0.1010,0.1137,0.0223,0.0242,0.0177,0.0185,0.0183,0.7983,ab001241,0*5b04084a
#INSPVAXA,FILE,0,25.5,FINESTEERING,2317,466188.750,02000000,46eb,17139;INS_SOLUTION_GOOD,INS_PPP,17.60150013928,78.12665106029,525.2065,-76.2000,3.0800,0.0994,0.0152,1.286487386,-0.244466166,2.519605416,0.0957,0.1010,0.1137,0.0223,0.0242,0.0177,0.0185,0.0183,0.7983,ab001241,0*08628be9
#INSPVAXA,FILE,0,25.5,FINESTEERING,2317,466188.800,02000000,46eb,17139;INS_SOLUTION_GOOD,INS_PPP,17.60150156788,78.12665110226,525.2067,-76.2000,3.1658,0.0992,-0.0061,1.304498596,-0.256109049,2.453578065,0.0957,0.1010,0.1137,0.0223,0.0242,0.0177,0.0185,0.0183,0.7983,ab001241,0*1578be9d
#INSPVAXA,FILE,0,25.5,FINESTEERING,2317,466188.850,02000000,46eb,17139;INS_SOLUTION_GOOD,INS_PPP,17.60150303409,78.12665114411,525.2054,-76.2000,3.2553,0.0966,-0.0353,1.297148836,-0.232013144,2.390509750,0.0957,0.1010,0.1137,0.0223,0.0242,0.0177,0.0185,0.0183,0.7983,ab001241,0*ac97f0cf
#INSPVAXA,FILE,0,25.5,FINESTEERING,2317,466188.900,02000000,46eb,17139;INS_SOLUTION_GOOD,INS_PPP,17.60150454022,78.12665118372,525.2031,-76.2000,3.3483,0.0895,-0.0535,1.281308488,-0.175554525,2.331894210,0.0957,0.1010,0.1137,0.0223,0.0242,0.0177,0.0185,0.0183,0.7983,ab001241,0*e06e4f3a
#INSPVAXA,FILE,0,25.5,FINESTEERING,2317,466188.950,02000000,46eb,17139;INS_SOLUTION_GOOD,INS_PPP,17.60150609138,78.12665121876,525.2002,-76.2000,3.4418,0.0822,-0.0539,1.255237697,-0.110188089,2.273526723,0.0957,0.1010,0.1137,0.0223,0.0242,0.0177,0.0185,0.0183,0.7983,ab001241,0*9258c9b1
#INSPVAXA,FILE,0,25.5,FINESTEERING,2317,466189.000,02000000,46eb,17139;INS_SOLUTION_GOOD,INS_PPP,17.60150768187,78.12665125428,525.1976,-76.2000,3.5306,0.0870,-0.0406,1.231058674,-0.054118989,2.208701335,0.0957,0.1010,0.1137,0.0223,0.0242,0.0177,0.0185,0.0183,0.7983,ab001241,0*40ad155f
#INSPVAXA,FILE,0,25.5,FINEBACKUPSTEERING,2317,466189.050,02000000,46eb,17139;INS_SOLUTION_GOOD,INS_PPP,17.60150930726,78.12665128826,525.1962,-76.2000,3.6181,0.0930,-0.0160,1.201475738,-0.013316262,2.137648227,0.0961,0.1018,0.1168,0.0220,0.0250,0.0180,0.0189,0.0187,0.7968,ab001241,0*664120e9
#INSPVAXA,FILE,0,25.5,FINEBACKUPSTEERING,2317,466189.100,02000000,46eb,17139;INS_SOLUTION_GOOD,INS_PPP,17.60151096546,78.12665131543,525.1953,-76.2000,3.7027,0.0862,-0.0159,1.158944665,-0.001073797,2.062261487,0.0961,0.1018,0.1168,0.0220,0.0250,0.0180,0.0189,0.0187,0.7968,ab001241,0*b1de8054
#INSPVAXA,FILE,0,31.0,FINEBACKUPSTEERING,2317,466189.150,02000000,46eb,17139;INS_SOLUTION_GOOD,INS_PPP,17.60151265939,78.12665133829,525.1953,-76.2000,3.7766,0.0802,0.0081,1.152928330,0.002012100,1.989542492,0.0961,0.1018,0.1168,0.0220,0.0250,0.0180,0.0189,0.0187,0.7968,ab001241,0*bae7029a
#INSPVAXA,FILE,0,31.0,FINEBACKUPSTEERING,2317,466189.200,02000000,46eb,17139;INS_SOLUTION_GOOD,INS_PPP,17.60151438512,78.12665136335,525.1958,-76.2000,3.8459,0.0820,0.0162,1.140596761,-0.006720658,1.914655145,0.0961,0.1018,0.1168,0.0220,0.0250,0.0180,0.0189,0.0187,0.7968,ab001241,0*bc93cb64
#INSPVAXA,FILE,0,31.0,FINEBACKUPSTEERING,2317,466189.250,02000000,46eb,17139;INS_SOLUTION_GOOD,INS_PPP,17.60151614177,78.12665138573,525.1968,-76.2000,3.9107,0.0812,0.0265,1.134414496,-0.027497934,1.838346580,0.0961,0.1018,0.1168,0.0220,0.0250,0.0180,0.0189,0.0187,0.7968,ab001241,0*3de90889
#INSPVAXA,FILE,0,31.0,FINEBACKUPSTEERING,2317,466189.300,02000000,46eb,17139;INS_SOLUTION_GOOD,INS_PPP,17.60151792675,78.12665140916,525.1977,-76.2000,3.9727,0.0786,0.0241,1.116185866,-0.060411952,1.751522422,0.0961,0.1018,0.1168,0.0220,0.0250,0.0180,0.0189,0.0187,0.7968,ab001241,0*93fbff1f
#INSPVAXA,FILE,0,31.0,FINEBACKUPSTEERING,2317,466189.350,02000000,46eb,17139;INS_SOLUTION_GOOD,INS_PPP,17.60151974000,78.12665143101,525.1986,-76.2000,4.0377,0.0729,0.0119,1.110560002,-0.074916389,1.664365303,0.0961,0.1018,0.1168,0.0220,0.0250,0.0180,0.0189,0.0187,0.7968,ab001241,0*23ab0308
#INSPVAXA,FILE,0,31.0,FINEBACKUPSTEERING,2317,466189.400,02000000,46eb,17139;INS_SOLUTION_GOOD,INS_PPP,17.60152158526,78.12665144850,525.1989,-76.2000,4.1122,0.0641,-0.0026,1.100388863,-0.059878631,1.579950780,0.0961,0.1018,0.1168,0.0220,0.0250,0.0180,0.0189,0.0187,0.7968,ab001241,0*ebda2874
#INSPVAXA,FILE,0,31.0,FINEBACKUPSTEERING,2317,466189.450,02000000,46eb,17139;INS_SOLUTION_GOOD,INS_PPP,17.60152346499,78.12665146120,525.1984,-76.2000,4.1888,0.0559,-0.0114,1.097619206,-0.032441329,1.498580536,0.0961,0.1018,0.1168,0.0220,0.0250,0.0180,0.0189,0.0187,0.7968,ab001241,0*e252548e
#INSPVAXA,FILE,0,31.0,FINEBACKUPSTEERING,2317,466189.500,02000000,46eb,17139;INS_SOLUTION_GOOD,INS_PPP,17.60152537914,78.12665147425,525.1975,-76.2000,4.2665,0.0537,-0.0253,1.100908779,-0.002545322,1.416060458,0.0961,0.1018,0.1168,0.0220,0.0250,0.0180,0.0189,0.0187,0.7968,ab001241,0*115ebf16
#INSPVAXA,FILE,0,31.0,FINEBACKUPSTEERING,2317,466189.550,02000000,46eb,17139;INS_SOLUTION_GOOD,INS_PPP,17.60152732892,78.12665148230,525.1967,-76.2000,4.3451,0.0444,-0.0161,1.083972090,0.036439021,1.325524107,0.0961,0.1018,0.1168,0.0220,0.0250,0.0180,0.0189,0.0187,0.7968,ab001241,0*f428e83a
#INSPVAXA,FILE,0,31.0,FINEBACKUPSTEERING,2317,466189.600,02000000,46eb,17139;INS_SOLUTION_GOOD,INS_PPP,17.60152931141,78.12665148831,525.1961,-76.2000,4.4149,0.0406,-0.0044,1.092557964,0.067275650,1.226742125,0.0961,0.1018,0.1168,0.0220,0.0250,0.0180,0.0189,0.0187,0.7968,ab001241,0*e72373e4
#INSPVAXA,FILE,0,31.0,FINEBACKUPSTEERING,2317,466189.650,02000000,46eb,17139;INS_SOLUTION_GOOD,INS_PPP,17.60153132210,78.12665149577,525.1961,-76.2000,4.4698,0.0405,0.0079,1.105018811,0.099732702,1.117168692,0.0961,0.1018,0.1168,0.0220,0.0250,0.0180,0.0189,0.0187,0.7968,ab001241,0*28f189fa
#INSPVAXA,FILE,0,31.0,FINEBACKUPSTEERING,2317,466189.700,02000000,46eb,17139;INS_SOLUTION_GOOD,INS_PPP,17.60153336164,78.12665149863,525.1965,-76.2000,4.5348,0.0332,0.0156,1.134325843,0.169773074,1.011411835,0.0961,0.1018,0.1168,0.0220,0.0250,0.0180,0.0189,0.0187,0.7968,ab001241,0*74ff7081
#INSPVAXA,FILE,0,31.0,FINEBACKUPSTEERING,2317,466189.750,02000000,46eb,17139;INS_SOLUTION_GOOD,INS_PPP,17.60153542661,78.12665149902,525.1974,-76.2000,4.5861,0.0233,0.0251,1.132151771,0.209956862,0.907677918,0.0961,0.1018,0.1168,0.0220,0.0250,0.0180,0.0189,0.0187,0.7968,ab001241,0*87b56d84
#INSPVAXA,FILE,0,31.0,FINEBACKUPSTEERING,2317,466189.800,02000000,46eb,17139;INS_SOLUTION_GOOD,INS_PPP,17.60153751639,78.12665149254,525.1988,-76.2000,4.6454,0.0048,0.0300,1.104552659,0.236999331,0.804816758,0.0961,0.1018,0.1168,0.0220,0.0250,0.0180,0.0189,0.0187,0.7968,ab001241,0*a82c97bb
#INSPVAXA,FILE,0,31.0,FINEBACKUPSTEERING,2317,466189.850,02000000,46eb,17139;INS_SOLUTION_GOOD,INS_PPP,17.60153963220,78.12665148055,525.2001,-76.2000,4.7056,-0.0087,0.0105,1.094538515,0.259421310,0.706454418,0.0961,0.1018,0.1168,0.0220,0.0250,0.0180,0.0189,0.0187,0.7968,ab001241,0*1c6e5e49
#INSPVAXA,FILE,0,31.0,FINEBACKUPSTEERING,2317,466189.900,02000000,46eb,17139;INS_SOLUTION_GOOD,INS_PPP,17.60154177746,78.12665146100,525.2011,-76.2000,4.7700,-0.0185,0.0205,1.053357018,0.245306379,0.616095969,0.0961,0.1018,0.1168,0.0220,0.0250,0.0180,0.0189,0.0187,0.7968,ab001241,0*0e150fa7
#INSPVAXA,FILE,0,31.0,FINEBACKUPSTEERING,2317,466189.950,02000000,46eb,17139;INS_SOLUTION_GOOD,INS_PPP,17.60154395219,78.12665143853,525.2023,-76.2000,4.8425,-0.0282,0.0195,1.017786823,0.236902010,0.544248379,0.0961,0.1018,0.1168,0.0220,0.0250,0.0180,0.0189,0.0187,0.7968,ab001241,0*3377b3dc
#INSPVAXA,FILE,0,31.0,FINEBACKUPSTEERING,2317,466190.000,02000000,46eb,17139;INS_SOLUTION_GOOD,INS_PPP,17.60154615951,78.12665141363,525.2026,-76.2000,4.9143,-0.0264,-0.0079,1.018570481,0.237889898,0.482228798,0.0961,0.1018,0.1168,0.0220,0.0250,0.0180,0.0189,0.0187,0.7968,ab001241,0*6f03c1c0
#INSPVAXA,FILE,0,31.0,FINEBACKUPSTEERING,2317,466190.050,02000000,46eb,17139;INS_SOLUTION_GOOD,INS_PPP,17.60154839969,78.12665138332,525.2020,-76.2000,4.9788,-0.0260,-0.0144,1.037103915,0.252362465,0.423857650,0.0960,0.1021,0.1196,0.0217,0.0258,0.0183,0.0195,0.0193,0.7953,ab001241,0*c21541fe
#INSPVAXA,FILE,0,31.0,FINEBACKUPSTEERING,2317,466190.100,02000000,46eb,17139;INS_SOLUTION_GOOD,INS_PPP,17.60155066805,78.12665134825,525.2019,-76.2000,5.0374,-0.0321,-0.0024,1.080022403,0.293440870,0.376713764,0.0960,0.1021,0.1196,0.0217,0.0258,0.0183,0.0195,0.0193,0.7953,ab001241,0*80e83b30
#INSPVAXA,FILE,0,31.0,FINEBACKUPSTEERING,2317,466190.150,02000000,46eb,17139;INS_SOLUTION_GOOD,INS_PPP,17.60155295977,78.12665131493,525.2028,-76.2000,5.0859,-0.0309,0.0360,1.115818537,0.298492700,0.326347861,0.0960,0.1021,0.1196,0.0217,0.0258,0.0183,0.0195,0.0193,0.7953,ab001241,0*5c7c0540
#INSPVAXA,FILE,0,31.0,FINEBACKUPSTEERING,2317,466190.200,02000000,46eb,17139;INS_SOLUTION_GOOD,INS_PPP,17.60155527074,78.12665127999,525.2079,-76.2000,5.1275,-0.0234,0.1535,1.187386728,0.202695915,0.271774350,0.0960,0.1021,0.1196,0.0217,0.0258,0.0183,0.0195,0.0193,0.7953,ab001241,0*1ce3024b
#INSPVAXA,FILE,0,31.0,FINEBACKUPSTEERING,2317,466190.250,02000000,46eb,17139;INS_SOLUTION_GOOD,INS_PPP,17.60155760545,78.12665124546,525.2130,-76.2000,5.1856,-0.0343,0.0819,1.271143987,0.066917821,0.228182535,0.0960,0.1021,0.1196,0.0217,0.0258,0.0183,0.0195,0.0193,0.7953,ab001241,0*54948800
#INSPVAXA,FILE,0,31.0,FINEBACKUPSTEERING,2317,466190.300,02000000,46eb,17139;INS_SOLUTION_GOOD,INS_PPP,17.60155996684,78.12665120312,525.2179,-76.2000,5.2464,-0.0566,0.0842,1.323221469,-0.005151208,0.213088343,0.0960,0.1021,0.1196,0.0217,0.0258,0.0183,0.0195,0.0193,0.7953,ab001241,0*39a9548f
#INSPVAXA,FILE,0,31.0,FINEBACKUPSTEERING,2317,466190.350,02000000,46eb,17139;INS_SOLUTION_GOOD,INS_PPP,17.60156235668,78.12665115566,525.2212,-76.2000,5.3110,-0.0598,0.0375,1.392824852,-0.050185744,0.206362401,0.0960,0.1021,0.1196,0.0217,0.0258,0.0183,0.0195,0.0193,0.7953,ab001241,0*2b5f806e
#INSPVAXA,FILE,0,31.0,FINEBACKUPSTEERING,2317,466190.400,02000000,46eb,17139;INS_SOLUTION_GOOD,INS_PPP,17.60156477178,78.12665111051,525.2229,-76.2000,5.3585,-0.0492,0.0174,1.433877029,-0.047330506,0.183315846,0.0960,0.1021,0.1196,0.0217,0.0258,0.0183,0.0195,0.0193,0.7953,ab001241,0*796630d4
#INSPVAXA,FILE,0,31.0,FINEBACKUPSTEERING,2317,466190.450,02000000,46eb,17139;INS_SOLUTION_GOOD,INS_PPP,17.60156719417,78.12665107257,525.2243,-76.2000,5.3481,-0.0366,0.0396,1.457293516,-0.046577303,0.136448039,0.0960,0.1021,0.1196,0.0217,0.0258,0.0183,0.0195,0.0193,0.7953,ab001241,0*00718613
#INSPVAXA,FILE,0,31.0,FINEBACKUPSTEERING,2317,466190.500,02000000,46eb,17139;INS_SOLUTION_GOOD,INS_PPP,17.60156961222,78.12665103100,525.2272,-76.2000,5.3325,-0.0449,0.0579,1.485272181,-0.058267998,0.082909745,0.0960,0.1021,0.1196,0.0217,0.0258,0.0183,0.0195,0.0193,0.7953,ab001241,0*ce590fdd
#INSPVAXA,FILE,0,31.0,FINEBACKUPSTEERING,2317,466190.550,02000000,46eb,17139;INS_SOLUTION_GOOD,INS_PPP,17.60157202372,78.12665098658,525.2308,-76.2000,5.3247,-0.0611,0.0846,1.473472125,-0.112347297,0.027166524,0.0960,0.1021,0.1196,0.0217,0.0258,0.0183,0.0195,0.0193,0.7953,ab001241,0*51e490f1
#INSPVAXA,FILE,0,31.0,FINEBACKUPSTEERING,2317,466190.600,02000000,46eb,17139;INS_SOLUTION_GOOD,INS_PPP,17.60157443185,78.12665093394,525.2348,-76.2000,5.3165,-0.0794,0.0814,1.475044613,-0.190296475,359.993012967,0.0960,0.1021,0.1196,0.0217,0.0258,0.0183,0.0195,0.0193,0.7953,ab001241,0*599802c1
#INSPVAXA,FILE,0,31.0,FINEBACKUPSTEERING,2317,466190.650,02000000,46eb,17139;INS_SOLUTION_GOOD,INS_PPP,17.60157683856,78.12665087675,525.2377,-76.2000,5.3168,-0.0820,0.0342,1.508145142,-0.227772711,359.965009079,0.0960,0.1021,0.1196,0.0217,0.0258,0.0183,0.0195,0.0193,0.7953,ab001241,0*6b9dae7b
#INSPVAXA,FILE,0,31.0,FINEBACKUPSTEERING,2317,466190.700,02000000,46eb,17139;INS_SOLUTION_GOOD,INS_PPP,17.60157924181,78.12665082365,525.2390,-76.2000,5.3071,-0.0682,0.0143,1.522923424,-0.229077186,359.934054114,0.0960,0.1021,0.1196,0.0217,0.0258,0.0183,0.0195,0.0193,0.7953,ab001241,0*788c8b0a
#INSPVAXA,FILE,0,31.0,FINEBACKUPSTEERING,2317,466190.750,02000000,46eb,17139;INS_SOLUTION_GOOD,INS_PPP,17.60158164075,78.12665077407,525.2398,-76.2000,5.2971,-0.0711,0.0129,1.552867152,-0.204561414,359.892381432,0.0960,0.1021,0.1196,0.0217,0.0258,0.0183,0.0195,0.0193,0.7953,ab001241,0*7c21516a
#INSPVAXA,FILE,0,31.0,FINEBACKUPSTEERING,2317,466190.800,02000000,46eb,17139;INS_SOLUTION_GOOD,INS_PPP,17.60158403754,78.12665071863,525.2397,-76.2000,5.2920,-0.0815,-0.0029,1.571373843,-0.169352802,359.851734129,0.0960,0.1021,0.1196,0.0217,0.0258,0.0183,0.0195,0.0193,0.7953,ab001241,0*9d793094
#INSPVAXA,FILE,0,31.0,FINEBACKUPSTEERING,2317,466190.850,02000000,46eb,17139;INS_SOLUTION_GOOD,INS_PPP,17.60158642995,78.12665066078,525.2396,-76.2000,5.2832,-0.0875,0.0019,1.608821531,-0.131384397,359.816274083,0.0960,0.1021,0.1196,0.0217,0.0258,0.0183,0.0195,0.0193,0.7953,ab001241,0*4572c58a
#INSPVAXA,FILE,0,31.0,FINEBACKUPSTEERING,2317,466190.900,02000000,46eb,17139;INS_SOLUTION_GOOD,INS_PPP,17.60158881706,78.12665060362,525.2408,-76.2000,5.2683,-0.0874,0.0471,1.613793980,-0.120623911,359.778490176,0.0960,0.1021,0.1196,0.0217,0.0258,0.0183,0.0195,0.0193,0.7953,ab001241,0*edf1a775
#INSPVAXA,FILE,0,31.0,FINEBACKUPSTEERING,2317,466190.950,02000000,46eb,17139;INS_SOLUTION_GOOD,INS_PPP,17.60159119952,78.12665053925,525.2435,-76.2000,5.2588,-0.1026,0.0732,1.591156217,-0.141689970,359.742480839,0.0960,0.1021,0.1196,0.0217,0.0258,0.0183,0.0195,0.0193,0.7953,ab001241,0*a138ee4c
#INSPVAXA,FILE,0,31.0,FINEBACKUPSTEERING,2317,466191.000,02000000,46eb,17139;INS_SOLUTION_GOOD,INS_PPP,17.60159357649,78.12665047107,525.2469,-76.2000,5.2494,-0.1144,0.0742,1.563216966,-0.172968317,359.715448496,0.0960,0.1021,0.1196,0.0217,0.0258,0.0183,0.0195,0.0193,0.7953,ab001241,0*1874d04a
#INSPVAXA,FILE,0,31.0,FINEBACKUPSTEERING,2317,466191.050,02000000,46eb,17139;INS_SOLUTION_GOOD,INS_PPP,17.60159594912,78.12665039833,525.2501,-76.2000,5.2385,-0.1142,0.0739,1.529213467,-0.215280941,359.689989690,0.0958,0.1026,0.1221,0.0213,0.0251,0.0183,0.0202,0.0200,0.7938,ab001241,0*5a23e41d
#INSPVAXA,FILE,0,26.5,FINEBACKUPSTEERING,2317,466191.100,02000000,46eb,17139;INS_SOLUTION_GOOD,INS_PPP,17.60159831702,78.12665032319,525.2531,-76.2000,5.2290,-0.1050,0.0817,1.496316722,-0.245879594,359.654568389,0.0958,0.1026,0.1221,0.0213,0.0251,0.0183,0.0202,0.0200,0.7938,ab001241,0*b6a69010
#INSPVAXA,FILE,0,26.5,FINEBACKUPSTEERING,2317,466191.150,02000000,46eb,17139;INS_SOLUTION_GOOD,INS_PPP,17.60160068063,78.12665024672,525.2556,-76.2000,5.2218,-0.1117,0.0569,1.458517661,-0.261815554,359.610949176,0.0958,0.1026,0.1221,0.0213,0.0251,0.0183,0.0202,0.0200,0.7938,ab001241,0*0021659c
#INSPVAXA,FILE,0,26.5,FINEBACKUPSTEERING,2317,466191.200,02000000,46eb,17139;INS_SOLUTION_GOOD,INS_PPP,17.60160303937,78.12665017146,525.2577,-76.2000,5.2103,-0.1160,0.0490,1.449245788,-0.269477669,359.568557539,0.0958,0.1026,0.1221,0.0213,0.0251,0.0183,0.0202,0.0200,0.7938,ab001241,0*74d3e30b
#INSPVAXA,FILE,0,26.5,FINEBACKUPSTEERING,2317,466191.250,02000000,46eb,17139;INS_SOLUTION_GOOD,INS_PPP,17.60160539463,78.12665008903,525.2588,-76.2000,5.2005,-0.1243,0.0272,1.410431655,-0.259978043,359.532871506,0.0958,0.1026,0.1221,0.0213,0.0251,0.0183,0.0202,0.0200,0.7938,ab001241,0*98324329
#INSPVAXA,FILE,0,26.5,FINEBACKUPSTEERING,2317,466191.300,02000000,46eb,17139;INS_SOLUTION_GOOD,INS_PPP,17.60160774536,78.12665000625,525.2594,-76.2000,5.1917,-0.1287,0.0226,1.358269183,-0.235502279,359.499258452,0.0958,0.1026,0.1221,0.0213,0.0251,0.0183,0.0202,0.0200,0.7938,ab001241,0*25a72a26
#INSPVAXA,FILE,0,26.5,FINEBACKUPSTEERING,2317,466191.350,02000000,46eb,17139;INS_SOLUTION_GOOD,INS_PPP,17.60161009043,78.12664992153,525.2600,-76.2000,5.1794,-0.1372,0.0148,1.308259151,-0.200132871,359.462201222,0.0958,0.1026,0.1221,0.0213,0.0251,0.0183,0.0202,0.0200,0.7938,ab001241,0*1f4e2952
#INSPVAXA,FILE,0,26.5,FINEBACKUPSTEERING,2317,466191.400,02000000,46eb,17139;INS_SOLUTION_GOOD,INS_PPP,17.60161242991,78.12664983395,525.2607,-76.2000,5.1664,-0.1395,0.0246,1.298179779,-0.156606226,359.432508660,0.0958,0.1026,0.1221,0.0213,0.0251,0.0183,0.0202,0.0200,0.7938,ab001241,0*8dfbd9b6
#INSPVAXA,FILE,0,26.5,FINEBACKUPSTEERING,2317,466191.450,02000000,46eb,17139;INS_SOLUTION_GOOD,INS_PPP,17.60161476040,78.12664974763,525.2622,-76.2000,5.1384,-0.1364,0.0497,1.238879932,-0.149966642,359.405666021,0.0958,0.1026,0.1221,0.0213,0.0251,0.0183,0.0202,0.0200,0.7938,ab001241,0*3581a063
#INSPVAXA,FILE,0,26.5,FINEBACKUPSTEERING,2317,466191.500,02000000,46eb,17139;INS_SOLUTION_GOOD,INS_PPP,17.60161707624,78.12664965935,525.2645,-76.2000,5.1002,-0.1437,0.0672,1.198287171,-0.171417097,359.392141437,0.0958,0.1026,0.1221,0.0213,0.0251,0.0183,0.0202,0.0200,0.7938,ab001241,0*82e89a22
#INSPVAXA,FILE,0,26.5,FINEBACKUPSTEERING,2317,466191.550,02000000,46eb,17139;INS_SOLUTION_GOOD,INS_PPP,17.60161937812,78.12664957029,525.2670,-76.2000,5.0761,-0.1403,0.0620,1.198091802,-0.188137682,359.392227152,0.0958,0.1026,0.1221,0.0213,0.0251,0.0183,0.0202,0.0200,0.7938,ab001241,0*0be8e749
#INSPVAXA,FILE,0,26.5,FINEBACKUPSTEERING,2317,466191.600,02000000,46eb,17139;INS_SOLUTION_GOOD,INS_PPP,17.60162167284,78.12664948128,525.2688,-76.2000,5.0641,-0.1439,0.0438,1.185929933,-0.197263938,359.401876718,0.0958,0.1026,0.1221,0.0213,0.0251,0.0183,0.0202,0.0200,0.7938,ab001241,0*76965acd
#INSPVAXA,FILE,0,26.5,FINEBACKUPSTEERING,2317,466191.650,02000000,46eb,17139;INS_SOLUTION_GOOD,INS_PPP,17.60162396375,78.12664939406,525.2697,-76.2000,5.0573,-0.1347,0.0184,1.223787728,-0.153905357,359.410584748,0.0958,0.1026,0.1221,0.0213,0.0251,0.0183,0.0202,0.0200,0.7938,ab001241,0*f155a6c9
#INSPVAXA,FILE,0,26.5,FINEBACKUPSTEERING,2317,466191.700,02000000,46eb,17139;INS_SOLUTION_GOOD,INS_PPP,17.60162625814,78.12664930862,525.2692,-76.2000,5.0870,-0.1350,-0.0109,1.250422230,-0.047739751,359.421702887,0.0958,0.1026,0.1221,0.0213,0.0251,0.0183,0.0202,0.0200,0.7938,ab001241,0*10c6a425
#INSPVAXA,FILE,0,26.5,FINEBACKUPSTEERING,2317,466191.750,02000000,46eb,17139;INS_SOLUTION_GOOD,INS_PPP,17.60162857324,78.12664922052,525.2671,-76.2000,5.1499,-0.1465,-0.0413,1.240288726,0.110270379,359.441395590,0.0958,0.1026,0.1221,0.0213,0.0251,0.0183,0.0202,0.0200,0.7938,ab001241,0*24db4c55
#INSPVAXA,FILE,0,26.5,FINEBACKUPSTEERING,2317,466191.800,02000000,46eb,17139;INS_SOLUTION_GOOD,INS_PPP,17.60163092048,78.12664912591,525.2637,-76.2000,5.2192,-0.1614,-0.0632,1.189794656,0.279002583,359.478374078,0.0958,0.1026,0.1221,0.0213,0.0251,0.0183,0.0202,0.0200,0.7938,ab001241,0*9c5dad78
#INSPVAXA,FILE,0,26.5,FINEBACKUPSTEERING,2317,466191.850,02000000,46eb,17139;INS_SOLUTION_GOOD,INS_PPP,17.60163328942,78.12664903305,525.2616,-76.2000,5.2566,-0.1513,-0.0096,1.182439632,0.447998241,359.503624270,0.0958,0.1026,0.1221,0.0213,0.0251,0.0183,0.0202,0.0200,0.7938,ab001241,0*5fb81619
#INSPVAXA,FILE,0,26.5,FINEBACKUPSTEERING,2317,466191.900,02000000,46eb,17139;INS_SOLUTION_GOOD,INS_PPP,17.60163566896,78.12664894698,525.2620,-76.2000,5.2638,-0.1256,0.0504,1.154463648,0.536902466,359.499569067,0.0958,0.1026,0.1221,0.0213,0.0251,0.0183,0.0202,0.0200,0.7938,ab001241,0*a1564168
#INSPVAXA,FILE,0,26.5,FINEBACKUPSTEERING,2317,466191.950,02000000,46eb,17139;INS_SOLUTION_GOOD,INS_PPP,17.60163805502,78.12664886438,525.2646,-76.2000,5.2849,-0.1343,0.0871,1.113328217,0.527166787,359.489877965,0.0958,0.1026,0.1221,0.0213,0.0251,0.0183,0.0202,0.0200,0.7938,ab001241,0*fc731b6d
#INSPVAXA,FILE,0,26.5,FINEBACKUPSTEERING,2317,466192.000,02000000,46eb,17139;INS_SOLUTION_GOOD,INS_PPP,17.60164045315,78.12664877891,525.2689,-76.2000,5.3221,-0.1422,0.1035,1.081938410,0.474206703,359.483140730,0.0958,0.1026,0.1221,0.0213,0.0251,0.0183,0.0202,0.0200,0.7938,ab001241,0*6862314f
#INSPVAXA,FILE,0,26.5,FINEBACKUPSTEERING,2317,466192.050,02000000,46eb,17139;INS_SOLUTION_GOOD,INS_PPP,17.60164287456,78.12664868666,525.2734,-76.2000,5.3721,-0.1543,0.0954,1.081571971,0.403582048,359.492016375,0.0955,0.1029,0.1243,0.0210,0.0239,0.0183,0.0209,0.0208,0.7922,ab000241,0*98894cd4
#INSPVAXA,FILE,0,26.5,FINEBACKUPSTEERING,2317,466192.100,02000000,46eb,17139;INS_SOLUTION_GOOD,INS_PPP,17.60164532018,78.12664859553,525.2774,-76.2000,5.4243,-0.1479,0.0830,1.080630745,0.344495462,359.500721028,0.0955,0.1029,0.1243,0.0210,0.0239,0.0183,0.0209,0.0208,0.7922,ab000241,0*546bd536
#INSPVAXA,FILE,0,35.0,FINEBACKUPSTEERING,2317,466192.150,02000000,46eb,17139;INS_SOLUTION_GOOD,INS_PPP,17.60164778716,78.12664851118,525.2811,-76.2000,5.4710,-0.1327,0.0620,1.099017866,0.303198957,359.511900813,0.0955,0.1029,0.1243,0.0210,0.0239,0.0183,0.0209,0.0208,0.7922,ab000241,0*714cfec8
#INSPVAXA,FILE,0,35.0,FINEBACKUPSTEERING,2317,466192.200,02000000,46eb,17139;INS_SOLUTION_GOOD,INS_PPP,17.60165027543,78.12664842613,525.2847,-76.2000,5.5134,-0.1323,0.0598,1.124871013,0.290390792,359.514686192,0.0955,0.1029,0.1243,0.0210,0.0239,0.0183,0.0209,0.0208,0.7922,ab000241,0*a802c48f
#INSPVAXA,FILE,0,35.0,FINEBACKUPSTEERING,2317,466192.250,02000000,46eb,17139;INS_SOLUTION_GOOD,INS_PPP,17.60165278322,78.12664834038,525.2877,-76.2000,5.5584,-0.1498,0.0330,1.105100503,0.281611104,359.517820330,0.0955,0.1029,0.1243,0.0210,0.0239,0.0183,0.0209,0.0208,0.7922,ab000241,0*bfdd1fc1
#INSPVAXA,FILE,0,35.0,FINEBACKUPSTEERING,2317,466192.300,02000000,46eb,17139;INS_SOLUTION_GOOD,INS_PPP,17.60165531043,78.12664825210,525.2911,-76.2000,5.6029,-0.1525,0.0563,1.088229153,0.269246492,359.523552325,0.0955,0.1029,0.1243,0.0210,0.0239,0.0183,0.0209,0.0208,0.7922,ab000241,0*53a4dfd2
#INSPVAXA,FILE,0,35.0,FINEBACKUPSTEERING,2317,466192.350,02000000,46eb,17139;INS_SOLUTION_GOOD,INS_PPP,17.60165785928,78.12664815918,525.2945,-76.2000,5.6524,-0.1534,0.0492,1.063216270,0.231248980,359.519845063,0.0955,0.1029,0.1243,0.0210,0.0239,0.0183,0.0209,0.0208,0.7922,ab000241,0*5d5d5ae5
#INSPVAXA,FILE,0,35.0,FINEBACKUPSTEERING,2317,466192.400,02000000,46eb,17139;INS_SOLUTION_GOOD,INS_PPP,17.60166043152,78.12664806751,525.2971,-76.2000,5.7046,-0.1547,0.0355,1.056427688,0.239056520,359.525041275,0.0955,0.1029,0.1243,0.0210,0.0239,0.0183,0.0209,0.0208,0.7922,ab000241,0*8ce3e885
#INSPVAXA,FILE,0,35.0,FINEBACKUPSTEERING,2317,466192.450,02000000,46eb,17139;INS_SOLUTION_GOOD,INS_PPP,17.60166302857,78.12664797690,525.2986,-76.2000,5.7626,-0.1586,0.0166,1.003224631,0.288209026,359.538177923,0.0955,0.1029,0.1243,0.0210,0.0239,0.0183,0.0209,0.0208,0.7922,ab000241,0*0cbad8f1
#INSPVAXA,FILE,0,35.0,FINEBACKUPSTEERING,2317,466192.500,02000000,46eb,17139;INS_SOLUTION_GOOD,INS_PPP,17.60166565055,78.12664788046,525.3005,-76.2000,5.8148,-0.1625,0.0151,0.998053906,0.366135557,359.557678661,0.0955,0.1029,0.1243,0.0210,0.0239,0.0183,0.0209,0.0208,0.7922,ab000241,0*167df77b
#INSPVAXA,FILE,0,35.0,FINEBACKUPSTEERING,2317,466192.550,02000000,46eb,17139;INS_SOLUTION_GOOD,INS_PPP,17.60166829531,78.12664779014,525.3029,-76.2000,5.8661,-0.1438,0.0420,1.016486829,0.412151040,359.562166451,0.0955,0.1029,0.1243,0.0210,0.0239,0.0183,0.0209,0.0208,0.7922,ab000241,0*ee3b99c9
#INSPVAXA,FILE,0,35.0,FINEBACKUPSTEERING,2317,466192.600,02000000,46eb,17139;INS_SOLUTION_GOOD,INS_PPP,17.60167096270,78.12664770815,525.3058,-76.2000,5.9175,-0.1355,0.0519,1.020213518,0.393902017,359.557531853,0.0955,0.1029,0.1243,0.0210,0.0239,0.0183,0.0209,0.0208,0.7922,ab000241,0*003b7c51
#INSPVAXA,FILE,0,35.0,FINEBACKUPSTEERING,2317,466192.650,02000000,46eb,17139;INS_SOLUTION_GOOD,INS_PPP,17.60167365687,78.12664761946,525.3089,-76.2000,5.9812,-0.1526,0.0252,1.037006949,0.342210350,359.555140662,0.0955,0.1029,0.1243,0.0210,0.0239,0.0183,0.0209,0.0208,0.7922,ab000241,0*5f941f13
#INSPVAXA,FILE,0,35.0,FINEBACKUPSTEERING,2317,466192.700,02000000,46eb,17139;INS_SOLUTION_GOOD,INS_PPP,17.60167637916,78.12664752683,525.3114,-76.2000,6.0473,-0.1635,0.0166,1.069366760,0.330496352,359.574237596,0.0955,0.1029,0.1243,0.0210,0.0239,0.0183,0.0209,0.0208,0.7922,ab000241,0*d927e591
#INSPVAXA,FILE,0,35.0,FINEBACKUPSTEERING,2317,466192.750,02000000,46eb,17139;INS_SOLUTION_GOOD,INS_PPP,17.60167912939,78.12664743238,525.3129,-76.2000,6.1056,-0.1666,0.0181,1.074456358,0.317920618,359.598647171,0.0955,0.1029,0.1243,0.0210,0.0239,0.0183,0.0209,0.0208,0.7922,ab000241,0*e8d7b489
#INSPVAXA,FILE,0,35.0,FINEBACKUPSTEERING,2317,466192.800,02000000,46eb,17139;INS_SOLUTION_GOOD,INS_PPP,17.60168190528,78.12664733934,525.3156,-76.2000,6.1594,-0.1467,0.0591,1.042792532,0.260380901,359.612142340,0.0955,0.1029,0.1243,0.0210,0.0239,0.0183,0.0209,0.0208,0.7922,ab000241,0*c49cab0a
#INSPVAXA,FILE,0,35.0,FINEBACKUPSTEERING,2317,466192.850,02000000,46eb,17139;INS_SOLUTION_GOOD,INS_PPP,17.60168470376,78.12664725335,525.3198,-76.2000,6.2118,-0.1438,0.0931,1.024773531,0.168672976,359.603154130,0.0955,0.1029,0.1243,0.0210,0.0239,0.0183,0.0209,0.0208,0.7922,ab000241,0*332ceae7
#INSPVAXA,FILE,0,35.0,FINEBACKUPSTEERING,2317,466192.900,02000000,46eb,17139;INS_SOLUTION_GOOD,INS_PPP,17.60168752848,78.12664716411,525.3252,-76.2000,6.2732,-0.1575,0.1064,1.029522945,0.083721339,359.604227273,0.0955,0.1029,0.1243,0.0210,0.0239,0.0183,0.0209,0.0208,0.7922,ab000241,0*4638dd2f
#INSPVAXA,FILE,0,35.0,FINEBACKUPSTEERING,2317,466192.950,02000000,46eb,17139;INS_SOLUTION_GOOD,INS_PPP,17.60169038417,78.12664707371,525.3294,-76.2000,6.3449,-0.1525,0.0753,1.083996212,0.031069114,359.608283218,0.0955,0.1029,0.1243,0.0210,0.0239,0.0183,0.0209,0.0208,0.7922,ab000241,0*bc09f0ba
#INSPVAXA,FILE,0,35.0,FINEBACKUPSTEERING,2317,466193.000,02000000,46eb,17139;INS_SOLUTION_GOOD,INS_PPP,17.60169327281,78.12664698846,525.3312,-76.2000,6.4172,-0.1404,0.0157,1.122078433,0.022212743,359.610096936,0.0955,0.1029,0.1243,0.0210,0.0239,0.0183,0.0209,0.0208,0.7922,ab000241,0*23c371de
#INSPVAXA,FILE,0,35.0,FINEBACKUPSTEERING,2317,466193.050,02000000,46eb,17139;INS_SOLUTION_GOOD,INS_PPP,17.60169618597,78.12664690160,525.3324,-76.2000,6.4749,-0.1484,0.0135,1.174968565,0.060133710,359.618346149,0.0950,0.1025,0.1261,0.0211,0.0243,0.0182,0.0216,0.0214,0.7907,ab000241,0*839056c4
#INSPVAXA,FILE,0,35.0,FINEBACKUPSTEERING,2317,466193.100,02000000,46eb,17139;INS_SOLUTION_GOOD,INS_PPP,17.60169912109,78.12664681152,525.3339,-76.2000,6.5315,-0.1543,0.0120,1.240544970,0.113666360,359.631911507,0.0950,0.1025,0.1261,0.0211,0.0243,0.0182,0.0216,0.0214,0.7907,ab000241,0*892a63a8
#INSPVAXA,FILE,0,36.5,FINEBACKUPSTEERING,2317,466193.150,02000000,46eb,17139;INS_SOLUTION_GOOD,INS_PPP,17.60170208217,78.12664671970,525.3348,-76.2000,6.5904,-0.1523,0.0019,1.301235790,0.152665599,359.641569952,0.0950,0.1025,0.1261,0.0211,0.0243,0.0182,0.0216,0.0214,0.7907,ab000241,0*958fdf44
#INSPVAXA,FILE,0,36.5,FINEBACKUPSTEERING,2317,466193.200,02000000,46eb,17139;INS_SOLUTION_GOOD,INS_PPP,17.60170507386,78.12664663040,525.3353,-76.2000,6.6624,-0.1534,0.0015,1.335493934,0.183993891,359.657271895,0.0950,0.1025,0.1261,0.0211,0.0243,0.0182,0.0216,0.0214,0.7907,ab000241,0*76f8aa0c
#INSPVAXA,FILE,0,36.5,FINEBACKUPSTEERING,2317,466193.250,02000000,46eb,17139;INS_SOLUTION_GOOD,INS_PPP,17.60170809538,78.12664653725,525.3356,-76.2000,6.7267,-0.1543,0.0139,1.346769248,0.206222850,359.666368402,0.0950,0.1025,0.1261,0.0211,0.0243,0.0182,0.0216,0.0214,0.7907,ab000241,0*8632838a
#INSPVAXA,FILE,0,36.5,FINEBACKUPSTEERING,2317,466193.300,02000000,46eb,17139;INS_SOLUTION_GOOD,INS_PPP,17.60171114644,78.12664644688,525.3371,-76.2000,6.7870,-0.1518,0.0490,1.325518063,0.197148012,359.672640974,0.0950,0.1025,0.1261,0.0211,0.0243,0.0182,0.0216,0.0214,0.7907,ab000241,0*6a14ad5e
#INSPVAXA,FILE,0,36.5,FINEBACKUPSTEERING,2317,466193.350,02000000,46eb,17139;INS_SOLUTION_GOOD,INS_PPP,17.60171422471,78.12664635693,525.3395,-76.2000,6.8487,-0.1540,0.0385,1.319704780,0.178193512,359.666046235,0.0950,0.1025,0.1261,0.0211,0.0243,0.0182,0.0216,0.0214,0.7907,ab000241,0*dde86db0
#INSPVAXA,FILE,0,36.5,FINEBACKUPSTEERING,2317,466193.400,02000000,46eb,17139;INS_SOLUTION_GOOD,INS_PPP,17.60171732915,78.12664626601,525.3421,-76.2000,6.9039,-0.1561,0.0390,1.324600769,0.161691171,359.667104441,0.0950,0.1025,0.1261,0.0211,0.0243,0.0182,0.0216,0.0214,0.7907,ab000241,0*92ffacd9
#INSPVAXA,FILE,0,36.5,FINEBACKUPSTEERING,2317,466193.450,02000000,46eb,17139;INS_SOLUTION_GOOD,INS_PPP,17.60172045920,78.12664617410,525.3460,-76.2000,6.9652,-0.1618,0.0689,1.348699150,0.163957747,359.667336336,0.0950,0.1025,0.1261,0.0211,0.0243,0.0182,0.0216,0.0214,0.7907,ab000241,0*8282c05a
#INSPVAXA,FILE,0,36.5,FINEBACKUPSTEERING,2317,466193.500,02000000,46eb,17139;INS_SOLUTION_GOOD,INS_PPP,17.60172361796,78.12664608162,525.3495,-76.2000,7.0303,-0.1587,0.0507,1.374188178,0.155563045,359.675321080,0.0950,0.1025,0.1261,0.0211,0.0243,0.0182,0.0216,0.0214,0.7907,ab000241,0*f92880b2
#INSPVAXA,FILE,0,36.5,FINEBACKUPSTEERING,2317,466193.550,02000000,46eb,17139;INS_SOLUTION_GOOD,INS_PPP,17.60172680843,78.12664599284,525.3519,-76.2000,7.1027,-0.1510,0.0122,1.416772252,0.190840050,359.679600101,0.0950,0.1025,0.1261,0.0211,0.0243,0.0182,0.0216,0.0214,0.7907,ab000241,0*253ae4dc
#INSPVAXA,FILE,0,36.5,FINEBACKUPSTEERING,2317,466193.600,02000000,46eb,17139;INS_SOLUTION_GOOD,INS_PPP,17.60173002965,78.12664590099,525.3537,-76.2000,7.1683,-0.1552,0.0174,1.441089454,0.247615192,359.683446440,0.0950,0.1025,0.1261,0.0211,0.0243,0.0182,0.0216,0.0214,0.7907,ab000241,0*13996e05
#INSPVAXA,FILE,0,36.5,FINEBACKUPSTEERING,2317,466193.650,02000000,46eb,17139;INS_SOLUTION_GOOD,INS_PPP,17.60173328089,78.12664580795,525.3556,-76.2000,7.2322,-0.1656,0.0221,1.435949010,0.303532551,359.694282506,0.0950,0.1025,0.1261,0.0211,0.0243,0.0182,0.0216,0.0214,0.7907,ab000241,0*c534c254
#INSPVAXA,FILE,0,36.5,FINEBACKUPSTEERING,2317,466193.700,02000000,46eb,17139;INS_SOLUTION_GOOD,INS_PPP,17.60173655918,78.12664571076,525.3574,-76.2000,7.2898,-0.1727,0.0332,1.402964826,0.336259659,359.702924866,0.0950,0.1025,0.1261,0.0211,0.0243,0.0182,0.0216,0.0214,0.7907,ab000241,0*bae082cf
#INSPVAXA,FILE,0,36.5,FINEBACKUPSTEERING,2317,466193.750,02000000,46eb,17139;INS_SOLUTION_GOOD,INS_PPP,17.60173986562,78.12664561265,525.3596,-76.2000,7.3536,-0.1718,0.0465,1.363734642,0.344349660,359.712171280,0.0950,0.1025,0.1261,0.0211,0.0243,0.0182,0.0216,0.0214,0.7907,ab000241,0*f3e7090c
#INSPVAXA,FILE,0,36.5,FINEBACKUPSTEERING,2317,466193.800,02000000,46eb,17139;INS_SOLUTION_GOOD,INS_PPP,17.60174320043,78.12664551664,525.3629,-76.2000,7.4211,-0.1677,0.0621,1.323859474,0.345216145,359.709238838,0.0950,0.1025,0.1261,0.0211,0.0243,0.0182,0.0216,0.0214,0.7907,ab000241,0*e5adaa59
#INSPVAXA,FILE,0,36.5,FINEBACKUPSTEERING,2317,466193.850,02000000,46eb,17139;INS_SOLUTION_GOOD,INS_PPP,17.60174656646,78.12664542280,525.3664,-76.2000,7.4884,-0.1686,0.0629,1.298127742,0.337592851,359.709260586,0.0950,0.1025,0.1261,0.0211,0.0243,0.0182,0.0216,0.0214,0.7907,ab000241,0*007e0b66
#INSPVAXA,FILE,0,36.5,FINEBACKUPSTEERING,2317,466193.900,02000000,46eb,17139;INS_SOLUTION_GOOD,INS_PPP,17.60174996251,78.12664532621,525.3699,-76.2000,7.5541,-0.1671,0.0650,1.276498689,0.346290103,359.707834874,0.0950,0.1025,0.1261,0.0211,0.0243,0.0182,0.0216,0.0214,0.7907,ab000241,0*f2822f96
#INSPVAXA,FILE,0,36.5,FINEBACKUPSTEERING,2317,466193.950,02000000,46eb,17139;INS_SOLUTION_GOOD,INS_PPP,17.60175338568,78.12664522982,525.3742,-76.2000,7.6102,-0.1691,0.1008,1.286919372,0.340160442,359.708443783,0.0950,0.1025,0.1261,0.0211,0.0243,0.0182,0.0216,0.0214,0.7907,ab000241,0*f76e5bfd
#INSPVAXA,FILE,0,36.5,FINEBACKUPSTEERING,2317,466194.000,02000000,46eb,17139;INS_SOLUTION_GOOD,INS_PPP,17.60175683671,78.12664513390,525.3779,-76.2000,7.6748,-0.1774,0.0442,1.280146024,0.314944131,359.715975363,0.0950,0.1025,0.1261,0.0211,0.0243,0.0182,0.0216,0.0214,0.7907,ab000241,0*b83aed55
#INSPVAXA,FILE,0,36.5,FINEBACKUPSTEERING,2317,466194.050,02000000,46eb,17139;INS_SOLUTION_GOOD,INS_PPP,17.60176031704,78.12664503352,525.3819,-76.2000,7.7400,-0.1717,0.0521,1.314141247,0.307645065,359.723859800,0.0947,0.1022,0.1274,0.0214,0.0249,0.0180,0.0224,0.0221,0.7891,ab000241,0*c9a997e4
#INSPVAXA,FILE,0,36.5,FINEBACKUPSTEERING,2317,466194.100,02000000,46eb,17139;INS_SOLUTION_GOOD,INS_PPP,17.60176383091,78.12664493375,525.3850,-76.2000,7.8101,-0.1684,0.0359,1.339082755,0.287531394,359.732403662,0.0947,0.1022,0.1274,0.0214,0.0249,0.0180,0.0224,0.0221,0.7891,ab000241,0*8cc4c105
#INSPVAXA,FILE,0,36.5,FINEBACKUPSTEERING,2317,466194.150,02000000,46eb,17139;INS_SOLUTION_GOOD,INS_PPP,17.60176737564,78.12664483562,525.3878,-76.2000,7.8759,-0.1739,0.0372,1.354777496,0.258782679,359.737188180,0.0947,0.1022,0.1274,0.0214,0.0249,0.0180,0.0224,0.0221,0.7891,ab000241,0*85968eb3
#INSPVAXA,FILE,0,36.5,FINEBACKUPSTEERING,2317,466194.200,02000000,46eb,17139;INS_SOLUTION_GOOD,INS_PPP,17.60177094885,78.12664473529,525.3918,-76.2000,7.9358,-0.1694,0.0656,1.357878207,0.194180969,359.731100919,0.0947,0.1022,0.1274,0.0214,0.0249,0.0180,0.0224,0.0221,0.7891,ab000241,0*18944b6c
#INSPVAXA,FILE,0,37.5,FINEBACKUPSTEERING,2317,466194.250,02000000,46eb,17139;INS_SOLUTION_GOOD,INS_PPP,17.60177454886,78.12664463489,525.3965,-76.2000,7.9960,-0.1733,0.0971,1.351859834,0.101718792,359.724788835,0.0947,0.1022,0.1274,0.0214,0.0249,0.0180,0.0224,0.0221,0.7891,ab000241,0*5c6d4cfd
#INSPVAXA,FILE,0,37.5,FINEBACKUPSTEERING,2317,466194.300,02000000,46eb,17139;INS_SOLUTION_GOOD,INS_PPP,17.60177817733,78.12664453695,525.4003,-76.2000,8.0639,-0.1707,0.0576,1.352952692,0.012483445,359.703331073,0.0947,0.1022,0.1274,0.0214,0.0249,0.0180,0.0224,0.0221,0.7891,ab000241,0*f9b873b4
#INSPVAXA,FILE,0,37.5,FINEBACKUPSTEERING,2317,466194.350,02000000,46eb,17139;INS_SOLUTION_GOOD,INS_PPP,17.60178183752,78.12664443563,525.4040,-76.2000,8.1330,-0.1704,0.0381,1.353431176,-0.014702782,359.679774738,0.0947,0.1022,0.1274,0.0214,0.0249,0.0180,0.0224,0.0221,0.7891,ab000241,0*0558c508
#INSPVAXA,FILE,0,37.5,FINEBACKUPSTEERING,2317,466194.400,02000000,46eb,17139;INS_SOLUTION_GOOD,INS_PPP,17.60178553207,78.12664433276,525.4059,-76.2000,8.2120,-0.1769,0.0214,1.379283447,0.004251773,359.666046576,0.0947,0.1022,0.1274,0.0214,0.0249,0.0180,0.0224,0.0221,0.7891,ab000241,0*4d0987a1
#INSPVAXA,FILE,0,37.5,FINEBACKUPSTEERING,2317,466194.450,02000000,46eb,17139;INS_SOLUTION_GOOD,INS_PPP,17.60178925768,78.12664422906,525.4065,-76.2000,8.2748,-0.1890,-0.0007,1.363221091,0.023248839,359.646926938,0.0947,0.1022,0.1274,0.0214,0.0249,0.0180,0.0224,0.0221,0.7891,ab000241,0*8dd1ac4e
#INSPVAXA,FILE,0,37.5,FINEBACKUPSTEERING,2317,466194.500,02000000,46eb,17139;INS_SOLUTION_GOOD,INS_PPP,17.60179301255,78.12664411952,525.4071,-76.2000,8.3331,-0.1953,-0.0081,1.361530407,0.068658942,359.640993627,0.0947,0.1022,0.1274,0.0214,0.0249,0.0180,0.0224,0.0221,0.7891,ab000241,0*4070b9de
#INSPVAXA,FILE,0,37.5,FINESTEERING,2317,466194.550,02000000,46eb,17139;INS_SOLUTION_GOOD,INS_PPP,17.60179679623,78.12664400753,525.4072,-76.2000,8.4055,-0.1897,0.0036,1.392689127,0.158388727,359.631491306,0.0947,0.1022,0.1274,0.0214,0.0249,0.0180,0.0224,0.0221,0.7891,ab000241,0*bb6b8833
#INSPVAXA,FILE,0,37.5,FINESTEERING,2317,466194.600,02000000,46eb,17139;INS_SOLUTION_GOOD,INS_PPP,17.60180060949,78.12664389678,525.4073,-76.2000,8.4650,-0.1956,0.0159,1.453781844,0.193915655,359.617849653,0.0947,0.1022,0.1274,0.0214,0.0249,0.0180,0.0224,0.0221,0.7891,ab000241,0*8ce27053
#INSPVAXA,FILE,0,37.5,FINESTEERING,2317,466194.650,02000000,46eb,17139;INS_SOLUTION_GOOD,INS_PPP,17.60180445439,78.12664378470,525.4087,-76.2000,8.5389,-0.1961,0.0571,1.518649224,0.183086212,359.617838372,0.0947,0.1022,0.1274,0.0214,0.0249,0.0180,0.0224,0.0221,0.7891,ab000241,0*09946528
#INSPVAXA,FILE,0,37.5,FINESTEERING,2317,466194.700,02000000,46eb,17139;INS_SOLUTION_GOOD,INS_PPP,17.60180832879,78.12664367440,525.4113,-76.2000,8.6120,-0.1998,0.0007,1.520505061,0.197061486,359.612795385,0.0947,0.1022,0.1274,0.0214,0.0249,0.0180,0.0224,0.0221,0.7891,ab000241,0*c4945911
#INSPVAXA,FILE,0,37.5,FINESTEERING,2317,466194.750,02000000,46eb,17139;INS_SOLUTION_GOOD,INS_PPP,17.60181223300,78.12664356007,525.4137,-76.2000,8.6679,-0.2087,0.0285,1.482199992,0.200766464,359.603388973,0.0947,0.1022,0.1274,0.0214,0.0249,0.0180,0.0224,0.0221,0.7891,ab000241,0*c0f938f7
