#BESTVELA,FILE,0,32.0,FINESTEERING,2319,306148.650,02000800,10a2,17139;SOL_COMPUTED,INS_PSRDIFF,0.000,122.700,4.2094,88.756918,0.0009,0*67c7c591
#BESTVELA,FILE,0,32.0,FINESTEERING,2319,306148.700,02000800,10a2,17139;SOL_COMPUTED,INS_PSRDIFF,0.000,122.700,4.2201,88.779817,-0.0095,0*9e56cd29
#BESTVELA,FILE,0,32.0,FINESTEERING,2319,306148.750,02000800,10a2,17139;SOL_COMPUTED,INS_PSRDIFF,0.000,122.700,4.2297,88.758361,-0.0193,0*62217d99
#BESTVELA,FILE,0,32.0,FINESTEERING,2319,306148.850,02000800,10a2,17139;SOL_COMPUTED,INS_PSRDIFF,0.000,122.700,4.2453,88.885909,-0.0462,0*33cb6a9c
#BESTVELA,FILE,0,32.0,FINESTEERING,2319,306148.950,02000800,10a2,17139;SOL_COMPUTED,INS_PSRDIFF,0.000,122.700,4.2797,88.718170,-0.0234,0*70aef2db
#BESTVELA,FILE,0,32.0,FINESTEERING,2319,306149.050,02000800,10a2,17139;SOL_COMPUTED,INS_PSRDIFF,0.000,123.700,4.3309,88.913071,-0.0017,0*efe0f5d4
#BESTVELA,FILE,0,32.0,FINESTEERING,2319,306149.150,02000800,10a2,17139;SOL_COMPUTED,INS_PSRDIFF,0.000,123.700,4.3669,88.817576,0.0115,0*0ac84825
#BESTVELA,FILE,0,32.0,FINESTEERING,2319,306149.200,02000800,10a2,17139;SOL_COMPUTED,INS_PSRDIFF,0.000,123.700,4.3742,88.800719,0.0144,0*6766dbd6
#BESTVELA,FILE,0,32.0,FINESTEERING,2319,306149.400,02000800,10a2,17139;SOL_COMPUTED,INS_PSRDIFF,0.000,123.700,4.4243,88.948297,0.0125,0*f68b2d7a
#BESTVELA,FILE,0,32.0,FINESTEERING,2319,306149.500,02000800,10a2,17139;SOL_COMPUTED,INS_PSRDIFF,0.000,123.700,4.4599,89.179245,-0.0073,0*88b18532
#BESTVELA,FILE,0,32.0,FINESTEERING,2319,306149.600,02000800,10a2,17139;SOL_COMPUTED,INS_PSRDIFF,0.000,123.700,4.4999,89.223013,-0.0062,0*455c04b7
#BESTVELA,FILE,0,32.0,FINESTEERING,2319,306149.700,02000800,10a2,17139;SOL_COMPUTED,INS_PSRDIFF,0.000,123.700,4.5348,89.488874,-0.0296,0*e2736972
#BESTVELA,FILE,0,32.0,FINESTEERING,2319,306149.750,02000800,10a2,17139;SOL_COMPUTED,INS_PSRDIFF,0.000,123.700,4.5476,89.607402,-0.0056,0*85e015ed
#BESTVELA,FILE,0,32.0,FINESTEERING,2319,306149.850,02000800,10a2,17139;SOL_COMPUTED,INS_PSRDIFF,0.000,123.700,4.5848,89.689114,0.0095,0*00987e6e
#BESTVELA,FILE,0,32.0,FINESTEERING,2319,306149.900,02000800,10a2,17139;SOL_COMPUTED,INS_PSRDIFF,0.000,123.700,4.6156,89.717154,0.0099,0*2ae3e0ea
#BESTVELA,FILE,0,32.0,FINESTEERING,2319,306150.000,02000800,10a2,17139;SOL_COMPUTED,INS_PSRDIFF,0.000,123.700,4.6644,89.534132,0.0244,0*590a6cab
#BESTVELA,FILE,0,30.5,FINESTEERING,2319,306150.250,02000800,10a2,17139;SOL_COMPUTED,INS_PSRDIFF,0.000,124.700,4.7199,89.924418,0.0052,0*92881083
#BESTVELA,FILE,0,30.5,FINESTEERING,2319,306150.300,02000800,10a2,17139;SOL_COMPUTED,INS_PSRDIFF,0.000,124.700,4.7354,90.016070,0.0025,0*998a772a
#BESTVELA,FILE,0,30.5,FINESTEERING,2319,306150.450,02000800,10a2,17139;SOL_COMPUTED,INS_PSRDIFF,0.000,124.700,4.7539,90.611780,-0.0112,0*fc9db860
#BESTVELA,FILE,0,30.5,FINESTEERING,2319,306150.500,02000800,10a2,17139;SOL_COMPUTED,INS_PSRDIFF,0.000,124.700,4.7598,90.462136,-0.0032,0*8da288c3
#BESTVELA,FILE,0,30.5,FINESTEERING,2319,306150.550,02000800,10a2,17139;SOL_COMPUTED,INS_PSRDIFF,0.000,124.700,4.7640,90.277761,-0.0163,0*8b16d5ee
#BESTVELA,FILE,0,30.5,FINESTEERING,2319,306150.600,02000800,10a2,17139;SOL_COMPUTED,INS_PSRDIFF,0.000,124.700,4.7612,90.082779,-0.0195,0*71bdb2aa
#BESTVELA,FILE,0,30.5,FINESTEERING,2319,306150.700,02000800,10a2,17139;SOL_COMPUTED,INS_PSRDIFF,0.000,124.700,4.7529,90.002639,-0.0092,0*2dc6d182
#BESTVELA,FILE,0,30.5,FINESTEERING,2319,306150.800,02000800,10a2,17139;SOL_COMPUTED,INS_PSRDIFF,0.000,124.700,4.7146,90.084957,0.0055,0*bdfc3303
#BESTVELA,FILE,0,30.5,FINESTEERING,2319,306150.850,02000800,10a2,17139;SOL_COMPUTED,INS_PSRDIFF,0.000,124.700,4.7035,90.308207,0.0060,0*b725f3cb
#BESTVELA,FILE,0,30.5,FINESTEERING,2319,306151.050,02000800,10a2,17139;SOL_COMPUTED,INS_PSRDIFF,0.000,125.700,4.6636,91.102494,-0.0185,0*048b0f8e
#BESTVELA,FILE,0,29.5,FINESTEERING,2319,306151.100,02000800,10a2,17139;SOL_COMPUTED,INS_PSRDIFF,0.000,125.700,4.6543,90.981229,-0.0440,0*8c8e84f1
#BESTVELA,FILE,0,29.5,FINESTEERING,2319,306151.200,02000800,10a2,17139;SOL_COMPUTED,INS_PSRDIFF,0.000,125.700,4.6318,90.705692,-0.0609,0*46bb3f15
#BESTVELA,FILE,0,29.5,FINESTEERING,2319,306151.250,02000800,10a2,17139;SOL_COMPUTED,INS_PSRDIFF,0.000,125.700,4.6230,90.696993,-0.0475,0*a9434066
#BESTVELA,FILE,0,29.5,FINESTEERING,2319,306151.400,02000800,10a2,17139;SOL_COMPUTED,INS_PSRDIFF,0.000,125.700,4.6320,91.121255,0.0109,0*ad0cdaa8
#BESTVELA,FILE,0,29.5,FINESTEERING,2319,306151.450,02000800,10a2,17139;SOL_COMPUTED,INS_PSRDIFF,0.000,125.700,4.6280,91.206781,0.0245,0*1aec5706
#BESTVELA,FILE,0,29.5,FINESTEERING,2319,306151.500,02000800,10a2,17139;SOL_COMPUTED,INS_PSRDIFF,0.000,125.700,4.6281,91.225186,0.0266,0*a6de8316
#BESTVELA,FILE,0,29.5,FINESTEERING,2319,306151.550,02000800,10a2,17139;SOL_COMPUTED,INS_PSRDIFF,0.000,125.700,4.6273,91.396382,0.0101,0*9ec23c74
#BESTVELA,FILE,0,29.5,FINESTEERING,2319,306151.800,02000800,10a2,17139;SOL_COMPUTED,INS_PSRDIFF,0.000,125.700,4.5588,90.991453,-0.0201,0*126aa3f8
#BESTVELA,FILE,0,29.5,FINESTEERING,2319,306151.900,02000800,10a2,17139;SOL_COMPUTED,INS_PSRDIFF,0.000,125.700,4.5439,90.883260,-0.0227,0*e4247dbb
#BESTVELA,FILE,0,29.5,FINESTEERING,2319,306152.000,02000800,10a2,17139;SOL_COMPUTED,INS_PSRDIFF,0.000,125.700,4.5392,90.842677,-0.0148,0*f08f2f7c
#BESTVELA,FILE,0,29.5,FINESTEERING,2319,306152.150,02000800,10a2,17139;SOL_COMPUTED,INS_PSRDIFF,0.000,126.700,4.4985,91.047043,-0.0171,0*feec9e0a
#BESTVELA,FILE,0,32.5,FINESTEERING,2319,306152.250,02000800,10a2,17139;SOL_COMPUTED,INS_PSRDIFF,0.000,126.700,4.4764,90.914992,-0.0077,0*03f830cf
#BESTVELA,FILE,0,32.5,FINESTEERING,2319,306152.300,02000800,10a2,17139;SOL_COMPUTED,INS_PSRDIFF,0.000,126.700,4.4637,90.748669,0.0095,0*9bf111f3
#BESTVELA,FILE,0,32.5,FINESTEERING,2319,306152.350,02000800,10a2,17139;SOL_COMPUTED,INS_PSRDIFF,0.000,126.700,4.4536,90.756274,0.0131,0*b53fa353
#BESTVELA,FILE,0,32.5,FINESTEERING,2319,306152.400,02000800,10a2,17139;SOL_COMPUTED,INS_PSRDIFF,0.000,126.700,4.4244,90.733459,0.0107,0*c904e8c6
#BESTVELA,FILE,0,32.5,FINESTEERING,2319,306152.450,02000800,10a2,17139;SOL_COMPUTED,INS_PSRDIFF,0.000,126.700,4.3985,90.698942,0.0087,0*c9609092
#BESTVELA,FILE,0,32.5,FINESTEERING,2319,306152.500,02000800,10a2,17139;SOL_COMPUTED,INS_PSRDIFF,0.000,126.700,4.3689,90.632344,-0.0015,0*4a91cc5e
#BESTVELA,FILE,0,32.5,FINESTEERING,2319,306152.550,02000800,10a2,17139;SOL_COMPUTED,INS_PSRDIFF,0.000,126.700,4.3375,90.590722,-0.0123,0*aa4e0e38
#BESTVELA,FILE,0,32.5,FINESTEERING,2319,306152.600,02000800,10a2,17139;SOL_COMPUTED,INS_PSRDIFF,0.000,126.700,4.3051,90.622849,-0.0122,0*631b699d
#BESTVELA,FILE,0,32.5,FINESTEERING,2319,306152.650,02000800,10a2,17139;SOL_COMPUTED,INS_PSRDIFF,0.000,126.700,4.2820,90.544902,-0.0091,0*2d43c29e
#BESTVELA,FILE,0,32.5,FINESTEERING,2319,306152.700,02000800,10a2,17139;SOL_COMPUTED,INS_PSRDIFF,0.000,126.700,4.2659,90.702196,-0.0018,0*e054c676
#BESTVELA,FILE,0,32.5,FINESTEERING,2319,306152.750,02000000,10a2,17139;SOL_COMPUTED,INS_PSRDIFF,0.000,126.700,4.2455,90.542044,0.0079,0*9c8d463b
#BESTVELA,FILE,0,32.5,FINESTEERING,2319,306152.800,02000000,10a2,17139;SOL_COMPUTED,INS_PSRDIFF,0.000,126.700,4.2219,90.516401,0.0164,0*6b530c4d
#BESTVELA,FILE,0,32.5,FINESTEERING,2319,306152.850,02000000,10a2,17139;SOL_COMPUTED,INS_PSRDIFF,0.000,126.700,4.1913,90.565996,0.0089,0*b75cf6a5
#BESTVELA,FILE,0,32.5,FINESTEERING,2319,306152.900,02000000,10a2,17139;SOL_COMPUTED,INS_PSRDIFF,0.000,126.700,4.1636,90.629245,0.0121,0*1b432606
#BESTVELA,FILE,0,32.5,FINESTEERING,2319,306152.950,02000000,10a2,17139;SOL_COMPUTED,INS_PSRDIFF,0.000,126.700,4.1321,90.749959,0.0033,0*348fa209
#BESTVELA,FILE,0,32.5,FINESTEERING,2319,306153.000,02000000,10a2,17139;SOL_COMPUTED,INS_PSRDIFF,0.000,126.700,4.0910,90.655670,0.0041,0*c0878e3a
#BESTVELA,FILE,0,32.5,FINESTEERING,2319,306153.050,02000000,10a2,17139;SOL_COMPUTED,INS_PSRDIFF,0.000,127.700,4.0663,90.666208,0.0031,0*c6b86dfa
#BESTVELA,FILE,0,22.5,FINESTEERING,2319,306153.100,02000000,10a2,17139;SOL_COMPUTED,INS_PSRDIFF,0.000,127.700,4.0342,90.521009,0.0094,0*0196a77a
#BESTVELA,FILE,0,22.5,FINESTEERING,2319,306153.150,02000000,10a2,17139;SOL_COMPUTED,INS_PSRDIFF,0.000,127.700,4.0051,90.422229,0.0182,0*4e30a116
#BESTVELA,FILE,0,22.5,FINESTEERING,2319,306153.200,02000000,10a2,17139;SOL_COMPUTED,INS_PSRDIFF,0.000,127.700,3.9673,90.111741,0.0087,0*62c22713
#BESTVELA,FILE,0,22.5,FINESTEERING,2319,306153.250,02000000,10a2,17139;SOL_COMPUTED,INS_PSRDIFF,0.000,127.700,3.9349,90.255899,-0.0011,0*4f0c40be
#BESTVELA,FILE,0,22.5,FINESTEERING,2319,306153.300,02000000,10a2,17139;SOL_COMPUTED,INS_PSRDIFF,0.000,127.700,3.8991,90.300803,-0.0088,0*57303933
#BESTVELA,FILE,0,22.5,FINESTEERING,2319,306153.350,02000000,10a2,17139;SOL_COMPUTED,INS_PSRDIFF,0.000,127.700,3.8674,90.480037,-0.0091,0*ac596d25
#BESTVELA,FILE,0,22.5,FINESTEERING,2319,306153.400,02000000,10a2,17139;SOL_COMPUTED,INS_PSRDIFF,0.000,127.700,3.8282,90.332122,-0.0034,0*2eb638f4
#BESTVELA,FILE,0,22.5,FINESTEERING,2319,306153.450,02000000,10a2,17139;SOL_COMPUTED,INS_PSRDIFF,0.000,127.700,3.7823,90.373855,0.0054,0*ef9155b9
#BESTVELA,FILE,0,22.5,FINESTEERING,2319,306153.500,02000000,10a2,17139;SOL_COMPUTED,INS_PSRDIFF,0.000,127.700,3.7543,90.495704,0.0028,0*438a1256
#BESTVELA,FILE,0,22.5,FINESTEERING,2319,306153.550,02000000,10a2,17139;SOL_COMPUTED,INS_PSRDIFF,0.000,127.700,3.7241,90.416268,0.0194,0*9cc5e50d
#BESTVELA,FILE,0,22.5,FINESTEERING,2319,306153.600,02000000,10a2,17139;SOL_COMPUTED,INS_PSRDIFF,0.000,127.700,3.6892,90.446284,0.0238,0*f5e6fab9
#BESTVELA,FILE,0,22.5,FINESTEERING,2319,306153.650,02000000,10a2,17139;SOL_COMPUTED,INS_PSRDIFF,0.000,127.700,3.6471,90.109317,0.0288,0*ca7d63e9
#BESTVELA,FILE,0,22.5,FINESTEERING,2319,306153.700,02000000,10a2,17139;SOL_COMPUTED,INS_PSRDIFF,0.000,127.700,3.6098,90.296775,0.0139,0*7b8e6838
#BESTVELA,FILE,0,22.5,FINESTEERING,2319,306153.750,02000000,10a2,17139;SOL_COMPUTED,INS_PSRDIFF,0.000,127.700,3.5619,90.318370,0.0093,0*82b48b85
#BESTVELA,FILE,0,22.5,FINESTEERING,2319,306153.800,02000000,10a2,17139;SOL_COMPUTED,INS_PSRDIFF,0.000,127.700,3.5217,90.303158,0.0072,0*23be04fb
#BESTVELA,FILE,0,22.5,FINESTEERING,2319,306153.850,02000000,10a2,17139;SOL_COMPUTED,INS_PSRDIFF,0.000,127.700,3.4834,90.183563,0.0079,0*e6a76cb0
#BESTVELA,FILE,0,22.5,FINESTEERING,2319,306153.900,02000000,10a2,17139;SOL_COMPUTED,INS_PSRDIFF,0.000,127.700,3.4540,90.113456,0.0035,0*df782f56
#BESTVELA,FILE,0,22.5,FINESTEERING,2319,306153.950,02000000,10a2,17139;SOL_COMPUTED,INS_PSRDIFF,0.000,127.700,3.4138,90.264436,-0.0131,0*a19cf07d
#BESTVELA,FILE,0,22.5,FINESTEERING,2319,306154.000,02000000,10a2,17139;SOL_COMPUTED,INS_PSRDIFF,0.000,127.700,3.3946,90.146146,-0.0138,0*2cec6d72
#BESTVELA,FILE,0,22.5,FINESTEERING,2319,306154.050,02000000,10a2,17139;SOL_COMPUTED,INS_PSRDIFF,0.000,128.700,3.3708,90.064977,-0.0130,0*c351e02b
#BESTVELA,FILE,0,22.5,FINESTEERING,2319,306154.100,02000800,10a2,17139;SOL_COMPUTED,INS_PSRDIFF,0.000,128.700,3.3568,90.025283,-0.0120,0*80dc1a7e
#BESTVELA,FILE,0,25.5,FINESTEERING,2319,306154.150,02000800,10a2,17139;SOL_COMPUTED,INS_PSRDIFF,0.000,128.700,3.3427,89.771726,0.0034,0*31d2787a
#BESTVELA,FILE,0,25.5,FINESTEERING,2319,306154.200,02000800,10a2,17139;SOL_COMPUTED,INS_PSRDIFF,0.000,128.700,3.3346,89.693071,0.0182,0*5347d062
#BESTVELA,FILE,0,25.5,FINESTEERING,2319,306154.250,02000800,10a2,17139;SOL_COMPUTED,INS_PSRDIFF,0.000,128.700,3.3247,89.691431,0.0237,0*137b8a0f
#BESTVELA,FILE,0,25.5,FINESTEERING,2319,306154.300,02000800,10a2,17139;SOL_COMPUTED,INS_PSRDIFF,0.000,128.700,3.3158,89.937697,0.0284,0*198e1251
#BESTVELA,FILE,0,25.5,FINESTEERING,2319,306154.350,02000800,10a2,17139;SOL_COMPUTED,INS_PSRDIFF,0.000,128.700,3.2974,90.213818,0.0246,0*e1ba1d8d
#BESTVELA,FILE,0,25.5,FINESTEERING,2319,306154.400,02000800,10a2,17139;SOL_COMPUTED,INS_PSRDIFF,0.000,128.700,3.2858,90.292887,0.0331,0*0ba0d985
#BESTVELA,FILE,0,25.5,FINESTEERING,2319,306154.450,02000800,10a2,17139;SOL_COMPUTED,INS_PSRDIFF,0.000,128.700,3.2683,90.518954,0.0319,0*a030231b
#BESTVELA,FILE,0,25.5,FINESTEERING,2319,306154.500,02000800,10a2,17139;SOL_COMPUTED,INS_PSRDIFF,0.000,128.700,3.2508,91.000495,0.0252,0*189a7de9
#BESTVELA,FILE,0,25.5,FINESTEERING,2319,306154.550,02000800,10a2,17139;SOL_COMPUTED,INS_PSRDIFF,0.000,128.700,3.2325,91.618280,0.0108,0*1fe1bf67
#BESTVELA,FILE,0,25.5,FINESTEERING,2319,306154.600,02000800,10a2,17139;SOL_COMPUTED,INS_PSRDIFF,0.000,128.700,3.2104,92.001641,-0.0027,0*2dd44fe3
#BESTVELA,FILE,0,25.5,FINESTEERING,2319,306154.650,02000800,10a2,17139;SOL_COMPUTED,INS_PSRDIFF,0.000,128.700,3.1891,92.105579,0.0025,0*970d2480
#BESTVELA,FILE,0,25.5,FINESTEERING,2319,306154.700,02000800,10a2,17139;SOL_COMPUTED,INS_PSRDIFF,0.000,128.700,3.1734,91.929053,0.0017,0*a06fa467
#BESTVELA,FILE,0,25.5,FINESTEERING,2319,306154.750,02000800,10a2,17139;SOL_COMPUTED,INS_PSRDIFF,0.000,128.700,3.1627,91.979478,0.0086,0*ab4dfb0d
#BESTVELA,FILE,0,25.5,FINESTEERING,2319,306154.800,02000800,10a2,17139;SOL_COMPUTED,INS_PSRDIFF,0.000,128.700,3.1580,92.029575,0.0130,0*4bb3bced
#BESTVELA,FILE,0,25.5,FINESTEERING,2319,306154.850,02000800,10a2,17139;SOL_COMPUTED,INS_PSRDIFF,0.000,128.700,3.1437,92.145432,0.0250,0*e4411a71
#BESTVELA,FILE,0,25.5,FINESTEERING,2319,306154.900,02000800,10a2,17139;SOL_COMPUTED,INS_PSRDIFF,0.000,128.700,3.1448,92.369304,0.0177,0*0ab6f4a6
#BESTVELA,FILE,0,25.5,FINESTEERING,2319,306154.950,02000800,10a2,17139;SOL_COMPUTED,INS_PSRDIFF,0.000,128.700,3.1162,92.346564,0.0256,0*a889c315
#BESTVELA,FILE,0,25.5,FINESTEERING,2319,306155.000,02000800,10a2,17139;SOL_COMPUTED,INS_PSRDIFF,0.000,128.700,3.1022,92.531255,0.0132,0*e087406e
#BESTVELA,FILE,0,25.5,FINESTEERING,2319,306155.050,02000800,10a2,17139;SOL_COMPUTED,INS_PSRDIFF,0.000,129.700,3.0819,92.580135,0.0173,0*7183bd2c
#BESTVELA,FILE,0,25.5,FINESTEERING,2319,306155.100,02000800,10a2,17139;SOL_COMPUTED,INS_PSRDIFF,0.000,129.700,3.0675,92.900864,0.0194,0*2f655d76
#BESTVELA,FILE,0,29.5,FINESTEERING,2319,306155.150,02000000,10a2,17139;SOL_COMPUTED,INS_PSRDIFF,0.000,129.700,3.0624,93.129650,0.0070,0*afb9fc56
#BESTVELA,FILE,0,29.5,FINESTEERING,2319,306155.200,02000000,10a2,17139;SOL_COMPUTED,INS_PSRDIFF,0.000,129.700,3.0438,93.518207,0.0040,0*eb632e78
#BESTVELA,FILE,0,29.5,FINESTEERING,2319,306155.250,02000000,10a2,17139;SOL_COMPUTED,INS_PSRDIFF,0.000,129.700,3.0258,93.637984,-0.0010,0*26a355c3
#BESTVELA,FILE,0,29.5,FINESTEERING,2319,306155.300,02000000,10a2,17139;SOL_COMPUTED,INS_PSRDIFF,0.000,129.700,3.0173,93.953382,0.0068,0*0f616863
#BESTVELA,FILE,0,29.5,FINESTEERING,2319,306155.350,02000000,10a2,17139;SOL_COMPUTED,INS_PSRDIFF,0.000,129.700,3.0101,94.247999,0.0176,0*2419a10c
#BESTVELA,FILE,0,29.5,FINESTEERING,2319,306155.400,02000000,10a2,17139;SOL_COMPUTED,INS_PSRDIFF,0.000,129.700,3.0063,94.294815,0.0291,0*9729c5b8
#BESTVELA,FILE,0,29.5,FINESTEERING,2319,306155.450,02000000,10a2,17139;SOL_COMPUTED,INS_PSRDIFF,0.000,129.700,2.9977,94.538401,0.0311,0*47994e3a
#BESTVELA,FILE,0,29.5,FINESTEERING,2319,306155.500,02000000,10a2,17139;SOL_COMPUTED,INS_PSRDIFF,0.000,129.700,2.9892,94.614288,0.0345,0*7b3e5985
#BESTVELA,FILE,0,29.5,FINESTEERING,2319,306155.550,02000000,10a2,17139;SOL_COMPUTED,INS_PSRDIFF,0.000,129.700,2.9745,94.696640,0.0325,0*f50eb38f
#BESTVELA,FILE,0,29.5,FINESTEERING,2319,306155.600,02000000,10a2,17139;SOL_COMPUTED,INS_PSRDIFF,0.000,129.700,2.9608,95.064353,0.0250,0*4ea91428
#BESTVELA,FILE,0,29.5,FINESTEERING,2319,306155.650,02000000,10a2,17139;SOL_COMPUTED,INS_PSRDIFF,0.000,129.700,2.9347,95.612689,0.0065,0*d1a56541
#BESTVELA,FILE,0,29.5,FINESTEERING,2319,306155.700,02000000,10a2,17139;SOL_COMPUTED,INS_PSRDIFF,0.000,129.700,2.8813,96.076995,-0.0040,0*cd211bee
#BESTVELA,FILE,0,29.5,FINESTEERING,2319,306155.750,02000000,10a2,17139;SOL_COMPUTED,INS_PSRDIFF,0.000,129.700,2.8195,96.048324,-0.0083,0*d201dc16
#BESTVELA,FILE,0,29.5,FINESTEERING,2319,306155.800,02000000,10a2,17139;SOL_COMPUTED,INS_PSRDIFF,0.000,129.700,2.7788,95.284968,0.0113,0*4bfb7686
#BESTVELA,FILE,0,29.5,FINESTEERING,2319,306155.850,02000000,10a2,17139;SOL_COMPUTED,INS_PSRDIFF,0.000,129.700,2.7515,95.386291,0.0135,0*771455bc
#BESTVELA,FILE,0,29.5,FINESTEERING,2319,306155.900,02000000,10a2,17139;SOL_COMPUTED,INS_PSRDIFF,0.000,129.700,2.7358,96.011953,0.0062,0*605c6342
#BESTVELA,FILE,0,29.5,FINESTEERING,2319,306155.950,02000000,10a2,17139;SOL_COMPUTED,INS_PSRDIFF,0.000,129.700,2.7321,96.300989,0.0242,0*db06db26
#BESTVELA,FILE,0,29.5,FINESTEERING,2319,306156.000,02000000,10a2,17139;SOL_COMPUTED,INS_PSRDIFF,0.000,129.700,2.7531,96.581014,0.0347,0*df37ef33
#BESTVELA,FILE,0,29.5,FINESTEERING,2319,306156.050,02000000,10a2,17139;SOL_COMPUTED,INS_PSRDIFF,0.000,130.700,2.7616,97.306739,0.0374,0*3ed8449f
#BESTVELA,FILE,0,29.0,FINESTEERING,2319,306156.100,02000000,10a2,17139;SOL_COMPUTED,INS_PSRDIFF,0.000,130.700,2.7823,98.119422,0.0363,0*36e085b9
#BESTVELA,FILE,0,29.0,FINESTEERING,2319,306156.150,02000000,10a2,17139;SOL_COMPUTED,INS_PSRDIFF,0.000,130.700,2.7774,99.065190,0.0193,0*ad791be7
#BESTVELA,FILE,0,29.0,FINESTEERING,2319,306156.200,02000000,10a2,17139;SOL_COMPUTED,INS_PSRDIFF,0.000,130.700,2.7664,99.571726,0.0125,0*d6e17fce
#BESTVELA,FILE,0,29.0,FINESTEERING,2319,306156.250,02000000,10a2,17139;SOL_COMPUTED,INS_PSRDIFF,0.000,130.700,2.7491,99.955202,0.0047,0*5e3de56e
#BESTVELA,FILE,0,29.0,FINESTEERING,2319,306156.300,02000000,10a2,17139;SOL_COMPUTED,INS_PSRDIFF,0.000,130.700,2.7218,100.099006,-0.0039,0*686519b6
#BESTVELA,FILE,0,29.0,FINESTEERING,2319,306156.350,02000000,10a2,17139;SOL_COMPUTED,INS_PSRDIFF,0.000,130.700,2.7098,100.469012,-0.0038,0*345c91b6
#BESTVELA,FILE,0,29.0,FINESTEERING,2319,306156.400,02000000,10a2,17139;SOL_COMPUTED,INS_PSRDIFF,0.000,130.700,2.6963,101.260182,-0.0207,0*ee7d235c
#BESTVELA,FILE,0,29.0,FINESTEERING,2319,306156.450,02000000,10a2,17139;SOL_COMPUTED,INS_PSRDIFF,0.000,130.700,2.6944,102.496541,-0.0226,0*ab49cc1b
#BESTVELA,FILE,0,29.0,FINESTEERING,2319,306156.500,02000000,10a2,17139;SOL_COMPUTED,INS_PSRDIFF,0.000,130.700,2.7017,103.085485,-0.0110,0*f4224342
#BESTVELA,FILE,0,29.0,FINESTEERING,2319,306156.550,02000000,10a2,17139;SOL_COMPUTED,INS_PSRDIFF,0.000,130.700,2.7151,103.414799,0.0488,0*dd84dc45
#BESTVELA,FILE,0,29.0,FINESTEERING,2319,306156.600,02000000,10a2,17139;SOL_COMPUTED,INS_PSRDIFF,0.000,130.700,2.7109,103.274773,0.0746,0*549e36be
#BESTVELA,FILE,0,29.0,FINESTEERING,2319,306156.650,02000000,10a2,17139;SOL_COMPUTED,INS_PSRDIFF,0.000,130.700,2.6812,103.591377,0.1125,0*f07dce0e
#BESTVELA,FILE,0,29.0,FINESTEERING,2319,306156.700,02000000,10a2,17139;SOL_COMPUTED,INS_PSRDIFF,0.000,130.700,2.6656,103.287144,0.1731,0*ec3b2368
#BESTVELA,FILE,0,29.0,FINESTEERING,2319,306156.750,02000000,10a2,17139;SOL_COMPUTED,INS_PSRDIFF,0.000,130.700,2.6453,102.881545,0.2013,0*6e9e920a
#BESTVELA,FILE,0,29.0,FINESTEERING,2319,306156.800,02000000,10a2,17139;SOL_COMPUTED,INS_PSRDIFF,0.000,130.700,2.6106,103.295780,0.1352,0*62fcae18
#BESTVELA,FILE,0,29.0,FINESTEERING,2319,306156.850,02000000,10a2,17139;SOL_COMPUTED,INS_PSRDIFF,0.000,130.700,2.5756,103.160068,0.0870,0*35fefd06
#BESTVELA,FILE,0,29.0,FINESTEERING,2319,306156.900,02000000,10a2,17139;SOL_COMPUTED,INS_PSRDIFF,0.000,130.700,2.5209,103.692590,0.0187,0*fba9643c
#BESTVELA,FILE,0,29.0,FINESTEERING,2319,306156.950,02000000,10a2,17139;SOL_COMPUTED,INS_PSRDIFF,0.000,130.700,2.4970,104.023170,-0.0330,0*ca8d69d6
#BESTVELA,FILE,0,29.0,FINESTEERING,2319,306157.000,02000000,10a2,17139;SOL_COMPUTED,INS_PSRDIFF,0.000,130.700,2.4634,104.452314,-0.0737,0*c1714a50
#BESTVELA,FILE,0,29.0,FINESTEERING,2319,306157.050,02000800,10a2,17139;SOL_COMPUTED,INS_PSRDIFF,0.000,131.700,2.4535,104.906730,-0.0923,0*f05a5822
#BESTVELA,FILE,0,29.0,FINESTEERING,2319,306157.100,02000800,10a2,17139;SOL_COMPUTED,INS_PSRDIFF,0.000,131.700,2.4515,105.554683,-0.0768,0*420fa30f
#BESTVELA,FILE,0,30.5,FINESTEERING,2319,306157.150,02000800,10a2,17139;SOL_COMPUTED,INS_PSRDIFF,0.000,131.700,2.4625,106.870571,-0.0583,0*71aaf8ac
#BESTVELA,FILE,0,30.5,FINESTEERING,2319,306157.200,02000800,10a2,17139;SOL_COMPUTED,INS_PSRDIFF,0.000,131.700,2.4558,107.758101,-0.0359,0*42f8cf0d
#BESTVELA,FILE,0,30.5,FINESTEERING,2319,306157.250,02000800,10a2,17139;SOL_COMPUTED,INS_PSRDIFF,0.000,131.700,2.4583,109.077128,-0.0088,0*4f51167e
#BESTVELA,FILE,0,30.5,FINESTEERING,2319,306157.300,02000800,10a2,17139;SOL_COMPUTED,INS_PSRDIFF,0.000,131.700,2.4304,109.117564,0.0005,0*37397de3
#BESTVELA,FILE,0,30.5,FINESTEERING,2319,306157.350,02000800,10a2,17139;SOL_COMPUTED,INS_PSRDIFF,0.000,131.700,2.4044,109.701933,-0.0066,0*b7b5f82a
#BESTVELA,FILE,0,30.5,FINESTEERING,2319,306157.400,02000800,10a2,17139;SOL_COMPUTED,INS_PSRDIFF,0.000,131.700,2.3918,109.852857,-0.0582,0*d3725319
#BESTVELA,FILE,0,30.5,FINESTEERING,2319,306157.450,02000800,10a2,17139;SOL_COMPUTED,INS_PSRDIFF,0.000,131.700,2.3451,110.359066,-0.1150,0*71f4850b
#BESTVELA,FILE,0,30.5,FINESTEERING,2319,306157.500,02000800,10a2,17139;SOL_COMPUTED,INS_PSRDIFF,0.000,131.700,2.3413,109.976757,-0.0991,0*cd5866f3
#BESTVELA,FILE,0,30.5,FINESTEERING,2319,306157.550,02000800,10a2,17139;SOL_COMPUTED,INS_PSRDIFF,0.000,131.700,2.3261,110.022673,-0.0659,0*956052d6
#BESTVELA,FILE,0,30.5,FINESTEERING,2319,306157.600,02000800,10a2,17139;SOL_COMPUTED,INS_PSRDIFF,0.000,131.700,2.3457,110.420111,-0.0230,0*d0cab1d2
#BESTVELA,FILE,0,30.5,FINESTEERING,2319,306157.650,02000800,10a2,17139;SOL_COMPUTED,INS_PSRDIFF,0.000,131.700,2.3545,110.708317,0.0313,0*144c234f
#BESTVELA,FILE,0,30.5,FINESTEERING,2319,306157.700,02000800,10a2,17139;SOL_COMPUTED,INS_PSRDIFF,0.000,131.700,2.3732,110.547513,0.0978,0*517b0db3
#BESTVELA,FILE,0,30.5,FINESTEERING,2319,306157.750,02000800,10a2,17139;SOL_COMPUTED,INS_PSRDIFF,0.000,131.700,2.3759,110.628836,0.1483,0*2718dda8
#BESTVELA,FILE,0,30.5,FINESTEERING,2319,306157.800,02000800,10a2,17139;SOL_COMPUTED,INS_PSRDIFF,0.000,131.700,2.3857,111.119844,0.1544,0*c3d47fa3
#BESTVELA,FILE,0,30.5,FINESTEERING,2319,306157.850,02000800,10a2,17139;SOL_COMPUTED,INS_PSRDIFF,0.000,131.700,2.3662,111.996776,0.1371,0*e640bcca
#BESTVELA,FILE,0,30.5,FINESTEERING,2319,306157.900,02000800,10a2,17139;SOL_COMPUTED,INS_PSRDIFF,0.000,131.700,2.3463,112.355410,0.0907,0*0ab8d383
#BESTVELA,FILE,0,30.5,FINESTEERING,2319,306157.950,02000800,10a2,17139;SOL_COMPUTED,INS_PSRDIFF,0.000,131.700,2.3010,112.724675,0.0605,0*96d66a8e
#BESTVELA,FILE,0,30.5,FINESTEERING,2319,306158.000,02000800,10a2,17139;SOL_COMPUTED,INS_PSRDIFF,0.000,131.700,2.2863,112.442173,0.0228,0*d6ff5208
#BESTVELA,FILE,0,30.5,FINESTEERING,2319,306158.050,02000800,10a2,17139;SOL_COMPUTED,INS_PSRDIFF,0.000,132.700,2.2571,113.202811,-0.0070,0*4a76e7d5
#BESTVELA,FILE,0,30.5,FINESTEERING,2319,306158.100,02000800,10a2,17139;SOL_COMPUTED,INS_PSRDIFF,0.000,132.700,2.2376,114.230460,-0.0275,0*11b3dbdc
#BESTVELA,FILE,0,30.5,FINESTEERING,2319,306158.150,02000000,10a2,17139;SOL_COMPUTED,INS_PSRDIFF,0.000,132.700,2.2267,115.562482,-0.0164,0*645cd3f3
#BESTVELA,FILE,0,30.5,FINESTEERING,2319,306158.200,02000000,10a2,17139;SOL_COMPUTED,INS_PSRDIFF,0.000,132.700,2.2330,116.205636,-0.0006,0*209bda1a
#BESTVELA,FILE,0,30.5,FINESTEERING,2319,306158.250,02000000,10a2,17139;SOL_COMPUTED,INS_PSRDIFF,0.000,132.700,2.2349,116.705982,0.0189,0*297c49d3
#BESTVELA,FILE,0,30.5,FINESTEERING,2319,306158.300,02000000,10a2,17139;SOL_COMPUTED,INS_PSRDIFF,0.000,132.700,2.2585,117.239461,0.0374,0*fead28b6
#BESTVELA,FILE,0,30.5,FINESTEERING,2319,306158.350,02000000,10a2,17139;SOL_COMPUTED,INS_PSRDIFF,0.000,132.700,2.2825,117.633548,0.0593,0*c4a6e85c
#BESTVELA,FILE,0,30.5,FINESTEERING,2319,306158.400,02000000,10a2,17139;SOL_COMPUTED,INS_PSRDIFF,0.000,132.700,2.3053,117.881199,0.0475,0*dece34ba
#BESTVELA,FILE,0,30.5,FINESTEERING,2319,306158.450,02000000,10a2,17139;SOL_COMPUTED,INS_PSRDIFF,0.000,132.700,2.3250,118.234709,0.0413,0*ddeb75ba
#BESTVELA,FILE,0,30.5,FINESTEERING,2319,306158.500,02000000,10a2,17139;SOL_COMPUTED,INS_PSRDIFF,0.000,132.700,2.3601,118.620832,0.0427,0*6f9948f5
#BESTVELA,FILE,0,30.5,FINESTEERING,2319,306158.550,02000000,10a2,17139;SOL_COMPUTED,INS_PSRDIFF,0.000,132.700,2.3720,118.700354,0.0518,0*7ee4462f
#BESTVELA,FILE,0,30.5,FINESTEERING,2319,306158.600,02000000,10a2,17139;SOL_COMPUTED,INS_PSRDIFF,0.000,132.700,2.4165,118.995367,0.0312,0*a25936f1
#BESTVELA,FILE,0,30.5,FINESTEERING,2319,306158.650,02000000,10a2,17139;SOL_COMPUTED,INS_PSRDIFF,0.000,132.700,2.4413,118.998313,0.0098,0*914c2a62
#BESTVELA,FILE,0,30.5,FINESTEERING,2319,306158.700,02000000,10a2,17139;SOL_COMPUTED,INS_PSRDIFF,0.000,132.700,2.4776,119.390927,0.0032,0*0d58e3de
#BESTVELA,FILE,0,30.5,FINESTEERING,2319,306158.750,02000000,10a2,17139;SOL_COMPUTED,INS_PSRDIFF,0.000,132.700,2.5222,119.608664,-0.0014,0*c2cbbe47
#BESTVELA,FILE,0,30.5,FINESTEERING,2319,306158.800,02000000,10a2,17139;SOL_COMPUTED,INS_PSRDIFF,0.000,132.700,2.5659,120.353779,0.0056,0*bd4c500b
#BESTVELA,FILE,0,30.5,FINESTEERING,2319,306158.850,02000000,10a2,17139;SOL_COMPUTED,INS_PSRDIFF,0.000,132.700,2.6131,120.617537,0.0018,0*3a0c60b2
#BESTVELA,FILE,0,30.5,FINESTEERING,2319,306158.900,02000000,10a2,17139;SOL_COMPUTED,INS_PSRDIFF,0.000,132.700,2.6671,121.185619,0.0025,0*5e7281c5
#BESTVELA,FILE,0,30.5,FINESTEERING,2319,306158.950,02000000,10a2,17139;SOL_COMPUTED,INS_PSRDIFF,0.000,132.700,2.7127,121.865423,0.0059,0*8c240b13
#BESTVELA,FILE,0,30.5,FINESTEERING,2319,306159.000,02000000,10a2,17139;SOL_COMPUTED,INS_PSRDIFF,0.000,132.700,2.7688,122.927858,0.0307,0*fcfe45de
#BESTVELA,FILE,0,30.5,FINESTEERING,2319,306159.050,02000000,10a2,17139;SOL_COMPUTED,INS_PSRDIFF,0.000,133.700,2.8397,123.848606,0.0469,0*0717ea29
#BESTVELA,FILE,0,29.0,FINESTEERING,2319,306159.100,02000000,10a2,17139;SOL_COMPUTED,INS_PSRDIFF,0.000,133.700,2.8984,124.771755,0.0713,0*7f9162db
#BESTVELA,FILE,0,29.0,FINESTEERING,2319,306159.150,02000000,10a2,17139;SOL_COMPUTED,INS_PSRDIFF,0.000,133.700,2.9432,125.742904,0.0743,0*c6f28921
#BESTVELA,FILE,0,29.0,FINESTEERING,2319,306159.200,02000000,10a2,17139;SOL_COMPUTED,INS_PSRDIFF,0.000,133.700,3.0027,126.431781,0.0741,0*bbca367f
#BESTVELA,FILE,0,29.0,FINESTEERING,2319,306159.250,02000000,10a2,17139;SOL_COMPUTED,INS_PSRDIFF,0.000,133.700,3.0450,127.144244,0.0561,0*0c9398ab
#BESTVELA,FILE,0,29.0,FINESTEERING,2319,306159.300,02000000,10a2,17139;SOL_COMPUTED,INS_PSRDIFF,0.000,133.700,3.0758,127.744532,0.0493,0*fcd91e65
#BESTVELA,FILE,0,29.0,FINESTEERING,2319,306159.350,02000000,10a2,17139;SOL_COMPUTED,INS_PSRDIFF,0.000,133.700,3.1219,128.453955,0.0335,0*17f92c58
#BESTVELA,FILE,0,29.0,FINESTEERING,2319,306159.400,02000000,10a2,17139;SOL_COMPUTED,INS_PSRDIFF,0.000,133.700,3.1517,129.506666,0.0385,0*f67bd824
#BESTVELA,FILE,0,29.0,FINESTEERING,2319,306159.450,02000000,10a2,17139;SOL_COMPUTED,INS_PSRDIFF,0.000,133.700,3.1835,130.775580,0.0457,0*e1856a35
#BESTVELA,FILE,0,29.0,FINESTEERING,2319,306159.500,02000000,10a2,17139;SOL_COMPUTED,INS_PSRDIFF,0.000,133.700,3.2156,132.130030,0.0517,0*67e687b6
#BESTVELA,FILE,0,29.0,FINESTEERING,2319,306159.550,02000000,10a2,17139;SOL_COMPUTED,INS_PSRDIFF,0.000,133.700,3.2497,133.454986,0.0546,0*5c80972c
#BESTVELA,FILE,0,29.0,FINESTEERING,2319,306159.600,02000000,10a2,17139;SOL_COMPUTED,INS_PSRDIFF,0.000,133.700,3.2722,134.410354,0.0575,0*94ba87fa
#BESTVELA,FILE,0,29.0,FINESTEERING,2319,306159.650,02000000,10a2,17139;SOL_COMPUTED,INS_PSRDIFF,0.000,133.700,3.2961,135.528823,0.0531,0*a7f6ba1b
#BESTVELA,FILE,0,29.0,FINESTEERING,2319,306159.700,02000000,10a2,17139;SOL_COMPUTED,INS_PSRDIFF,0.000,133.700,3.3123,136.416605,0.0470,0*4af76a9c
#BESTVELA,FILE,0,29.0,FINESTEERING,2319,306159.750,02000000,10a2,17139;SOL_COMPUTED,INS_PSRDIFF,0.000,133.700,3.3268,137.002611,0.0546,0*5eaf859e
#BESTVELA,FILE,0,29.0,FINESTEERING,2319,306159.800,02000000,10a2,17139;SOL_COMPUTED,INS_PSRDIFF,0.000,133.700,3.3516,137.484450,0.0614,0*e47e5be0
#BESTVELA,FILE,0,29.0,FINESTEERING,2319,306159.850,02000000,10a2,17139;SOL_COMPUTED,INS_PSRDIFF,0.000,133.700,3.3723,137.962946,0.0744,0*a1e343ea
#BESTVELA,FILE,0,29.0,FINESTEERING,2319,306159.900,02000000,10a2,17139;SOL_COMPUTED,INS_PSRDIFF,0.000,133.700,3.3880,138.600359,0.0735,0*c040c6a2
#BESTVELA,FILE,0,29.0,FINESTEERING,2319,306159.950,02000000,10a2,17139;SOL_COMPUTED,INS_PSRDIFF,0.000,133.700,3.4072,139.158903,0.0862,0*e49a1927
#BESTVELA,FILE,0,29.0,FINESTEERING,2319,306160.000,02000000,10a2,17139;SOL_COMPUTED,INS_PSRDIFF,0.000,133.700,3.4219,139.676610,0.1133,0*69702295
#BESTVELA,FILE,0,29.0,FINESTEERING,2319,306160.050,02000000,10a2,17139;SOL_COMPUTED,INS_PSRDIFF,0.000,134.700,3.4404,140.510002,0.1232,0*f5910c84
#BESTVELA,FILE,0,29.0,FINESTEERING,2319,306160.100,02000000,10a2,17139;SOL_COMPUTED,INS_PSRDIFF,0.000,134.700,3.4531,141.485679,0.1262,0*e93828df
#BESTVELA,FILE,0,30.0,FINESTEERING,2319,306160.150,02000000,10a2,17139;SOL_COMPUTED,INS_PSRDIFF,0.000,134.700,3.4685,142.578560,0.1291,0*257720a2
#BESTVELA,FILE,0,30.0,FINESTEERING,2319,306160.200,02000000,10a2,17139;SOL_COMPUTED,INS_PSRDIFF,0.000,134.700,3.4761,143.716054,0.1076,0*a254d480
#BESTVELA,FILE,0,30.0,FINESTEERING,2319,306160.250,02000000,10a2,17139;SOL_COMPUTED,INS_PSRDIFF,0.000,134.700,3.4779,144.911443,0.0787,0*f3343f7e
#BESTVELA,FILE,0,30.0,FINESTEERING,2319,306160.300,02000000,10a2,17139;SOL_COMPUTED,INS_PSRDIFF,0.000,134.700,3.4788,146.163665,0.0418,0*9170c1a1
#BESTVELA,FILE,0,30.0,FINESTEERING,2319,306160.350,02000000,10a2,17139;SOL_COMPUTED,INS_PSRDIFF,0.000,134.700,3.4683,147.307848,0.0123,0*02b6bb3e
#BESTVELA,FILE,0,30.0,FINESTEERING,2319,306160.400,02000000,10a2,17139;SOL_COMPUTED,INS_PSRDIFF,0.000,134.700,3.4738,148.522308,-0.0111,0*c1e5a717
#BESTVELA,FILE,0,30.0,FINESTEERING,2319,306160.450,02000000,10a2,17139;SOL_COMPUTED,INS_PSRDIFF,0.000,134.700,3.4778,149.522765,-0.0278,0*885df17e
#BESTVELA,FILE,0,30.0,FINESTEERING,2319,306160.500,02000000,10a2,17139;SOL_COMPUTED,INS_PSRDIFF,0.000,134.700,3.4895,150.557086,-0.0263,0*314032bc
#BESTVELA,FILE,0,30.0,FINESTEERING,2319,306160.550,02000000,10a2,17139;SOL_COMPUTED,INS_PSRDIFF,0.000,134.700,3.5092,151.556594,-0.0214,0*388042b3
#BESTVELA,FILE,0,30.0,FINESTEERING,2319,306160.600,02000000,10a2,17139;SOL_COMPUTED,INS_PSRDIFF,0.000,134.700,3.5401,152.318592,-0.0041,0*796075e8
#BESTVELA,FILE,0,30.0,FINESTEERING,2319,306160.650,02000000,10a2,17139;SOL_COMPUTED,INS_PSRDIFF,0.000,134.700,3.5781,153.044163,0.0173,0*f022784e
#BESTVELA,FILE,0,30.0,FINESTEERING,2319,306160.700,02000000,10a2,17139;SOL_COMPUTED,INS_PSRDIFF,0.000,134.700,3.6126,153.545472,0.0350,0*86ee4822
#BESTVELA,FILE,0,30.0,FINESTEERING,2319,306160.750,02000000,10a2,17139;SOL_COMPUTED,INS_PSRDIFF,0.000,134.700,3.6461,154.055313,0.0450,0*b4f3cf55
#BESTVELA,FILE,0,30.0,FINESTEERING,2319,306160.800,02000000,10a2,17139;SOL_COMPUTED,INS_PSRDIFF,0.000,134.700,3.6744,154.402562,0.0542,0*1e31fc7a
#BESTVELA,FILE,0,30.0,FINESTEERING,2319,306160.850,02000000,10a2,17139;SOL_COMPUTED,INS_PSRDIFF,0.000,134.700,3.6958,154.862787,0.0656,0*1d86e3f1
#BESTVELA,FILE,0,30.0,FINESTEERING,2319,306160.900,02000000,10a2,17139;SOL_COMPUTED,INS_PSRDIFF,0.000,134.700,3.7077,155.548085,0.0628,0*950c5dfb
#BESTVELA,FILE,0,30.0,FINESTEERING,2319,306160.950,02000000,10a2,17139;SOL_COMPUTED,INS_PSRDIFF,0.000,134.700,3.7314,156.314741,0.0735,0*acb38ccd
#BESTVELA,FILE,0,30.0,FINESTEERING,2319,306161.000,02000000,10a2,17139;SOL_COMPUTED,INS_PSRDIFF,0.000,134.700,3.7608,157.332910,0.0672,0*f1beca58
#BESTVELA,FILE,0,30.0,FINESTEERING,2319,306161.050,02000000,10a2,17139;SOL_COMPUTED,INS_PSRDIFF,0.000,135.700,3.7753,158.278774,0.0732,0*bb34318f
#BESTVELA,FILE,0,27.5,FINESTEERING,2319,306161.100,02000000,10a2,17139;SOL_COMPUTED,INS_PSRDIFF,0.000,135.700,3.8007,159.240173,0.0652,0*86613856
#BESTVELA,FILE,0,27.5,FINESTEERING,2319,306161.150,02000000,10a2,17139;SOL_COMPUTED,INS_PSRDIFF,0.000,135.700,3.8296,159.983218,0.0629,0*36652bdc
#BESTVELA,FILE,0,27.5,FINESTEERING,2319,306161.200,02000000,10a2,17139;SOL_COMPUTED,INS_PSRDIFF,0.000,135.700,3.8490,160.457800,0.0510,0*30a02c5e
#BESTVELA,FILE,0,27.5,FINESTEERING,2319,306161.250,02000000,10a2,17139;SOL_COMPUTED,INS_PSRDIFF,0.000,135.700,3.8576,160.841280,0.0431,0*fbbdc497
#BESTVELA,FILE,0,27.5,FINESTEERING,2319,306161.300,02000000,10a2,17139;SOL_COMPUTED,INS_PSRDIFF,0.000,135.700,3.8802,161.321762,0.0355,0*5f647489
#BESTVELA,FILE,0,27.5,FINESTEERING,2319,306161.350,02000000,10a2,17139;SOL_COMPUTED,INS_PSRDIFF,0.000,135.700,3.9012,161.728093,0.0391,0*52e556ec
#BESTVELA,FILE,0,27.5,FINESTEERING,2319,306161.400,02000000,10a2,17139;SOL_COMPUTED,INS_PSRDIFF,0.000,135.700,3.9320,162.497342,0.0499,0*088d0d6d
#BESTVELA,FILE,0,27.5,FINESTEERING,2319,306161.450,02000000,10a2,17139;SOL_COMPUTED,INS_PSRDIFF,0.000,135.700,3.9586,163.292134,0.0562,0*4ef37a93
#BESTVELA,FILE,0,27.5,FINESTEERING,2319,306161.500,02000000,10a2,17139;SOL_COMPUTED,INS_PSRDIFF,0.000,135.700,3.9967,164.087070,0.0742,0*5789ff4f
#BESTVELA,FILE,0,27.5,FINESTEERING,2319,306161.550,02000000,10a2,17139;SOL_COMPUTED,INS_PSRDIFF,0.000,135.700,4.0445,164.967614,0.0821,0*48368832
#BESTVELA,FILE,0,27.5,FINESTEERING,2319,306161.600,02000000,10a2,17139;SOL_COMPUTED,INS_PSRDIFF,0.000,135.700,4.0772,165.516007,0.0853,0*30767ea5
#BESTVELA,FILE,0,27.5,FINESTEERING,2319,306161.650,02000000,10a2,17139;SOL_COMPUTED,INS_PSRDIFF,0.000,135.700,4.1005,165.831875,0.0883,0*a1ce8e6c
#BESTVELA,FILE,0,27.5,FINESTEERING,2319,306161.700,02000000,10a2,17139;SOL_COMPUTED,INS_PSRDIFF,0.000,135.700,4.1206,166.163160,0.0853,0*09a8bdd7
#BESTVELA,FILE,0,27.5,FINESTEERING,2319,306161.750,02000000,10a2,17139;SOL_COMPUTED,INS_PSRDIFF,0.000,135.700,4.1378,166.514456,0.0771,0*422c2856
#BESTVELA,FILE,0,27.5,FINESTEERING,2319,306161.800,02000000,10a2,17139;SOL_COMPUTED,INS_PSRDIFF,0.000,135.700,4.1561,166.897086,0.0774,0*1d460864
#BESTVELA,FILE,0,27.5,FINESTEERING,2319,306161.850,02000000,10a2,17139;SOL_COMPUTED,INS_PSRDIFF,0.000,135.700,4.1730,167.215501,0.0903,0*a39ac1b6
#BESTVELA,FILE,0,27.5,FINESTEERING,2319,306161.900,02000000,10a2,17139;SOL_COMPUTED,INS_PSRDIFF,0.000,135.700,4.1955,167.550944,0.0974,0*5246c692
#BESTVELA,FILE,0,27.5,FINESTEERING,2319,306161.950,02000000,10a2,17139;SOL_COMPUTED,INS_PSRDIFF,0.000,135.700,4.2243,167.967649,0.1109,0*e31eb7b3
#BESTVELA,FILE,0,27.5,FINESTEERING,2319,306162.000,02000000,10a2,17139;SOL_COMPUTED,INS_PSRDIFF,0.000,135.700,4.2672,168.380325,0.1140,0*031a0d79
#BESTVELA,FILE,0,27.5,FINESTEERING,2319,306162.050,02000000,10a2,17139;SOL_COMPUTED,INS_PSRDIFF,0.000,136.700,4.2918,168.717663,0.1153,0*1aa4d36b
#BESTVELA,FILE,0,27.5,FINESTEERING,2319,306162.100,02000000,10a2,17139;SOL_COMPUTED,INS_PSRDIFF,0.000,136.700,4.3112,169.037963,0.1036,0*7c0ed5d7
#BESTVELA,FILE,0,29.5,FINESTEERING,2319,306162.150,02000000,10a2,17139;SOL_COMPUTED,INS_PSRDIFF,0.000,136.700,4.3251,169.540626,0.0746,0*f0f0ff32
#BESTVELA,FILE,0,29.5,FINESTEERING,2319,306162.200,02000000,10a2,17139;SOL_COMPUTED,INS_PSRDIFF,0.000,136.700,4.3271,169.992777,0.0545,0*4ea0e4c8
#BESTVELA,FILE,0,29.5,FINESTEERING,2319,306162.250,02000000,10a2,17139;SOL_COMPUTED,INS_PSRDIFF,0.000,136.700,4.3459,170.342801,0.0446,0*4cef6a55
#BESTVELA,FILE,0,29.5,FINESTEERING,2319,306162.300,02000000,10a2,17139;SOL_COMPUTED,INS_PSRDIFF,0.000,136.700,4.3660,170.675170,0.0465,0*543e3256
#BESTVELA,FILE,0,29.5,FINESTEERING,2319,306162.350,02000000,10a2,17139;SOL_COMPUTED,INS_PSRDIFF,0.000,136.700,4.3863,171.191681,0.0520,0*ba1c1ee1
#BESTVELA,FILE,0,29.5,FINESTEERING,2319,306162.400,02000000,10a2,17139;SOL_COMPUTED,INS_PSRDIFF,0.000,136.700,4.4212,171.688833,0.0529,0*e8e2372e
#BESTVELA,FILE,0,29.5,FINESTEERING,2319,306162.450,02000000,10a2,17139;SOL_COMPUTED,INS_PSRDIFF,0.000,136.700,4.4485,172.004744,0.0614,0*2d3810ad
#BESTVELA,FILE,0,29.5,FINESTEERING,2319,306162.500,02000000,10a2,17139;SOL_COMPUTED,INS_PSRDIFF,0.000,136.700,4.4794,172.135390,0.0692,0*7cfe6893
#BESTVELA,FILE,0,29.5,FINESTEERING,2319,306162.550,02000000,10a2,17139;SOL_COMPUTED,INS_PSRDIFF,0.000,136.700,4.5014,172.319695,0.0490,0*351c2abb
#BESTVELA,FILE,0,29.5,FINESTEERING,2319,306162.600,02000000,10a2,17139;SOL_COMPUTED,INS_PSRDIFF,0.000,136.700,4.5204,172.433171,0.0485,0*61052fda
#BESTVELA,FILE,0,29.5,FINESTEERING,2319,306162.650,02000000,10a2,17139;SOL_COMPUTED,INS_PSRDIFF,0.000,136.700,4.5483,172.805989,0.0317,0*5c34451e
#BESTVELA,FILE,0,29.5,FINESTEERING,2319,306162.700,02000000,10a2,17139;SOL_COMPUTED,INS_PSRDIFF,0.000,136.700,4.5708,172.904473,0.0335,0*ad76a96b
#BESTVELA,FILE,0,29.5,FINESTEERING,2319,306162.750,02000000,10a2,17139;SOL_COMPUTED,INS_PSRDIFF,0.000,136.700,4.6100,173.201112,0.0379,0*b3207383
#BESTVELA,FILE,0,29.5,FINESTEERING,2319,306162.800,02000000,10a2,17139;SOL_COMPUTED,INS_PSRDIFF,0.000,136.700,4.6362,173.570659,0.0268,0*f002cad7
#BESTVELA,FILE,0,29.5,FINESTEERING,2319,306162.850,02000000,10a2,17139;SOL_COMPUTED,INS_PSRDIFF,0.000,136.700,4.6643,173.677075,0.0488,0*a7fab7af
#BESTVELA,FILE,0,29.5,FINESTEERING,2319,306162.900,02000000,10a2,17139;SOL_COMPUTED,INS_PSRDIFF,0.000,136.700,4.7106,173.894003,0.0499,0*3000141a
#BESTVELA,FILE,0,29.5,FINESTEERING,2319,306162.950,02000000,10a2,17139;SOL_COMPUTED,INS_PSRDIFF,0.000,136.700,4.7407,174.060021,0.0524,0*2042884d
#BESTVELA,FILE,0,29.5,FINESTEERING,2319,306163.000,02000000,10a2,17139;SOL_COMPUTED,INS_PSRDIFF,0.000,136.700,4.7845,174.324426,0.0522,0*55382329
#BESTVELA,FILE,0,29.5,FINESTEERING,2319,306163.050,02000000,10a2,17139;SOL_COMPUTED,INS_PSRDIFF,0.000,137.700,4.8189,174.449001,0.0449,0*547276d1
#BESTVELA,FILE,0,29.5,FINESTEERING,2319,306163.100,02000000,10a2,17139;SOL_COMPUTED,INS_PSRDIFF,0.000,137.700,4.8493,174.497965,0.0477,0*871efc4e
#BESTVELA,FILE,0,30.0,FINESTEERING,2319,306163.150,02000000,10a2,17139;SOL_COMPUTED,INS_PSRDIFF,0.000,137.700,4.8790,174.718204,0.0365,0*34241360
#BESTVELA,FILE,0,30.0,FINESTEERING,2319,306163.200,02000000,10a2,17139;SOL_COMPUTED,INS_PSRDIFF,0.000,137.700,4.9134,174.832753,0.0362,0*231a801a
#BESTVELA,FILE,0,30.0,FINESTEERING,2319,306163.250,02000000,10a2,17139;SOL_COMPUTED,INS_PSRDIFF,0.000,137.700,4.9512,174.773471,0.0429,0*a228095a
#BESTVELA,FILE,0,30.0,FINESTEERING,2319,306163.300,02000000,10a2,17139;SOL_COMPUTED,INS_PSRDIFF,0.000,137.700,4.9899,174.740990,0.0480,0*eb507c32
#BESTVELA,FILE,0,30.0,FINESTEERING,2319,306163.350,02000000,10a2,17139;SOL_COMPUTED,INS_PSRDIFF,0.000,137.700,5.0226,174.672087,0.0608,0*079fe6c6
#BESTVELA,FILE,0,30.0,FINESTEERING,2319,306163.400,02000000,10a2,17139;SOL_COMPUTED,INS_PSRDIFF,0.000,137.700,5.0625,174.767681,0.0659,0*a55c6b5c
#BESTVELA,FILE,0,30.0,FINESTEERING,2319,306163.450,02000000,10a2,17139;SOL_COMPUTED,INS_PSRDIFF,0.000,137.700,5.0969,174.879593,0.0601,0*d31e12f9
#BESTVELA,FILE,0,30.0,FINESTEERING,2319,306163.500,02000000,10a2,17139;SOL_COMPUTED,INS_PSRDIFF,0.000,137.700,5.1344,174.937409,0.0654,0*12662bcf
#BESTVELA,FILE,0,30.0,FINESTEERING,2319,306163.550,02000000,10a2,17139;SOL_COMPUTED,INS_PSRDIFF,0.000,137.700,5.1780,175.063979,0.0601,0*05cfabb8
#BESTVELA,FILE,0,30.0,FINESTEERING,2319,306163.600,02000000,10a2,17139;SOL_COMPUTED,INS_PSRDIFF,0.000,137.700,5.1983,174.907387,0.0666,0*62ca58e2
#BESTVELA,FILE,0,30.0,FINESTEERING,2319,306163.650,02000000,10a2,17139;SOL_COMPUTED,INS_PSRDIFF,0.000,137.700,5.2339,174.917440,0.0674,0*ff3ebe3e
#BESTVELA,FILE,0,30.0,FINESTEERING,2319,306163.700,02000000,10a2,17139;SOL_COMPUTED,INS_PSRDIFF,0.000,137.700,5.2597,174.925945,0.0527,0*f7364241
#BESTVELA,FILE,0,30.0,FINESTEERING,2319,306163.750,02000000,10a2,17139;SOL_COMPUTED,INS_PSRDIFF,0.000,137.700,5.2766,174.931750,0.0599,0*c4fe823b
#BESTVELA,FILE,0,30.0,FINESTEERING,2319,306163.800,02000000,10a2,17139;SOL_COMPUTED,INS_PSRDIFF,0.000,137.700,5.3095,175.230415,0.0439,0*c0f5facc
#BESTVELA,FILE,0,30.0,FINESTEERING,2319,306163.850,02000000,10a2,17139;SOL_COMPUTED,INS_PSRDIFF,0.000,137.700,5.3225,175.494356,0.0430,0*6e2ab227
#BESTVELA,FILE,0,30.0,FINESTEERING,2319,306163.900,02000000,10a2,17139;SOL_COMPUTED,INS_PSRDIFF,0.000,137.700,5.3612,176.025289,0.0385,0*00ec2488
#BESTVELA,FILE,0,30.0,FINESTEERING,2319,306163.950,02000000,10a2,17139;SOL_COMPUTED,INS_PSRDIFF,0.000,137.700,5.3903,176.337790,0.0375,0*3ccadb6a
#BESTVELA,FILE,0,30.0,FINESTEERING,2319,306164.000,02000000,10a2,17139;SOL_COMPUTED,INS_PSRDIFF,0.000,137.700,5.4178,176.715235,0.0301,0*376a01ad
#BESTVELA,FILE,0,30.0,FINESTEERING,2319,306164.050,02000000,10a2,17139;SOL_COMPUTED,INS_PSRDIFF,0.000,138.700,5.4663,176.921394,0.0408,0*faa5f1d9
#BESTVELA,FILE,0,30.0,FINESTEERING,2319,306164.100,02000000,10a2,17139;SOL_COMPUTED,INS_PSRDIFF,0.000,138.700,5.4932,177.049269,0.0524,0*dfae320a
#BESTVELA,FILE,0,30.0,FINESTEERING,2319,306164.150,02000000,10a2,17139;SOL_COMPUTED,INS_PSRDIFF,0.000,138.700,5.5187,177.383958,0.0585,0*e891c842
#BESTVELA,FILE,0,30.0,FINESTEERING,2319,306164.200,02000000,10a2,17139;SOL_COMPUTED,INS_PSRDIFF,0.000,138.700,5.5567,177.737194,0.0617,0*76611c6e
#BESTVELA,FILE,0,30.0,FINESTEERING,2319,306164.250,02000000,10a2,17139;SOL_COMPUTED,INS_PSRDIFF,0.000,138.700,5.5901,177.921168,0.0736,0*ee1f763b
#BESTVELA,FILE,0,30.0,FINESTEERING,2319,306164.300,02000000,10a2,17139;SOL_COMPUTED,INS_PSRDIFF,0.000,138.700,5.6196,178.166168,0.0864,0*1d779e85
#BESTVELA,FILE,0,30.0,FINESTEERING,2319,306164.350,02000000,10a2,17139;SOL_COMPUTED,INS_PSRDIFF,0.000,138.700,5.6348,178.476382,0.0762,0*837f6fee
#BESTVELA,FILE,0,30.0,FINESTEERING,2319,306164.400,02000000,10a2,17139;SOL_COMPUTED,INS_PSRDIFF,0.000,138.700,5.6503,178.784831,0.0643,0*50071545
#BESTVELA,FILE,0,30.0,FINESTEERING,2319,306164.450,02000000,10a2,17139;SOL_COMPUTED,INS_PSRDIFF,0.000,138.700,5.6723,178.817274,0.0684,0*f42ac899
#BESTVELA,FILE,0,30.0,FINESTEERING,2319,306164.500,02000000,10a2,17139;SOL_COMPUTED,INS_PSRDIFF,0.000,138.700,5.6828,178.856136,0.0597,0*91891f0d
#BESTVELA,FILE,0,30.0,FINESTEERING,2319,306164.550,02000000,10a2,17139;SOL_COMPUTED,INS_PSRDIFF,0.000,138.700,5.7004,178.891107,0.0506,0*87832c8a
#BESTVELA,FILE,0,30.0,FINESTEERING,2319,306164.600,02000000,10a2,17139;SOL_COMPUTED,INS_PSRDIFF,0.000,138.700,5.7352,178.941027,0.0570,0*67a52503
#BESTVELA,FILE,0,30.0,FINESTEERING,2319,306164.650,02000000,10a2,17139;SOL_COMPUTED,INS_PSRDIFF,0.000,138.700,5.7580,178.801955,0.0660,0*a0ec5f91
#BESTVELA,FILE,0,30.0,FINESTEERING,2319,306164.700,02000000,10a2,17139;SOL_COMPUTED,INS_PSRDIFF,0.000,138.700,5.7833,178.801226,0.0745,0*55fe74b9
#BESTVELA,FILE,0,30.0,FINESTEERING,2319,306164.750,02000000,10a2,17139;SOL_COMPUTED,INS_PSRDIFF,0.000,138.700,5.8026,178.767732,0.0866,0*898e0fd0
#BESTVELA,FILE,0,30.0,FINESTEERING,2319,306164.800,02000000,10a2,17139;SOL_COMPUTED,INS_PSRDIFF,0.000,138.700,5.8377,178.938280,0.1069,0*89fb16a9
#BESTVELA,FILE,0,30.0,FINESTEERING,2319,306164.850,02000000,10a2,17139;SOL_COMPUTED,INS_PSRDIFF,0.000,138.700,5.8601,179.194728,0.1184,0*ee8fce40
#BESTVELA,FILE,0,30.0,FINESTEERING,2319,306164.900,02000000,10a2,17139;SOL_COMPUTED,INS_PSRDIFF,0.000,138.700,5.8809,179.291354,0.1321,0*be769329
#BESTVELA,FILE,0,30.0,FINESTEERING,2319,306164.950,02000000,10a2,17139;SOL_COMPUTED,INS_PSRDIFF,0.000,138.700,5.9153,179.367264,0.1436,0*bf99f956
#BESTVELA,FILE,0,30.0,FINESTEERING,2319,306165.000,02000000,10a2,17139;SOL_COMPUTED,INS_PSRDIFF,0.000,138.700,5.9393,179.290262,0.1396,0*15b7b226
#BESTVELA,FILE,0,30.0,FINESTEERING,2319,306165.050,02000000,10a2,17139;SOL_COMPUTED,INS_PSRDIFF,0.000,139.700,5.9492,179.298531,0.1189,0*a3749c1b
#BESTVELA,FILE,0,30.0,FINESTEERING,2319,306165.100,02000000,10a2,17139;SOL_COMPUTED,INS_PSRDIFF,0.000,139.700,5.9627,179.271345,0.1132,0*acd067b2
#BESTVELA,FILE,0,30.5,FINESTEERING,2319,306165.150,02000000,10a2,17139;SOL_COMPUTED,INS_PSRDIFF,0.000,139.700,5.9682,179.384231,0.0832,0*edc1082c
#BESTVELA,FILE,0,30.5,FINESTEERING,2319,306165.200,02000000,10a2,17139;SOL_COMPUTED,INS_PSRDIFF,0.000,139.700,5.9794,179.301625,0.0735,0*8a4833ee
#BESTVELA,FILE,0,30.5,FINESTEERING,2319,306165.250,02000000,10a2,17139;SOL_COMPUTED,INS_PSRDIFF,0.000,139.700,6.0068,179.296933,0.0848,0*a63b4aad
#BESTVELA,FILE,0,30.5,FINESTEERING,2319,306165.300,02000000,10a2,17139;SOL_COMPUTED,INS_PSRDIFF,0.000,139.700,6.0224,179.195095,0.0831,0*db3313ee
#BESTVELA,FILE,0,30.5,FINESTEERING,2319,306165.350,02000000,10a2,17139;SOL_COMPUTED,INS_PSRDIFF,0.000,139.700,6.0620,179.171816,0.0960,0*4d9178e1
#BESTVELA,FILE,0,30.5,FINESTEERING,2319,306165.400,02000000,10a2,17139;SOL_COMPUTED,INS_PSRDIFF,0.000,139.700,6.0864,179.236795,0.0979,0*3b70cc24
#BESTVELA,FILE,0,30.5,FINESTEERING,2319,306165.450,02000000,10a2,17139;SOL_COMPUTED,INS_PSRDIFF,0.000,139.700,6.0944,179.333374,0.0943,0*58b6b8c8
#BESTVELA,FILE,0,30.5,FINESTEERING,2319,306165.500,02000000,10a2,17139;SOL_COMPUTED,INS_PSRDIFF,0.000,139.700,6.1205,179.461428,0.0916,0*8a31f778
#BESTVELA,FILE,0,30.5,FINESTEERING,2319,306165.550,02000000,10a2,17139;SOL_COMPUTED,INS_PSRDIFF,0.000,139.700,6.1473,179.594271,0.0863,0*11fdfd3f
#BESTVELA,FILE,0,30.5,FINESTEERING,2319,306165.600,02000000,10a2,17139;SOL_COMPUTED,INS_PSRDIFF,0.000,139.700,6.1663,179.527743,0.0927,0*d6eb1286
#BESTVELA,FILE,0,30.5,FINESTEERING,2319,306165.650,02000000,10a2,17139;SOL_COMPUTED,INS_PSRDIFF,0.000,139.700,6.1964,179.573894,0.0813,0*2db7c21c
#BESTVELA,FILE,0,30.5,FINESTEERING,2319,306165.700,02000000,10a2,17139;SOL_COMPUTED,INS_PSRDIFF,0.000,139.700,6.1970,179.463138,0.0814,0*db7a0f53
#BESTVELA,FILE,0,30.5,FINESTEERING,2319,306165.750,02000000,10a2,17139;SOL_COMPUTED,INS_PSRDIFF,0.000,139.700,6.2228,179.677839,0.0638,0*d39aa8ba
#BESTVELA,FILE,0,30.5,FINESTEERING,2319,306165.800,02000000,10a2,17139;SOL_COMPUTED,INS_PSRDIFF,0.000,139.700,6.2269,179.694106,0.0595,0*10518797
#BESTVELA,FILE,0,30.5,FINESTEERING,2319,306165.850,02000000,10a2,17139;SOL_COMPUTED,INS_PSRDIFF,0.000,139.700,6.2566,179.685071,0.0671,0*49f12172
#BESTVELA,FILE,0,30.5,FINESTEERING,2319,306165.900,02000000,10a2,17139;SOL_COMPUTED,INS_PSRDIFF,0.000,139.700,6.2839,179.708563,0.0618,0*d88aeb57
#BESTVELA,FILE,0,30.5,FINESTEERING,2319,306165.950,02000000,10a2,17139;SOL_COMPUTED,INS_PSRDIFF,0.000,139.700,6.3074,179.619167,0.0721,0*ad4c7bf6
#BESTVELA,FILE,0,30.5,FINESTEERING,2319,306166.000,02000000,10a2,17139;SOL_COMPUTED,INS_PSRDIFF,0.000,139.700,6.3289,179.745781,0.0777,0*ab7399ca
#BESTVELA,FILE,0,30.5,FINESTEERING,2319,306166.050,02000000,10a2,17139;SOL_COMPUTED,INS_PSRDIFF,0.000,140.700,6.3512,179.788292,0.0757,0*19354f21
#BESTVELA,FILE,0,28.5,FINESTEERING,2319,306166.100,02000000,10a2,17139;SOL_COMPUTED,INS_PSRDIFF,0.000,140.700,6.3701,179.879984,0.0819,0*686a4133
#BESTVELA,FILE,0,28.5,FINESTEERING,2319,306166.150,02000000,10a2,17139;SOL_COMPUTED,INS_PSRDIFF,0.000,140.700,6.4071,180.012430,0.0774,0*c57edb3f
#BESTVELA,FILE,0,28.5,FINESTEERING,2319,306166.200,02000000,10a2,17139;SOL_COMPUTED,INS_PSRDIFF,0.000,140.700,6.4156,179.851923,0.0960,0*2eeabd85
#BESTVELA,FILE,0,28.5,FINESTEERING,2319,306166.250,02000000,10a2,17139;SOL_COMPUTED,INS_PSRDIFF,0.000,140.700,6.4438,179.989016,0.0846,0*e2debc4d
#BESTVELA,FILE,0,28.5,FINESTEERING,2319,306166.300,02000000,10a2,17139;SOL_COMPUTED,INS_PSRDIFF,0.000,140.700,6.4533,179.967170,0.0949,0*e9931f6e
#BESTVELA,FILE,0,28.5,FINESTEERING,2319,306166.350,02000000,10a2,17139;SOL_COMPUTED,INS_PSRDIFF,0.000,140.700,6.4739,180.070178,0.0894,0*c350588e
#BESTVELA,FILE,0,28.5,FINESTEERING,2319,306166.400,02000000,10a2,17139;SOL_COMPUTED,INS_PSRDIFF,0.000,140.700,6.4937,180.081316,0.0836,0*34f530b1
#BESTVELA,FILE,0,28.5,FINESTEERING,2319,306166.450,02000000,10a2,17139;SOL_COMPUTED,INS_PSRDIFF,0.000,140.700,6.5193,180.049161,0.0852,0*966ab692
#BESTVELA,FILE,0,28.5,FINESTEERING,2319,306166.500,02000000,10a2,17139;SOL_COMPUTED,INS_PSRDIFF,0.000,140.700,6.5220,180.041828,0.0749,0*11e82b59
#BESTVELA,FILE,0,28.5,FINESTEERING,2319,306166.550,02000000,10a2,17139;SOL_COMPUTED,INS_PSRDIFF,0.000,140.700,6.5375,180.152626,0.0619,0*fbe8b32b
#BESTVELA,FILE,0,28.5,FINESTEERING,2319,306166.600,02000000,10a2,17139;SOL_COMPUTED,INS_PSRDIFF,0.000,140.700,6.5488,180.168365,0.0675,0*2ffd3fe6
#BESTVELA,FILE,0,28.5,FINESTEERING,2319,306166.650,02000000,10a2,17139;SOL_COMPUTED,INS_PSRDIFF,0.000,140.700,6.5733,180.346930,0.0776,0*a50f0930
#BESTVELA,FILE,0,28.5,FINESTEERING,2319,306166.700,02000000,10a2,17139;SOL_COMPUTED,INS_PSRDIFF,0.000,140.700,6.5902,180.276562,0.0840,0*78199e46
#BESTVELA,FILE,0,28.5,FINESTEERING,2319,306166.750,02000000,10a2,17139;SOL_COMPUTED,INS_PSRDIFF,0.000,140.700,6.6119,180.235353,0.0997,0*4de559c3
#BESTVELA,FILE,0,28.5,FINESTEERING,2319,306166.800,02000000,10a2,17139;SOL_COMPUTED,INS_PSRDIFF,0.000,140.700,6.6334,180.296526,0.0916,0*0e324a54
#BESTVELA,FILE,0,28.5,FINESTEERING,2319,306166.850,02000000,10a2,17139;SOL_COMPUTED,INS_PSRDIFF,0.000,140.700,6.6374,180.297541,0.0951,0*dce03e05
#BESTVELA,FILE,0,28.5,FINESTEERING,2319,306166.900,02000000,10a2,17139;SOL_COMPUTED,INS_PSRDIFF,0.000,140.700,6.6581,180.407765,0.0995,0*abc16b5c
#BESTVELA,FILE,0,28.5,FINESTEERING,2319,306166.950,02000000,10a2,17139;SOL_COMPUTED,INS_PSRDIFF,0.000,140.700,6.6843,180.402943,0.1049,0*7e80809a
#BESTVELA,FILE,0,28.5,FINESTEERING,2319,306167.000,02000000,10a2,17139;SOL_COMPUTED,INS_PSRDIFF,0.000,140.700,6.6890,180.461934,0.1061,0*3d646be4
#BESTVELA,FILE,0,28.5,FINESTEERING,2319,306167.050,02000000,10a2,17139;SOL_COMPUTED,INS_PSRDIFF,0.000,141.700,6.7014,180.525554,0.0985,0*99f2d354
#BESTVELA,FILE,0,28.5,FINESTEERING,2319,306167.100,02000000,10a2,17139;SOL_COMPUTED,INS_PSRDIFF,0.000,141.700,6.7167,180.573272,0.0881,0*941e9642
#BESTVELA,FILE,0,30.5,FINESTEERING,2319,306167.150,02000000,10a2,17139;SOL_COMPUTED,INS_PSRDIFF,0.000,141.700,6.7284,180.576032,0.0988,0*d0ccc396
#BESTVELA,FILE,0,30.5,FINESTEERING,2319,306167.200,02000000,10a2,17139;SOL_COMPUTED,INS_PSRDIFF,0.000,141.700,6.7487,180.569206,0.0937,0*23ed4730
#BESTVELA,FILE,0,30.5,FINESTEERING,2319,306167.250,02000000,10a2,17139;SOL_COMPUTED,INS_PSRDIFF,0.000,141.700,6.7663,180.623293,0.0966,0*5d676e5e
#BESTVELA,FILE,0,30.5,FINESTEERING,2319,306167.300,02000000,10a2,17139;SOL_COMPUTED,INS_PSRDIFF,0.000,141.700,6.7966,180.647771,0.1025,0*acea0496
#BESTVELA,FILE,0,30.5,FINESTEERING,2319,306167.350,02000000,10a2,17139;SOL_COMPUTED,INS_PSRDIFF,0.000,141.700,6.8151,180.639947,0.1170,0*22eb711c
#BESTVELA,FILE,0,30.5,FINESTEERING,2319,306167.400,02000000,10a2,17139;SOL_COMPUTED,INS_PSRDIFF,0.000,141.700,6.8381,180.702103,0.1320,0*d9a15c34
#BESTVELA,FILE,0,30.5,FINESTEERING,2319,306167.450,02000000,10a2,17139;SOL_COMPUTED,INS_PSRDIFF,0.000,141.700,6.8650,180.711354,0.1393,0*760db655
#BESTVELA,FILE,0,30.5,FINESTEERING,2319,306167.500,02000000,10a2,17139;SOL_COMPUTED,INS_PSRDIFF,0.000,141.700,6.8843,180.769426,0.1428,0*4f3983f2
#BESTVELA,FILE,0,30.5,FINESTEERING,2319,306167.550,02000000,10a2,17139;SOL_COMPUTED,INS_PSRDIFF,0.000,141.700,6.8985,180.851776,0.1443,0*49294c78
#BESTVELA,FILE,0,30.5,FINESTEERING,2319,306167.600,02000000,10a2,17139;SOL_COMPUTED,INS_PSRDIFF,0.000,141.700,6.9103,180.879075,0.1300,0*e3e82149
#BESTVELA,FILE,0,30.5,FINESTEERING,2319,306167.650,02000000,10a2,17139;SOL_COMPUTED,INS_PSRDIFF,0.000,141.700,6.9108,180.935540,0.1132,0*d8d1db5d
#BESTVELA,FILE,0,30.5,FINESTEERING,2319,306167.700,02000000,10a2,17139;SOL_COMPUTED,INS_PSRDIFF,0.000,141.700,6.9283,180.938700,0.1109,0*fb28812d
#BESTVELA,FILE,0,30.5,FINESTEERING,2319,306167.750,02000000,10a2,17139;SOL_COMPUTED,INS_PSRDIFF,0.000,141.700,6.9419,180.897914,0.1001,0*f485d74a
#BESTVELA,FILE,0,30.5,FINESTEERING,2319,306167.800,02000000,10a2,17139;SOL_COMPUTED,INS_PSRDIFF,0.000,141.700,6.9528,180.852733,0.1086,0*ce9076b5
#BESTVELA,FILE,0,30.5,FINESTEERING,2319,306167.850,02000000,10a2,17139;SOL_COMPUTED,INS_PSRDIFF,0.000,141.700,6.9714,180.810219,0.1078,0*023432f9
#BESTVELA,FILE,0,30.5,FINESTEERING,2319,306167.900,02000000,10a2,17139;SOL_COMPUTED,INS_PSRDIFF,0.000,141.700,6.9920,180.882874,0.1089,0*138c3012
#BESTVELA,FILE,0,30.5,FINESTEERING,2319,306167.950,02000000,10a2,17139;SOL_COMPUTED,INS_PSRDIFF,0.000,141.700,7.0140,180.852918,0.1125,0*83419ecf
#BESTVELA,FILE,0,30.5,FINESTEERING,2319,306168.000,02000000,10a2,17139;SOL_COMPUTED,INS_PSRDIFF,0.000,141.700,7.0356,180.958243,0.1323,0*32f17561
#BESTVELA,FILE,0,30.5,FINESTEERING,2319,306168.050,02000000,10a2,17139;SOL_COMPUTED,INS_PSRDIFF,0.000,142.700,7.0549,180.927373,0.1388,0*bdaad068
#BESTVELA,FILE,0,30.5,FINESTEERING,2319,306168.100,02000000,10a2,17139;SOL_COMPUTED,INS_PSRDIFF,0.000,142.700,7.0629,180.912958,0.1464,0*7e33deb9
#BESTVELA,FILE,0,30.5,FINESTEERING,2319,306168.150,02000000,10a2,17139;SOL_COMPUTED,INS_PSRDIFF,0.000,142.700,7.0762,180.959857,0.1340,0*bf47d9d9
#BESTVELA,FILE,0,30.5,FINESTEERING,2319,306168.200,02000000,10a2,17139;SOL_COMPUTED,INS_PSRDIFF,0.000,142.700,7.0859,180.912261,0.1320,0*74f36d63
#BESTVELA,FILE,0,30.5,FINESTEERING,2319,306168.250,02000000,10a2,17139;SOL_COMPUTED,INS_PSRDIFF,0.000,142.700,7.1023,180.908831,0.1165,0*4d78d6ba
#BESTVELA,FILE,0,30.5,FINESTEERING,2319,306168.300,02000000,10a2,17139;SOL_COMPUTED,INS_PSRDIFF,0.000,142.700,7.1095,180.872233,0.1074,0*00565038
#BESTVELA,FILE,0,30.5,FINESTEERING,2319,306168.350,02000000,10a2,17139;SOL_COMPUTED,INS_PSRDIFF,0.000,142.700,7.1148,180.956830,0.1039,0*0c09a9f6
#BESTVELA,FILE,0,30.5,FINESTEERING,2319,306168.400,02000000,10a2,17139;SOL_COMPUTED,INS_PSRDIFF,0.000,142.700,7.1057,181.052124,0.0883,0*bd39a92b
#BESTVELA,FILE,0,30.5,FINESTEERING,2319,306168.450,02000000,10a2,17139;SOL_COMPUTED,INS_PSRDIFF,0.000,142.700,7.1061,180.867834,0.1068,0*c33d1b7a
#BESTVELA,FILE,0,30.5,FINESTEERING,2319,306168.500,02000000,10a2,17139;SOL_COMPUTED,INS_PSRDIFF,0.000,142.700,7.1114,180.933952,0.1136,0*84e6968f
#BESTVELA,FILE,0,30.5,FINESTEERING,2319,306168.550,02000000,10a2,17139;SOL_COMPUTED,INS_PSRDIFF,0.000,142.700,7.1183,180.985452,0.1161,0*d3283f42
#BESTVELA,FILE,0,30.5,FINESTEERING,2319,306168.600,02000000,10a2,17139;SOL_COMPUTED,INS_PSRDIFF,0.000,142.700,7.1284,180.991538,0.1176,0*37b8b466
#BESTVELA,FILE,0,30.5,FINESTEERING,2319,306168.650,02000000,10a2,17139;SOL_COMPUTED,INS_PSRDIFF,0.000,142.700,7.1500,180.963946,0.1313,0*644ac714
#BESTVELA,FILE,0,30.5,FINESTEERING,2319,306168.700,02000000,10a2,17139;SOL_COMPUTED,INS_PSRDIFF,0.000,142.700,7.1657,180.909603,0.1441,0*e7df7e6e
#BESTVELA,FILE,0,30.5,FINESTEERING,2319,306168.750,02000000,10a2,17139;SOL_COMPUTED,INS_PSRDIFF,0.000,142.700,7.1845,181.032348,0.1720,0*f30eb2b9
#BESTVELA,FILE,0,30.5,FINESTEERING,2319,306168.800,02000000,10a2,17139;SOL_COMPUTED,INS_PSRDIFF,0.000,142.700,7.1997,181.146374,0.1682,0*131f005c
#BESTVELA,FILE,0,30.5,FINESTEERING,2319,306168.850,02000000,10a2,17139;SOL_COMPUTED,INS_PSRDIFF,0.000,142.700,7.2111,181.100548,0.2088,0*068ed6d9
#BESTVELA,FILE,0,30.5,FINESTEERING,2319,306168.900,02000000,10a2,17139;SOL_COMPUTED,INS_PSRDIFF,0.000,142.700,7.1903,181.199495,0.1775,0*f25b0815
#BESTVELA,FILE,0,30.5,FINESTEERING,2319,306168.950,02000000,10a2,17139;SOL_COMPUTED,INS_PSRDIFF,0.000,142.700,7.1725,181.147272,0.1713,0*27895129
#BESTVELA,FILE,0,30.5,FINESTEERING,2319,306169.000,02000000,10a2,17139;SOL_COMPUTED,INS_PSRDIFF,0.000,142.700,7.1632,181.370372,0.1145,0*acd2f6d4
#BESTVELA,FILE,0,30.5,FINESTEERING,2319,306169.050,02000000,10a2,17139;SOL_COMPUTED,INS_PSRDIFF,0.000,143.700,7.1171,181.406712,0.0907,0*1dff4469
#BESTVELA,FILE,0,26.0,FINESTEERING,2319,306169.100,02000000,10a2,17139;SOL_COMPUTED,INS_PSRDIFF,0.000,143.700,7.0934,181.394323,0.0602,0*9e8670f2
#BESTVELA,FILE,0,26.0,FINESTEERING,2319,306169.150,02000000,10a2,17139;SOL_COMPUTED,INS_PSRDIFF,0.000,143.700,7.0641,181.232392,0.0532,0*81029bc9
#BESTVELA,FILE,0,26.0,FINESTEERING,2319,306169.200,02000000,10a2,17139;SOL_COMPUTED,INS_PSRDIFF,0.000,143.700,7.0408,181.400149,0.0139,0*eda5ac40
#BESTVELA,FILE,0,26.0,FINESTEERING,2319,306169.250,02000000,10a2,17139;SOL_COMPUTED,INS_PSRDIFF,0.000,143.700,7.0076,181.307853,0.0464,0*d2dfc1d4
#BESTVELA,FILE,0,26.0,FINESTEERING,2319,306169.300,02000000,10a2,17139;SOL_COMPUTED,INS_PSRDIFF,0.000,143.700,6.9941,181.468994,0.0453,0*3a0852a7
#BESTVELA,FILE,0,26.0,FINESTEERING,2319,306169.350,02000000,10a2,17139;SOL_COMPUTED,INS_PSRDIFF,0.000,143.700,6.9648,181.498393,0.0544,0*fb6d7245
#BESTVELA,FILE,0,26.0,FINESTEERING,2319,306169.400,02000000,10a2,17139;SOL_COMPUTED,INS_PSRDIFF,0.000,143.700,6.9506,181.528282,0.0466,0*e14491cc
#BESTVELA,FILE,0,26.0,FINESTEERING,2319,306169.450,02000000,10a2,17139;SOL_COMPUTED,INS_PSRDIFF,0.000,143.700,6.9349,181.452493,0.0634,0*a619e088
#BESTVELA,FILE,0,26.0,FINESTEERING,2319,306169.500,02000000,10a2,17139;SOL_COMPUTED,INS_PSRDIFF,0.000,143.700,6.8962,181.618013,0.0539,0*70fa3fd4
#BESTVELA,FILE,0,26.0,FINESTEERING,2319,306169.550,02000000,10a2,17139;SOL_COMPUTED,INS_PSRDIFF,0.000,143.700,6.8813,181.823237,0.0491,0*55829ba7
#BESTVELA,FILE,0,26.0,FINESTEERING,2319,306169.600,02000000,10a2,17139;SOL_COMPUTED,INS_PSRDIFF,0.000,143.700,6.8598,181.845501,0.0707,0*d038c4bd
#BESTVELA,FILE,0,26.0,FINESTEERING,2319,306169.650,02000000,10a2,17139;SOL_COMPUTED,INS_PSRDIFF,0.000,143.700,6.8423,181.769804,0.0760,0*31c37db8
#BESTVELA,FILE,0,26.0,FINESTEERING,2319,306169.700,02000000,10a2,17139;SOL_COMPUTED,INS_PSRDIFF,0.000,143.700,6.8220,181.578850,0.0782,0*6372a892
#BESTVELA,FILE,0,26.0,FINESTEERING,2319,306169.750,02000000,10a2,17139;SOL_COMPUTED,INS_PSRDIFF,0.000,143.700,6.7949,181.477880,0.1006,0*039dab48
#BESTVELA,FILE,0,26.0,FINESTEERING,2319,306169.800,02000000,10a2,17139;SOL_COMPUTED,INS_PSRDIFF,0.000,143.700,6.7723,181.119567,0.1106,0*dc8b2134
#BESTVELA,FILE,0,26.0,FINESTEERING,2319,306169.850,02000000,10a2,17139;SOL_COMPUTED,INS_PSRDIFF,0.000,143.700,6.7460,180.957083,0.1271,0*e9134b39
#BESTVELA,FILE,0,26.0,FINESTEERING,2319,306169.900,02000000,10a2,17139;SOL_COMPUTED,INS_PSRDIFF,0.000,143.700,6.7012,180.747117,0.1218,0*6c0a99e3
#BESTVELA,FILE,0,26.0,FINESTEERING,2319,306169.950,02000000,10a2,17139;SOL_COMPUTED,INS_PSRDIFF,0.000,143.700,6.6591,180.574010,0.1303,0*fe2173fa
#BESTVELA,FILE,0,26.0,FINESTEERING,2319,306170.000,02000000,10a2,17139;SOL_COMPUTED,INS_PSRDIFF,0.000,143.700,6.6244,180.522948,0.1170,0*8dee67ee
#BESTVELA,FILE,0,26.0,FINESTEERING,2319,306170.050,02000000,10a2,17139;SOL_COMPUTED,INS_RTKFIXED,0.000,2.000,6.5837,180.510085,0.1121,0*43c08800
#BESTVELA,FILE,0,26.0,FINESTEERING,2319,306170.100,02000000,10a2,17139;SOL_COMPUTED,INS_RTKFIXED,0.000,2.000,6.5398,180.557408,0.0883,0*4c5440dc
#BESTVELA,FILE,0,26.0,FINESTEERING,2319,306170.150,02000000,10a2,17139;SOL_COMPUTED,INS_RTKFIXED,0.000,2.000,6.5074,180.479741,0.0662,0*769ef5e3
#BESTVELA,FILE,0,28.5,FINESTEERING,2319,306170.200,02000000,10a2,17139;SOL_COMPUTED,INS_RTKFIXED,0.000,2.000,6.4835,180.392747,0.0610,0*2d5b5650
#BESTVELA,FILE,0,28.5,FINESTEERING,2319,306170.250,02000000,10a2,17139;SOL_COMPUTED,INS_RTKFIXED,0.000,2.000,6.4535,180.266702,0.0559,0*7f62f210
#BESTVELA,FILE,0,28.5,FINESTEERING,2319,306170.300,02000000,10a2,17139;SOL_COMPUTED,INS_RTKFIXED,0.000,2.000,6.4367,180.174779,0.0570,0*8597da9d
#BESTVELA,FILE,0,28.5,FINESTEERING,2319,306170.350,02000000,10a2,17139;SOL_COMPUTED,INS_RTKFIXED,0.000,2.000,6.4184,180.077262,0.0627,0*7ffa4816
#BESTVELA,FILE,0,28.5,FINESTEERING,2319,306170.400,02000000,10a2,17139;SOL_COMPUTED,INS_RTKFIXED,0.000,2.000,6.4192,180.026880,0.0774,0*7827d310
#BESTVELA,FILE,0,28.5,FINESTEERING,2319,306170.450,02000000,10a2,17139;SOL_COMPUTED,INS_RTKFIXED,0.000,2.000,6.4126,179.861260,0.0904,0*3b46bb42
#BESTVELA,FILE,0,28.5,FINESTEERING,2319,306170.500,02000000,10a2,17139;SOL_COMPUTED,INS_RTKFIXED,0.000,2.000,6.4268,179.768701,0.0879,0*06340ff3
#BESTVELA,FILE,0,28.5,FINESTEERING,2319,306170.550,02000000,10a2,17139;SOL_COMPUTED,INS_RTKFIXED,0.000,2.000,6.4160,179.679166,0.0949,0*115ae940
#BESTVELA,FILE,0,28.5,FINESTEERING,2319,306170.600,02000000,10a2,17139;SOL_COMPUTED,INS_RTKFIXED,0.000,2.000,6.4381,179.553523,0.0845,0*8cb14164
#BESTVELA,FILE,0,28.5,FINESTEERING,2319,306170.650,02000000,10a2,17139;SOL_COMPUTED,INS_RTKFIXED,0.000,2.000,6.4465,179.409260,0.0932,0*d95093b7
#BESTVELA,FILE,0,28.5,FINESTEERING,2319,306170.700,02000000,10a2,17139;SOL_COMPUTED,INS_RTKFIXED,0.000,2.000,6.4842,179.427545,0.0836,0*556163df
#BESTVELA,FILE,0,28.5,FINESTEERING,2319,306170.750,02000000,10a2,17139;SOL_COMPUTED,INS_RTKFIXED,0.000,2.000,6.4933,179.378717,0.0851,0*c2e4ec49
