#BESTPOSA,FILE,0,32.0,FINESTEERING,2319,306148.550,02000800,cdba,17139;SOL_COMPUTED,INS_PSRDIFF,17.59656920460,78.12122076029,526.3596,-76.2000,WGS84,0.1204,0.1216,0.1377,"0",122.700,0.000,57,19,19,0,00,08,00,11*21c83a4d
#BESTPOSA,FILE,0,32.0,FINESTEERING,2319,306148.650,02000800,cdba,17139;SOL_COMPUTED,INS_PSRDIFF,17.59656930008,78.12122471184,526.3602,-76.2000,WGS84,0.1204,0.1216,0.1377,"0",122.700,0.000,57,19,19,0,00,08,00,11*5592bfd6
#BESTPOSA,FILE,0,32.0,FINESTEERING,2319,306148.700,02000800,cdba,17139;SOL_COMPUTED,INS_PSRDIFF,17.59656934525,78.12122669570,526.3601,-76.2000,WGS84,0.1204,0.1216,0.1377,"0",122.700,0.000,57,19,19,0,00,08,00,11*c49c2f50
#BESTPOSA,FILE,0,32.0,FINESTEERING,2319,306148.750,02000800,cdba,17139;SOL_COMPUTED,INS_PSRDIFF,17.59656939003,78.12122868319,526.3596,-76.2000,WGS84,0.1204,0.1216,0.1377,"0",122.700,0.000,57,19,19,0,00,08,00,11*b9795338
#BESTPOSA,FILE,0,32.0,FINESTEERING,2319,306148.800,02000800,cdba,17139;SOL_COMPUTED,INS_PSRDIFF,17.59656943252,78.12123067605,526.3582,-76.2000,WGS84,0.1204,0.1216,0.1377,"0",122.700,0.000,57,19,19,0,00,08,00,11*1ccb99e7
#BESTPOSA,FILE,0,32.0,FINESTEERING,2319,306149.000,02000800,cdba,17139;SOL_COMPUTED,INS_PSRDIFF,17.59656959650,78.12123870244,526.3517,-76.2000,WGS84,0.1204,0.1216,0.1377,"0",122.700,0.000,57,19,19,0,00,08,00,11*0c99fb75
#BESTPOSA,FILE,0,32.0,FINESTEERING,2319,306149.050,02000800,cdba,17139;SOL_COMPUTED,INS_PSRDIFF,17.59656963723,78.12124073615,526.3518,-76.2000,WGS84,0.1247,0.1262,0.1435,"0",123.700,0.000,57,19,19,0,00,08,00,11*8ef12b84
#BESTPOSA,FILE,0,32.0,FINESTEERING,2319,306149.100,02000800,cdba,17139;SOL_COMPUTED,INS_PSRDIFF,17.59656967448,78.12124278075,526.3519,-76.2000,WGS84,0.1247,0.1262,0.1435,"0",123.700,0.000,57,19,19,0,00,08,00,11*9ff30b2c
#BESTPOSA,FILE,0,32.0,FINESTEERING,2319,306149.150,02000800,cdba,17139;SOL_COMPUTED,INS_PSRDIFF,17.59656971765,78.12124483079,526.3526,-76.2000,WGS84,0.1247,0.1262,0.1435,"0",123.700,0.000,57,19,19,0,00,08,00,11*5b7a0e3f
#BESTPOSA,FILE,0,32.0,FINESTEERING,2319,306149.250,02000800,cdba,17139;SOL_COMPUTED,INS_PSRDIFF,17.59656979930,78.12124894675,526.3532,-76.2000,WGS84,0.1247,0.1262,0.1435,"0",123.700,0.000,57,19,19,0,00,08,00,11*ae05f14e
#BESTPOSA,FILE,0,32.0,FINESTEERING,2319,306149.350,02000800,cdba,17139;SOL_COMPUTED,INS_PSRDIFF,17.59656987998,78.12125308400,526.3530,-76.2000,WGS84,0.1247,0.1262,0.1435,"0",123.700,0.000,57,19,19,0,00,08,00,11*3c13488f
#BESTPOSA,FILE,0,32.0,FINESTEERING,2319,306149.450,02000800,cdba,17139;SOL_COMPUTED,INS_PSRDIFF,17.59656995241,78.12125724826,526.3542,-76.2000,WGS84,0.1247,0.1262,0.1435,"0",123.700,0.000,57,19,19,0,00,08,00,11*0f12418d
#BESTPOSA,FILE,0,32.0,FINESTEERING,2319,306149.700,02000800,cdba,17139;SOL_COMPUTED,INS_PSRDIFF,17.59657010526,78.12126782027,526.3540,-76.2000,WGS84,0.1247,0.1262,0.1435,"0",123.700,0.000,57,19,19,0,00,08,00,11*f0bfb2bb
#BESTPOSA,FILE,0,32.0,FINESTEERING,2319,306149.750,02000800,cdba,17139;SOL_COMPUTED,INS_PSRDIFF,17.59657011960,78.12126995494,526.3532,-76.2000,WGS84,0.1247,0.1262,0.1435,"0",123.700,0.000,57,19,19,0,00,08,00,11*51eeaa45
#BESTPOSA,FILE,0,32.0,FINESTEERING,2319,306149.900,02000800,cdba,17139;SOL_COMPUTED,INS_PSRDIFF,17.59657016626,78.12127642575,526.3534,-76.2000,WGS84,0.1247,0.1262,0.1435,"0",123.700,0.000,57,19,19,0,00,08,00,11*80c37e98
#BESTPOSA,FILE,0,32.0,FINESTEERING,2319,306149.950,02000800,cdba,17139;SOL_COMPUTED,INS_PSRDIFF,17.59657018742,78.12127860340,526.3550,-76.2000,WGS84,0.1247,0.1262,0.1435,"0",123.700,0.000,57,19,19,0,00,08,00,11*c24277ac
#BESTPOSA,FILE,0,30.5,FINESTEERING,2319,306150.150,02000800,cdba,17139;SOL_COMPUTED,INS_PSRDIFF,17.59657026190,78.12128743495,526.3603,-76.2000,WGS84,0.1288,0.1306,0.1499,"0",124.700,0.000,57,19,19,0,00,08,00,11*71be3a47
#BESTPOSA,FILE,0,30.5,FINESTEERING,2319,306150.200,02000800,cdba,17139;SOL_COMPUTED,INS_PSRDIFF,17.59657027056,78.12128965941,526.3609,-76.2000,WGS84,0.1288,0.1306,0.1499,"0",124.700,0.000,57,19,19,0,00,08,00,11*18218c64
#BESTPOSA,FILE,0,30.5,FINESTEERING,2319,306150.250,02000800,cdba,17139;SOL_COMPUTED,INS_PSRDIFF,17.59657027504,78.12129188561,526.3616,-76.2000,WGS84,0.1288,0.1306,0.1499,"0",124.700,0.000,57,19,19,0,00,08,00,11*116b8bff
#BESTPOSA,FILE,0,30.5,FINESTEERING,2319,306150.300,02000800,cdba,17139;SOL_COMPUTED,INS_PSRDIFF,17.59657027454,78.12129411991,526.3623,-76.2000,WGS84,0.1288,0.1306,0.1499,"0",124.700,0.000,57,19,19,0,00,08,00,11*2560087d
#BESTPOSA,FILE,0,30.5,FINESTEERING,2319,306150.350,02000800,cdba,17139;SOL_COMPUTED,INS_PSRDIFF,17.59657026680,78.12129635689,526.3630,-76.2000,WGS84,0.1288,0.1306,0.1499,"0",124.700,0.000,57,19,19,0,00,08,00,11*0cc4c9f5
#BESTPOSA,FILE,0,30.5,FINESTEERING,2319,306150.500,02000800,cdba,17139;SOL_COMPUTED,INS_PSRDIFF,17.59657021400,78.12130309838,526.3644,-76.2000,WGS84,0.1288,0.1306,0.1499,"0",124.700,0.000,57,19,19,0,00,08,00,11*709f316e
#BESTPOSA,FILE,0,30.5,FINESTEERING,2319,306150.600,02000800,cdba,17139;SOL_COMPUTED,INS_PSRDIFF,17.59657019856,78.12130759762,526.3645,-76.2000,WGS84,0.1288,0.1306,0.1499,"0",124.700,0.000,57,19,19,0,00,08,00,11*729d41d0
#BESTPOSA,FILE,0,30.5,FINESTEERING,2319,306150.650,02000800,cdba,17139;SOL_COMPUTED,INS_PSRDIFF,17.59657019809,78.12130984919,526.3640,-76.2000,WGS84,0.1288,0.1306,0.1499,"0",124.700,0.000,57,19,19,0,00,08,00,11*ea5149b7
#BESTPOSA,FILE,0,30.5,FINESTEERING,2319,306150.750,02000800,cdba,17139;SOL_COMPUTED,INS_PSRDIFF,17.59657019617,78.12131433466,526.3643,-76.2000,WGS84,0.1288,0.1306,0.1499,"0",124.700,0.000,57,19,19,0,00,08,00,11*e94dec20
#BESTPOSA,FILE,0,30.5,FINESTEERING,2319,306150.850,02000800,cdba,17139;SOL_COMPUTED,INS_PSRDIFF,17.59657018322,78.12131878515,526.3656,-76.2000,WGS84,0.1288,0.1306,0.1499,"0",124.700,0.000,57,19,19,0,00,08,00,11*afa40ee1
#BESTPOSA,FILE,0,30.5,FINESTEERING,2319,306150.900,02000800,cdba,17139;SOL_COMPUTED,INS_PSRDIFF,17.59657016420,78.12132100199,526.3659,-76.2000,WGS84,0.1288,0.1306,0.1499,"0",124.700,0.000,57,19,19,0,00,08,00,11*6fd5a0ff
#BESTPOSA,FILE,0,30.5,FINESTEERING,2319,306151.000,02000800,cdba,17139;SOL_COMPUTED,INS_PSRDIFF,17.59657009014,78.12132541979,526.3672,-76.2000,WGS84,0.1288,0.1306,0.1499,"0",124.700,0.000,57,19,19,0,00,08,00,11*fe1805ce
#BESTPOSA,FILE,0,29.5,FINESTEERING,2319,306151.150,02000800,cdba,17139;SOL_COMPUTED,INS_PSRDIFF,17.59656996451,78.12133200005,526.3642,-76.2000,WGS84,0.1326,0.1347,0.1567,"0",125.700,0.000,57,19,19,0,00,08,00,11*80bff9d7
#BESTPOSA,FILE,0,29.5,FINESTEERING,2319,306151.200,02000800,cdba,17139;SOL_COMPUTED,INS_PSRDIFF,17.59656993327,78.12133418266,526.3617,-76.2000,WGS84,0.1326,0.1347,0.1567,"0",125.700,0.000,57,19,19,0,00,08,00,11*167408c6
#BESTPOSA,FILE,0,29.5,FINESTEERING,2319,306151.300,02000800,cdba,17139;SOL_COMPUTED,INS_PSRDIFF,17.59656987164,78.12133854096,526.3578,-76.2000,WGS84,0.1326,0.1347,0.1567,"0",125.700,0.000,57,19,19,0,00,08,00,11*8cce2bf9
#BESTPOSA,FILE,0,29.5,FINESTEERING,2319,306151.400,02000800,cdba,17139;SOL_COMPUTED,INS_PSRDIFF,17.59656978867,78.12134290482,526.3572,-76.2000,WGS84,0.1326,0.1347,0.1567,"0",125.700,0.000,57,19,19,0,00,08,00,11*b4b26401
#BESTPOSA,FILE,0,29.5,FINESTEERING,2319,306151.450,02000800,cdba,17139;SOL_COMPUTED,INS_PSRDIFF,17.59656974057,78.12134508840,526.3583,-76.2000,WGS84,0.1326,0.1347,0.1567,"0",125.700,0.000,57,19,19,0,00,08,00,11*70dbc75b
#BESTPOSA,FILE,0,29.5,FINESTEERING,2319,306151.600,02000800,cdba,17139;SOL_COMPUTED,INS_PSRDIFF,17.59656957939,78.12135162885,526.3619,-76.2000,WGS84,0.1326,0.1347,0.1567,"0",125.700,0.000,57,19,19,0,00,08,00,11*14cac147
#BESTPOSA,FILE,0,29.5,FINESTEERING,2319,306151.750,02000800,cdba,17139;SOL_COMPUTED,INS_PSRDIFF,17.59656942145,78.12135811576,526.3607,-76.2000,WGS84,0.1326,0.1347,0.1567,"0",125.700,0.000,57,19,19,0,00,08,00,11*48d24942
#BESTPOSA,FILE,0,29.5,FINESTEERING,2319,306152.000,02000800,cdba,17139;SOL_COMPUTED,INS_PSRDIFF,17.59656922467,78.12136883683,526.3569,-76.2000,WGS84,0.1326,0.1347,0.1567,"0",125.700,0.000,57,19,19,0,00,08,00,11*f603065b
#BESTPOSA,FILE,0,29.5,FINESTEERING,2319,306152.150,02000800,cdba,17139;SOL_COMPUTED,INS_PSRDIFF,17.59656912490,78.12137523051,526.3553,-76.2000,WGS84,0.1356,0.1382,0.1632,"0",126.700,0.000,57,19,19,0,00,08,00,11*c7c39e5c
#BESTPOSA,FILE,0,32.5,FINESTEERING,2319,306152.250,02000800,cdba,17139;SOL_COMPUTED,INS_PSRDIFF,17.59656906432,78.12137946120,526.3548,-76.2000,WGS84,0.1356,0.1382,0.1632,"0",126.700,0.000,57,19,19,0,00,08,00,11*2fbbf7c7
#BESTPOSA,FILE,0,32.5,FINESTEERING,2319,306152.300,02000800,cdba,17139;SOL_COMPUTED,INS_PSRDIFF,17.59656903949,78.12138157099,526.3552,-76.2000,WGS84,0.1356,0.1382,0.1632,"0",126.700,0.000,57,19,19,0,00,08,00,11*104dce1f
#BESTPOSA,FILE,0,32.5,FINESTEERING,2319,306152.350,02000800,cdba,17139;SOL_COMPUTED,INS_PSRDIFF,17.59656901589,78.12138367558,526.3559,-76.2000,WGS84,0.1356,0.1382,0.1632,"0",126.700,0.000,57,19,19,0,00,08,00,11*dd7a9c8c
#BESTPOSA,FILE,0,32.5,FINESTEERING,2319,306152.400,02000800,cdba,17139;SOL_COMPUTED,INS_PSRDIFF,17.59656899570,78.12138576854,526.3568,-76.2000,WGS84,0.1356,0.1382,0.1632,"0",126.700,0.000,57,19,19,0,00,08,00,11*6f741ac2
#BESTPOSA,FILE,0,32.5,FINESTEERING,2319,306152.450,02000800,cdba,17139;SOL_COMPUTED,INS_PSRDIFF,17.59656897661,78.12138784988,526.3578,-76.2000,WGS84,0.1356,0.1382,0.1632,"0",126.700,0.000,57,19,19,0,00,08,00,11*b86bf158
#BESTPOSA,FILE,0,32.5,FINESTEERING,2319,306152.500,02000800,cdba,17139;SOL_COMPUTED,INS_PSRDIFF,17.59656895860,78.12138991466,526.3583,-76.2000,WGS84,0.1356,0.1382,0.1632,"0",126.700,0.000,57,19,19,0,00,08,00,11*5e8db42f
#BESTPOSA,FILE,0,32.5,FINESTEERING,2319,306152.550,02000800,cdba,17139;SOL_COMPUTED,INS_PSRDIFF,17.59656894036,78.12139196434,526.3582,-76.2000,WGS84,0.1356,0.1382,0.1632,"0",126.700,0.000,57,19,19,0,00,08,00,11*df16cf5a
#BESTPOSA,FILE,0,32.5,FINESTEERING,2319,306152.600,02000800,cdba,17139;SOL_COMPUTED,INS_PSRDIFF,17.59656892105,78.12139399747,526.3576,-76.2000,WGS84,0.1356,0.1382,0.1632,"0",126.700,0.000,57,19,19,0,00,08,00,11*d603fc40
#BESTPOSA,FILE,0,32.5,FINESTEERING,2319,306152.650,02000800,cdba,17139;SOL_COMPUTED,INS_PSRDIFF,17.59656890606,78.12139602284,526.3573,-76.2000,WGS84,0.1356,0.1382,0.1632,"0",126.700,0.000,57,19,19,0,00,08,00,11*7a8813bd
#BESTPOSA,FILE,0,32.5,FINESTEERING,2319,306152.700,02000800,cdba,17139;SOL_COMPUTED,INS_PSRDIFF,17.59656888509,78.12139803986,526.3570,-76.2000,WGS84,0.1356,0.1382,0.1632,"0",126.700,0.000,57,19,19,0,00,08,00,11*8b308c9d
#BESTPOSA,FILE,0,32.5,FINESTEERING,2319,306152.750,02000000,cdba,17139;SOL_COMPUTED,INS_PSRDIFF,17.59656887086,78.12140004832,526.3574,-76.2000,WGS84,0.1356,0.1382,0.1632,"0",126.700,0.000,57,19,19,0,00,08,00,11*90edaee1
#BESTPOSA,FILE,0,32.5,FINESTEERING,2319,306152.800,02000000,cdba,17139;SOL_COMPUTED,INS_PSRDIFF,17.59656885750,78.12140204576,526.3584,-76.2000,WGS84,0.1356,0.1382,0.1632,"0",126.700,0.000,57,19,19,0,00,08,00,11*4ad223ed
#BESTPOSA,FILE,0,32.5,FINESTEERING,2319,306152.850,02000000,cdba,17139;SOL_COMPUTED,INS_PSRDIFF,17.59656884172,78.12140402779,526.3592,-76.2000,WGS84,0.1356,0.1382,0.1632,"0",126.700,0.000,57,19,19,0,00,08,00,11*8eb00415
#BESTPOSA,FILE,0,32.5,FINESTEERING,2319,306152.900,02000000,cdba,17139;SOL_COMPUTED,INS_PSRDIFF,17.59656882331,78.12140599711,526.3599,-76.2000,WGS84,0.1356,0.1382,0.1632,"0",126.700,0.000,57,19,19,0,00,08,00,11*5b107c4f
#BESTPOSA,FILE,0,32.5,FINESTEERING,2319,306152.950,02000000,cdba,17139;SOL_COMPUTED,INS_PSRDIFF,17.59656880422,78.12140795041,526.3602,-76.2000,WGS84,0.1356,0.1382,0.1632,"0",126.700,0.000,57,19,19,0,00,08,00,11*e3992b94
#BESTPOSA,FILE,0,32.5,FINESTEERING,2319,306153.000,02000000,cdba,17139;SOL_COMPUTED,INS_PSRDIFF,17.59656878782,78.12140988716,526.3608,-76.2000,WGS84,0.1356,0.1382,0.1632,"0",126.700,0.000,57,19,19,0,00,08,00,11*e6e20cc5
#BESTPOSA,FILE,0,32.5,FINESTEERING,2319,306153.050,02000000,cdba,17139;SOL_COMPUTED,INS_PSRDIFF,17.59656877129,78.12141181112,526.3613,-76.2000,WGS84,0.1385,0.1415,0.1699,"0",127.700,0.000,56,19,19,0,00,08,00,11*0f0f4994
#BESTPOSA,FILE,0,22.5,FINESTEERING,2319,306153.100,02000000,cdba,17139;SOL_COMPUTED,INS_PSRDIFF,17.59656875704,78.12141371575,526.3618,-76.2000,WGS84,0.1385,0.1415,0.1699,"0",127.700,0.000,56,19,19,0,00,08,00,11*94632716
#BESTPOSA,FILE,0,22.5,FINESTEERING,2319,306153.150,02000000,cdba,17139;SOL_COMPUTED,INS_PSRDIFF,17.59656874585,78.12141560833,526.3625,-76.2000,WGS84,0.1385,0.1415,0.1699,"0",127.700,0.000,56,19,19,0,00,08,00,11*cd5c398b
#BESTPOSA,FILE,0,22.5,FINESTEERING,2319,306153.200,02000000,cdba,17139;SOL_COMPUTED,INS_PSRDIFF,17.59656874655,78.12141748246,526.3636,-76.2000,WGS84,0.1385,0.1415,0.1699,"0",127.700,0.000,56,19,19,0,00,08,00,11*f90b050d
#BESTPOSA,FILE,0,22.5,FINESTEERING,2319,306153.250,02000000,cdba,17139;SOL_COMPUTED,INS_PSRDIFF,17.59656874042,78.12141934078,526.3638,-76.2000,WGS84,0.1385,0.1415,0.1699,"0",127.700,0.000,56,19,19,0,00,08,00,11*a0b3f9fb
#BESTPOSA,FILE,0,22.5,FINESTEERING,2319,306153.300,02000000,cdba,17139;SOL_COMPUTED,INS_PSRDIFF,17.59656873557,78.12142118335,526.3638,-76.2000,WGS84,0.1385,0.1415,0.1699,"0",127.700,0.000,56,19,19,0,00,08,00,11*075f2e75
#BESTPOSA,FILE,0,22.5,FINESTEERING,2319,306153.350,02000000,cdba,17139;SOL_COMPUTED,INS_PSRDIFF,17.59656872287,78.12142300999,526.3633,-76.2000,WGS84,0.1385,0.1415,0.1699,"0",127.700,0.000,56,19,19,0,00,08,00,11*671f1d99
#BESTPOSA,FILE,0,22.5,FINESTEERING,2319,306153.400,02000000,cdba,17139;SOL_COMPUTED,INS_PSRDIFF,17.59656871592,78.12142481699,526.3632,-76.2000,WGS84,0.1385,0.1415,0.1699,"0",127.700,0.000,56,19,19,0,00,08,00,11*bcd15a0b
#BESTPOSA,FILE,0,22.5,FINESTEERING,2319,306153.450,02000000,cdba,17139;SOL_COMPUTED,INS_PSRDIFF,17.59656870512,78.12142660601,526.3632,-76.2000,WGS84,0.1385,0.1415,0.1699,"0",127.700,0.000,56,19,19,0,00,08,00,11*fe9d6b78
#BESTPOSA,FILE,0,22.5,FINESTEERING,2319,306153.500,02000000,cdba,17139;SOL_COMPUTED,INS_PSRDIFF,17.59656869455,78.12142838198,526.3634,-76.2000,WGS84,0.1385,0.1415,0.1699,"0",127.700,0.000,56,19,19,0,00,08,00,11*1a4c5dcf
#BESTPOSA,FILE,0,22.5,FINESTEERING,2319,306153.550,02000000,cdba,17139;SOL_COMPUTED,INS_PSRDIFF,17.59656868425,78.12143013938,526.3641,-76.2000,WGS84,0.1385,0.1415,0.1699,"0",127.700,0.000,56,19,19,0,00,08,00,11*2b2fcd11
#BESTPOSA,FILE,0,22.5,FINESTEERING,2319,306153.600,02000000,cdba,17139;SOL_COMPUTED,INS_PSRDIFF,17.59656867496,78.12143188344,526.3650,-76.2000,WGS84,0.1385,0.1415,0.1699,"0",127.700,0.000,56,19,19,0,00,08,00,11*0c77b0c8
#BESTPOSA,FILE,0,22.5,FINESTEERING,2319,306153.650,02000000,cdba,17139;SOL_COMPUTED,INS_PSRDIFF,17.59656867380,78.12143360928,526.3665,-76.2000,WGS84,0.1385,0.1415,0.1699,"0",127.700,0.000,56,19,19,0,00,08,00,11*24917b05
#BESTPOSA,FILE,0,22.5,FINESTEERING,2319,306153.700,02000000,cdba,17139;SOL_COMPUTED,INS_PSRDIFF,17.59656866724,78.12143531812,526.3674,-76.2000,WGS84,0.1385,0.1415,0.1699,"0",127.700,0.000,56,19,19,0,00,08,00,11*ab66ccaa
#BESTPOSA,FILE,0,22.5,FINESTEERING,2319,306153.750,02000000,cdba,17139;SOL_COMPUTED,INS_PSRDIFF,17.59656866142,78.12143700064,526.3681,-76.2000,WGS84,0.1385,0.1415,0.1699,"0",127.700,0.000,56,19,19,0,00,08,00,11*56238714
#BESTPOSA,FILE,0,22.5,FINESTEERING,2319,306153.800,02000000,cdba,17139;SOL_COMPUTED,INS_PSRDIFF,17.59656865675,78.12143866449,526.3686,-76.2000,WGS84,0.1385,0.1415,0.1699,"0",127.700,0.000,56,19,19,0,00,08,00,11*168e0f5a
#BESTPOSA,FILE,0,22.5,FINESTEERING,2319,306153.850,02000000,cdba,17139;SOL_COMPUTED,INS_PSRDIFF,17.59656865518,78.12144031025,526.3692,-76.2000,WGS84,0.1385,0.1415,0.1699,"0",127.700,0.000,56,19,19,0,00,08,00,11*af01da83
#BESTPOSA,FILE,0,22.5,FINESTEERING,2319,306153.900,02000000,cdba,17139;SOL_COMPUTED,INS_PSRDIFF,17.59656865397,78.12144194413,526.3696,-76.2000,WGS84,0.1385,0.1415,0.1699,"0",127.700,0.000,56,19,19,0,00,08,00,11*ff59eada
#BESTPOSA,FILE,0,22.5,FINESTEERING,2319,306153.950,02000000,cdba,17139;SOL_COMPUTED,INS_PSRDIFF,17.59656865032,78.12144355371,526.3693,-76.2000,WGS84,0.1385,0.1415,0.1699,"0",127.700,0.000,56,19,19,0,00,08,00,11*2663cbc3
#BESTPOSA,FILE,0,22.5,FINESTEERING,2319,306154.000,02000000,cdba,17139;SOL_COMPUTED,INS_PSRDIFF,17.59656865038,78.12144515382,526.3689,-76.2000,WGS84,0.1385,0.1415,0.1699,"0",127.700,0.000,56,19,19,0,00,08,00,11*2a551d55
#BESTPOSA,FILE,0,22.5,FINESTEERING,2319,306154.050,02000000,cdba,17139;SOL_COMPUTED,INS_PSRDIFF,17.59656865169,78.12144674040,526.3685,-76.2000,WGS84,0.5385,0.5511,0.6739,"0",128.700,0.000,57,19,19,0,00,08,00,11*bf6f6820
#BESTPOSA,FILE,0,22.5,FINESTEERING,2319,306154.100,02000800,cdba,17139;SOL_COMPUTED,INS_PSRDIFF,17.59656865298,78.12144832291,526.3681,-76.2000,WGS84,0.5385,0.5511,0.6739,"0",128.700,0.000,57,19,19,0,00,08,00,11*bdaf6220
#BESTPOSA,FILE,0,25.5,FINESTEERING,2319,306154.150,02000800,cdba,17139;SOL_COMPUTED,INS_PSRDIFF,17.59656865962,78.12144989782,526.3683,-76.2000,WGS84,0.5385,0.5511,0.6739,"0",128.700,0.000,57,19,19,0,00,08,00,11*a9088f1c
#BESTPOSA,FILE,0,25.5,FINESTEERING,2319,306154.200,02000800,cdba,17139;SOL_COMPUTED,INS_PSRDIFF,17.59656866856,78.12145147016,526.3692,-76.2000,WGS84,0.5385,0.5511,0.6739,"0",128.700,0.000,57,19,19,0,00,08,00,11*bd0c0e6b
#BESTPOSA,FILE,0,25.5,FINESTEERING,2319,306154.250,02000800,cdba,17139;SOL_COMPUTED,INS_PSRDIFF,17.59656867920,78.12145303702,526.3707,-76.2000,WGS84,0.5385,0.5511,0.6739,"0",128.700,0.000,57,19,19,0,00,08,00,11*e0180fab
#BESTPOSA,FILE,0,25.5,FINESTEERING,2319,306154.300,02000800,cdba,17139;SOL_COMPUTED,INS_PSRDIFF,17.59656868440,78.12145460160,526.3722,-76.2000,WGS84,0.5385,0.5511,0.6739,"0",128.700,0.000,57,19,19,0,00,08,00,11*6d4a6494
#BESTPOSA,FILE,0,25.5,FINESTEERING,2319,306154.350,02000800,cdba,17139;SOL_COMPUTED,INS_PSRDIFF,17.59656868423,78.12145615558,526.3738,-76.2000,WGS84,0.5385,0.5511,0.6739,"0",128.700,0.000,57,19,19,0,00,08,00,11*17876dc9
#BESTPOSA,FILE,0,25.5,FINESTEERING,2319,306154.400,02000800,cdba,17139;SOL_COMPUTED,INS_PSRDIFF,17.59656867957,78.12145770407,526.3755,-76.2000,WGS84,0.5385,0.5511,0.6739,"0",128.700,0.000,57,19,19,0,00,08,00,11*457beb8c
#BESTPOSA,FILE,0,25.5,FINESTEERING,2319,306154.450,02000800,cdba,17139;SOL_COMPUTED,INS_PSRDIFF,17.59656867125,78.12145924421,526.3773,-76.2000,WGS84,0.5385,0.5511,0.6739,"0",128.700,0.000,57,19,19,0,00,08,00,11*a9a04d15
#BESTPOSA,FILE,0,25.5,FINESTEERING,2319,306154.500,02000800,cdba,17139;SOL_COMPUTED,INS_PSRDIFF,17.59656865061,78.12146077700,526.3788,-76.2000,WGS84,0.5385,0.5511,0.6739,"0",128.700,0.000,57,19,19,0,00,08,00,11*e7a69dbc
#BESTPOSA,FILE,0,25.5,FINESTEERING,2319,306154.550,02000800,cdba,17139;SOL_COMPUTED,INS_PSRDIFF,17.59656861673,78.12146230054,526.3798,-76.2000,WGS84,0.5385,0.5511,0.6739,"0",128.700,0.000,57,19,19,0,00,08,00,11*e2450ea9
#BESTPOSA,FILE,0,25.5,FINESTEERING,2319,306154.600,02000800,cdba,17139;SOL_COMPUTED,INS_PSRDIFF,17.59656857437,78.12146381272,526.3804,-76.2000,WGS84,0.5385,0.5511,0.6739,"0",128.700,0.000,57,19,19,0,00,08,00,11*38f5f8ea
#BESTPOSA,FILE,0,25.5,FINESTEERING,2319,306154.650,02000800,cdba,17139;SOL_COMPUTED,INS_PSRDIFF,17.59656852665,78.12146531533,526.3809,-76.2000,WGS84,0.5385,0.5511,0.6739,"0",128.700,0.000,57,19,19,0,00,08,00,11*b80f54b8
#BESTPOSA,FILE,0,25.5,FINESTEERING,2319,306154.700,02000800,cdba,17139;SOL_COMPUTED,INS_PSRDIFF,17.59656848030,78.12146681142,526.3815,-76.2000,WGS84,0.5385,0.5511,0.6739,"0",128.700,0.000,57,19,19,0,00,08,00,11*50ee32cc
#BESTPOSA,FILE,0,25.5,FINESTEERING,2319,306154.750,02000800,cdba,17139;SOL_COMPUTED,INS_PSRDIFF,17.59656843021,78.12146830378,526.3818,-76.2000,WGS84,0.5385,0.5511,0.6739,"0",128.700,0.000,57,19,19,0,00,08,00,11*71ea0ee4
#BESTPOSA,FILE,0,25.5,FINESTEERING,2319,306154.800,02000800,cdba,17139;SOL_COMPUTED,INS_PSRDIFF,17.59656838213,78.12146979023,526.3824,-76.2000,WGS84,0.5385,0.5511,0.6739,"0",128.700,0.000,57,19,19,0,00,08,00,11*8edfbd8d
#BESTPOSA,FILE,0,25.5,FINESTEERING,2319,306154.850,02000800,cdba,17139;SOL_COMPUTED,INS_PSRDIFF,17.59656833134,78.12147127365,526.3834,-76.2000,WGS84,0.5385,0.5511,0.6739,"0",128.700,0.000,57,19,19,0,00,08,00,11*a0112ea8
#BESTPOSA,FILE,0,25.5,FINESTEERING,2319,306154.900,02000800,cdba,17139;SOL_COMPUTED,INS_PSRDIFF,17.59656827814,78.12147275435,526.3845,-76.2000,WGS84,0.5385,0.5511,0.6739,"0",128.700,0.000,57,19,19,0,00,08,00,11*6cc9199f
#BESTPOSA,FILE,0,25.5,FINESTEERING,2319,306154.950,02000800,cdba,17139;SOL_COMPUTED,INS_PSRDIFF,17.59656822350,78.12147422406,526.3860,-76.2000,WGS84,0.5385,0.5511,0.6739,"0",128.700,0.000,57,19,19,0,00,08,00,11*1dc680cb
#BESTPOSA,FILE,0,25.5,FINESTEERING,2319,306155.000,02000800,cdba,17139;SOL_COMPUTED,INS_PSRDIFF,17.59656816495,78.12147568722,526.3870,-76.2000,WGS84,0.5385,0.5511,0.6739,"0",128.700,0.000,57,19,19,0,00,08,00,11*0f94e9c7
#BESTPOSA,FILE,0,25.5,FINESTEERING,2319,306155.050,02000800,cdba,17139;SOL_COMPUTED,INS_PSRDIFF,17.59656809910,78.12147714576,526.3881,-76.2000,WGS84,0.5341,0.5476,0.6817,"0",129.700,0.000,57,19,19,0,00,08,00,11*ba09c6ce
#BESTPOSA,FILE,0,25.5,FINESTEERING,2319,306155.100,02000800,cdba,17139;SOL_COMPUTED,INS_PSRDIFF,17.59656801232,78.12147861110,526.3892,-76.2000,WGS84,0.5341,0.5476,0.6817,"0",129.700,0.000,57,19,19,0,00,08,00,11*34c0548e
#BESTPOSA,FILE,0,29.5,FINESTEERING,2319,306155.150,02000000,cdba,17139;SOL_COMPUTED,INS_PSRDIFF,17.59656792200,78.12148007185,526.3902,-76.2000,WGS84,0.5341,0.5476,0.6817,"0",129.700,0.000,57,19,19,0,00,08,00,11*ff7ae3f7
#BESTPOSA,FILE,0,29.5,FINESTEERING,2319,306155.200,02000000,cdba,17139;SOL_COMPUTED,INS_PSRDIFF,17.59656782148,78.12148152275,526.3905,-76.2000,WGS84,0.5341,0.5476,0.6817,"0",129.700,0.000,57,19,19,0,00,08,00,11*ae325c28
#BESTPOSA,FILE,0,29.5,FINESTEERING,2319,306155.250,02000000,cdba,17139;SOL_COMPUTED,INS_PSRDIFF,17.59656772200,78.12148296595,526.3910,-76.2000,WGS84,0.5341,0.5476,0.6817,"0",129.700,0.000,57,19,19,0,00,08,00,11*ded220f3
#BESTPOSA,FILE,0,29.5,FINESTEERING,2319,306155.300,02000000,cdba,17139;SOL_COMPUTED,INS_PSRDIFF,17.59656761272,78.12148440444,526.3914,-76.2000,WGS84,0.5341,0.5476,0.6817,"0",129.700,0.000,57,19,19,0,00,08,00,11*24dc5270
#BESTPOSA,FILE,0,29.5,FINESTEERING,2319,306155.350,02000000,cdba,17139;SOL_COMPUTED,INS_PSRDIFF,17.59656749773,78.12148583781,526.3922,-76.2000,WGS84,0.5341,0.5476,0.6817,"0",129.700,0.000,57,19,19,0,00,08,00,11*793184aa
#BESTPOSA,FILE,0,29.5,FINESTEERING,2319,306155.400,02000000,cdba,17139;SOL_COMPUTED,INS_PSRDIFF,17.59656738056,78.12148727098,526.3938,-76.2000,WGS84,0.5341,0.5476,0.6817,"0",129.700,0.000,57,19,19,0,00,08,00,11*938ea838
#BESTPOSA,FILE,0,29.5,FINESTEERING,2319,306155.450,02000000,cdba,17139;SOL_COMPUTED,INS_PSRDIFF,17.59656725780,78.12148869904,526.3955,-76.2000,WGS84,0.5341,0.5476,0.6817,"0",129.700,0.000,57,19,19,0,00,08,00,11*db10f169
#BESTPOSA,FILE,0,29.5,FINESTEERING,2319,306155.500,02000000,cdba,17139;SOL_COMPUTED,INS_PSRDIFF,17.59656713372,78.12149012170,526.3975,-76.2000,WGS84,0.5341,0.5476,0.6817,"0",129.700,0.000,57,19,19,0,00,08,00,11*7b28b041
#BESTPOSA,FILE,0,29.5,FINESTEERING,2319,306155.550,02000000,cdba,17139;SOL_COMPUTED,INS_PSRDIFF,17.59656700852,78.12149153580,526.3995,-76.2000,WGS84,0.5341,0.5476,0.6817,"0",129.700,0.000,57,19,19,0,00,08,00,11*89ee4309
#BESTPOSA,FILE,0,29.5,FINESTEERING,2319,306155.600,02000000,cdba,17139;SOL_COMPUTED,INS_PSRDIFF,17.59656687547,78.12149294402,526.4011,-76.2000,WGS84,0.5341,0.5476,0.6817,"0",129.700,0.000,57,19,19,0,00,08,00,11*ce86da30
#BESTPOSA,FILE,0,29.5,FINESTEERING,2319,306155.650,02000000,cdba,17139;SOL_COMPUTED,INS_PSRDIFF,17.59656673481,78.12149433795,526.4020,-76.2000,WGS84,0.5341,0.5476,0.6817,"0",129.700,0.000,57,19,19,0,00,08,00,11*cf13b3c3
#BESTPOSA,FILE,0,29.5,FINESTEERING,2319,306155.700,02000000,cdba,17139;SOL_COMPUTED,INS_PSRDIFF,17.59656658569,78.12149570809,526.4023,-76.2000,WGS84,0.5341,0.5476,0.6817,"0",129.700,0.000,57,19,19,0,00,08,00,11*6c1d1fe1
#BESTPOSA,FILE,0,29.5,FINESTEERING,2319,306155.750,02000000,cdba,17139;SOL_COMPUTED,INS_PSRDIFF,17.59656643932,78.12149705300,526.4024,-76.2000,WGS84,0.5341,0.5476,0.6817,"0",129.700,0.000,57,19,19,0,00,08,00,11*372e6834
#BESTPOSA,FILE,0,29.5,FINESTEERING,2319,306155.800,02000000,cdba,17139;SOL_COMPUTED,INS_PSRDIFF,17.59656631006,78.12149837406,526.4033,-76.2000,WGS84,0.5341,0.5476,0.6817,"0",129.700,0.000,57,19,19,0,00,08,00,11*28af5eac
#BESTPOSA,FILE,0,29.5,FINESTEERING,2319,306155.850,02000000,cdba,17139;SOL_COMPUTED,INS_PSRDIFF,17.59656618009,78.12149968329,526.4042,-76.2000,WGS84,0.5341,0.5476,0.6817,"0",129.700,0.000,57,19,19,0,00,08,00,11*2c9839aa
#BESTPOSA,FILE,0,29.5,FINESTEERING,2319,306155.900,02000000,cdba,17139;SOL_COMPUTED,INS_PSRDIFF,17.59656603969,78.12150097968,526.4046,-76.2000,WGS84,0.5341,0.5476,0.6817,"0",129.700,0.000,57,19,19,0,00,08,00,11*16294ab8
#BESTPOSA,FILE,0,29.5,FINESTEERING,2319,306155.950,02000000,cdba,17139;SOL_COMPUTED,INS_PSRDIFF,17.59656589314,78.12150228000,526.4058,-76.2000,WGS84,0.5341,0.5476,0.6817,"0",129.700,0.000,57,19,19,0,00,08,00,11*334592b0
#BESTPOSA,FILE,0,29.5,FINESTEERING,2319,306156.000,02000000,cdba,17139;SOL_COMPUTED,INS_PSRDIFF,17.59656574214,78.12150358663,526.4077,-76.2000,WGS84,0.5341,0.5476,0.6817,"0",129.700,0.000,57,19,19,0,00,08,00,11*e8a37008
#BESTPOSA,FILE,0,29.5,FINESTEERING,2319,306156.050,02000000,cdba,17139;SOL_COMPUTED,INS_PSRDIFF,17.59656556706,78.12150490037,526.4095,-76.2000,WGS84,0.5297,0.5441,0.6892,"0",130.700,0.000,56,19,19,0,00,08,00,11*db3272b6
#BESTPOSA,FILE,0,29.0,FINESTEERING,2319,306156.100,02000000,cdba,17139;SOL_COMPUTED,INS_PSRDIFF,17.59656536829,78.12150621553,526.4115,-76.2000,WGS84,0.5297,0.5441,0.6892,"0",130.700,0.000,56,19,19,0,00,08,00,11*c99d12eb
#BESTPOSA,FILE,0,29.0,FINESTEERING,2319,306156.150,02000000,cdba,17139;SOL_COMPUTED,INS_PSRDIFF,17.59656515024,78.12150752784,526.4131,-76.2000,WGS84,0.5297,0.5441,0.6892,"0",130.700,0.000,56,19,19,0,00,08,00,11*c21f3463
#BESTPOSA,FILE,0,29.0,FINESTEERING,2319,306156.200,02000000,cdba,17139;SOL_COMPUTED,INS_PSRDIFF,17.59656492034,78.12150883211,526.4142,-76.2000,WGS84,0.5297,0.5441,0.6892,"0",130.700,0.000,56,19,19,0,00,08,00,11*b23b9650
#BESTPOSA,FILE,0,29.0,FINESTEERING,2319,306156.250,02000000,cdba,17139;SOL_COMPUTED,INS_PSRDIFF,17.59656468306,78.12151012767,526.4149,-76.2000,WGS84,0.5297,0.5441,0.6892,"0",130.700,0.000,56,19,19,0,00,08,00,11*2ef9c5c3
#BESTPOSA,FILE,0,29.0,FINESTEERING,2319,306156.300,02000000,cdba,17139;SOL_COMPUTED,INS_PSRDIFF,17.59656444207,78.12151140574,526.4154,-76.2000,WGS84,0.5297,0.5441,0.6892,"0",130.700,0.000,56,19,19,0,00,08,00,11*f7165535
#BESTPOSA,FILE,0,29.0,FINESTEERING,2319,306156.350,02000000,cdba,17139;SOL_COMPUTED,INS_PSRDIFF,17.59656419741,78.12151268015,526.4156,-76.2000,WGS84,0.5297,0.5441,0.6892,"0",130.700,0.000,56,19,19,0,00,08,00,11*ef5b07d7
#BESTPOSA,FILE,0,29.0,FINESTEERING,2319,306156.400,02000000,cdba,17139;SOL_COMPUTED,INS_PSRDIFF,17.59656393958,78.12151393501,526.4151,-76.2000,WGS84,0.5297,0.5441,0.6892,"0",130.700,0.000,56,19,19,0,00,08,00,11*6d7945c8
#BESTPOSA,FILE,0,29.0,FINESTEERING,2319,306156.450,02000000,cdba,17139;SOL_COMPUTED,INS_PSRDIFF,17.59656365424,78.12151519564,526.4141,-76.2000,WGS84,0.5297,0.5441,0.6892,"0",130.700,0.000,56,19,19,0,00,08,00,11*1d3744e6
#BESTPOSA,FILE,0,29.0,FINESTEERING,2319,306156.500,02000000,cdba,17139;SOL_COMPUTED,INS_PSRDIFF,17.59656335871,78.12151644933,526.4138,-76.2000,WGS84,0.5297,0.5441,0.6892,"0",130.700,0.000,56,19,19,0,00,08,00,11*fd1c83d2
#BESTPOSA,FILE,0,29.0,FINESTEERING,2319,306156.550,02000000,cdba,17139;SOL_COMPUTED,INS_PSRDIFF,17.59656305141,78.12151771857,526.4152,-76.2000,WGS84,0.5297,0.5441,0.6892,"0",130.700,0.000,56,19,19,0,00,08,00,11*b24b1a64
#BESTPOSA,FILE,0,29.0,FINESTEERING,2319,306156.600,02000000,cdba,17139;SOL_COMPUTED,INS_PSRDIFF,17.59656275013,78.12151897549,526.4186,-76.2000,WGS84,0.5297,0.5441,0.6892,"0",130.700,0.000,56,19,19,0,00,08,00,11*f5884890
#BESTPOSA,FILE,0,29.0,FINESTEERING,2319,306156.650,02000000,cdba,17139;SOL_COMPUTED,INS_PSRDIFF,17.59656243732,78.12152022550,526.4234,-76.2000,WGS84,0.5297,0.5441,0.6892,"0",130.700,0.000,56,19,19,0,00,08,00,11*1fe842f6
#BESTPOSA,FILE,0,29.0,FINESTEERING,2319,306156.700,02000000,cdba,17139;SOL_COMPUTED,INS_PSRDIFF,17.59656213662,78.12152146418,526.4309,-76.2000,WGS84,0.5297,0.5441,0.6892,"0",130.700,0.000,56,19,19,0,00,08,00,11*56f6f6da
#BESTPOSA,FILE,0,29.0,FINESTEERING,2319,306156.750,02000000,cdba,17139;SOL_COMPUTED,INS_PSRDIFF,17.59656184880,78.12152269587,526.4409,-76.2000,WGS84,0.5297,0.5441,0.6892,"0",130.700,0.000,56,19,19,0,00,08,00,11*7b083756
#BESTPOSA,FILE,0,29.0,FINESTEERING,2319,306156.800,02000000,cdba,17139;SOL_COMPUTED,INS_PSRDIFF,17.59656156138,78.12152390803,526.4493,-76.2000,WGS84,0.5297,0.5441,0.6892,"0",130.700,0.000,56,19,19,0,00,08,00,11*9aac9123
#BESTPOSA,FILE,0,29.0,FINESTEERING,2319,306156.850,02000000,cdba,17139;SOL_COMPUTED,INS_PSRDIFF,17.59656127546,78.12152510870,526.4555,-76.2000,WGS84,0.5297,0.5441,0.6892,"0",130.700,0.000,56,19,19,0,00,08,00,11*e63c9b86
#BESTPOSA,FILE,0,29.0,FINESTEERING,2319,306156.900,02000000,cdba,17139;SOL_COMPUTED,INS_PSRDIFF,17.59656098522,78.12152627806,526.4583,-76.2000,WGS84,0.5297,0.5441,0.6892,"0",130.700,0.000,56,19,19,0,00,08,00,11*a629fa6c
#BESTPOSA,FILE,0,29.0,FINESTEERING,2319,306156.950,02000000,cdba,17139;SOL_COMPUTED,INS_PSRDIFF,17.59656069092,78.12152743638,526.4582,-76.2000,WGS84,0.5297,0.5441,0.6892,"0",130.700,0.000,56,19,19,0,00,08,00,11*ea5c293f
#BESTPOSA,FILE,0,29.0,FINESTEERING,2319,306157.000,02000000,cdba,17139;SOL_COMPUTED,INS_PSRDIFF,17.59656039475,78.12152857384,526.4559,-76.2000,WGS84,0.5297,0.5441,0.6892,"0",130.700,0.000,56,19,19,0,00,08,00,11*48bd0457
#BESTPOSA,FILE,0,29.0,FINESTEERING,2319,306157.050,02000800,cdba,17139;SOL_COMPUTED,INS_PSRDIFF,17.59656008435,78.12152970876,526.4518,-76.2000,WGS84,0.5258,0.5412,0.6962,"0",131.700,0.000,55,19,19,0,00,08,00,11*a1a5a3c8
#BESTPOSA,FILE,0,29.0,FINESTEERING,2319,306157.100,02000800,cdba,17139;SOL_COMPUTED,INS_PSRDIFF,17.59655975522,78.12153084009,526.4474,-76.2000,WGS84,0.5258,0.5412,0.6962,"0",131.700,0.000,55,19,19,0,00,08,00,11*5c3820e9
#BESTPOSA,FILE,0,30.5,FINESTEERING,2319,306157.150,02000800,cdba,17139;SOL_COMPUTED,INS_PSRDIFF,17.59655940478,78.12153196798,526.4437,-76.2000,WGS84,0.5258,0.5412,0.6962,"0",131.700,0.000,55,19,19,0,00,08,00,11*49b7ed89
#BESTPOSA,FILE,0,30.5,FINESTEERING,2319,306157.200,02000800,cdba,17139;SOL_COMPUTED,INS_PSRDIFF,17.59655903662,78.12153308673,526.4412,-76.2000,WGS84,0.5258,0.5412,0.6962,"0",131.700,0.000,55,19,19,0,00,08,00,11*8a0b6b91
#BESTPOSA,FILE,0,30.5,FINESTEERING,2319,306157.250,02000800,cdba,17139;SOL_COMPUTED,INS_PSRDIFF,17.59655864395,78.12153420305,526.4395,-76.2000,WGS84,0.5258,0.5412,0.6962,"0",131.700,0.000,55,19,19,0,00,08,00,11*b215dfd6
#BESTPOSA,FILE,0,30.5,FINESTEERING,2319,306157.300,02000800,cdba,17139;SOL_COMPUTED,INS_PSRDIFF,17.59655825607,78.12153529969,526.4397,-76.2000,WGS84,0.5258,0.5412,0.6962,"0",131.700,0.000,55,19,19,0,00,08,00,11*670073a0
#BESTPOSA,FILE,0,30.5,FINESTEERING,2319,306157.350,02000800,cdba,17139;SOL_COMPUTED,INS_PSRDIFF,17.59655785270,78.12153638565,526.4390,-76.2000,WGS84,0.5258,0.5412,0.6962,"0",131.700,0.000,55,19,19,0,00,08,00,11*12f19d41
#BESTPOSA,FILE,0,30.5,FINESTEERING,2319,306157.400,02000800,cdba,17139;SOL_COMPUTED,INS_PSRDIFF,17.59655745862,78.12153745582,526.4373,-76.2000,WGS84,0.5258,0.5412,0.6962,"0",131.700,0.000,55,19,19,0,00,08,00,11*0f0ab070
#BESTPOSA,FILE,0,30.5,FINESTEERING,2319,306157.450,02000800,cdba,17139;SOL_COMPUTED,INS_PSRDIFF,17.59655705845,78.12153850830,526.4324,-76.2000,WGS84,0.5258,0.5412,0.6962,"0",131.700,0.000,55,19,19,0,00,08,00,11*c3eb487c
#BESTPOSA,FILE,0,30.5,FINESTEERING,2319,306157.500,02000800,cdba,17139;SOL_COMPUTED,INS_PSRDIFF,17.59655666998,78.12153956000,526.4275,-76.2000,WGS84,0.5258,0.5412,0.6962,"0",131.700,0.000,55,19,19,0,00,08,00,11*a6c97f06
#BESTPOSA,FILE,0,30.5,FINESTEERING,2319,306157.550,02000800,cdba,17139;SOL_COMPUTED,INS_PSRDIFF,17.59655628017,78.12154060627,526.4235,-76.2000,WGS84,0.5258,0.5412,0.6962,"0",131.700,0.000,55,19,19,0,00,08,00,11*bf68b905
#BESTPOSA,FILE,0,30.5,FINESTEERING,2319,306157.600,02000800,cdba,17139;SOL_COMPUTED,INS_PSRDIFF,17.59655587969,78.12154166022,526.4212,-76.2000,WGS84,0.5258,0.5412,0.6962,"0",131.700,0.000,55,19,19,0,00,08,00,11*3d9a4f70
#BESTPOSA,FILE,0,30.5,FINESTEERING,2319,306157.650,02000800,cdba,17139;SOL_COMPUTED,INS_PSRDIFF,17.59655547302,78.12154271691,526.4214,-76.2000,WGS84,0.5258,0.5412,0.6962,"0",131.700,0.000,55,19,19,0,00,08,00,11*954f68ec
#BESTPOSA,FILE,0,30.5,FINESTEERING,2319,306157.700,02000800,cdba,17139;SOL_COMPUTED,INS_PSRDIFF,17.59655506756,78.12154377804,526.4248,-76.2000,WGS84,0.5258,0.5412,0.6962,"0",131.700,0.000,55,19,19,0,00,08,00,11*e1073a7f
#BESTPOSA,FILE,0,30.5,FINESTEERING,2319,306157.750,02000800,cdba,17139;SOL_COMPUTED,INS_PSRDIFF,17.59655465912,78.12154484443,526.4309,-76.2000,WGS84,0.5258,0.5412,0.6962,"0",131.700,0.000,55,19,19,0,00,08,00,11*3a066383
#BESTPOSA,FILE,0,30.5,FINESTEERING,2319,306157.800,02000800,cdba,17139;SOL_COMPUTED,INS_PSRDIFF,17.59655424594,78.12154590802,526.4384,-76.2000,WGS84,0.5258,0.5412,0.6962,"0",131.700,0.000,55,19,19,0,00,08,00,11*d6119935
#BESTPOSA,FILE,0,30.5,FINESTEERING,2319,306157.850,02000800,cdba,17139;SOL_COMPUTED,INS_PSRDIFF,17.59655381911,78.12154696108,526.4453,-76.2000,WGS84,0.5258,0.5412,0.6962,"0",131.700,0.000,55,19,19,0,00,08,00,11*ebf5a3cd
#BESTPOSA,FILE,0,30.5,FINESTEERING,2319,306157.900,02000800,cdba,17139;SOL_COMPUTED,INS_PSRDIFF,17.59655339335,78.12154799633,526.4510,-76.2000,WGS84,0.5258,0.5412,0.6962,"0",131.700,0.000,55,19,19,0,00,08,00,11*ab17a7ca
#BESTPOSA,FILE,0,30.5,FINESTEERING,2319,306157.950,02000800,cdba,17139;SOL_COMPUTED,INS_PSRDIFF,17.59655296175,78.12154901506,526.4547,-76.2000,WGS84,0.5258,0.5412,0.6962,"0",131.700,0.000,55,19,19,0,00,08,00,11*7811203e
#BESTPOSA,FILE,0,30.5,FINESTEERING,2319,306158.000,02000800,cdba,17139;SOL_COMPUTED,INS_PSRDIFF,17.59655254108,78.12155002190,526.4571,-76.2000,WGS84,0.5258,0.5412,0.6962,"0",131.700,0.000,55,19,19,0,00,08,00,11*bc33ddd8
#BESTPOSA,FILE,0,30.5,FINESTEERING,2319,306158.050,02000800,cdba,17139;SOL_COMPUTED,INS_PSRDIFF,17.59655209830,78.12155101900,526.4568,-76.2000,WGS84,0.5227,0.5388,0.7036,"0",132.700,0.000,55,19,19,0,00,08,00,11*d3348e23
#BESTPOSA,FILE,0,30.5,FINESTEERING,2319,306158.100,02000800,cdba,17139;SOL_COMPUTED,INS_PSRDIFF,17.59655164758,78.12155200662,526.4556,-76.2000,WGS84,0.5227,0.5388,0.7036,"0",132.700,0.000,55,19,19,0,00,08,00,11*f028eb32
#BESTPOSA,FILE,0,30.5,FINESTEERING,2319,306158.150,02000000,cdba,17139;SOL_COMPUTED,INS_PSRDIFF,17.59655117618,78.12155298193,526.4543,-76.2000,WGS84,0.5227,0.5388,0.7036,"0",132.700,0.000,55,19,19,0,00,08,00,11*6cb3f260
#BESTPOSA,FILE,0,30.5,FINESTEERING,2319,306158.200,02000000,cdba,17139;SOL_COMPUTED,INS_PSRDIFF,17.59655069645,78.12155394841,526.4539,-76.2000,WGS84,0.5227,0.5388,0.7036,"0",132.700,0.000,55,19,19,0,00,08,00,11*f3155d83
#BESTPOSA,FILE,0,30.5,FINESTEERING,2319,306158.250,02000000,cdba,17139;SOL_COMPUTED,INS_PSRDIFF,17.59655020338,78.12155491190,526.4544,-76.2000,WGS84,0.5227,0.5388,0.7036,"0",132.700,0.000,55,19,19,0,00,08,00,11*8c876a11
#BESTPOSA,FILE,0,30.5,FINESTEERING,2319,306158.300,02000000,cdba,17139;SOL_COMPUTED,INS_PSRDIFF,17.59654969799,78.12155587747,526.4556,-76.2000,WGS84,0.5227,0.5388,0.7036,"0",132.700,0.000,55,19,19,0,00,08,00,11*5d681a0d
#BESTPOSA,FILE,0,30.5,FINESTEERING,2319,306158.350,02000000,cdba,17139;SOL_COMPUTED,INS_PSRDIFF,17.59654918227,78.12155684629,526.4578,-76.2000,WGS84,0.5227,0.5388,0.7036,"0",132.700,0.000,55,19,19,0,00,08,00,11*b49b3dd5
#BESTPOSA,FILE,0,30.5,FINESTEERING,2319,306158.400,02000000,cdba,17139;SOL_COMPUTED,INS_PSRDIFF,17.59654866008,78.12155782076,526.4601,-76.2000,WGS84,0.5227,0.5388,0.7036,"0",132.700,0.000,55,19,19,0,00,08,00,11*f2903648
#BESTPOSA,FILE,0,30.5,FINESTEERING,2319,306158.450,02000000,cdba,17139;SOL_COMPUTED,INS_PSRDIFF,17.59654812617,78.12155880370,526.4622,-76.2000,WGS84,0.5227,0.5388,0.7036,"0",132.700,0.000,55,19,19,0,00,08,00,11*6f2fcafb
#BESTPOSA,FILE,0,30.5,FINESTEERING,2319,306158.500,02000000,cdba,17139;SOL_COMPUTED,INS_PSRDIFF,17.59654758484,78.12155979740,526.4644,-76.2000,WGS84,0.5227,0.5388,0.7036,"0",132.700,0.000,55,19,19,0,00,08,00,11*4dc1844e
#BESTPOSA,FILE,0,30.5,FINESTEERING,2319,306158.550,02000000,cdba,17139;SOL_COMPUTED,INS_PSRDIFF,17.59654703665,78.12156079006,526.4668,-76.2000,WGS84,0.5227,0.5388,0.7036,"0",132.700,0.000,55,19,19,0,00,08,00,11*a2992c6a
#BESTPOSA,FILE,0,30.5,FINESTEERING,2319,306158.600,02000000,cdba,17139;SOL_COMPUTED,INS_PSRDIFF,17.59654647393,78.12156180143,526.4686,-76.2000,WGS84,0.5227,0.5388,0.7036,"0",132.700,0.000,55,19,19,0,00,08,00,11*cbbd2073
#BESTPOSA,FILE,0,30.5,FINESTEERING,2319,306158.650,02000000,cdba,17139;SOL_COMPUTED,INS_PSRDIFF,17.59654591040,78.12156281794,526.4696,-76.2000,WGS84,0.5227,0.5388,0.7036,"0",132.700,0.000,55,19,19,0,00,08,00,11*cfcd30ef
#BESTPOSA,FILE,0,30.5,FINESTEERING,2319,306158.700,02000000,cdba,17139;SOL_COMPUTED,INS_PSRDIFF,17.59654532838,78.12156384979,526.4699,-76.2000,WGS84,0.5227,0.5388,0.7036,"0",132.700,0.000,55,19,19,0,00,08,00,11*de9c66af
#BESTPOSA,FILE,0,30.5,FINESTEERING,2319,306158.750,02000000,cdba,17139;SOL_COMPUTED,INS_PSRDIFF,17.59654473711,78.12156489359,526.4700,-76.2000,WGS84,0.5227,0.5388,0.7036,"0",132.700,0.000,55,19,19,0,00,08,00,11*93b50632
#BESTPOSA,FILE,0,30.5,FINESTEERING,2319,306158.800,02000000,cdba,17139;SOL_COMPUTED,INS_PSRDIFF,17.59654412391,78.12156594860,526.4698,-76.2000,WGS84,0.5227,0.5388,0.7036,"0",132.700,0.000,55,19,19,0,00,08,00,11*731415fa
#BESTPOSA,FILE,0,30.5,FINESTEERING,2319,306158.850,02000000,cdba,17139;SOL_COMPUTED,INS_PSRDIFF,17.59654349935,78.12156701647,526.4700,-76.2000,WGS84,0.5227,0.5388,0.7036,"0",132.700,0.000,55,19,19,0,00,08,00,11*fb7456ab
#BESTPOSA,FILE,0,30.5,FINESTEERING,2319,306158.900,02000000,cdba,17139;SOL_COMPUTED,INS_PSRDIFF,17.59654284892,78.12156810086,526.4697,-76.2000,WGS84,0.5227,0.5388,0.7036,"0",132.700,0.000,55,19,19,0,00,08,00,11*cab1405b
#BESTPOSA,FILE,0,30.5,FINESTEERING,2319,306158.950,02000000,cdba,17139;SOL_COMPUTED,INS_PSRDIFF,17.59654217833,78.12156919543,526.4697,-76.2000,WGS84,0.5227,0.5388,0.7036,"0",132.700,0.000,55,19,19,0,00,08,00,11*f3995b9d
#BESTPOSA,FILE,0,30.5,FINESTEERING,2319,306159.000,02000000,cdba,17139;SOL_COMPUTED,INS_PSRDIFF,17.59654147329,78.12157030253,526.4704,-76.2000,WGS84,0.5227,0.5388,0.7036,"0",132.700,0.000,55,19,19,0,00,08,00,11*7d7931a0
#BESTPOSA,FILE,0,30.5,FINESTEERING,2319,306159.050,02000000,cdba,17139;SOL_COMPUTED,INS_PSRDIFF,17.59654073149,78.12157142370,526.4721,-76.2000,WGS84,0.5198,0.5365,0.7103,"0",133.700,0.000,56,19,19,0,00,08,00,11*5b87490f
#BESTPOSA,FILE,0,29.0,FINESTEERING,2319,306159.100,02000000,cdba,17139;SOL_COMPUTED,INS_PSRDIFF,17.59653995104,78.12157254608,526.4745,-76.2000,WGS84,0.5198,0.5365,0.7103,"0",133.700,0.000,56,19,19,0,00,08,00,11*c0f7904e
#BESTPOSA,FILE,0,29.0,FINESTEERING,2319,306159.150,02000000,cdba,17139;SOL_COMPUTED,INS_PSRDIFF,17.59653913796,78.12157367514,526.4774,-76.2000,WGS84,0.5198,0.5365,0.7103,"0",133.700,0.000,56,19,19,0,00,08,00,11*3a53c83e
#BESTPOSA,FILE,0,29.0,FINESTEERING,2319,306159.200,02000000,cdba,17139;SOL_COMPUTED,INS_PSRDIFF,17.59653829511,78.12157481614,526.4805,-76.2000,WGS84,0.5198,0.5365,0.7103,"0",133.700,0.000,56,19,19,0,00,08,00,11*6240e8c5
#BESTPOSA,FILE,0,29.0,FINESTEERING,2319,306159.250,02000000,cdba,17139;SOL_COMPUTED,INS_PSRDIFF,17.59653743173,78.12157595791,526.4829,-76.2000,WGS84,0.5198,0.5365,0.7103,"0",133.700,0.000,56,19,19,0,00,08,00,11*8a710784
#BESTPOSA,FILE,0,29.0,FINESTEERING,2319,306159.300,02000000,cdba,17139;SOL_COMPUTED,INS_PSRDIFF,17.59653654488,78.12157710912,526.4849,-76.2000,WGS84,0.5198,0.5365,0.7103,"0",133.700,0.000,56,19,19,0,00,08,00,11*4a125423
#BESTPOSA,FILE,0,29.0,FINESTEERING,2319,306159.350,02000000,cdba,17139;SOL_COMPUTED,INS_PSRDIFF,17.59653563597,78.12157826513,526.4863,-76.2000,WGS84,0.5198,0.5365,0.7103,"0",133.700,0.000,56,19,19,0,00,08,00,11*c0799083
#BESTPOSA,FILE,0,29.0,FINESTEERING,2319,306159.400,02000000,cdba,17139;SOL_COMPUTED,INS_PSRDIFF,17.59653469659,78.12157941712,526.4873,-76.2000,WGS84,0.5198,0.5365,0.7103,"0",133.700,0.000,56,19,19,0,00,08,00,11*94216337
#BESTPOSA,FILE,0,29.0,FINESTEERING,2319,306159.450,02000000,cdba,17139;SOL_COMPUTED,INS_PSRDIFF,17.59653372674,78.12158056211,526.4887,-76.2000,WGS84,0.5198,0.5365,0.7103,"0",133.700,0.000,56,19,19,0,00,08,00,11*5b11e694
#BESTPOSA,FILE,0,29.0,FINESTEERING,2319,306159.500,02000000,cdba,17139;SOL_COMPUTED,INS_PSRDIFF,17.59653271971,78.12158169764,526.4905,-76.2000,WGS84,0.5198,0.5365,0.7103,"0",133.700,0.000,56,19,19,0,00,08,00,11*4473856f
#BESTPOSA,FILE,0,29.0,FINESTEERING,2319,306159.550,02000000,cdba,17139;SOL_COMPUTED,INS_PSRDIFF,17.59653168063,78.12158282039,526.4924,-76.2000,WGS84,0.5198,0.5365,0.7103,"0",133.700,0.000,56,19,19,0,00,08,00,11*bb0b3c18
#BESTPOSA,FILE,0,29.0,FINESTEERING,2319,306159.600,02000000,cdba,17139;SOL_COMPUTED,INS_PSRDIFF,17.59653061404,78.12158393307,526.4947,-76.2000,WGS84,0.5198,0.5365,0.7103,"0",133.700,0.000,56,19,19,0,00,08,00,11*ba4c8937
#BESTPOSA,FILE,0,29.0,FINESTEERING,2319,306159.650,02000000,cdba,17139;SOL_COMPUTED,INS_PSRDIFF,17.59652951884,78.12158503171,526.4968,-76.2000,WGS84,0.5198,0.5365,0.7103,"0",133.700,0.000,56,19,19,0,00,08,00,11*3db51624
#BESTPOSA,FILE,0,29.0,FINESTEERING,2319,306159.700,02000000,cdba,17139;SOL_COMPUTED,INS_PSRDIFF,17.59652840438,78.12158611778,526.4987,-76.2000,WGS84,0.5198,0.5365,0.7103,"0",133.700,0.000,56,19,19,0,00,08,00,11*8fe0f14e
#BESTPOSA,FILE,0,29.0,FINESTEERING,2319,306159.750,02000000,cdba,17139;SOL_COMPUTED,INS_PSRDIFF,17.59652727151,78.12158719702,526.5008,-76.2000,WGS84,0.5198,0.5365,0.7103,"0",133.700,0.000,56,19,19,0,00,08,00,11*b90d1110
#BESTPOSA,FILE,0,29.0,FINESTEERING,2319,306159.800,02000000,cdba,17139;SOL_COMPUTED,INS_PSRDIFF,17.59652612197,78.12158827485,526.5033,-76.2000,WGS84,0.5198,0.5365,0.7103,"0",133.700,0.000,56,19,19,0,00,08,00,11*0311e2e4
#BESTPOSA,FILE,0,29.0,FINESTEERING,2319,306159.850,02000000,cdba,17139;SOL_COMPUTED,INS_PSRDIFF,17.59652495993,78.12158934758,526.5063,-76.2000,WGS84,0.5198,0.5365,0.7103,"0",133.700,0.000,56,19,19,0,00,08,00,11*94f38bf1
#BESTPOSA,FILE,0,29.0,FINESTEERING,2319,306159.900,02000000,cdba,17139;SOL_COMPUTED,INS_PSRDIFF,17.59652378138,78.12159041463,526.5095,-76.2000,WGS84,0.5198,0.5365,0.7103,"0",133.700,0.000,56,19,19,0,00,08,00,11*69c07bb4
#BESTPOSA,FILE,0,29.0,FINESTEERING,2319,306159.950,02000000,cdba,17139;SOL_COMPUTED,INS_PSRDIFF,17.59652258532,78.12159147723,526.5130,-76.2000,WGS84,0.5198,0.5365,0.7103,"0",133.700,0.000,56,19,19,0,00,08,00,11*4cef9cde
#BESTPOSA,FILE,0,29.0,FINESTEERING,2319,306160.000,02000000,cdba,17139;SOL_COMPUTED,INS_PSRDIFF,17.59652137553,78.12159253227,526.5177,-76.2000,WGS84,0.5198,0.5365,0.7103,"0",133.700,0.000,56,19,19,0,00,08,00,11*c77bfb32
#BESTPOSA,FILE,0,29.0,FINESTEERING,2319,306160.050,02000000,cdba,17139;SOL_COMPUTED,INS_PSRDIFF,17.59652012064,78.12159356987,526.5231,-76.2000,WGS84,0.5188,0.5336,0.7163,"0",134.700,0.000,55,19,19,0,00,08,00,11*11d1c444
#BESTPOSA,FILE,0,29.0,FINESTEERING,2319,306160.100,02000000,cdba,17139;SOL_COMPUTED,INS_PSRDIFF,17.59651882219,78.12159458047,526.5294,-76.2000,WGS84,0.5188,0.5336,0.7163,"0",134.700,0.000,55,19,19,0,00,08,00,11*27a095b6
#BESTPOSA,FILE,0,30.0,FINESTEERING,2319,306160.150,02000000,cdba,17139;SOL_COMPUTED,INS_PSRDIFF,17.59651749920,78.12159557176,526.5360,-76.2000,WGS84,0.5188,0.5336,0.7163,"0",134.700,0.000,55,19,19,0,00,08,00,11*91c8e94e
#BESTPOSA,FILE,0,30.0,FINESTEERING,2319,306160.200,02000000,cdba,17139;SOL_COMPUTED,INS_PSRDIFF,17.59651615833,78.12159653977,526.5420,-76.2000,WGS84,0.5188,0.5336,0.7163,"0",134.700,0.000,55,19,19,0,00,08,00,11*25c554b9
#BESTPOSA,FILE,0,30.0,FINESTEERING,2319,306160.250,02000000,cdba,17139;SOL_COMPUTED,INS_PSRDIFF,17.59651479619,78.12159748061,526.5467,-76.2000,WGS84,0.5188,0.5336,0.7163,"0",134.700,0.000,55,19,19,0,00,08,00,11*e628537e
#BESTPOSA,FILE,0,30.0,FINESTEERING,2319,306160.300,02000000,cdba,17139;SOL_COMPUTED,INS_PSRDIFF,17.59651341867,78.12159839157,526.5495,-76.2000,WGS84,0.5188,0.5336,0.7163,"0",134.700,0.000,55,19,19,0,00,08,00,11*8eac37ac
#BESTPOSA,FILE,0,30.0,FINESTEERING,2319,306160.350,02000000,cdba,17139;SOL_COMPUTED,INS_PSRDIFF,17.59651202539,78.12159927408,526.5509,-76.2000,WGS84,0.5188,0.5336,0.7163,"0",134.700,0.000,55,19,19,0,00,08,00,11*476d6be3
#BESTPOSA,FILE,0,30.0,FINESTEERING,2319,306160.400,02000000,cdba,17139;SOL_COMPUTED,INS_PSRDIFF,17.59651061227,78.12160012732,526.5507,-76.2000,WGS84,0.5188,0.5336,0.7163,"0",134.700,0.000,55,19,19,0,00,08,00,11*62286c9b
#BESTPOSA,FILE,0,30.0,FINESTEERING,2319,306160.450,02000000,cdba,17139;SOL_COMPUTED,INS_PSRDIFF,17.59650918461,78.12160095798,526.5497,-76.2000,WGS84,0.5188,0.5336,0.7163,"0",134.700,0.000,55,19,19,0,00,08,00,11*8e08489f
#BESTPOSA,FILE,0,30.0,FINESTEERING,2319,306160.500,02000000,cdba,17139;SOL_COMPUTED,INS_PSRDIFF,17.59650773893,78.12160176357,526.5484,-76.2000,WGS84,0.5188,0.5336,0.7163,"0",134.700,0.000,55,19,19,0,00,08,00,11*15d4680a
#BESTPOSA,FILE,0,30.0,FINESTEERING,2319,306160.550,02000000,cdba,17139;SOL_COMPUTED,INS_PSRDIFF,17.59650627279,78.12160255003,526.5474,-76.2000,WGS84,0.5188,0.5336,0.7163,"0",134.700,0.000,55,19,19,0,00,08,00,11*7fe4ac70
#BESTPOSA,FILE,0,30.0,FINESTEERING,2319,306160.600,02000000,cdba,17139;SOL_COMPUTED,INS_PSRDIFF,17.59650478495,78.12160332429,526.5470,-76.2000,WGS84,0.5188,0.5336,0.7163,"0",134.700,0.000,55,19,19,0,00,08,00,11*0020ed8d
#BESTPOSA,FILE,0,30.0,FINESTEERING,2319,306160.650,02000000,cdba,17139;SOL_COMPUTED,INS_PSRDIFF,17.59650327383,78.12160408652,526.5475,-76.2000,WGS84,0.5188,0.5336,0.7163,"0",134.700,0.000,55,19,19,0,00,08,00,11*1a05ed09
#BESTPOSA,FILE,0,30.0,FINESTEERING,2319,306160.700,02000000,cdba,17139;SOL_COMPUTED,INS_PSRDIFF,17.59650174335,78.12160484282,526.5492,-76.2000,WGS84,0.5188,0.5336,0.7163,"0",134.700,0.000,55,19,19,0,00,08,00,11*d7f3784a
#BESTPOSA,FILE,0,30.0,FINESTEERING,2319,306160.750,02000000,cdba,17139;SOL_COMPUTED,INS_PSRDIFF,17.59650019123,78.12160559204,526.5514,-76.2000,WGS84,0.5188,0.5336,0.7163,"0",134.700,0.000,55,19,19,0,00,08,00,11*3bb23b87
#BESTPOSA,FILE,0,30.0,FINESTEERING,2319,306160.800,02000000,cdba,17139;SOL_COMPUTED,INS_PSRDIFF,17.59649862485,78.12160633552,526.5542,-76.2000,WGS84,0.5188,0.5336,0.7163,"0",134.700,0.000,55,19,19,0,00,08,00,11*d4a22a6f
#BESTPOSA,FILE,0,30.0,FINESTEERING,2319,306160.850,02000000,cdba,17139;SOL_COMPUTED,INS_PSRDIFF,17.59649704398,78.12160707027,526.5575,-76.2000,WGS84,0.5188,0.5336,0.7163,"0",134.700,0.000,55,19,19,0,00,08,00,11*3469961f
#BESTPOSA,FILE,0,30.0,FINESTEERING,2319,306160.900,02000000,cdba,17139;SOL_COMPUTED,INS_PSRDIFF,17.59649545060,78.12160779160,526.5608,-76.2000,WGS84,0.5188,0.5336,0.7163,"0",134.700,0.000,55,19,19,0,00,08,00,11*4af7d038
#BESTPOSA,FILE,0,30.0,FINESTEERING,2319,306160.950,02000000,cdba,17139;SOL_COMPUTED,INS_PSRDIFF,17.59649383655,78.12160849567,526.5644,-76.2000,WGS84,0.5188,0.5336,0.7163,"0",134.700,0.000,55,19,19,0,00,08,00,11*fe77d89a
#BESTPOSA,FILE,0,30.0,FINESTEERING,2319,306161.000,02000000,cdba,17139;SOL_COMPUTED,INS_PSRDIFF,17.59649220405,78.12160917701,526.5677,-76.2000,WGS84,0.5188,0.5336,0.7163,"0",134.700,0.000,55,19,19,0,00,08,00,11*3dd4933d
#BESTPOSA,FILE,0,30.0,FINESTEERING,2319,306161.050,02000000,cdba,17139;SOL_COMPUTED,INS_PSRDIFF,17.59649056100,78.12160982109,526.5709,-76.2000,WGS84,0.5178,0.5314,0.7223,"0",135.700,0.000,55,19,19,0,00,08,00,11*97796718
#BESTPOSA,FILE,0,27.5,FINESTEERING,2319,306161.100,02000000,cdba,17139;SOL_COMPUTED,INS_PSRDIFF,17.59648890269,78.12161042740,526.5739,-76.2000,WGS84,0.5178,0.5314,0.7223,"0",135.700,0.000,55,19,19,0,00,08,00,11*164a3d2c
#BESTPOSA,FILE,0,27.5,FINESTEERING,2319,306161.150,02000000,cdba,17139;SOL_COMPUTED,INS_PSRDIFF,17.59648722496,78.12161101474,526.5768,-76.2000,WGS84,0.5178,0.5314,0.7223,"0",135.700,0.000,55,19,19,0,00,08,00,11*ef36a397
#BESTPOSA,FILE,0,27.5,FINESTEERING,2319,306161.200,02000000,cdba,17139;SOL_COMPUTED,INS_PSRDIFF,17.59648553776,78.12161158833,526.5793,-76.2000,WGS84,0.5178,0.5314,0.7223,"0",135.700,0.000,55,19,19,0,00,08,00,11*dd04901a
#BESTPOSA,FILE,0,27.5,FINESTEERING,2319,306161.250,02000000,cdba,17139;SOL_COMPUTED,INS_PSRDIFF,17.59648383963,78.12161215248,526.5814,-76.2000,WGS84,0.5178,0.5314,0.7223,"0",135.700,0.000,55,19,19,0,00,08,00,11*74b57dc6
#BESTPOSA,FILE,0,27.5,FINESTEERING,2319,306161.300,02000000,cdba,17139;SOL_COMPUTED,INS_PSRDIFF,17.59648212670,78.12161270697,526.5830,-76.2000,WGS84,0.5178,0.5314,0.7223,"0",135.700,0.000,55,19,19,0,00,08,00,11*67df2758
#BESTPOSA,FILE,0,27.5,FINESTEERING,2319,306161.350,02000000,cdba,17139;SOL_COMPUTED,INS_PSRDIFF,17.59648040361,78.12161325196,526.5846,-76.2000,WGS84,0.5178,0.5314,0.7223,"0",135.700,0.000,55,19,19,0,00,08,00,11*72bcc880
#BESTPOSA,FILE,0,27.5,FINESTEERING,2319,306161.400,02000000,cdba,17139;SOL_COMPUTED,INS_PSRDIFF,17.59647866090,78.12161377908,526.5863,-76.2000,WGS84,0.5178,0.5314,0.7223,"0",135.700,0.000,55,19,19,0,00,08,00,11*81699933
#BESTPOSA,FILE,0,27.5,FINESTEERING,2319,306161.450,02000000,cdba,17139;SOL_COMPUTED,INS_PSRDIFF,17.59647690094,78.12161428826,526.5885,-76.2000,WGS84,0.5178,0.5314,0.7223,"0",135.700,0.000,55,19,19,0,00,08,00,11*e7b60f5e
#BESTPOSA,FILE,0,27.5,FINESTEERING,2319,306161.500,02000000,cdba,17139;SOL_COMPUTED,INS_PSRDIFF,17.59647511298,78.12161477839,526.5914,-76.2000,WGS84,0.5178,0.5314,0.7223,"0",135.700,0.000,55,19,19,0,00,08,00,11*faa6d252
#BESTPOSA,FILE,0,27.5,FINESTEERING,2319,306161.550,02000000,cdba,17139;SOL_COMPUTED,INS_PSRDIFF,17.59647330053,78.12161524843,526.5949,-76.2000,WGS84,0.5178,0.5314,0.7223,"0",135.700,0.000,55,19,19,0,00,08,00,11*63fab505
#BESTPOSA,FILE,0,27.5,FINESTEERING,2319,306161.600,02000000,cdba,17139;SOL_COMPUTED,INS_PSRDIFF,17.59647147071,78.12161570380,526.5989,-76.2000,WGS84,0.5178,0.5314,0.7223,"0",135.700,0.000,55,19,19,0,00,08,00,11*fe66c020
#BESTPOSA,FILE,0,27.5,FINESTEERING,2319,306161.650,02000000,cdba,17139;SOL_COMPUTED,INS_PSRDIFF,17.59646962548,78.12161614947,526.6031,-76.2000,WGS84,0.5178,0.5314,0.7223,"0",135.700,0.000,55,19,19,0,00,08,00,11*265e33d0
#BESTPOSA,FILE,0,27.5,FINESTEERING,2319,306161.700,02000000,cdba,17139;SOL_COMPUTED,INS_PSRDIFF,17.59646776828,78.12161658657,526.6072,-76.2000,WGS84,0.5178,0.5314,0.7223,"0",135.700,0.000,55,19,19,0,00,08,00,11*a43cd15a
#BESTPOSA,FILE,0,27.5,FINESTEERING,2319,306161.750,02000000,cdba,17139;SOL_COMPUTED,INS_PSRDIFF,17.59646590097,78.12161701471,526.6110,-76.2000,WGS84,0.5178,0.5314,0.7223,"0",135.700,0.000,55,19,19,0,00,08,00,11*4b33e2a6
#BESTPOSA,FILE,0,27.5,FINESTEERING,2319,306161.800,02000000,cdba,17139;SOL_COMPUTED,INS_PSRDIFF,17.59646402368,78.12161743092,526.6146,-76.2000,WGS84,0.5178,0.5314,0.7223,"0",135.700,0.000,55,19,19,0,00,08,00,11*81759a7b
#BESTPOSA,FILE,0,27.5,FINESTEERING,2319,306161.850,02000000,cdba,17139;SOL_COMPUTED,INS_PSRDIFF,17.59646213796,78.12161783850,526.6185,-76.2000,WGS84,0.5178,0.5314,0.7223,"0",135.700,0.000,55,19,19,0,00,08,00,11*6beff704
#BESTPOSA,FILE,0,27.5,FINESTEERING,2319,306161.900,02000000,cdba,17139;SOL_COMPUTED,INS_PSRDIFF,17.59646023893,78.12161824066,526.6229,-76.2000,WGS84,0.5178,0.5314,0.7223,"0",135.700,0.000,55,19,19,0,00,08,00,11*2812a0b9
#BESTPOSA,FILE,0,27.5,FINESTEERING,2319,306161.950,02000000,cdba,17139;SOL_COMPUTED,INS_PSRDIFF,17.59645832161,78.12161863085,526.6279,-76.2000,WGS84,0.5178,0.5314,0.7223,"0",135.700,0.000,55,19,19,0,00,08,00,11*5a726773
#BESTPOSA,FILE,0,27.5,FINESTEERING,2319,306162.000,02000000,cdba,17139;SOL_COMPUTED,INS_PSRDIFF,17.59645638719,78.12161901201,526.6333,-76.2000,WGS84,0.5178,0.5314,0.7223,"0",135.700,0.000,55,19,19,0,00,08,00,11*ad058061
#BESTPOSA,FILE,0,27.5,FINESTEERING,2319,306162.050,02000000,cdba,17139;SOL_COMPUTED,INS_PSRDIFF,17.59645446570,78.12161938365,526.6387,-76.2000,WGS84,0.5164,0.5296,0.7291,"0",136.700,0.000,55,19,19,0,00,08,00,11*e9866182
#BESTPOSA,FILE,0,27.5,FINESTEERING,2319,306162.100,02000000,cdba,17139;SOL_COMPUTED,INS_PSRDIFF,17.59645256587,78.12161974853,526.6437,-76.2000,WGS84,0.5164,0.5296,0.7291,"0",136.700,0.000,55,19,19,0,00,08,00,11*740cf75f
#BESTPOSA,FILE,0,29.5,FINESTEERING,2319,306162.150,02000000,cdba,17139;SOL_COMPUTED,INS_PSRDIFF,17.59645065785,78.12162009757,526.6476,-76.2000,WGS84,0.5164,0.5296,0.7291,"0",136.700,0.000,55,19,19,0,00,08,00,11*71c83cfd
#BESTPOSA,FILE,0,29.5,FINESTEERING,2319,306162.200,02000000,cdba,17139;SOL_COMPUTED,INS_PSRDIFF,17.59644874388,78.12162043079,526.6503,-76.2000,WGS84,0.5164,0.5296,0.7291,"0",136.700,0.000,55,19,19,0,00,08,00,11*6ad42d13
#BESTPOSA,FILE,0,29.5,FINESTEERING,2319,306162.250,02000000,cdba,17139;SOL_COMPUTED,INS_PSRDIFF,17.59644681792,78.12162075535,526.6523,-76.2000,WGS84,0.5164,0.5296,0.7291,"0",136.700,0.000,55,19,19,0,00,08,00,11*758b11cb
#BESTPOSA,FILE,0,29.5,FINESTEERING,2319,306162.300,02000000,cdba,17139;SOL_COMPUTED,INS_PSRDIFF,17.59644488542,78.12162106859,526.6541,-76.2000,WGS84,0.5164,0.5296,0.7291,"0",136.700,0.000,55,19,19,0,00,08,00,11*04ca8035
#BESTPOSA,FILE,0,29.5,FINESTEERING,2319,306162.350,02000000,cdba,17139;SOL_COMPUTED,INS_PSRDIFF,17.59644293826,78.12162136355,526.6557,-76.2000,WGS84,0.5164,0.5296,0.7291,"0",136.700,0.000,55,19,19,0,00,08,00,11*8bee49d9
#BESTPOSA,FILE,0,29.5,FINESTEERING,2319,306162.400,02000000,cdba,17139;SOL_COMPUTED,INS_PSRDIFF,17.59644097303,78.12162164376,526.6575,-76.2000,WGS84,0.5164,0.5296,0.7291,"0",136.700,0.000,55,19,19,0,00,08,00,11*1324d08c
#BESTPOSA,FILE,0,29.5,FINESTEERING,2319,306162.450,02000000,cdba,17139;SOL_COMPUTED,INS_PSRDIFF,17.59643899229,78.12162191421,526.6599,-76.2000,WGS84,0.5164,0.5296,0.7291,"0",136.700,0.000,55,19,19,0,00,08,00,11*3c008ecb
#BESTPOSA,FILE,0,29.5,FINESTEERING,2319,306162.500,02000000,cdba,17139;SOL_COMPUTED,INS_PSRDIFF,17.59643699786,78.12162218333,526.6630,-76.2000,WGS84,0.5164,0.5296,0.7291,"0",136.700,0.000,55,19,19,0,00,08,00,11*2bde1018
#BESTPOSA,FILE,0,29.5,FINESTEERING,2319,306162.550,02000000,cdba,17139;SOL_COMPUTED,INS_PSRDIFF,17.59643499332,78.12162244789,526.6656,-76.2000,WGS84,0.5164,0.5296,0.7291,"0",136.700,0.000,55,19,19,0,00,08,00,11*62da15a1
#BESTPOSA,FILE,0,29.5,FINESTEERING,2319,306162.600,02000000,cdba,17139;SOL_COMPUTED,INS_PSRDIFF,17.59643297815,78.12162270551,526.6678,-76.2000,WGS84,0.5164,0.5296,0.7291,"0",136.700,0.000,55,19,19,0,00,08,00,11*e2b65907
#BESTPOSA,FILE,0,29.5,FINESTEERING,2319,306162.650,02000000,cdba,17139;SOL_COMPUTED,INS_PSRDIFF,17.59643095101,78.12162295398,526.6691,-76.2000,WGS84,0.5164,0.5296,0.7291,"0",136.700,0.000,55,19,19,0,00,08,00,11*ce32a06f
#BESTPOSA,FILE,0,29.5,FINESTEERING,2319,306162.700,02000000,cdba,17139;SOL_COMPUTED,INS_PSRDIFF,17.59642891441,78.12162319970,526.6705,-76.2000,WGS84,0.5164,0.5296,0.7291,"0",136.700,0.000,55,19,19,0,00,08,00,11*3153e026
#BESTPOSA,FILE,0,29.5,FINESTEERING,2319,306162.750,02000000,cdba,17139;SOL_COMPUTED,INS_PSRDIFF,17.59642685729,78.12162343445,526.6717,-76.2000,WGS84,0.5164,0.5296,0.7291,"0",136.700,0.000,55,19,19,0,00,08,00,11*e6ba22b1
#BESTPOSA,FILE,0,29.5,FINESTEERING,2319,306162.800,02000000,cdba,17139;SOL_COMPUTED,INS_PSRDIFF,17.59642479143,78.12162365991,526.6726,-76.2000,WGS84,0.5164,0.5296,0.7291,"0",136.700,0.000,55,19,19,0,00,08,00,11*53ef4090
#BESTPOSA,FILE,0,29.5,FINESTEERING,2319,306162.850,02000000,cdba,17139;SOL_COMPUTED,INS_PSRDIFF,17.59642270796,78.12162387985,526.6742,-76.2000,WGS84,0.5164,0.5296,0.7291,"0",136.700,0.000,55,19,19,0,00,08,00,11*8646180c
#BESTPOSA,FILE,0,29.5,FINESTEERING,2319,306162.900,02000000,cdba,17139;SOL_COMPUTED,INS_PSRDIFF,17.59642060574,78.12162409701,526.6761,-76.2000,WGS84,0.5164,0.5296,0.7291,"0",136.700,0.000,55,19,19,0,00,08,00,11*d365e3bb
#BESTPOSA,FILE,0,29.5,FINESTEERING,2319,306162.950,02000000,cdba,17139;SOL_COMPUTED,INS_PSRDIFF,17.59641848706,78.12162430871,526.6783,-76.2000,WGS84,0.5164,0.5296,0.7291,"0",136.700,0.000,55,19,19,0,00,08,00,11*f2431190
#BESTPOSA,FILE,0,29.5,FINESTEERING,2319,306163.000,02000000,cdba,17139;SOL_COMPUTED,INS_PSRDIFF,17.59641634640,78.12162451048,526.6803,-76.2000,WGS84,0.5164,0.5296,0.7291,"0",136.700,0.000,55,19,19,0,00,08,00,11*bd426780
#BESTPOSA,FILE,0,29.5,FINESTEERING,2319,306163.050,02000000,cdba,17139;SOL_COMPUTED,INS_PSRDIFF,17.59641421727,78.12162471771,526.6822,-76.2000,WGS84,0.5145,0.5281,0.7360,"0",137.700,0.000,55,19,19,0,00,08,00,11*dbe9d195
#BESTPOSA,FILE,0,29.5,FINESTEERING,2319,306163.100,02000000,cdba,17139;SOL_COMPUTED,INS_PSRDIFF,17.59641208884,78.12162493191,526.6838,-76.2000,WGS84,0.5145,0.5281,0.7360,"0",137.700,0.000,55,19,19,0,00,08,00,11*9b7169f4
#BESTPOSA,FILE,0,30.0,FINESTEERING,2319,306163.150,02000000,cdba,17139;SOL_COMPUTED,INS_PSRDIFF,17.59640994528,78.12162513919,526.6850,-76.2000,WGS84,0.5145,0.5281,0.7360,"0",137.700,0.000,55,19,19,0,00,08,00,11*fdb68a45
#BESTPOSA,FILE,0,30.0,FINESTEERING,2319,306163.200,02000000,cdba,17139;SOL_COMPUTED,INS_PSRDIFF,17.59640778517,78.12162534335,526.6861,-76.2000,WGS84,0.5145,0.5281,0.7360,"0",137.700,0.000,55,19,19,0,00,08,00,11*c8e25b12
#BESTPOSA,FILE,0,30.0,FINESTEERING,2319,306163.250,02000000,cdba,17139;SOL_COMPUTED,INS_PSRDIFF,17.59640560742,78.12162554952,526.6874,-76.2000,WGS84,0.5145,0.5281,0.7360,"0",137.700,0.000,55,19,19,0,00,08,00,11*76619b99
#BESTPOSA,FILE,0,30.0,FINESTEERING,2319,306163.300,02000000,cdba,17139;SOL_COMPUTED,INS_PSRDIFF,17.59640341297,78.12162575993,526.6889,-76.2000,WGS84,0.5145,0.5281,0.7360,"0",137.700,0.000,55,19,19,0,00,08,00,11*83275e26
#BESTPOSA,FILE,0,30.0,FINESTEERING,2319,306163.350,02000000,cdba,17139;SOL_COMPUTED,INS_PSRDIFF,17.59640120128,78.12162597375,526.6911,-76.2000,WGS84,0.5145,0.5281,0.7360,"0",137.700,0.000,55,19,19,0,00,08,00,11*95408ba6
#BESTPOSA,FILE,0,30.0,FINESTEERING,2319,306163.400,02000000,cdba,17139;SOL_COMPUTED,INS_PSRDIFF,17.59639897050,78.12162618574,526.6934,-76.2000,WGS84,0.5145,0.5281,0.7360,"0",137.700,0.000,55,19,19,0,00,08,00,11*7bff74b6
#BESTPOSA,FILE,0,30.0,FINESTEERING,2319,306163.450,02000000,cdba,17139;SOL_COMPUTED,INS_PSRDIFF,17.59639672539,78.12162639832,526.6958,-76.2000,WGS84,0.5145,0.5281,0.7360,"0",137.700,0.000,55,19,19,0,00,08,00,11*6a2ce2dc
#BESTPOSA,FILE,0,30.0,FINESTEERING,2319,306163.500,02000000,cdba,17139;SOL_COMPUTED,INS_PSRDIFF,17.59639446044,78.12162660776,526.6984,-76.2000,WGS84,0.5145,0.5281,0.7360,"0",137.700,0.000,55,19,19,0,00,08,00,11*396c6bbe
#BESTPOSA,FILE,0,30.0,FINESTEERING,2319,306163.550,02000000,cdba,17139;SOL_COMPUTED,INS_PSRDIFF,17.59639217820,78.12162681391,526.7007,-76.2000,WGS84,0.5145,0.5281,0.7360,"0",137.700,0.000,55,19,19,0,00,08,00,11*0af5bb30
#BESTPOSA,FILE,0,30.0,FINESTEERING,2319,306163.600,02000000,cdba,17139;SOL_COMPUTED,INS_PSRDIFF,17.59638988582,78.12162702604,526.7035,-76.2000,WGS84,0.5145,0.5281,0.7360,"0",137.700,0.000,55,19,19,0,00,08,00,11*6ff0ab30
#BESTPOSA,FILE,0,30.0,FINESTEERING,2319,306163.650,02000000,cdba,17139;SOL_COMPUTED,INS_PSRDIFF,17.59638757415,78.12162723765,526.7060,-76.2000,WGS84,0.5145,0.5281,0.7360,"0",137.700,0.000,55,19,19,0,00,08,00,11*16248236
#BESTPOSA,FILE,0,30.0,FINESTEERING,2319,306163.700,02000000,cdba,17139;SOL_COMPUTED,INS_PSRDIFF,17.59638525549,78.12162745425,526.7084,-76.2000,WGS84,0.5145,0.5281,0.7360,"0",137.700,0.000,55,19,19,0,00,08,00,11*13910bd9
#BESTPOSA,FILE,0,30.0,FINESTEERING,2319,306163.750,02000000,cdba,17139;SOL_COMPUTED,INS_PSRDIFF,17.59638292316,78.12162766859,526.7106,-76.2000,WGS84,0.5145,0.5281,0.7360,"0",137.700,0.000,55,19,19,0,00,08,00,11*d9913fdf
#BESTPOSA,FILE,0,30.0,FINESTEERING,2319,306163.800,02000000,cdba,17139;SOL_COMPUTED,INS_PSRDIFF,17.59638057882,78.12162787809,526.7123,-76.2000,WGS84,0.5145,0.5281,0.7360,"0",137.700,0.000,55,19,19,0,00,08,00,11*8dc6dd49
#BESTPOSA,FILE,0,30.0,FINESTEERING,2319,306163.850,02000000,cdba,17139;SOL_COMPUTED,INS_PSRDIFF,17.59637822484,78.12162807710,526.7140,-76.2000,WGS84,0.5145,0.5281,0.7360,"0",137.700,0.000,55,19,19,0,00,08,00,11*12c7bc25
