#CORRIMUDATAA,FILE,0,32.0,FINESTEERING,2319,306148.600,02000800,e5fc,17139;2319,306148.600000000,-0.0003540113041076,-0.0000725560084970,-0.0001011655864075,0.0009245056731214,0.0126448631672401,-0.0019408175032609*6ba75801
#CORRIMUDATAA,FILE,0,32.0,FINESTEERING,2319,306148.750,02000800,e5fc,17139;2319,306148.750000000,0.0001884206350826,0.0000650208133630,-0.0001611689673661,0.0028876952990922,0.0161860793827045,-0.0069452075003007*024c08f4
#CORRIMUDATAA,FILE,0,32.0,FINESTEERING,2319,306148.800,02000800,e5fc,17139;2319,306148.800000000,0.0004353935118971,0.0000734777831205,-0.0002258774888745,0.0018773354510014,0.0166077668699891,-0.0164687701695308*cb1ca2ac
#CORRIMUDATAA,FILE,0,32.0,FINESTEERING,2319,306148.900,02000800,e5fc,17139;2319,306148.900000000,0.0012230631485539,0.0003082841640364,-0.0002777802014848,-0.0016150950572710,0.0175658976017141,0.0032641633498485*297312b3
#CORRIMUDATAA,FILE,0,32.0,FINESTEERING,2319,306148.950,02000800,e5fc,17139;2319,306148.950000000,0.0008623267782379,0.0001183473408193,-0.0002892304280235,0.0018074537812318,0.0139809669279850,0.0100930995368722*ea47ecc5
#CORRIMUDATAA,FILE,0,32.0,FINESTEERING,2319,306149.000,02000800,e5fc,17139;2319,306149.000000000,0.0003925385523856,0.0002726740372820,-0.0002746993683145,-0.0018446848509230,0.0111504990900716,0.0188749811488856*63503d39
#CORRIMUDATAA,FILE,0,32.0,FINESTEERING,2319,306149.200,02000800,e5fc,17139;2319,306149.200000000,-0.0003418078969002,0.0000406970366690,-0.0005837989189761,0.0017849038234680,0.0149634565399842,-0.0038370054925169*92ad1f31
#CORRIMUDATAA,FILE,0,32.0,FINESTEERING,2319,306149.300,02000800,e5fc,17139;2319,306149.300000000,0.0000879207822312,-0.0000033131434556,-0.0007219312891310,0.0044631145356321,0.0152431676225804,-0.0111104775601864*5f58c7ad
#CORRIMUDATAA,FILE,0,32.0,FINESTEERING,2319,306149.400,02000800,e5fc,17139;2319,306149.400000000,0.0002886994691451,-0.0000909905923594,-0.0006994287905781,0.0021522235167758,0.0141221601879338,0.0064070211910555*6d741c6e
#CORRIMUDATAA,FILE,0,32.0,FINESTEERING,2319,306149.500,02000800,e5fc,17139;2319,306149.500000000,0.0000919901052986,-0.0001130157164027,-0.0006876982276091,0.0066025687022347,0.0175418276128399,-0.0189101421538256*a61ab4cd
#CORRIMUDATAA,FILE,0,32.0,FINESTEERING,2319,306149.550,02000800,e5fc,17139;2319,306149.550000000,-0.0000560650110366,-0.0000169781013227,-0.0007020084969297,0.0055671621913808,0.0171425029834887,0.0083469017704828*4fa4f0e3
#CORRIMUDATAA,FILE,0,32.0,FINESTEERING,2319,306149.600,02000800,e5fc,17139;2319,306149.600000000,-0.0001362743766747,-0.0003283055121086,-0.0007856261997272,0.0029652165009072,0.0188031607185534,-0.0066502621605491*d60f5437
#CORRIMUDATAA,FILE,0,32.0,FINESTEERING,2319,306149.650,02000800,e5fc,17139;2319,306149.650000000,-0.0000164575925271,0.0002753529937041,-0.0008277358030493,0.0047955483031691,0.0197492844270151,-0.0114552098900162*e952e487
#CORRIMUDATAA,FILE,0,32.0,FINESTEERING,2319,306149.750,02000800,e5fc,17139;2319,306149.750000000,0.0004786079743092,0.0007315094039454,-0.0008473236735654,0.0056108469698421,0.0163343807784117,0.0099233278202857*e178f1e0
#CORRIMUDATAA,FILE,0,32.0,FINESTEERING,2319,306149.800,02000800,e5fc,17139;2319,306149.800000000,0.0002780162339596,0.0002994379868509,-0.0008441143377178,0.0054371264013472,0.0165409869223834,0.0053249022546490*c553f5de
#CORRIMUDATAA,FILE,0,32.0,FINESTEERING,2319,306149.900,02000800,e5fc,17139;2319,306149.900000000,-0.0001516340839573,0.0005562937075906,-0.0008685862294946,0.0060943822717072,0.0166633983278102,0.0045115221627228*80828aea
#CORRIMUDATAA,FILE,0,32.0,FINESTEERING,2319,306150.050,02000800,e5fc,17139;2319,306150.050000000,-0.0011113562307755,-0.0003004217392569,-0.0008688908575983,0.0040723863353705,0.0166514483129068,-0.0070507426632180*6e1b2c36
#CORRIMUDATAA,FILE,0,30.5,FINESTEERING,2319,306150.150,02000800,e5fc,17139;2319,306150.150000000,-0.0007216867399649,-0.0002897481994671,-0.0008492526661533,0.0027170288575002,0.0151490891131647,0.0001544207719659*7814a94d
#CORRIMUDATAA,FILE,0,30.5,FINESTEERING,2319,306150.200,02000800,e5fc,17139;2319,306150.200000000,-0.0004348075759558,-0.0000581726073521,-0.0008811166714413,0.0030522918881857,0.0148641710497064,-0.0038681258540685*110dff89
#CORRIMUDATAA,FILE,0,30.5,FINESTEERING,2319,306150.400,02000800,e5fc,17139;2319,306150.400000000,-0.0003199871816899,0.0006545211262554,-0.0008407851102369,0.0055632986672268,0.0101146276532921,0.0031395778627728*9eb61ff8
#CORRIMUDATAA,FILE,0,30.5,FINESTEERING,2319,306150.550,02000800,e5fc,17139;2319,306150.550000000,-0.0003958190540203,0.0003124481375356,-0.0010326400535687,0.0005719207111378,-0.0001571264462020,-0.0131158654103957*a9484c47
#CORRIMUDATAA,FILE,0,30.5,FINESTEERING,2319,306150.650,02000800,e5fc,17139;2319,306150.650000000,-0.0006649986493913,-0.0005349638878641,-0.0009618934924509,0.0005262412341006,-0.0019723849046353,-0.0110619193980568*3e4bdc9f
#CORRIMUDATAA,FILE,0,30.5,FINESTEERING,2319,306150.700,02000800,e5fc,17139;2319,306150.700000000,-0.0008004790956715,-0.0005873430074756,-0.0008211726572028,0.0007076409737148,-0.0126014436641709,0.0037448335800516*13f65b67
#CORRIMUDATAA,FILE,0,30.5,FINESTEERING,2319,306150.750,02000800,e5fc,17139;2319,306150.750000000,-0.0009069401333376,-0.0007128109328940,-0.0007721846117649,0.0039305995479663,-0.0219000522616482,0.0182600209970190*2f0a1d2a
#CORRIMUDATAA,FILE,0,30.5,FINESTEERING,2319,306150.900,02000800,e5fc,17139;2319,306150.900000000,0.0000668863431144,-0.0001388051989698,-0.0008941439162027,0.0066257546821209,-0.0038077426002819,-0.0002349413932200*8d594353
#CORRIMUDATAA,FILE,0,29.5,FINESTEERING,2319,306151.100,02000800,e5fc,17139;2319,306151.100000000,0.0003309431923549,0.0005719399616635,-0.0008486818758478,-0.0006157871943874,-0.0046643196359286,-0.0257572832732015*82856de0
#CORRIMUDATAA,FILE,0,29.5,FINESTEERING,2319,306151.150,02000800,e5fc,17139;2319,306151.150000000,0.0006280438061592,0.0004298315476261,-0.0009969229776499,-0.0047252158411107,-0.0079137943789050,-0.0143525197130762*66756047
#CORRIMUDATAA,FILE,0,29.5,FINESTEERING,2319,306151.200,02000800,e5fc,17139;2319,306151.200000000,0.0008255837693352,-0.0001670652469347,-0.0010629888253684,-0.0013818912396068,-0.0022254629157998,-0.0182926174333397*f590f1ef
#CORRIMUDATAA,FILE,0,29.5,FINESTEERING,2319,306151.450,02000800,e5fc,17139;2319,306151.450000000,-0.0005641947524953,0.0002671565321765,-0.0003510332193051,0.0090467862924596,-0.0116823929503911,0.0185393414483069*7a673590
#CORRIMUDATAA,FILE,0,29.5,FINESTEERING,2319,306151.500,02000800,e5fc,17139;2319,306151.500000000,-0.0008251075123720,0.0002102230554927,-0.0000991103156139,0.0071959658683295,-0.0092734153277123,0.0060995269092390*709d3dfe
#CORRIMUDATAA,FILE,0,29.5,FINESTEERING,2319,306151.600,02000800,e5fc,17139;2319,306151.600000000,-0.0005988448888963,0.0004345441319626,0.0003367541108201,-0.0012992899948003,-0.0058748556771186,-0.0078647078557863*f68ed2f4
#CORRIMUDATAA,FILE,0,29.5,FINESTEERING,2319,306151.650,02000800,e5fc,17139;2319,306151.650000000,-0.0004367407498530,0.0005708330243265,0.0003751790741140,-0.0000744064031799,-0.0084845839193323,-0.0127363995795229*3d22c385
#CORRIMUDATAA,FILE,0,29.5,FINESTEERING,2319,306151.800,02000800,e5fc,17139;2319,306151.800000000,0.0003958320513815,0.0001610754954800,0.0002486652423855,-0.0046048140421987,-0.0080109265753937,-0.0013298233763757*9bc29cb7
#CORRIMUDATAA,FILE,0,29.5,FINESTEERING,2319,306151.850,02000800,e5fc,17139;2319,306151.850000000,0.0003950222558986,-0.0001582107680051,0.0002663034737176,-0.0030188807960255,-0.0075442103714437,0.0001105546118194*8afaa694
#CORRIMUDATAA,FILE,0,29.5,FINESTEERING,2319,306151.900,02000800,e5fc,17139;2319,306151.900000000,0.0003761538524945,-0.0001593945474004,0.0003150201101652,-0.0021132083132969,-0.0073791125367395,-0.0032536473189748*8c2e033f
#CORRIMUDATAA,FILE,0,29.5,FINESTEERING,2319,306151.950,02000800,e5fc,17139;2319,306151.950000000,0.0001786235333783,-0.0002537864225252,0.0003534662861042,-0.0008592946655432,-0.0078791254476427,0.0048769188859281*87a7080b
#CORRIMUDATAA,FILE,0,29.5,FINESTEERING,2319,306152.000,02000800,e5fc,17139;2319,306152.000000000,0.0000622003740933,-0.0002762875327491,0.0003290983493213,-0.0019955830666935,-0.0081660359096807,0.0021418617665801*bf383018
#CORRIMUDATAA,FILE,0,29.5,FINESTEERING,2319,306152.250,02000800,e5fc,17139;2319,306152.250000000,0.0004383600323566,0.0000222646562032,0.0003419941406373,0.0004445477375340,-0.0117990559499334,0.0006069147575837*b47de3c3
#CORRIMUDATAA,FILE,0,32.5,FINESTEERING,2319,306152.300,02000800,e5fc,17139;2319,306152.300000000,0.0001053829225437,-0.0000883987646472,0.0003361943609621,-0.0045414009822184,-0.0179886129728873,0.0086801889541790*981b8c01
#CORRIMUDATAA,FILE,0,32.5,FINESTEERING,2319,306152.350,02000800,e5fc,17139;2319,306152.350000000,-0.0001935881292083,-0.0001333767087510,0.0002608963443814,-0.0073721888062385,-0.0205184305914915,0.0068250103873122*fda3aadf
#CORRIMUDATAA,FILE,0,32.5,FINESTEERING,2319,306152.400,02000800,e5fc,17139;2319,306152.400000000,-0.0004717036114345,-0.0001510626865291,0.0002382317286935,-0.0031271618249895,-0.0258605753085196,0.0025754647764417*fd0dbdf3
#CORRIMUDATAA,FILE,0,32.5,FINESTEERING,2319,306152.450,02000800,e5fc,17139;2319,306152.450000000,-0.0004517944739811,-0.0002424804791845,0.0002573258278049,0.0014073408951424,-0.0257911150183518,-0.0023378947923142*edf622bc
#CORRIMUDATAA,FILE,0,32.5,FINESTEERING,2319,306152.500,02000800,e5fc,17139;2319,306152.500000000,-0.0001379470946203,-0.0003686413554218,0.0003088732698072,-0.0004835540092652,-0.0234724538596832,-0.0083257271262774*2336999d
#CORRIMUDATAA,FILE,0,32.5,FINESTEERING,2319,306152.550,02000800,e5fc,17139;2319,306152.550000000,0.0002134804989204,-0.0003623757227133,0.0003188110721794,-0.0033070910753640,-0.0225102351371864,-0.0134723550518164*ea76cbe1
#CORRIMUDATAA,FILE,0,32.5,FINESTEERING,2319,306152.600,02000800,e5fc,17139;2319,306152.600000000,0.0006118610184466,-0.0001815906745781,0.0003229247544229,-0.0024872966983848,-0.0243904019899104,-0.0046279988800469*cbb1e749
#CORRIMUDATAA,FILE,0,32.5,FINESTEERING,2319,306152.650,02000800,e5fc,17139;2319,306152.650000000,0.0004506217862415,-0.0003838782811655,0.0003637695754063,-0.0024137188182935,-0.0256271388106758,0.0005194609827986*884124e0
#CORRIMUDATAA,FILE,0,32.5,FINESTEERING,2319,306152.700,02000800,e5fc,17139;2319,306152.700000000,0.0002517402463978,0.0000125108266750,0.0003333441459991,-0.0038725883764765,-0.0263519101435221,0.0073337959454130*8cac604a
#CORRIMUDATAA,FILE,0,32.5,FINESTEERING,2319,306152.750,02000000,e5fc,17139;2319,306152.750000000,-0.0001376871239166,-0.0001626692964615,0.0003181402134099,0.0006539612131471,-0.0275225723810042,0.0083570980095273*24062eb0
#CORRIMUDATAA,FILE,0,32.5,FINESTEERING,2319,306152.800,02000000,e5fc,17139;2319,306152.800000000,-0.0003593744786352,-0.0003976376872085,0.0003050516739281,-0.0028437637962282,-0.0280069398497071,0.0091630662513606*a71c5fe9
#CORRIMUDATAA,FILE,0,32.5,FINESTEERING,2319,306152.850,02000000,e5fc,17139;2319,306152.850000000,-0.0002735508566865,-0.0001576679945699,0.0002757726638005,-0.0016341391869841,-0.0259046556346088,0.0006745713457655*8c500343
#CORRIMUDATAA,FILE,0,32.5,FINESTEERING,2319,306152.900,02000000,e5fc,17139;2319,306152.900000000,-0.0001857694180333,-0.0000355650409390,0.0003389493388120,0.0014003128688833,-0.0272107336932901,-0.0017361685953399*547af4b2
#CORRIMUDATAA,FILE,0,32.5,FINESTEERING,2319,306152.950,02000000,e5fc,17139;2319,306152.950000000,0.0000734207163974,0.0000103278793848,0.0003451445687715,-0.0033008875736494,-0.0263587661336656,-0.0057137420191046*ec362d29
#CORRIMUDATAA,FILE,0,32.5,FINESTEERING,2319,306153.000,02000000,e5fc,17139;2319,306153.000000000,0.0001444410270710,0.0001656550714217,0.0002985802296297,-0.0037081232849303,-0.0292455551258924,0.0028205041923494*1a32b65c
#CORRIMUDATAA,FILE,0,32.5,FINESTEERING,2319,306153.050,02000000,e5fc,17139;2319,306153.050000000,0.0001225451606764,0.0001268909610989,0.0002289358855517,-0.0024926906845377,-0.0276817190342119,0.0001848001428486*17b9ce1b
#CORRIMUDATAA,FILE,0,22.5,FINESTEERING,2319,306153.100,02000000,e5fc,17139;2319,306153.100000000,0.0001414095111709,0.0001762076317750,0.0002406703620871,-0.0030718645190067,-0.0320333719148408,0.0025152726864218*0601829f
#CORRIMUDATAA,FILE,0,22.5,FINESTEERING,2319,306153.150,02000000,e5fc,17139;2319,306153.150000000,-0.0000828241095323,-0.0000383256853542,0.0002221210866019,-0.0020366474969896,-0.0353899016891019,0.0005058002728299*f788d32f
#CORRIMUDATAA,FILE,0,22.5,FINESTEERING,2319,306153.200,02000000,e5fc,17139;2319,306153.200000000,-0.0001182609190485,-0.0006441378000830,0.0002111981878162,-0.0056056506916580,-0.0334380888506183,-0.0028808064957685*086a6f15
#CORRIMUDATAA,FILE,0,22.5,FINESTEERING,2319,306153.250,02000000,e5fc,17139;2319,306153.250000000,-0.0000367174544383,-0.0004237838056842,0.0002314649657824,-0.0047620189059311,-0.0341028490299692,-0.0109954821503967*52ebb6b4
#CORRIMUDATAA,FILE,0,22.5,FINESTEERING,2319,306153.300,02000000,e5fc,17139;2319,306153.300000000,-0.0000642055121464,-0.0003555987958112,0.0002821719909193,0.0002899426481842,-0.0333606047635802,-0.0044882273532233*7df38cf3
#CORRIMUDATAA,FILE,0,22.5,FINESTEERING,2319,306153.350,02000000,e5fc,17139;2319,306153.350000000,0.0000259288919546,0.0000150599494599,0.0003295618046318,0.0026631131708633,-0.0344492361050305,-0.0041227830152993*58624a26
#CORRIMUDATAA,FILE,0,22.5,FINESTEERING,2319,306153.400,02000000,e5fc,17139;2319,306153.400000000,0.0001900556963159,-0.0002911637720656,0.0003620381047590,0.0019984860695356,-0.0336586054621189,0.0029850027308051*1d630059
#CORRIMUDATAA,FILE,0,22.5,FINESTEERING,2319,306153.450,02000000,e5fc,17139;2319,306153.450000000,0.0001687035253520,-0.0000751363382304,0.0003053040766351,-0.0052627612089060,-0.0358516240430427,0.0068657791502483*8c6b500e
#CORRIMUDATAA,FILE,0,22.5,FINESTEERING,2319,306153.500,02000000,e5fc,17139;2319,306153.500000000,0.0001933634935232,0.0000463750316479,0.0002481665808743,-0.0064436967900801,-0.0353802843877131,0.0049338780663615*510cfa34
#CORRIMUDATAA,FILE,0,22.5,FINESTEERING,2319,306153.550,02000000,e5fc,17139;2319,306153.550000000,0.0002237000427052,0.0003518541938853,0.0002419970825488,-0.0017907618934635,-0.0367584672973976,0.0121958154153571*45bde81d
#CORRIMUDATAA,FILE,0,22.5,FINESTEERING,2319,306153.600,02000000,e5fc,17139;2319,306153.600000000,-0.0000968379196732,0.0000949197205860,0.0002874629016332,0.0048783958629449,-0.0386672476790434,0.0005468292339355*b1447a73
#CORRIMUDATAA,FILE,0,22.5,FINESTEERING,2319,306153.650,02000000,e5fc,17139;2319,306153.650000000,-0.0002743401832143,-0.0003728024682954,0.0003564089403585,-0.0010809655345461,-0.0395971793218451,0.0026611483600889*1689b5fc
#CORRIMUDATAA,FILE,0,22.5,FINESTEERING,2319,306153.700,02000000,e5fc,17139;2319,306153.700000000,-0.0002899871249170,-0.0002748121431828,0.0003397382518620,-0.0075453260680030,-0.0398173339382011,-0.0064584854495990*5679dabb
#CORRIMUDATAA,FILE,0,22.5,FINESTEERING,2319,306153.750,02000000,e5fc,17139;2319,306153.750000000,0.0001209550337024,0.0000402635465512,0.0003105215215597,-0.0034858185228232,-0.0385750781282654,-0.0041370915734585*9194a647
#CORRIMUDATAA,FILE,0,22.5,FINESTEERING,2319,306153.800,02000000,e5fc,17139;2319,306153.800000000,0.0002790745387459,-0.0000225587431651,0.0002741381581080,-0.0000072924317649,-0.0375952625945270,-0.0035096792243831*3412db5e
#CORRIMUDATAA,FILE,0,22.5,FINESTEERING,2319,306153.850,02000000,e5fc,17139;2319,306153.850000000,0.0002897954180629,-0.0002319675673195,0.0002645239055124,-0.0013809710277250,-0.0373880572365678,-0.0023813615300656*664a9302
#CORRIMUDATAA,FILE,0,22.5,FINESTEERING,2319,306153.900,02000000,e5fc,17139;2319,306153.900000000,0.0000304116112006,-0.0002188412380124,0.0002242159211765,-0.0047412887165088,-0.0364980110009224,-0.0026794017257930*1aa78c70
#CORRIMUDATAA,FILE,0,22.5,FINESTEERING,2319,306153.950,02000000,e5fc,17139;2319,306153.950000000,0.0003905595354323,-0.0000511319899337,0.0001820262550697,-0.0048045480412516,-0.0306837408251418,-0.0100867385228334*d3ba2ae0
#CORRIMUDATAA,FILE,0,22.5,FINESTEERING,2319,306154.000,02000000,e5fc,17139;2319,306154.000000000,0.0005836539592178,-0.0000340237195182,0.0000650054576834,-0.0005156012316494,-0.0179160215308509,-0.0056049376859869*39037e83
#CORRIMUDATAA,FILE,0,22.5,FINESTEERING,2319,306154.050,02000000,e5fc,17139;2319,306154.050000000,0.0008528870078391,-0.0002108360033337,-0.0000869204893161,-0.0000318722371385,-0.0136519363213782,-0.0034331498664774*24cf6488
#CORRIMUDATAA,FILE,0,22.5,FINESTEERING,2319,306154.100,02000800,e5fc,17139;2319,306154.100000000,0.0008906748898046,-0.0002155998613853,-0.0003967720090623,-0.0016656197567903,-0.0105407455450785,-0.0011292136610786*22e8f7e7
#CORRIMUDATAA,FILE,0,25.5,FINESTEERING,2319,306154.150,02000800,e5fc,17139;2319,306154.150000000,0.0007946547973934,-0.0004321183939199,-0.0007499190186856,-0.0021775485360906,-0.0139518289574556,0.0088411100778374*59945505
#CORRIMUDATAA,FILE,0,25.5,FINESTEERING,2319,306154.200,02000800,e5fc,17139;2319,306154.200000000,0.0004484913374355,-0.0005988773124030,-0.0012153146842266,-0.0051410072764132,-0.0127971958937092,0.0128889728636155*8ad08e08
#CORRIMUDATAA,FILE,0,25.5,FINESTEERING,2319,306154.250,02000800,e5fc,17139;2319,306154.250000000,0.0001058683097471,-0.0006439320867398,-0.0016567240729210,0.0004905880391068,-0.0131535196751577,0.0095486637055856*27ee5015
#CORRIMUDATAA,FILE,0,25.5,FINESTEERING,2319,306154.300,02000800,e5fc,17139;2319,306154.300000000,-0.0002592798519284,-0.0005298231581659,-0.0020230369958692,0.0052250350255158,-0.0127604144874512,0.0036330120371495*4059d60b
#CORRIMUDATAA,FILE,0,25.5,FINESTEERING,2319,306154.350,02000800,e5fc,17139;2319,306154.350000000,-0.0002598102882214,-0.0003931100781430,-0.0023565137990677,0.0098079644786282,-0.0147298286172393,0.0022641441681283*9fff289d
#CORRIMUDATAA,FILE,0,25.5,FINESTEERING,2319,306154.400,02000800,e5fc,17139;2319,306154.400000000,-0.0003547696300166,-0.0002559529208719,-0.0027072642595003,0.0107178566718278,-0.0127847524925975,0.0026534141102347*b82dd2ed
#CORRIMUDATAA,FILE,0,25.5,FINESTEERING,2319,306154.450,02000800,e5fc,17139;2319,306154.450000000,-0.0004855290832577,-0.0004220094076608,-0.0030593271135581,0.0065212820055347,-0.0164491214024960,0.0000023833233873*a4485749
#CORRIMUDATAA,FILE,0,25.5,FINESTEERING,2319,306154.500,02000800,e5fc,17139;2319,306154.500000000,-0.0005831478192292,0.0002830477685231,-0.0033727083888098,0.0033179175594166,-0.0128955651072906,0.0057388775309450*7d17a07f
#CORRIMUDATAA,FILE,0,25.5,FINESTEERING,2319,306154.550,02000800,e5fc,17139;2319,306154.550000000,-0.0004493095848090,0.0009376049082794,-0.0034802227311747,0.0150823081566012,-0.0151307154052998,-0.0046505158245145*23b82aab
#CORRIMUDATAA,FILE,0,25.5,FINESTEERING,2319,306154.600,02000800,e5fc,17139;2319,306154.600000000,-0.0000319909020604,0.0010811078674211,-0.0032851553920539,0.0208653027722128,-0.0124172718542374,-0.0113011229275808*a2d1e793
#CORRIMUDATAA,FILE,0,25.5,FINESTEERING,2319,306154.650,02000800,e5fc,17139;2319,306154.650000000,0.0003349327883617,0.0009908115549955,-0.0030665350541653,0.0180069737286318,-0.0143796078055124,-0.0036790507770357*426e6616
#CORRIMUDATAA,FILE,0,25.5,FINESTEERING,2319,306154.700,02000800,e5fc,17139;2319,306154.700000000,0.0004450406991818,0.0005904759244863,-0.0028759549448814,0.0072663608800890,-0.0130683061831413,-0.0017578962549180*eb856619
#CORRIMUDATAA,FILE,0,25.5,FINESTEERING,2319,306154.750,02000800,e5fc,17139;2319,306154.750000000,0.0003629934844371,0.0005946252571177,-0.0029185493868705,0.0028638739282669,-0.0143284364036274,-0.0010875165163027*00acdc5f
#CORRIMUDATAA,FILE,0,25.5,FINESTEERING,2319,306154.800,02000800,e5fc,17139;2319,306154.800000000,0.0003246271595246,0.0003755586280761,-0.0029810170015948,0.0047995728845492,-0.0134363016531260,0.0008628363525742*89d35e5b
#CORRIMUDATAA,FILE,0,25.5,FINESTEERING,2319,306154.850,02000800,e5fc,17139;2319,306154.850000000,-0.0001181182772626,0.0002908477117274,-0.0030430762714857,0.0075417851356047,-0.0161176385688554,0.0070239226879771*b056e708
#CORRIMUDATAA,FILE,0,25.5,FINESTEERING,2319,306154.900,02000800,e5fc,17139;2319,306154.900000000,-0.0002223378947392,0.0000905344342878,-0.0030322730564257,0.0101167750471616,-0.0133951114606883,-0.0009981239557422*c065945d
#CORRIMUDATAA,FILE,0,25.5,FINESTEERING,2319,306154.950,02000800,e5fc,17139;2319,306154.950000000,-0.0003650160238515,0.0000650699389069,-0.0030453773676695,0.0098595079176413,-0.0152011875367242,0.0043946188529153*3ff9a793
#CORRIMUDATAA,FILE,0,25.5,FINESTEERING,2319,306155.000,02000800,e5fc,17139;2319,306155.000000000,-0.0001139015087553,-0.0001415519563567,-0.0029986481293652,0.0083470626758334,-0.0133276668765570,-0.0087732592710935*6fb93ea1
#CORRIMUDATAA,FILE,0,25.5,FINESTEERING,2319,306155.050,02000800,e5fc,17139;2319,306155.050000000,0.0001671439564262,-0.0001804743154715,-0.0027012556808411,0.0066759359759371,-0.0123134565508139,-0.0002500982131358*5cff2f14
#CORRIMUDATAA,FILE,0,25.5,FINESTEERING,2319,306155.100,02000800,e5fc,17139;2319,306155.100000000,0.0001493098682513,-0.0000817101295607,-0.0029630497456407,0.0085974350741761,-0.0155505026318149,0.0026981081735200*ca55b1de
#CORRIMUDATAA,FILE,0,29.5,FINESTEERING,2319,306155.150,02000000,e5fc,17139;2319,306155.150000000,0.0001503159102754,-0.0000263943922667,-0.0029442899074552,0.0099702117256276,-0.0120243683480736,-0.0048891279153254*e84e582e
#CORRIMUDATAA,FILE,0,29.5,FINESTEERING,2319,306155.200,02000000,e5fc,17139;2319,306155.200000000,0.0002119512904286,0.0003792656248791,-0.0029733648866513,0.0087214176554384,-0.0135278043324865,-0.0062225276706563*a99d9c10
#CORRIMUDATAA,FILE,0,29.5,FINESTEERING,2319,306155.250,02000000,e5fc,17139;2319,306155.250000000,0.0002846265405117,0.0001464815462101,-0.0030053172985384,0.0130970939247573,-0.0150746177496559,-0.0039320372833830*233a6bcd
#CORRIMUDATAA,FILE,0,29.5,FINESTEERING,2319,306155.300,02000000,e5fc,17139;2319,306155.300000000,0.0002673842940476,0.0003554007408258,-0.0029581317583879,0.0090794696350077,-0.0136589964924862,0.0036987545621732*1bb83f4d
#CORRIMUDATAA,FILE,0,29.5,FINESTEERING,2319,306155.350,02000000,e5fc,17139;2319,306155.350000000,0.0000955256027507,0.0005179287657672,-0.0029735980589243,0.0113503766240859,-0.0151140422306018,0.0109261063928135*855929a9
#CORRIMUDATAA,FILE,0,29.5,FINESTEERING,2319,306155.400,02000000,e5fc,17139;2319,306155.400000000,-0.0003574443965940,0.0004515928101325,-0.0030590832532820,0.0100043504255636,-0.0125561788467061,0.0109167666280969*88e97f96
#CORRIMUDATAA,FILE,0,29.5,FINESTEERING,2319,306155.450,02000000,e5fc,17139;2319,306155.450000000,-0.0006871945504891,0.0004786131664947,-0.0033426629936515,0.0075113215714268,-0.0130403733188178,0.0059772027973092*fae98b19
#CORRIMUDATAA,FILE,0,29.5,FINESTEERING,2319,306155.500,02000000,e5fc,17139;2319,306155.500000000,-0.0008614192869712,0.0005223805494812,-0.0037490529423132,0.0056994066980281,-0.0122668647951486,0.0028574091695575*8a031d3c
#CORRIMUDATAA,FILE,0,29.5,FINESTEERING,2319,306155.550,02000000,e5fc,17139;2319,306155.550000000,-0.0009729606493381,0.0004337216225803,-0.0042335725740980,0.0075460599007880,-0.0101250943166322,0.0002908814122336*bfbc48a1
#CORRIMUDATAA,FILE,0,29.5,FINESTEERING,2319,306155.600,02000000,e5fc,17139;2319,306155.600000000,-0.0011167403809048,0.0006069031587227,-0.0047010684214129,0.0082098061428731,-0.0114888424887145,-0.0051942881123423*829ce7ed
#CORRIMUDATAA,FILE,0,29.5,FINESTEERING,2319,306155.650,02000000,e5fc,17139;2319,306155.650000000,-0.0008270050150432,0.0008352008414048,-0.0051012370371683,0.0135695342330797,-0.0131629492627110,-0.0124600206132940*06fea793
#CORRIMUDATAA,FILE,0,29.5,FINESTEERING,2319,306155.700,02000000,e5fc,17139;2319,306155.700000000,-0.0002045242379158,0.0011877300430885,-0.0053516846615613,0.0160705196653473,-0.0182034989986961,-0.0084480976556989*d26ab526
#CORRIMUDATAA,FILE,0,29.5,FINESTEERING,2319,306155.750,02000000,e5fc,17139;2319,306155.750000000,0.0008238681050152,0.0008862054687387,-0.0056383757482028,0.0178958285381661,-0.0221547749655660,-0.0117791481134079*8cbacb01
#CORRIMUDATAA,FILE,0,29.5,FINESTEERING,2319,306155.800,02000000,e5fc,17139;2319,306155.800000000,0.0021108191587711,-0.0004387527542665,-0.0060046910147540,0.0171072874096013,-0.0188209614367438,-0.0021446948976611*11509775
#CORRIMUDATAA,FILE,0,29.5,FINESTEERING,2319,306155.850,02000000,e5fc,17139;2319,306155.850000000,0.0025543024642203,-0.0013096431147523,-0.0063123229484185,0.0050630443009939,-0.0166163027746032,-0.0020744075212741*05deba23
#CORRIMUDATAA,FILE,0,29.5,FINESTEERING,2319,306155.900,02000000,e5fc,17139;2319,306155.900000000,0.0029006017690820,-0.0006871620297652,-0.0066272581388939,0.0005661531781592,-0.0124385250686580,0.0048839225885965*ac3ee7df
#CORRIMUDATAA,FILE,0,29.5,FINESTEERING,2319,306155.950,02000000,e5fc,17139;2319,306155.950000000,0.0021103033694776,-0.0002848769045044,-0.0069202421347672,0.0183913742896309,-0.0172107693799239,0.0111241100328508*1e295366
#CORRIMUDATAA,FILE,0,29.5,FINESTEERING,2319,306156.000,02000000,e5fc,17139;2319,306156.000000000,0.0012250946740403,-0.0007689285145305,-0.0071796695031508,0.0256962785197605,-0.0149887987854140,0.0075040445509726*fd224416
#CORRIMUDATAA,FILE,0,29.5,FINESTEERING,2319,306156.050,02000000,e5fc,17139;2319,306156.050000000,-0.0000081297995705,-0.0008301745086302,-0.0072805345958550,0.0289352544308389,-0.0178203271536563,0.0010037664388293*b86f3a5c
#CORRIMUDATAA,FILE,0,29.0,FINESTEERING,2319,306156.100,02000000,e5fc,17139;2319,306156.100000000,-0.0008960278294722,-0.0003859587476303,-0.0071913908125351,0.0219078916872586,-0.0131989390933007,0.0062356435953635*d8a9004b
#CORRIMUDATAA,FILE,0,29.0,FINESTEERING,2319,306156.150,02000000,e5fc,17139;2319,306156.150000000,-0.0016492555726037,0.0002296021054869,-0.0070425187306848,0.0276912694045286,-0.0140486665952729,-0.0045276922310499*c3b077ab
#CORRIMUDATAA,FILE,0,29.0,FINESTEERING,2319,306156.200,02000000,e5fc,17139;2319,306156.200000000,-0.0017122073305388,0.0004978887519478,-0.0068557052179843,0.0283713422064279,-0.0118873536665063,-0.0086863978239540*9a14be0a
#CORRIMUDATAA,FILE,0,29.0,FINESTEERING,2319,306156.250,02000000,e5fc,17139;2319,306156.250000000,-0.0016554490502292,0.0003933372943242,-0.0069815509579248,0.0197804574492149,-0.0125339816155564,-0.0069252715812503*7214a9b8
#CORRIMUDATAA,FILE,0,29.0,FINESTEERING,2319,306156.300,02000000,e5fc,17139;2319,306156.300000000,-0.0011886478512389,0.0005525552984724,-0.0073893293532063,0.0106135384760315,-0.0082826844788379,-0.0052487133339514*b6ef1631
#CORRIMUDATAA,FILE,0,29.0,FINESTEERING,2319,306156.350,02000000,e5fc,17139;2319,306156.350000000,-0.0010856548549491,0.0003464502957709,-0.0078787462690594,0.0140730303293242,-0.0094022085109853,-0.0065205986518312*581b5197
#CORRIMUDATAA,FILE,0,29.0,FINESTEERING,2319,306156.400,02000000,e5fc,17139;2319,306156.400000000,-0.0002833430020987,0.0009012523122565,-0.0080640167438452,0.0120546453743071,-0.0011259780772270,-0.0034297345962221*e4baed86
#CORRIMUDATAA,FILE,0,29.0,FINESTEERING,2319,306156.450,02000000,e5fc,17139;2319,306156.450000000,-0.0008640826446019,0.0019125231096285,-0.0079841768165411,0.0316538290522728,-0.0071473216776516,0.0021351194411019*f83aa0fd
#CORRIMUDATAA,FILE,0,29.0,FINESTEERING,2319,306156.500,02000000,e5fc,17139;2319,306156.500000000,-0.0006726563205993,0.0020734519824361,-0.0076839125088161,0.0383285475251776,-0.0070477102415900,0.0095490962853425*96e7bb89
#CORRIMUDATAA,FILE,0,29.0,FINESTEERING,2319,306156.550,02000000,e5fc,17139;2319,306156.550000000,-0.0019224472080355,0.0013203758646549,-0.0071502617206321,0.0432416872452690,-0.0196771349860481,0.0241757413124110*610bf910
#CORRIMUDATAA,FILE,0,29.0,FINESTEERING,2319,306156.600,02000000,e5fc,17139;2319,306156.600000000,-0.0018489431496044,0.0002747537242060,-0.0065844521150081,0.0107369860432843,-0.0185386249225725,0.0314288059651469*d07aa497
#CORRIMUDATAA,FILE,0,29.0,FINESTEERING,2319,306156.650,02000000,e5fc,17139;2319,306156.650000000,-0.0024902242024945,0.0011019897540923,-0.0065290324382304,-0.0041852814548491,-0.0232902607063365,0.0397249115340508*db0caf32
#CORRIMUDATAA,FILE,0,29.0,FINESTEERING,2319,306156.700,02000000,e5fc,17139;2319,306156.700000000,-0.0022336077303969,0.0007613223298645,-0.0065526752967621,0.0041316424899445,-0.0267885024764324,0.0444537811190726*721658ae
#CORRIMUDATAA,FILE,0,29.0,FINESTEERING,2319,306156.750,02000000,e5fc,17139;2319,306156.750000000,-0.0023574449814197,-0.0004207104732305,-0.0066843278014824,0.0193990662358064,-0.0187909011017522,0.0296093022253126*4207b17c
#CORRIMUDATAA,FILE,0,29.0,FINESTEERING,2319,306156.800,02000000,e5fc,17139;2319,306156.800000000,-0.0016296359412442,-0.0014446535748679,-0.0065483724103781,0.0181002626865105,-0.0097587424439463,-0.0410117049442162*fd1f8ac1
#CORRIMUDATAA,FILE,0,29.0,FINESTEERING,2319,306156.850,02000000,e5fc,17139;2319,306156.850000000,-0.0008463620134980,-0.0016422923089659,-0.0063885632738162,0.0131084142265883,-0.0074691308234301,-0.0515366770721349*c02d453d
#CORRIMUDATAA,FILE,0,29.0,FINESTEERING,2319,306156.900,02000000,e5fc,17139;2319,306156.900000000,0.0006500047628111,-0.0015512614347131,-0.0062912670797445,0.0118260906902831,-0.0119273386970691,-0.0605476808917516*e13c2eba
#CORRIMUDATAA,FILE,0,29.0,FINESTEERING,2319,306156.950,02000000,e5fc,17139;2319,306156.950000000,0.0015998612890602,-0.0013953801973940,-0.0063182590956527,0.0154682497198005,-0.0075763135466544,-0.0575694070161078*4e14c832
#CORRIMUDATAA,FILE,0,29.0,FINESTEERING,2319,306157.000,02000000,e5fc,17139;2319,306157.000000000,0.0024325018565155,-0.0015260432002841,-0.0064500489905432,0.0173761248699029,-0.0127402860553599,-0.0449338891441766*b9411000
#CORRIMUDATAA,FILE,0,29.0,FINESTEERING,2319,306157.050,02000800,e5fc,17139;2319,306157.050000000,0.0022903783881235,-0.0012385925141188,-0.0060582264176996,0.0126391326697514,-0.0070088829130598,-0.0230333535240753*5b88c593
#CORRIMUDATAA,FILE,0,29.0,FINESTEERING,2319,306157.100,02000800,e5fc,17139;2319,306157.100000000,0.0020352204100506,-0.0010095406305173,-0.0069173601399642,0.0167544957862047,-0.0167673779118704,0.0063944658426999*3e38b2a9
#CORRIMUDATAA,FILE,0,30.5,FINESTEERING,2319,306157.150,02000800,e5fc,17139;2319,306157.150000000,0.0014981708232503,-0.0003349051538414,-0.0069221553349063,0.0213839252519756,-0.0146025113961186,0.0234816869328910*4ecfc9aa
#CORRIMUDATAA,FILE,0,30.5,FINESTEERING,2319,306157.200,02000800,e5fc,17139;2319,306157.200000000,0.0009659079310893,0.0006319488781275,-0.0067461046927165,0.0277238626078964,-0.0144692617190880,0.0332082274349083*ca7e212a
#CORRIMUDATAA,FILE,0,30.5,FINESTEERING,2319,306157.250,02000800,e5fc,17139;2319,306157.250000000,0.0003432120941015,0.0011862655594341,-0.0065873233692816,0.0331609050997480,-0.0198722453177589,0.0230065053623770*c3155202
#CORRIMUDATAA,FILE,0,30.5,FINESTEERING,2319,306157.300,02000800,e5fc,17139;2319,306157.300000000,0.0006062068730949,0.0010403227185346,-0.0065787480036663,0.0235587497976417,-0.0148869119615487,0.0272603572326742*fb3f0791
#CORRIMUDATAA,FILE,0,30.5,FINESTEERING,2319,306157.350,02000800,e5fc,17139;2319,306157.350000000,0.0005046222010796,0.0014753982974527,-0.0068708528973490,0.0120528812461074,-0.0133208146888260,-0.0056146697483339*00c7e3c1
#CORRIMUDATAA,FILE,0,30.5,FINESTEERING,2319,306157.400,02000800,e5fc,17139;2319,306157.400000000,0.0016654944305603,0.0013333561271066,-0.0073372249555458,0.0054357829714483,0.0020535805087504,-0.0278314075919721*5b07b9cb
#CORRIMUDATAA,FILE,0,30.5,FINESTEERING,2319,306157.450,02000800,e5fc,17139;2319,306157.450000000,0.0022423628071903,0.0015987612133069,-0.0075624950562793,0.0161960827105462,-0.0045472331448939,-0.0624574174857183*ad2d1bfa
#CORRIMUDATAA,FILE,0,30.5,FINESTEERING,2319,306157.500,02000800,e5fc,17139;2319,306157.500000000,0.0030239639596155,0.0006522475559459,-0.0075560791558750,0.0177786896769757,-0.0088847526337279,-0.0135063079142032*9121f070
#CORRIMUDATAA,FILE,0,30.5,FINESTEERING,2319,306157.550,02000800,e5fc,17139;2319,306157.550000000,0.0027599499890067,-0.0000311440210935,-0.0073374609539379,0.0165557207196133,-0.0182097688491014,0.0173475039839947*df02211d
#CORRIMUDATAA,FILE,0,30.5,FINESTEERING,2319,306157.600,02000800,e5fc,17139;2319,306157.600000000,0.0019048292039952,-0.0001075064760991,-0.0070424915978574,0.0123636686588175,-0.0165206715674124,0.0381490255108964*042c93f9
#CORRIMUDATAA,FILE,0,30.5,FINESTEERING,2319,306157.650,02000800,e5fc,17139;2319,306157.650000000,0.0007828588500586,-0.0000054357955281,-0.0069830860768057,0.0141595244241824,-0.0208932481324329,0.0467743548442758*fa9c7d75
#CORRIMUDATAA,FILE,0,30.5,FINESTEERING,2319,306157.700,02000800,e5fc,17139;2319,306157.700000000,-0.0002205094146821,-0.0004816810160317,-0.0070867794343384,0.0139811724336005,-0.0171261864161111,0.0564848706917724*4c5ff206
#CORRIMUDATAA,FILE,0,30.5,FINESTEERING,2319,306157.750,02000800,e5fc,17139;2319,306157.750000000,-0.0016396877487938,-0.0009680034637819,-0.0072540317700393,0.0106126712478690,-0.0221109463642194,0.0481859786623839*15b5725c
#CORRIMUDATAA,FILE,0,30.5,FINESTEERING,2319,306157.800,02000800,e5fc,17139;2319,306157.800000000,-0.0022535577748501,-0.0011305510750251,-0.0073194208502889,0.0158195214465871,-0.0130926139615000,0.0237584678492303*a185a081
#CORRIMUDATAA,FILE,0,30.5,FINESTEERING,2319,306157.850,02000800,e5fc,17139;2319,306157.850000000,-0.0025931747684340,-0.0008931166116510,-0.0070436902894020,0.0273723619478920,-0.0154303649269597,-0.0097312527120976*f6255243
#CORRIMUDATAA,FILE,0,30.5,FINESTEERING,2319,306157.900,02000800,e5fc,17139;2319,306157.900000000,-0.0016740219154347,-0.0011038882516075,-0.0068317129111826,0.0221526400532197,-0.0058122189341916,-0.0328724427960353*22bea279
#CORRIMUDATAA,FILE,0,30.5,FINESTEERING,2319,306157.950,02000800,e5fc,17139;2319,306157.950000000,-0.0013396636291617,-0.0008794496973928,-0.0069450853526767,0.0117019615366497,-0.0137061939076131,-0.0328705974028170*c39a7649
#CORRIMUDATAA,FILE,0,30.5,FINESTEERING,2319,306158.000,02000800,e5fc,17139;2319,306158.000000000,-0.0003727081293186,-0.0011429076351509,-0.0074320607363284,0.0046618494478012,-0.0055427123133234,-0.0323812203639714*4b22764a
#CORRIMUDATAA,FILE,0,30.5,FINESTEERING,2319,306158.050,02000800,e5fc,17139;2319,306158.050000000,0.0000372316963237,-0.0006693250940712,-0.0077948558706688,0.0116591193730243,-0.0070939979282188,-0.0393155141519270*02ade402
#CORRIMUDATAA,FILE,0,30.5,FINESTEERING,2319,306158.100,02000800,e5fc,17139;2319,306158.100000000,0.0006316123047484,-0.0007836694545347,-0.0077776407305108,0.0220224725960995,-0.0087353583111612,-0.0202999458673000*688b4e73
#CORRIMUDATAA,FILE,0,30.5,FINESTEERING,2319,306158.150,02000000,e5fc,17139;2319,306158.150000000,0.0007441085570465,-0.0000345007556859,-0.0074223230213936,0.0283265641084860,-0.0149758213707736,0.0093043048070067*f9298897
#CORRIMUDATAA,FILE,0,30.5,FINESTEERING,2319,306158.200,02000000,e5fc,17139;2319,306158.200000000,0.0009286618718579,0.0001452777115642,-0.0071125724060146,0.0321461118454921,-0.0080770652937021,0.0171358030272583*275d9487
#CORRIMUDATAA,FILE,0,30.5,FINESTEERING,2319,306158.250,02000000,e5fc,17139;2319,306158.250000000,0.0005627510711737,0.0002447743575823,-0.0070075741399759,0.0253873875369601,0.0019759219963837,0.0180631724537459*ea747056
#CORRIMUDATAA,FILE,0,30.5,FINESTEERING,2319,306158.300,02000000,e5fc,17139;2319,306158.300000000,0.0004416513269960,0.0003324206356113,-0.0072776022095335,0.0157539968042613,0.0106990171385882,0.0182834583403106*c2ed7166
#CORRIMUDATAA,FILE,0,30.5,FINESTEERING,2319,306158.350,02000000,e5fc,17139;2319,306158.350000000,0.0002556167830286,0.0007381086311298,-0.0076918260990255,0.0092170098164952,0.0169669445414948,0.0231657373590703*d3e82a4c
#CORRIMUDATAA,FILE,0,30.5,FINESTEERING,2319,306158.400,02000000,e5fc,17139;2319,306158.400000000,0.0001467847729074,0.0008488862528236,-0.0081930069692766,0.0096172529854940,0.0274028577042057,0.0025283506872725*df733c34
#CORRIMUDATAA,FILE,0,30.5,FINESTEERING,2319,306158.450,02000000,e5fc,17139;2319,306158.450000000,-0.0000295802328399,0.0008457131941779,-0.0085403952666684,0.0181123576028090,0.0263374080651249,-0.0088530723528794*6f9d6f20
#CORRIMUDATAA,FILE,0,30.5,FINESTEERING,2319,306158.500,02000000,e5fc,17139;2319,306158.500000000,0.0001370825309007,0.0003940821385940,-0.0087801287219533,0.0204838491357015,0.0268001249545909,-0.0032695162173593*13f47b6d
#CORRIMUDATAA,FILE,0,30.5,FINESTEERING,2319,306158.550,02000000,e5fc,17139;2319,306158.550000000,0.0003588171726466,0.0001635045970053,-0.0087846719621660,0.0260495974755088,0.0253468668877279,0.0016577505375291*ae1ab323
#CORRIMUDATAA,FILE,0,30.5,FINESTEERING,2319,306158.600,02000000,e5fc,17139;2319,306158.600000000,0.0001718722288809,-0.0003431404530999,-0.0090409174327851,0.0192244403460116,0.0347870757445682,-0.0190220606958420*ec61757a
#CORRIMUDATAA,FILE,0,30.5,FINESTEERING,2319,306158.650,02000000,e5fc,17139;2319,306158.650000000,0.0005871846268536,-0.0008653032755302,-0.0093872181749321,0.0144188523441602,0.0395748344109940,-0.0227854731510386*e8cf1640
#CORRIMUDATAA,FILE,0,30.5,FINESTEERING,2319,306158.700,02000000,e5fc,17139;2319,306158.700000000,0.0004597707766821,-0.0008417809894158,-0.0097372620448273,0.0166956448937398,0.0421023036912736,-0.0126911920719729*e792b3d3
#CORRIMUDATAA,FILE,0,30.5,FINESTEERING,2319,306158.750,02000000,e5fc,17139;2319,306158.750000000,0.0008156154144262,-0.0011468949389022,-0.0099844568830434,0.0205159163152307,0.0448116010139363,-0.0079590032319808*4240de9c
#CORRIMUDATAA,FILE,0,30.5,FINESTEERING,2319,306158.800,02000000,e5fc,17139;2319,306158.800000000,0.0008050107918784,-0.0012238982055168,-0.0103050813360910,0.0285645727637193,0.0469902417027100,-0.0039519681706703*e12073e2
#CORRIMUDATAA,FILE,0,30.5,FINESTEERING,2319,306158.850,02000000,e5fc,17139;2319,306158.850000000,0.0012000561227293,-0.0017017106612765,-0.0106342822477300,0.0322783278350766,0.0566333995689506,-0.0015639272863639*28a645b2
#CORRIMUDATAA,FILE,0,30.5,FINESTEERING,2319,306158.900,02000000,e5fc,17139;2319,306158.900000000,0.0011575730878193,-0.0018362932339514,-0.0111271631212487,0.0269728578141718,0.0591298002428403,-0.0075967974936037*3d599f88
#CORRIMUDATAA,FILE,0,30.5,FINESTEERING,2319,306158.950,02000000,e5fc,17139;2319,306158.950000000,0.0013871351747171,-0.0016529866157965,-0.0117185167144124,0.0194349386428864,0.0573676051997111,0.0084304614198282*cec9967d
#CORRIMUDATAA,FILE,0,30.5,FINESTEERING,2319,306159.000,02000000,e5fc,17139;2319,306159.000000000,0.0010402664609118,-0.0008749584441035,-0.0121984709893467,0.0334219584264842,0.0532745932530651,0.0231320882998443*85c10400
#CORRIMUDATAA,FILE,0,30.5,FINESTEERING,2319,306159.050,02000000,e5fc,17139;2319,306159.050000000,0.0005919369562052,-0.0009668045737479,-0.0111901128555013,0.0434320007592155,0.0466530270584226,0.0147727331042170*cd52c582
#CORRIMUDATAA,FILE,0,29.0,FINESTEERING,2319,306159.100,02000000,e5fc,17139;2319,306159.100000000,0.0002106424244794,-0.0009854439359033,-0.0126119478829070,0.0451101617405550,0.0530862022133967,0.0205863141856576*76ed5f5c
#CORRIMUDATAA,FILE,0,29.0,FINESTEERING,2319,306159.150,02000000,e5fc,17139;2319,306159.150000000,-0.0001841405197573,-0.0005981024010607,-0.0129287005376294,0.0420054779061308,0.0500593032119888,0.0120469985806864*f6ee5077
#CORRIMUDATAA,FILE,0,29.0,FINESTEERING,2319,306159.200,02000000,e5fc,17139;2319,306159.200000000,-0.0003028400621418,-0.0005075019526216,-0.0132657620548126,0.0440697066351812,0.0525570643620152,0.0004964863121626*6e54914e
#CORRIMUDATAA,FILE,0,29.0,FINESTEERING,2319,306159.250,02000000,e5fc,17139;2319,306159.250000000,0.0000768153875685,-0.0005606564251258,-0.0137906286207661,0.0369135148056501,0.0525589672519668,-0.0146746797991581*785b5b93
#CORRIMUDATAA,FILE,0,29.0,FINESTEERING,2319,306159.300,02000000,e5fc,17139;2319,306159.300000000,-0.0001744193819292,-0.0005705827146771,-0.0144167233749589,0.0381524883812584,0.0474202392200427,-0.0132993762546128*7bad58d3
#CORRIMUDATAA,FILE,0,29.0,FINESTEERING,2319,306159.350,02000000,e5fc,17139;2319,306159.350000000,0.0001056576134991,-0.0008462096309102,-0.0148917118088252,0.0361897159587492,0.0443403370085687,-0.0130348066989840*268a394a
#CORRIMUDATAA,FILE,0,29.0,FINESTEERING,2319,306159.400,02000000,e5fc,17139;2319,306159.400000000,-0.0000492508996549,-0.0002950039606832,-0.0152480289893664,0.0447784288623457,0.0345804829488279,-0.0010000810172564*47e3f039
#CORRIMUDATAA,FILE,0,29.0,FINESTEERING,2319,306159.450,02000000,e5fc,17139;2319,306159.450000000,-0.0001425519607624,0.0000375753950977,-0.0153734786810058,0.0558040383032906,0.0278619452668330,0.0102255540704338*03f142cd
#CORRIMUDATAA,FILE,0,29.0,FINESTEERING,2319,306159.500,02000000,e5fc,17139;2319,306159.500000000,-0.0005512407896318,0.0005396758064335,-0.0152772833809344,0.0647343387264043,0.0230506982377241,0.0094572996818039*66eee429
#CORRIMUDATAA,FILE,0,29.0,FINESTEERING,2319,306159.550,02000000,e5fc,17139;2319,306159.550000000,-0.0006814466609243,0.0008622551515165,-0.0152095144757393,0.0645746210045878,0.0215878983584266,0.0062424023016945*4e3695c1
#CORRIMUDATAA,FILE,0,29.0,FINESTEERING,2319,306159.600,02000000,e5fc,17139;2319,306159.600000000,-0.0010187219005675,0.0011982440671152,-0.0152090523003340,0.0555766091540490,0.0202035454229247,0.0064000622364412*91e5a372
#CORRIMUDATAA,FILE,0,29.0,FINESTEERING,2319,306159.650,02000000,e5fc,17139;2319,306159.650000000,-0.0011261766443351,0.0016957190774401,-0.0153729080604974,0.0510384600943617,0.0203247794448904,0.0017999488874425*49480da5
#CORRIMUDATAA,FILE,0,29.0,FINESTEERING,2319,306159.700,02000000,e5fc,17139;2319,306159.700000000,-0.0009629213895719,0.0018541542588481,-0.0155079839861828,0.0536811141248954,0.0207121405251271,-0.0048986080815957*25c844dc
#CORRIMUDATAA,FILE,0,29.0,FINESTEERING,2319,306159.750,02000000,e5fc,17139;2319,306159.750000000,-0.0009966287679178,0.0017154011195717,-0.0156376547987634,0.0520723193679042,0.0197411845869042,-0.0003399101229950*f379aaa5
#CORRIMUDATAA,FILE,0,29.0,FINESTEERING,2319,306159.800,02000000,e5fc,17139;2319,306159.800000000,-0.0010684781383194,0.0010333434277609,-0.0157831124941659,0.0483425102192798,0.0179259619248438,-0.0025966115676786*679576b5
#CORRIMUDATAA,FILE,0,29.0,FINESTEERING,2319,306159.850,02000000,e5fc,17139;2319,306159.850000000,-0.0010498913604825,0.0004823110034157,-0.0159646952967716,0.0451443250809831,0.0185661677890233,0.0049280654308523*c042e99a
#CORRIMUDATAA,FILE,0,29.0,FINESTEERING,2319,306159.900,02000000,e5fc,17139;2319,306159.900000000,-0.0011730055125417,-0.0000274710234660,-0.0160347018821133,0.0497217384581507,0.0185726503613061,-0.0035694500663035*288cb16b
#CORRIMUDATAA,FILE,0,29.0,FINESTEERING,2319,306159.950,02000000,e5fc,17139;2319,306159.950000000,-0.0012501772700107,-0.0006174604672930,-0.0159588952589861,0.0522165589898151,0.0135062798652458,-0.0024106812492558*7d8af5e8
#CORRIMUDATAA,FILE,0,29.0,FINESTEERING,2319,306160.000,02000000,e5fc,17139;2319,306160.000000000,-0.0012968116870729,-0.0011649500116220,-0.0159236968314779,0.0513545336379516,0.0120817524767794,0.0168767757916283*fae86b97
#CORRIMUDATAA,FILE,0,29.0,FINESTEERING,2319,306160.050,02000000,e5fc,17139;2319,306160.050000000,-0.0015274827319325,-0.0016091800027314,-0.0159473349240003,0.0536157970307391,0.0101680215441668,0.0076970367267239*826f5367
#CORRIMUDATAA,FILE,0,29.0,FINESTEERING,2319,306160.100,02000000,e5fc,17139;2319,306160.100000000,-0.0017324891441902,-0.0016637136268385,-0.0159639756612944,0.0546480875791303,0.0102660452667053,0.0069839500068874*72c3248a
#CORRIMUDATAA,FILE,0,30.0,FINESTEERING,2319,306160.150,02000000,e5fc,17139;2319,306160.150000000,-0.0019676811294298,-0.0013972699829477,-0.0159673435003212,0.0613559645748860,0.0087641079229594,0.0031817565395991*e1d4f990
#CORRIMUDATAA,FILE,0,30.0,FINESTEERING,2319,306160.200,02000000,e5fc,17139;2319,306160.200000000,-0.0017670716904783,-0.0013615527999966,-0.0158952698911645,0.0638473410447163,0.0114571888765926,-0.0094567894226223*76281e55
#CORRIMUDATAA,FILE,0,30.0,FINESTEERING,2319,306160.250,02000000,e5fc,17139;2319,306160.250000000,-0.0014744807218252,-0.0010276673226473,-0.0157817426364195,0.0651454129521060,0.0111187871012593,-0.0247227599648573*fa81bd3f
#CORRIMUDATAA,FILE,0,30.0,FINESTEERING,2319,306160.300,02000000,e5fc,17139;2319,306160.300000000,-0.0006508860614589,-0.0006344572674345,-0.0157572638790661,0.0612996803557615,0.0140447264769673,-0.0335833072427098*c1832613
#CORRIMUDATAA,FILE,0,30.0,FINESTEERING,2319,306160.350,02000000,e5fc,17139;2319,306160.350000000,-0.0001674536746368,-0.0001962547822445,-0.0156678045775357,0.0595974558120562,0.0116740639298718,-0.0233755110038357*6b04063d
#CORRIMUDATAA,FILE,0,30.0,FINESTEERING,2319,306160.400,02000000,e5fc,17139;2319,306160.400000000,0.0004390462328263,0.0004798997963078,-0.0156983555507845,0.0596476597231504,0.0137233201703701,-0.0228938822650342*50b468be
#CORRIMUDATAA,FILE,0,30.0,FINESTEERING,2319,306160.450,02000000,e5fc,17139;2319,306160.450000000,0.0008558048873873,0.0006883997963884,-0.0157289689762442,0.0572902104320455,0.0114307822134947,-0.0152904863165069*5b095631
#CORRIMUDATAA,FILE,0,30.0,FINESTEERING,2319,306160.500,02000000,e5fc,17139;2319,306160.500000000,0.0011582301155966,0.0011969411873001,-0.0157918765923728,0.0546209229754660,0.0142737054696255,-0.0007827003916585*ef873527
#CORRIMUDATAA,FILE,0,30.0,FINESTEERING,2319,306160.550,02000000,e5fc,17139;2319,306160.550000000,0.0011581683109268,0.0014347911889421,-0.0156549768395150,0.0576934577950720,0.0142520308688640,0.0061720533193913*5ebf43bb
#CORRIMUDATAA,FILE,0,30.0,FINESTEERING,2319,306160.600,02000000,e5fc,17139;2319,306160.600000000,0.0010115569779581,0.0012280729297840,-0.0152782893348366,0.0622194409981837,0.0159882280542313,0.0088331884192525*43f784b2
#CORRIMUDATAA,FILE,0,30.0,FINESTEERING,2319,306160.650,02000000,e5fc,17139;2319,306160.650000000,0.0007961792740611,0.0007540891176129,-0.0146017694732510,0.0618128699224586,0.0154082969599934,0.0107150865651615*ed29cbd6
#CORRIMUDATAA,FILE,0,30.0,FINESTEERING,2319,306160.700,02000000,e5fc,17139;2319,306160.700000000,0.0004828426773132,0.0000981620193032,-0.0138324674189887,0.0524700493232278,0.0170141184128188,0.0133103435401662*ec50308b
#CORRIMUDATAA,FILE,0,30.0,FINESTEERING,2319,306160.750,02000000,e5fc,17139;2319,306160.750000000,0.0001438217787307,-0.0003594759868297,-0.0131411725442168,0.0475936552417590,0.0172225660802094,0.0049958652156929*9ac83bdc
#CORRIMUDATAA,FILE,0,30.0,FINESTEERING,2319,306160.800,02000000,e5fc,17139;2319,306160.800000000,0.0000935646671725,-0.0008930582526078,-0.0126035206404096,0.0417609334807262,0.0175155766115342,0.0044654134840537*70c9d1ce
#CORRIMUDATAA,FILE,0,30.0,FINESTEERING,2319,306160.850,02000000,e5fc,17139;2319,306160.850000000,-0.0000169143869865,-0.0012822209806702,-0.0123318492075888,0.0421115436960804,0.0159733422009090,0.0034782317488664*fec14b83
#CORRIMUDATAA,FILE,0,30.0,FINESTEERING,2319,306160.900,02000000,e5fc,17139;2319,306160.900000000,0.0000118403233597,-0.0016552139215173,-0.0121480678157288,0.0427905101402574,0.0155346843363549,-0.0009594649957130*37c1c5ed
#CORRIMUDATAA,FILE,0,30.0,FINESTEERING,2319,306160.950,02000000,e5fc,17139;2319,306160.950000000,-0.0000913342792060,-0.0013266895599958,-0.0119928726788701,0.0419723913658135,0.0151213534411657,0.0104042050324111*55fb4db3
#CORRIMUDATAA,FILE,0,30.0,FINESTEERING,2319,306161.000,02000000,e5fc,17139;2319,306161.000000000,0.0000557537378507,-0.0008595523588188,-0.0117420855796588,0.0463548280333137,0.0165593694347023,0.0001669288271599*f07b3404
#CORRIMUDATAA,FILE,0,30.0,FINESTEERING,2319,306161.050,02000000,e5fc,17139;2319,306161.050000000,0.0000504847848408,-0.0003499643127686,-0.0101794000111625,0.0482601332365172,0.0147026505476567,0.0061032427076055*73be2850
#CORRIMUDATAA,FILE,0,27.5,FINESTEERING,2319,306161.100,02000000,e5fc,17139;2319,306161.100000000,-0.0001146150893922,-0.0002093389090039,-0.0107649415220505,0.0591164393392305,0.0161727733418229,-0.0029418132892558*14337ada
#CORRIMUDATAA,FILE,0,27.5,FINESTEERING,2319,306161.150,02000000,e5fc,17139;2319,306161.150000000,-0.0000485172181062,-0.0001809325010346,-0.0101743808110067,0.0516305919395405,0.0177739040695562,-0.0027059446146870*da5f9d17
#CORRIMUDATAA,FILE,0,27.5,FINESTEERING,2319,306161.200,02000000,e5fc,17139;2319,306161.200000000,0.0003421709189140,-0.0002450184643796,-0.0099080141515846,0.0401734981762911,0.0223266849404773,-0.0101566934394618*128c4c65
#CORRIMUDATAA,FILE,0,27.5,FINESTEERING,2319,306161.250,02000000,e5fc,17139;2319,306161.250000000,0.0004163789175858,-0.0004401262682683,-0.0099088406621571,0.0353199228167428,0.0235790351074771,-0.0118558630979161*cf90d37f
#CORRIMUDATAA,FILE,0,27.5,FINESTEERING,2319,306161.300,02000000,e5fc,17139;2319,306161.300000000,0.0006451342941380,-0.0006072377548139,-0.0100381320856084,0.0312046305344254,0.0242574122113450,-0.0103294788948036*432b9ce1
#CORRIMUDATAA,FILE,0,27.5,FINESTEERING,2319,306161.350,02000000,e5fc,17139;2319,306161.350000000,0.0009074978564000,-0.0006398042371172,-0.0102106468128896,0.0329718903681004,0.0237206090332055,-0.0001568829440234*53a96e98
#CORRIMUDATAA,FILE,0,27.5,FINESTEERING,2319,306161.400,02000000,e5fc,17139;2319,306161.400000000,0.0008578258898074,-0.0004602821105899,-0.0102469960696897,0.0396263632837021,0.0219588193698237,0.0051489866911108*933e417e
#CORRIMUDATAA,FILE,0,27.5,FINESTEERING,2319,306161.450,02000000,e5fc,17139;2319,306161.450000000,0.0007134821975298,-0.0001886369149491,-0.0101075993749941,0.0441792536382217,0.0210447215682008,0.0117519145415318*0669f676
#CORRIMUDATAA,FILE,0,27.5,FINESTEERING,2319,306161.500,02000000,e5fc,17139;2319,306161.500000000,0.0000511148030136,0.0002733705074336,-0.0097717687881012,0.0458601052210417,0.0180675398833667,0.0179821422749895*ffeeb8e8
#CORRIMUDATAA,FILE,0,27.5,FINESTEERING,2319,306161.550,02000000,e5fc,17139;2319,306161.550000000,-0.0003744706789846,0.0005426220525077,-0.0092851950568245,0.0484901918083081,0.0167051117089778,0.0126046762533621*f59c998d
#CORRIMUDATAA,FILE,0,27.5,FINESTEERING,2319,306161.600,02000000,e5fc,17139;2319,306161.600000000,-0.0007299593148362,0.0005932294839616,-0.0086961470978242,0.0481165877333599,0.0176434264757629,0.0045008637741348*42830339
#CORRIMUDATAA,FILE,0,27.5,FINESTEERING,2319,306161.650,02000000,e5fc,17139;2319,306161.650000000,-0.0010164025685423,0.0003056091803967,-0.0082157822680704,0.0400465170378908,0.0187115207772448,-0.0022369482606566*dd4412ca
#CORRIMUDATAA,FILE,0,27.5,FINESTEERING,2319,306161.700,02000000,e5fc,17139;2319,306161.700000000,-0.0009985924484726,-0.0000511953392502,-0.0079095644851645,0.0301735510864837,0.0186846134801508,-0.0046588381937715*756aec58
#CORRIMUDATAA,FILE,0,27.5,FINESTEERING,2319,306161.750,02000000,e5fc,17139;2319,306161.750000000,-0.0008450687733515,-0.0001812423442921,-0.0077134383803716,0.0260381166944614,0.0189769667695648,-0.0075624649342587*1b755a1c
#CORRIMUDATAA,FILE,0,27.5,FINESTEERING,2319,306161.800,02000000,e5fc,17139;2319,306161.800000000,-0.0006012562520667,-0.0000938272450513,-0.0075760744634717,0.0283858217771226,0.0187387759643464,-0.0040547787249734*220eac71
#CORRIMUDATAA,FILE,0,27.5,FINESTEERING,2319,306161.850,02000000,e5fc,17139;2319,306161.850000000,-0.0004196353046342,-0.0002959104828212,-0.0074736010117166,0.0319951591157905,0.0179407392063102,0.0017069053482075*8d565f22
#CORRIMUDATAA,FILE,0,27.5,FINESTEERING,2319,306161.900,02000000,e5fc,17139;2319,306161.900000000,-0.0005657199898068,-0.0007261008816993,-0.0073330115876119,0.0292231014307147,0.0172611523328184,0.0062810135563776*2e1899ac
#CORRIMUDATAA,FILE,0,27.5,FINESTEERING,2319,306161.950,02000000,e5fc,17139;2319,306161.950000000,-0.0009860147700413,-0.0005535347181727,-0.0071712940711017,0.0263718110114966,0.0161384166725893,0.0137313418384993*8ce271ab
#CORRIMUDATAA,FILE,0,27.5,FINESTEERING,2319,306162.000,02000000,e5fc,17139;2319,306162.000000000,-0.0012600175001758,-0.0006097549612807,-0.0069527704129582,0.0320587382169132,0.0173259768363852,0.0038401455928679*8a6635e4
#CORRIMUDATAA,FILE,0,27.5,FINESTEERING,2319,306162.050,02000000,e5fc,17139;2319,306162.050000000,-0.0014125630394515,-0.0007136326003272,-0.0059850556444720,0.0308047543327733,0.0158350458694503,-0.0015125706453654*8336cf27
#CORRIMUDATAA,FILE,0,27.5,FINESTEERING,2319,306162.100,02000000,e5fc,17139;2319,306162.100000000,-0.0015543023468123,-0.0011475425776890,-0.0063818548236822,0.0314730180508854,0.0193996673314457,-0.0115770915449201*90b74994
#CORRIMUDATAA,FILE,0,29.5,FINESTEERING,2319,306162.150,02000000,e5fc,17139;2319,306162.150000000,-0.0011341480803772,-0.0009602595638451,-0.0061999261106410,0.0234668345924413,0.0234897318997992,-0.0195795840773901*c573d75f
#CORRIMUDATAA,FILE,0,29.5,FINESTEERING,2319,306162.200,02000000,e5fc,17139;2319,306162.200000000,-0.0006763445131066,-0.0005054020354299,-0.0060895950459985,0.0273318100140623,0.0222244072409992,-0.0188236821459189*f383b73a
#CORRIMUDATAA,FILE,0,29.5,FINESTEERING,2319,306162.250,02000000,e5fc,17139;2319,306162.250000000,-0.0003581736090287,-0.0006730453510973,-0.0059771647267892,0.0332311680219545,0.0198383484872175,-0.0176012718739722*dc13b4b6
#CORRIMUDATAA,FILE,0,29.5,FINESTEERING,2319,306162.300,02000000,e5fc,17139;2319,306162.300000000,0.0001239726140873,-0.0008688340832003,-0.0057848554113199,0.0270384298126060,0.0217685902823853,-0.0038123081785345*e4b36b0e
#CORRIMUDATAA,FILE,0,29.5,FINESTEERING,2319,306162.350,02000000,e5fc,17139;2319,306162.350000000,0.0000902489218986,-0.0003790024459343,-0.0055717807933459,0.0228287039376058,0.0200385739995876,0.0056661844379808*0ffe1271
#CORRIMUDATAA,FILE,0,29.5,FINESTEERING,2319,306162.400,02000000,e5fc,17139;2319,306162.400000000,-0.0000613313620037,0.0002145984829911,-0.0053350458143437,0.0261968407297318,0.0200111025137807,0.0092666155988231*e977e6a5
#CORRIMUDATAA,FILE,0,29.5,FINESTEERING,2319,306162.450,02000000,e5fc,17139;2319,306162.450000000,-0.0004469102665491,0.0003214056337692,-0.0050347579254551,0.0305840726244378,0.0198907367065726,0.0067653818284522*627aa9f9
#CORRIMUDATAA,FILE,0,29.5,FINESTEERING,2319,306162.500,02000000,e5fc,17139;2319,306162.500000000,-0.0006241631865990,-0.0002412014005023,-0.0048181749261598,0.0268646651903075,0.0216382635076537,0.0038197811545591*ec6082db
#CORRIMUDATAA,FILE,0,29.5,FINESTEERING,2319,306162.550,02000000,e5fc,17139;2319,306162.550000000,-0.0005346877316712,-0.0006139023450275,-0.0046187479607830,0.0164079376155625,0.0255969505697966,-0.0118422827432173*a447927a
#CORRIMUDATAA,FILE,0,29.5,FINESTEERING,2319,306162.600,02000000,e5fc,17139;2319,306162.600000000,-0.0003117225902397,-0.0003928298802754,-0.0044535941969637,0.0143129817105072,0.0265000070005769,-0.0076058976424732*09afa3cb
#CORRIMUDATAA,FILE,0,29.5,FINESTEERING,2319,306162.650,02000000,e5fc,17139;2319,306162.650000000,0.0000432237539502,-0.0004534401697958,-0.0042804225737802,0.0182867831745822,0.0258131901607725,-0.0147115714167738*55ae6213
#CORRIMUDATAA,FILE,0,29.5,FINESTEERING,2319,306162.700,02000000,e5fc,17139;2319,306162.700000000,0.0002839665754113,-0.0005705940710899,-0.0040322079832954,0.0244444526432523,0.0271192794647062,-0.0040567296101459*35a981c5
#CORRIMUDATAA,FILE,0,29.5,FINESTEERING,2319,306162.750,02000000,e5fc,17139;2319,306162.750000000,0.0001823352475020,-0.0006846820960236,-0.0036439873113321,0.0233995351022479,0.0255050976879091,-0.0031370998671787*2e0e2e46
#CORRIMUDATAA,FILE,0,29.5,FINESTEERING,2319,306162.800,02000000,e5fc,17139;2319,306162.800000000,0.0005070168586242,-0.0006998092711533,-0.0033324325113662,0.0188379799788022,0.0284215034422319,-0.0039591563576089*cb7d1837
#CORRIMUDATAA,FILE,0,29.5,FINESTEERING,2319,306162.850,02000000,e5fc,17139;2319,306162.850000000,0.0003567511707303,-0.0003876805559213,-0.0029728414361055,0.0154951026423104,0.0275145878887177,0.0132156588675541*d35857a0
#CORRIMUDATAA,FILE,0,29.5,FINESTEERING,2319,306162.900,02000000,e5fc,17139;2319,306162.900000000,0.0003492764567731,-0.0006604184478629,-0.0026827333634623,0.0161364205565564,0.0302956371118059,0.0043008627783258*a57af529
#CORRIMUDATAA,FILE,0,29.5,FINESTEERING,2319,306162.950,02000000,e5fc,17139;2319,306162.950000000,0.0001148010977138,-0.0005193361374168,-0.0023929659081190,0.0129116918144201,0.0314067188649359,0.0065626706223275*c66b6868
#CORRIMUDATAA,FILE,0,29.5,FINESTEERING,2319,306163.000,02000000,e5fc,17139;2319,306163.000000000,-0.0000521218792002,-0.0001256455871795,-0.0021220631705785,0.0123862728649876,0.0326070607390441,0.0004360447596504*f0120e48
#CORRIMUDATAA,FILE,0,29.5,FINESTEERING,2319,306163.050,02000000,e5fc,17139;2319,306163.050000000,0.0000352679284234,-0.0001817837397074,-0.0019236776524943,0.0162839181969113,0.0325480147926799,-0.0036812260839794*5aa2ed90
#CORRIMUDATAA,FILE,0,29.5,FINESTEERING,2319,306163.100,02000000,e5fc,17139;2319,306163.100000000,0.0001512800428012,-0.0003057858181075,-0.0016458919355763,0.0130995266637831,0.0331864037142976,-0.0039254416208781*802aaafc
#CORRIMUDATAA,FILE,0,30.0,FINESTEERING,2319,306163.150,02000000,e5fc,17139;2319,306163.150000000,0.0003394596988505,-0.0001948490849637,-0.0013808224774293,0.0082182674753525,0.0325920804591195,-0.0058116161559482*7136c41b
#CORRIMUDATAA,FILE,0,30.0,FINESTEERING,2319,306163.200,02000000,e5fc,17139;2319,306163.200000000,0.0003888160079154,0.0000453629970688,-0.0011258041302133,0.0079579089508530,0.0313396111573853,-0.0008268095557177*f32478b9
#CORRIMUDATAA,FILE,0,30.0,FINESTEERING,2319,306163.250,02000000,e5fc,17139;2319,306163.250000000,0.0002300961117843,0.0000068601052163,-0.0008983013826556,0.0065741811531943,0.0315791303678656,0.0014439236045632*63e28b1f
#CORRIMUDATAA,FILE,0,30.0,FINESTEERING,2319,306163.300,02000000,e5fc,17139;2319,306163.300000000,0.0001128763265526,-0.0003613755463540,-0.0008707352505593,0.0042424385107824,0.0349564748134831,-0.0000882570847747*a4237967
#CORRIMUDATAA,FILE,0,30.0,FINESTEERING,2319,306163.350,02000000,e5fc,17139;2319,306163.350000000,-0.0001460220474014,-0.0004082436021601,-0.0009139332792123,-0.0023293807434538,0.0351069819312285,0.0139255150083256*c8d50ede
#CORRIMUDATAA,FILE,0,30.0,FINESTEERING,2319,306163.400,02000000,e5fc,17139;2319,306163.400000000,-0.0003196243316997,-0.0002179192848956,-0.0010470187172053,0.0025304491826202,0.0355027135977777,0.0050832309841086*b348ce9d
#CORRIMUDATAA,FILE,0,30.0,FINESTEERING,2319,306163.450,02000000,e5fc,17139;2319,306163.450000000,-0.0002556094157713,-0.0003495719868444,-0.0010960218045161,0.0092766255291890,0.0372120261694914,-0.0011074852936769*42451f57
#CORRIMUDATAA,FILE,0,30.0,FINESTEERING,2319,306163.500,02000000,e5fc,17139;2319,306163.500000000,-0.0003442646193460,-0.0002814399346308,-0.0010078759363212,0.0112328185479495,0.0380091835890416,0.0033909444235355*f3d24505
#CORRIMUDATAA,FILE,0,30.0,FINESTEERING,2319,306163.550,02000000,e5fc,17139;2319,306163.550000000,-0.0001999435517090,-0.0003542767004818,-0.0010207731447911,0.0099571033250140,0.0381985674740218,-0.0063402405188863*7f2f0a23
#CORRIMUDATAA,FILE,0,30.0,FINESTEERING,2319,306163.600,02000000,e5fc,17139;2319,306163.600000000,-0.0001633472819526,-0.0005663506799702,-0.0011803561779399,0.0044589066399919,0.0360450330897036,0.0040503917881480*b5c5aa64
#CORRIMUDATAA,FILE,0,30.0,FINESTEERING,2319,306163.650,02000000,e5fc,17139;2319,306163.650000000,-0.0003183656006238,-0.0006399311983854,-0.0015564851031096,-0.0005820415837555,0.0364493861076409,-0.0033467624515067*df75ba97
#CORRIMUDATAA,FILE,0,30.0,FINESTEERING,2319,306163.700,02000000,e5fc,17139;2319,306163.700000000,0.0000273411082410,-0.0008880029145343,-0.0021664857590902,0.0020943399842963,0.0378615351965856,-0.0067409878746283*a0f59c24
