#INSPVAXA,FILE,0,32.0,FINESTEERING,2319,306148.600,02000800,46eb,17139;INS_SOLUTION_GOOD,INS_PSRDIFF,17.59657443756,78.12122289767,524.9820,-76.2000,0.0986,4.1929,0.0064,-1.089137279,-0.349442982,87.109778829,0.1204,0.1216,0.1377,0.0210,0.0208,0.0176,0.0207,0.0207,0.4560,ab001243,0*8bfda951
#INSPVAXA,FILE,0,32.0,FINESTEERING,2319,306148.700,02000800,46eb,17139;INS_SOLUTION_GOOD,INS_PSRDIFF,17.59657453147,78.12122686034,524.9822,-76.2000,0.0929,4.2240,-0.0081,-1.079292753,-0.345411638,87.124940234,0.1204,0.1216,0.1377,0.0210,0.0208,0.0176,0.0207,0.0207,0.4560,ab001243,0*1798bb0d
#INSPVAXA,FILE,0,32.0,FINESTEERING,2319,306148.750,02000800,46eb,17139;INS_SOLUTION_GOOD,INS_PSRDIFF,17.59657457657,78.12122885278,524.9817,-76.2000,0.0916,4.2420,-0.0191,-1.078649804,-0.327693756,87.134707055,0.1204,0.1216,0.1377,0.0210,0.0208,0.0176,0.0207,0.0207,0.4560,ab001243,0*026a14d3
#INSPVAXA,FILE,0,32.0,FINESTEERING,2319,306148.800,02000800,46eb,17139;INS_SOLUTION_GOOD,INS_PSRDIFF,17.59657462108,78.12123085316,524.9804,-76.2000,0.0911,4.2566,-0.0385,-1.070563298,-0.299835376,87.148229124,0.1204,0.1216,0.1377,0.0210,0.0208,0.0176,0.0207,0.0207,0.4560,ab001243,0*8d59fe98
#INSPVAXA,FILE,0,32.0,FINESTEERING,2319,306148.850,02000800,46eb,17139;INS_SOLUTION_GOOD,INS_PSRDIFF,17.59657466498,78.12123286135,524.9784,-76.2000,0.0905,4.2736,-0.0425,-1.057596149,-0.229220525,87.160157389,0.1204,0.1216,0.1377,0.0210,0.0208,0.0176,0.0207,0.0207,0.4560,ab001243,0*318224b3
#INSPVAXA,FILE,0,32.0,FINESTEERING,2319,306148.900,02000800,46eb,17139;INS_SOLUTION_GOOD,INS_PSRDIFF,17.59657470998,78.12123487763,524.9766,-76.2000,0.0938,4.2903,-0.0358,-1.037427895,-0.152081462,87.176258316,0.1204,0.1216,0.1377,0.0210,0.0208,0.0176,0.0207,0.0207,0.4560,ab001243,0*c649b683
#INSPVAXA,FILE,0,32.0,FINESTEERING,2319,306149.200,02000800,46eb,17139;INS_SOLUTION_GOOD,INS_PSRDIFF,17.59657496879,78.12124710988,524.9763,-76.2000,0.0892,4.3779,0.0135,-0.977813654,-0.156937904,87.311687729,0.1247,0.1262,0.1435,0.0213,0.0213,0.0183,0.0211,0.0211,0.4562,ab001243,0*d3df7f24
#INSPVAXA,FILE,0,32.0,FINESTEERING,2319,306149.300,02000800,46eb,17139;INS_SOLUTION_GOOD,INS_PSRDIFF,17.59657504911,78.12125124518,524.9761,-76.2000,0.0824,4.4091,-0.0045,-0.974365818,-0.149794968,87.396260472,0.1247,0.1262,0.1435,0.0213,0.0213,0.0183,0.0211,0.0211,0.4562,ab001243,0*1265aec8
#INSPVAXA,FILE,0,32.0,FINESTEERING,2319,306149.400,02000800,46eb,17139;INS_SOLUTION_GOOD,INS_PSRDIFF,17.59657512614,78.12125541011,524.9766,-76.2000,0.0800,4.4399,0.0123,-0.988591611,-0.115691370,87.477088797,0.1247,0.1262,0.1435,0.0213,0.0213,0.0183,0.0211,0.0211,0.4562,ab001243,0*97550842
#INSPVAXA,FILE,0,32.0,FINESTEERING,2319,306149.450,02000800,46eb,17139;INS_SOLUTION_GOOD,INS_PSRDIFF,17.59657516310,78.12125750352,524.9776,-76.2000,0.0757,4.4590,0.0273,-0.971554294,-0.103391815,87.513606828,0.1247,0.1262,0.1435,0.0213,0.0213,0.0183,0.0211,0.0211,0.4562,ab001243,0*7085c556
#INSPVAXA,FILE,0,32.0,FINESTEERING,2319,306149.500,02000800,46eb,17139;INS_SOLUTION_GOOD,INS_PSRDIFF,17.59657519730,78.12125960523,524.9778,-76.2000,0.0669,4.4739,-0.0058,-0.979684127,-0.098448293,87.555289620,0.1247,0.1262,0.1435,0.0213,0.0213,0.0183,0.0211,0.0211,0.4562,ab001243,0*50f48f45
#INSPVAXA,FILE,0,32.0,FINESTEERING,2319,306149.550,02000800,46eb,17139;INS_SOLUTION_GOOD,INS_PSRDIFF,17.59657522933,78.12126171512,524.9783,-76.2000,0.0642,4.4915,0.0181,-0.989450207,-0.108849404,87.595386622,0.1247,0.1262,0.1435,0.0213,0.0213,0.0183,0.0211,0.0211,0.4562,ab001243,0*0c88e881
#INSPVAXA,FILE,0,32.0,FINESTEERING,2319,306149.600,02000800,46eb,17139;INS_SOLUTION_GOOD,INS_PSRDIFF,17.59657526055,78.12126383401,524.9785,-76.2000,0.0621,4.5111,-0.0055,-1.001132594,-0.111336113,87.642640795,0.1247,0.1262,0.1435,0.0213,0.0213,0.0183,0.0211,0.0211,0.4562,ab001243,0*e3ea2f50
#INSPVAXA,FILE,0,32.0,FINESTEERING,2319,306149.650,02000800,46eb,17139;INS_SOLUTION_GOOD,INS_PSRDIFF,17.59657528997,78.12126596231,524.9782,-76.2000,0.0573,4.5310,-0.0090,-0.979240311,-0.110076984,87.690503934,0.1247,0.1262,0.1435,0.0213,0.0213,0.0183,0.0211,0.0211,0.4562,ab001243,0*73a68210
#INSPVAXA,FILE,0,32.0,FINESTEERING,2319,306149.700,02000800,46eb,17139;INS_SOLUTION_GOOD,INS_PSRDIFF,17.59657531699,78.12126810048,524.9775,-76.2000,0.0517,4.5516,-0.0246,-0.962918078,-0.086626444,87.737754786,0.1247,0.1262,0.1435,0.0213,0.0213,0.0183,0.0211,0.0211,0.4562,ab001243,0*3dec8265
#INSPVAXA,FILE,0,32.0,FINESTEERING,2319,306149.900,02000800,46eb,17139;INS_SOLUTION_GOOD,INS_PSRDIFF,17.59657540681,78.12127672878,524.9782,-76.2000,0.0378,4.6128,0.0161,-0.826481776,-0.063537400,87.934930369,0.1247,0.1262,0.1435,0.0213,0.0213,0.0183,0.0211,0.0211,0.4562,ab001243,0*4bf5eed1
#INSPVAXA,FILE,0,32.0,FINESTEERING,2319,306150.000,02000800,46eb,17139;INS_SOLUTION_GOOD,INS_PSRDIFF,17.59657544401,78.12128108699,524.9812,-76.2000,0.0331,4.6481,0.0220,-0.841856412,-0.154448716,88.035689410,0.1247,0.1262,0.1435,0.0213,0.0213,0.0183,0.0211,0.0211,0.4562,ab001243,0*9dd7510e
#INSPVAXA,FILE,0,32.0,FINESTEERING,2319,306150.050,02000800,46eb,17139;INS_SOLUTION_GOOD,INS_PSRDIFF,17.59657545974,78.12128328079,524.9824,-76.2000,0.0308,4.6661,0.0152,-0.868376535,-0.212804540,88.086306899,0.1288,0.1306,0.1499,0.0216,0.0217,0.0189,0.0214,0.0215,0.4565,ab001243,0*2134f98f
#INSPVAXA,FILE,0,30.5,FINESTEERING,2319,306150.200,02000800,46eb,17139;INS_SOLUTION_GOOD,INS_PSRDIFF,17.59657549329,78.12128993100,524.9848,-76.2000,0.0228,4.7123,0.0042,-0.893272117,-0.331686614,88.238566396,0.1288,0.1306,0.1499,0.0216,0.0217,0.0189,0.0214,0.0215,0.4565,ab001243,0*8e00c38d
#INSPVAXA,FILE,0,30.5,FINESTEERING,2319,306150.250,02000800,46eb,17139;INS_SOLUTION_GOOD,INS_PSRDIFF,17.59657550057,78.12129216059,524.9857,-76.2000,0.0144,4.7250,0.0088,-0.879131344,-0.337516909,88.288934460,0.1288,0.1306,0.1499,0.0216,0.0217,0.0189,0.0214,0.0215,0.4565,ab001243,0*57762dbc
#INSPVAXA,FILE,0,30.5,FINESTEERING,2319,306150.350,02000800,46eb,17139;INS_SOLUTION_GOOD,INS_PSRDIFF,17.59657550349,78.12129663667,524.9876,-76.2000,0.0012,4.7471,0.0199,-0.825110110,-0.354384684,88.382429904,0.1288,0.1306,0.1499,0.0216,0.0217,0.0189,0.0214,0.0215,0.4565,ab001243,0*9ec2ca48
#INSPVAXA,FILE,0,30.5,FINESTEERING,2319,306150.500,02000800,46eb,17139;INS_SOLUTION_GOOD,INS_PSRDIFF,17.59657548906,78.12130337880,524.9908,-76.2000,-0.0209,4.7619,0.0043,-0.642885577,-0.414928709,88.542076626,0.1288,0.1306,0.1499,0.0216,0.0217,0.0189,0.0214,0.0215,0.4565,ab001243,0*bd8670a2
#INSPVAXA,FILE,0,30.5,FINESTEERING,2319,306150.600,02000800,46eb,17139;INS_SOLUTION_GOOD,INS_PSRDIFF,17.59657547144,78.12130787522,524.9908,-76.2000,-0.0169,4.7587,-0.0238,-0.648656323,-0.479843824,88.664898142,0.1288,0.1306,0.1499,0.0216,0.0217,0.0189,0.0214,0.0215,0.4565,ab001243,0*d5fe51b1
#INSPVAXA,FILE,0,30.5,FINESTEERING,2319,306150.650,02000800,46eb,17139;INS_SOLUTION_GOOD,INS_PSRDIFF,17.59657546257,78.12131012201,524.9899,-76.2000,-0.0171,4.7545,-0.0302,-0.685372799,-0.523762097,88.716720401,0.1288,0.1306,0.1499,0.0216,0.0217,0.0189,0.0214,0.0215,0.4565,ab001243,0*1a097cf4
#INSPVAXA,FILE,0,30.5,FINESTEERING,2319,306150.900,02000800,46eb,17139;INS_SOLUTION_GOOD,INS_PSRDIFF,17.59657539599,78.12132126915,524.9903,-76.2000,-0.0412,4.7015,-0.0026,-0.828316183,-0.655264214,88.962671290,0.1288,0.1306,0.1499,0.0216,0.0217,0.0189,0.0214,0.0215,0.4565,ab001243,0*2412e29d
#INSPVAXA,FILE,0,30.5,FINESTEERING,2319,306151.000,02000800,46eb,17139;INS_SOLUTION_GOOD,INS_PSRDIFF,17.59657534592,78.12132569668,524.9927,-76.2000,-0.0655,4.6833,0.0041,-0.715783011,-0.649605586,89.054371283,0.1288,0.1306,0.1499,0.0216,0.0217,0.0189,0.0214,0.0215,0.4565,ab001243,0*06016a7b
#INSPVAXA,FILE,0,30.5,FINESTEERING,2319,306151.050,02000800,46eb,17139;INS_SOLUTION_GOOD,INS_PSRDIFF,17.59657531305,78.12132790681,524.9933,-76.2000,-0.0687,4.6809,-0.0092,-0.659238173,-0.634159664,89.095946840,0.1326,0.1347,0.1567,0.0218,0.0222,0.0198,0.0217,0.0218,0.4567,ab001243,0*a2c0b43e
#INSPVAXA,FILE,0,29.5,FINESTEERING,2319,306151.100,02000800,46eb,17139;INS_SOLUTION_GOOD,INS_PSRDIFF,17.59657527593,78.12133011080,524.9924,-76.2000,-0.0657,4.6737,-0.0376,-0.632908373,-0.615024692,89.149140972,0.1326,0.1347,0.1567,0.0218,0.0222,0.0198,0.0217,0.0218,0.4567,ab001243,0*a1f57742
#INSPVAXA,FILE,0,29.5,FINESTEERING,2319,306151.350,02000800,46eb,17139;INS_SOLUTION_GOOD,INS_PSRDIFF,17.59657509298,78.12134108079,524.9829,-76.2000,-0.0732,4.6348,-0.0103,-0.698319509,-0.436774475,89.412606934,0.1326,0.1347,0.1567,0.0218,0.0222,0.0198,0.0217,0.0218,0.4567,ab001243,0*3a569f6b
#INSPVAXA,FILE,0,29.5,FINESTEERING,2319,306151.450,02000800,46eb,17139;INS_SOLUTION_GOOD,INS_PSRDIFF,17.59657500588,78.12134543918,524.9845,-76.2000,-0.0916,4.6135,0.0266,-0.664858401,-0.493602907,89.456754223,0.1326,0.1347,0.1567,0.0218,0.0222,0.0198,0.0217,0.0218,0.4567,ab001243,0*dfc74ff3
#INSPVAXA,FILE,0,29.5,FINESTEERING,2319,306151.500,02000800,46eb,17139;INS_SOLUTION_GOOD,INS_PSRDIFF,17.59657495704,78.12134761132,524.9861,-76.2000,-0.0969,4.6075,0.0269,-0.656240898,-0.543512631,89.456957037,0.1326,0.1347,0.1567,0.0218,0.0222,0.0198,0.0217,0.0218,0.4567,ab001243,0*2c0a7be0
#INSPVAXA,FILE,0,29.5,FINESTEERING,2319,306151.550,02000800,46eb,17139;INS_SOLUTION_GOOD,INS_PSRDIFF,17.59657490685,78.12134978085,524.9875,-76.2000,-0.0995,4.6011,0.0150,-0.632150055,-0.591269156,89.444341302,0.1326,0.1347,0.1567,0.0218,0.0222,0.0198,0.0217,0.0218,0.4567,ab001243,0*dd4dd100
#INSPVAXA,FILE,0,29.5,FINESTEERING,2319,306151.700,02000800,46eb,17139;INS_SOLUTION_GOOD,INS_PSRDIFF,17.59657475822,78.12135627037,524.9888,-76.2000,-0.0932,4.5825,-0.0162,-0.567143381,-0.641252326,89.379549414,0.1326,0.1347,0.1567,0.0218,0.0222,0.0198,0.0217,0.0218,0.4567,ab001243,0*a5f8802f
#INSPVAXA,FILE,0,29.5,FINESTEERING,2319,306151.850,02000800,46eb,17139;INS_SOLUTION_GOOD,INS_PSRDIFF,17.59657462680,78.12136273021,524.9862,-76.2000,-0.0778,4.5595,-0.0236,-0.559706017,-0.576949743,89.334493724,0.1326,0.1347,0.1567,0.0218,0.0222,0.0198,0.0217,0.0218,0.4567,ab001243,0*3c06cf37
#INSPVAXA,FILE,0,29.5,FINESTEERING,2319,306151.900,02000800,46eb,17139;INS_SOLUTION_GOOD,INS_PSRDIFF,17.59657458555,78.12136487621,524.9852,-76.2000,-0.0771,4.5522,-0.0255,-0.570345408,-0.554318230,89.315896654,0.1326,0.1347,0.1567,0.0218,0.0222,0.0198,0.0217,0.0218,0.4567,ab001243,0*58d7cfe5
#INSPVAXA,FILE,0,29.5,FINESTEERING,2319,306151.950,02000800,46eb,17139;INS_SOLUTION_GOOD,INS_PSRDIFF,17.59657454470,78.12136701869,524.9844,-76.2000,-0.0769,4.5434,-0.0179,-0.586974079,-0.550992993,89.294591342,0.1326,0.1347,0.1567,0.0218,0.0222,0.0198,0.0217,0.0218,0.4567,ab001243,0*46eb1111
#INSPVAXA,FILE,0,29.5,FINESTEERING,2319,306152.000,02000800,46eb,17139;INS_SOLUTION_GOOD,INS_PSRDIFF,17.59657450474,78.12136915729,524.9837,-76.2000,-0.0736,4.5369,-0.0177,-0.599903792,-0.550529356,89.277873871,0.1326,0.1347,0.1567,0.0218,0.0222,0.0198,0.0217,0.0218,0.4567,ab001243,0*5b29936c
#INSPVAXA,FILE,0,29.5,FINESTEERING,2319,306152.250,02000800,46eb,17139;INS_SOLUTION_GOOD,INS_PSRDIFF,17.59657435293,78.12137978935,524.9820,-76.2000,-0.0722,4.4808,-0.0079,-0.562998170,-0.477728519,89.190180118,0.1356,0.1382,0.1632,0.0219,0.0225,0.0203,0.0219,0.0220,0.4570,ab001243,0*51fb274b
#INSPVAXA,FILE,0,32.5,FINESTEERING,2319,306152.300,02000800,46eb,17139;INS_SOLUTION_GOOD,INS_PSRDIFF,17.59657432590,78.12138189721,524.9823,-76.2000,-0.0658,4.4611,0.0063,-0.573692950,-0.478540006,89.171471247,0.1356,0.1382,0.1632,0.0219,0.0225,0.0203,0.0219,0.0220,0.4570,ab001243,0*a8a2a737
#INSPVAXA,FILE,0,32.5,FINESTEERING,2319,306152.350,02000800,46eb,17139;INS_SOLUTION_GOOD,INS_PSRDIFF,17.59657430210,78.12138399547,524.9829,-76.2000,-0.0589,4.4389,0.0127,-0.574622366,-0.501134212,89.158586627,0.1356,0.1382,0.1632,0.0219,0.0225,0.0203,0.0219,0.0220,0.4570,ab001243,0*9e8d1436
#INSPVAXA,FILE,0,32.5,FINESTEERING,2319,306152.400,02000800,46eb,17139;INS_SOLUTION_GOOD,INS_PSRDIFF,17.59657427961,78.12138608143,524.9838,-76.2000,-0.0591,4.4117,0.0094,-0.585253545,-0.526609922,89.145099261,0.1356,0.1382,0.1632,0.0219,0.0225,0.0203,0.0219,0.0220,0.4570,ab001243,0*03eb5e68
#INSPVAXA,FILE,0,32.5,FINESTEERING,2319,306152.450,02000800,46eb,17139;INS_SOLUTION_GOOD,INS_PSRDIFF,17.59657425650,78.12138815549,524.9845,-76.2000,-0.0615,4.3856,0.0051,-0.603833101,-0.552369490,89.129347543,0.1356,0.1382,0.1632,0.0219,0.0225,0.0203,0.0219,0.0220,0.4570,ab001243,0*2809c1ed
#INSPVAXA,FILE,0,32.5,FINESTEERING,2319,306152.500,02000800,46eb,17139;INS_SOLUTION_GOOD,INS_PSRDIFF,17.59657423330,78.12139021850,524.9848,-76.2000,-0.0599,4.3647,-0.0066,-0.628292951,-0.552764029,89.110985970,0.1356,0.1382,0.1632,0.0219,0.0225,0.0203,0.0219,0.0220,0.4570,ab001243,0*725e2f8a
#INSPVAXA,FILE,0,32.5,FINESTEERING,2319,306152.550,02000800,46eb,17139;INS_SOLUTION_GOOD,INS_PSRDIFF,17.59657421117,78.12139227074,524.9845,-76.2000,-0.0541,4.3412,-0.0162,-0.647027942,-0.533779049,89.092416365,0.1356,0.1382,0.1632,0.0219,0.0225,0.0203,0.0219,0.0220,0.4570,ab001243,0*cc78b037
#INSPVAXA,FILE,0,32.5,FINESTEERING,2319,306152.600,02000800,46eb,17139;INS_SOLUTION_GOOD,INS_PSRDIFF,17.59657419030,78.12139431126,524.9838,-76.2000,-0.0539,4.3155,-0.0150,-0.655416035,-0.492746920,89.072395545,0.1356,0.1382,0.1632,0.0219,0.0225,0.0203,0.0219,0.0220,0.4570,ab001243,0*4221feee
#INSPVAXA,FILE,0,32.5,FINESTEERING,2319,306152.650,02000800,46eb,17139;INS_SOLUTION_GOOD,INS_PSRDIFF,17.59657417037,78.12139633990,524.9833,-76.2000,-0.0500,4.2896,-0.0129,-0.679171836,-0.469408569,89.050662096,0.1356,0.1382,0.1632,0.0219,0.0225,0.0203,0.0219,0.0220,0.4570,ab001243,0*9a4cfee6
#INSPVAXA,FILE,0,32.5,FINESTEERING,2319,306152.700,02000800,46eb,17139;INS_SOLUTION_GOOD,INS_PSRDIFF,17.59657415210,78.12139835631,524.9831,-76.2000,-0.0491,4.2633,-0.0005,-0.667310035,-0.464154224,89.032105230,0.1356,0.1382,0.1632,0.0219,0.0225,0.0203,0.0219,0.0220,0.4570,ab001243,0*352093bc
#INSPVAXA,FILE,0,32.5,FINESTEERING,2319,306152.750,02000000,46eb,17139;INS_SOLUTION_GOOD,INS_PSRDIFF,17.59657413349,78.12140035982,524.9833,-76.2000,-0.0501,4.2359,0.0034,-0.687740347,-0.478928507,89.014475270,0.1356,0.1382,0.1632,0.0219,0.0225,0.0203,0.0219,0.0220,0.4570,ab001243,0*711aff84
#INSPVAXA,FILE,0,32.5,FINESTEERING,2319,306152.800,02000000,46eb,17139;INS_SOLUTION_GOOD,INS_PSRDIFF,17.59657411575,78.12140235005,524.9841,-76.2000,-0.0452,4.2077,0.0131,-0.707932577,-0.504138329,88.997878670,0.1356,0.1382,0.1632,0.0219,0.0225,0.0203,0.0219,0.0220,0.4570,ab001243,0*f1f1c9b6
#INSPVAXA,FILE,0,32.5,FINESTEERING,2319,306152.850,02000000,46eb,17139;INS_SOLUTION_GOOD,INS_PSRDIFF,17.59657409853,78.12140432795,524.9848,-76.2000,-0.0461,4.1817,0.0067,-0.714783662,-0.515982292,88.982378832,0.1356,0.1382,0.1632,0.0219,0.0225,0.0203,0.0219,0.0220,0.4570,ab001243,0*0925cda8
#INSPVAXA,FILE,0,32.5,FINESTEERING,2319,306152.900,02000000,46eb,17139;INS_SOLUTION_GOOD,INS_PSRDIFF,17.59657408044,78.12140629324,524.9855,-76.2000,-0.0469,4.1553,0.0114,-0.713678406,-0.524620172,88.960561460,0.1356,0.1382,0.1632,0.0219,0.0225,0.0203,0.0219,0.0220,0.4570,ab001243,0*5fcce78b
#INSPVAXA,FILE,0,32.5,FINESTEERING,2319,306152.950,02000000,46eb,17139;INS_SOLUTION_GOOD,INS_PSRDIFF,17.59657406368,78.12140824620,524.9860,-76.2000,-0.0443,4.1271,0.0073,-0.703461897,-0.518154722,88.942037364,0.1356,0.1382,0.1632,0.0219,0.0225,0.0203,0.0219,0.0220,0.4570,ab001243,0*e725fbe0
#INSPVAXA,FILE,0,32.5,FINESTEERING,2319,306153.000,02000000,46eb,17139;INS_SOLUTION_GOOD,INS_PSRDIFF,17.59657404847,78.12141018537,524.9866,-76.2000,-0.0424,4.0977,0.0061,-0.698720034,-0.500529385,88.925720821,0.1356,0.1382,0.1632,0.0219,0.0225,0.0203,0.0219,0.0220,0.4570,ab001243,0*dd5d625e
#INSPVAXA,FILE,0,32.5,FINESTEERING,2319,306153.050,02000000,46eb,17139;INS_SOLUTION_GOOD,INS_PSRDIFF,17.59657403424,78.12141210847,524.9872,-76.2000,-0.0400,4.0659,0.0062,-0.688068363,-0.498262306,88.911361791,0.1385,0.1415,0.1699,0.0220,0.0227,0.0207,0.0220,0.0222,0.4572,ab001243,0*20c343cc
#INSPVAXA,FILE,0,22.5,FINESTEERING,2319,306153.100,02000000,46eb,17139;INS_SOLUTION_GOOD,INS_PSRDIFF,17.59657402099,78.12141401347,524.9878,-76.2000,-0.0364,4.0337,0.0095,-0.683925946,-0.491021687,88.898292896,0.1385,0.1415,0.1699,0.0220,0.0227,0.0207,0.0220,0.0222,0.4572,ab001243,0*869913af
#INSPVAXA,FILE,0,22.5,FINESTEERING,2319,306153.150,02000000,46eb,17139;INS_SOLUTION_GOOD,INS_PSRDIFF,17.59657400830,78.12141590203,524.9884,-76.2000,-0.0351,3.9958,0.0156,-0.690957200,-0.503516217,88.885512020,0.1385,0.1415,0.1699,0.0220,0.0227,0.0207,0.0220,0.0222,0.4572,ab001243,0*7f7c8e69
#INSPVAXA,FILE,0,22.5,FINESTEERING,2319,306153.200,02000000,46eb,17139;INS_SOLUTION_GOOD,INS_PSRDIFF,17.59657399785,78.12141777472,524.9890,-76.2000,-0.0302,3.9640,-0.0009,-0.742615383,-0.505726379,88.873778108,0.1385,0.1415,0.1699,0.0220,0.0227,0.0207,0.0220,0.0222,0.4572,ab001243,0*d3b2e0f9
#INSPVAXA,FILE,0,22.5,FINESTEERING,2319,306153.250,02000000,46eb,17139;INS_SOLUTION_GOOD,INS_PSRDIFF,17.59657398915,78.12141963108,524.9890,-76.2000,-0.0262,3.9302,-0.0049,-0.754753191,-0.508723398,88.860022260,0.1385,0.1415,0.1699,0.0220,0.0227,0.0207,0.0220,0.0222,0.4572,ab001243,0*0f9095fa
#INSPVAXA,FILE,0,22.5,FINESTEERING,2319,306153.300,02000000,46eb,17139;INS_SOLUTION_GOOD,INS_PSRDIFF,17.59657397997,78.12142147180,524.9888,-76.2000,-0.0292,3.8970,-0.0126,-0.775177579,-0.509481923,88.841657884,0.1385,0.1415,0.1699,0.0220,0.0227,0.0207,0.0220,0.0222,0.4572,ab001243,0*d7b1e480
#INSPVAXA,FILE,0,22.5,FINESTEERING,2319,306153.350,02000000,46eb,17139;INS_SOLUTION_GOOD,INS_PSRDIFF,17.59657396918,78.12142329632,524.9884,-76.2000,-0.0327,3.8621,-0.0093,-0.766776996,-0.510849677,88.822943956,0.1385,0.1415,0.1699,0.0220,0.0227,0.0207,0.0220,0.0222,0.4572,ab001243,0*41b3aa13
#INSPVAXA,FILE,0,22.5,FINESTEERING,2319,306153.400,02000000,46eb,17139;INS_SOLUTION_GOOD,INS_PSRDIFF,17.59657395712,78.12142510490,524.9881,-76.2000,-0.0314,3.8287,-0.0072,-0.791175213,-0.495010309,88.801050771,0.1385,0.1415,0.1699,0.0220,0.0227,0.0207,0.0220,0.0222,0.4572,ab001243,0*0ae31121
#INSPVAXA,FILE,0,22.5,FINESTEERING,2319,306153.450,02000000,46eb,17139;INS_SOLUTION_GOOD,INS_PSRDIFF,17.59657394693,78.12142689642,524.9881,-76.2000,-0.0266,3.7931,0.0049,-0.789087164,-0.477444471,88.785711957,0.1385,0.1415,0.1699,0.0220,0.0227,0.0207,0.0220,0.0222,0.4572,ab001243,0*b3376a90
#INSPVAXA,FILE,0,22.5,FINESTEERING,2319,306153.500,02000000,46eb,17139;INS_SOLUTION_GOOD,INS_PSRDIFF,17.59657393953,78.12142867157,524.9884,-76.2000,-0.0214,3.7554,0.0075,-0.774854890,-0.475049502,88.772040501,0.1385,0.1415,0.1699,0.0220,0.0227,0.0207,0.0220,0.0222,0.4572,ab001243,0*6e9b9a5d
#INSPVAXA,FILE,0,22.5,FINESTEERING,2319,306153.550,02000000,46eb,17139;INS_SOLUTION_GOOD,INS_PSRDIFF,17.59657393268,78.12143042944,524.9893,-76.2000,-0.0216,3.7203,0.0216,-0.759440395,-0.466678019,88.757871641,0.1385,0.1415,0.1699,0.0220,0.0227,0.0207,0.0220,0.0222,0.4572,ab001243,0*72b22b46
#INSPVAXA,FILE,0,22.5,FINESTEERING,2319,306153.600,02000000,46eb,17139;INS_SOLUTION_GOOD,INS_PSRDIFF,17.59657392359,78.12143216922,524.9902,-76.2000,-0.0290,3.6784,0.0234,-0.758738680,-0.477619706,88.738991077,0.1385,0.1415,0.1699,0.0220,0.0227,0.0207,0.0220,0.0222,0.4572,ab001243,0*fc164dca
#INSPVAXA,FILE,0,22.5,FINESTEERING,2319,306153.650,02000000,46eb,17139;INS_SOLUTION_GOOD,INS_PSRDIFF,17.59657391447,78.12143389043,524.9914,-76.2000,-0.0251,3.6406,0.0210,-0.795666420,-0.490163558,88.718594818,0.1385,0.1415,0.1699,0.0220,0.0227,0.0207,0.0220,0.0222,0.4572,ab001243,0*566a4699
#INSPVAXA,FILE,0,22.5,FINESTEERING,2319,306153.700,02000000,46eb,17139;INS_SOLUTION_GOOD,INS_PSRDIFF,17.59657390818,78.12143559290,524.9922,-76.2000,-0.0176,3.5992,0.0142,-0.794406483,-0.510326748,88.699623899,0.1385,0.1415,0.1699,0.0220,0.0227,0.0207,0.0220,0.0222,0.4572,ab001243,0*18c3a5e9
#INSPVAXA,FILE,0,22.5,FINESTEERING,2319,306153.750,02000000,46eb,17139;INS_SOLUTION_GOOD,INS_PSRDIFF,17.59657390317,78.12143727703,524.9930,-76.2000,-0.0178,3.5605,0.0101,-0.791362614,-0.495841442,88.682330404,0.1385,0.1415,0.1699,0.0220,0.0227,0.0207,0.0220,0.0222,0.4572,ab001243,0*061ce2fb
#INSPVAXA,FILE,0,22.5,FINESTEERING,2319,306153.800,02000000,46eb,17139;INS_SOLUTION_GOOD,INS_PSRDIFF,17.59657389781,78.12143894343,524.9935,-76.2000,-0.0199,3.5229,0.0068,-0.795337225,-0.478259130,88.667270384,0.1385,0.1415,0.1699,0.0220,0.0227,0.0207,0.0220,0.0222,0.4572,ab001243,0*17cf9fc9
#INSPVAXA,FILE,0,22.5,FINESTEERING,2319,306153.850,02000000,46eb,17139;INS_SOLUTION_GOOD,INS_PSRDIFF,17.59657389247,78.12144059215,524.9939,-76.2000,-0.0180,3.4880,0.0051,-0.813507626,-0.459234295,88.652319315,0.1385,0.1415,0.1699,0.0220,0.0227,0.0207,0.0220,0.0222,0.4572,ab001243,0*dd2dfffb
#INSPVAXA,FILE,0,22.5,FINESTEERING,2319,306153.900,02000000,46eb,17139;INS_SOLUTION_GOOD,INS_PSRDIFF,17.59657388875,78.12144222354,524.9942,-76.2000,-0.0131,3.4500,0.0008,-0.825222868,-0.465442289,88.640294237,0.1385,0.1415,0.1699,0.0220,0.0227,0.0207,0.0220,0.0222,0.4572,ab001243,0*735782a4
#INSPVAXA,FILE,0,22.5,FINESTEERING,2319,306153.950,02000000,46eb,17139;INS_SOLUTION_GOOD,INS_PSRDIFF,17.59657388678,78.12144384017,524.9940,-76.2000,-0.0107,3.4252,-0.0107,-0.818530327,-0.430382467,88.631446529,0.1385,0.1415,0.1699,0.0220,0.0227,0.0207,0.0220,0.0222,0.4572,ab001243,0*e4bbcf7a
#INSPVAXA,FILE,0,22.5,FINESTEERING,2319,306154.000,02000000,46eb,17139;INS_SOLUTION_GOOD,INS_PSRDIFF,17.59657388503,78.12144544792,524.9935,-76.2000,-0.0120,3.4086,-0.0149,-0.827705271,-0.395930568,88.629556245,0.1385,0.1415,0.1699,0.0220,0.0227,0.0207,0.0220,0.0222,0.4572,ab001243,0*e672b339
#INSPVAXA,FILE,0,22.5,FINESTEERING,2319,306154.050,02000000,46eb,17139;INS_SOLUTION_GOOD,INS_PSRDIFF,17.59657388339,78.12144704906,524.9930,-76.2000,-0.0095,3.3992,-0.0147,-0.842009395,-0.336701735,88.639089065,0.5385,0.5511,0.6739,0.0222,0.0226,0.0208,0.0221,0.0223,0.4575,ab001243,0*415ab3bf
#INSPVAXA,FILE,0,22.5,FINESTEERING,2319,306154.100,02000800,46eb,17139;INS_SOLUTION_GOOD,INS_PSRDIFF,17.59657388187,78.12144864558,524.9925,-76.2000,-0.0085,3.3864,-0.0142,-0.855385493,-0.287747984,88.669400593,0.5385,0.5511,0.6739,0.0222,0.0226,0.0208,0.0221,0.0223,0.4575,ab001243,0*3834c5c0
#INSPVAXA,FILE,0,25.5,FINESTEERING,2319,306154.150,02000800,46eb,17139;INS_SOLUTION_GOOD,INS_PSRDIFF,17.59657388110,78.12145023539,524.9924,-76.2000,-0.0042,3.3739,-0.0032,-0.889233393,-0.244401405,88.721460764,0.5385,0.5511,0.6739,0.0222,0.0226,0.0208,0.0221,0.0223,0.4575,ab001243,0*570c281c
#INSPVAXA,FILE,0,25.5,FINESTEERING,2319,306154.200,02000800,46eb,17139;INS_SOLUTION_GOOD,INS_PSRDIFF,17.59657388237,78.12145181915,524.9930,-76.2000,0.0008,3.3588,0.0117,-0.922860608,-0.228702489,88.802788421,0.5385,0.5511,0.6739,0.0222,0.0226,0.0208,0.0221,0.0223,0.4575,ab001243,0*8d25a72e
#INSPVAXA,FILE,0,25.5,FINESTEERING,2319,306154.250,02000800,46eb,17139;INS_SOLUTION_GOOD,INS_PSRDIFF,17.59657388360,78.12145339671,524.9940,-76.2000,-0.0034,3.3480,0.0154,-0.963431670,-0.225622685,88.906654461,0.5385,0.5511,0.6739,0.0222,0.0226,0.0208,0.0221,0.0223,0.4575,ab001243,0*81b95834
#INSPVAXA,FILE,0,25.5,FINESTEERING,2319,306154.300,02000800,46eb,17139;INS_SOLUTION_GOOD,INS_PSRDIFF,17.59657388274,78.12145496836,524.9953,-76.2000,-0.0104,3.3335,0.0230,-0.987513717,-0.247125662,89.032002002,0.5385,0.5511,0.6739,0.0222,0.0226,0.0208,0.0221,0.0223,0.4575,ab001243,0*21ff3ea7
#INSPVAXA,FILE,0,25.5,FINESTEERING,2319,306154.350,02000800,46eb,17139;INS_SOLUTION_GOOD,INS_PSRDIFF,17.59657387754,78.12145653332,524.9967,-76.2000,-0.0217,3.3198,0.0213,-1.006448326,-0.258361255,89.174402606,0.5385,0.5511,0.6739,0.0222,0.0226,0.0208,0.0221,0.0223,0.4575,ab001243,0*70e6594b
#INSPVAXA,FILE,0,25.5,FINESTEERING,2319,306154.400,02000800,46eb,17139;INS_SOLUTION_GOOD,INS_PSRDIFF,17.59657386739,78.12145809228,524.9982,-76.2000,-0.0321,3.3068,0.0274,-1.026559590,-0.281161861,89.339392320,0.5385,0.5511,0.6739,0.0222,0.0226,0.0208,0.0221,0.0223,0.4575,ab001243,0*9d86b5b3
#INSPVAXA,FILE,0,25.5,FINESTEERING,2319,306154.450,02000800,46eb,17139;INS_SOLUTION_GOOD,INS_PSRDIFF,17.59657385409,78.12145964358,524.9997,-76.2000,-0.0361,3.2896,0.0299,-1.043741242,-0.308255192,89.522476053,0.5385,0.5511,0.6739,0.0222,0.0226,0.0208,0.0221,0.0223,0.4575,ab001243,0*ecb00409
#INSPVAXA,FILE,0,25.5,FINESTEERING,2319,306154.500,02000800,46eb,17139;INS_SOLUTION_GOOD,INS_PSRDIFF,17.59657383940,78.12146118897,525.0016,-76.2000,-0.0420,3.2774,0.0322,-1.009882313,-0.336081711,89.723315789,0.5385,0.5511,0.6739,0.0222,0.0226,0.0208,0.0221,0.0223,0.4575,ab001243,0*3f092906
#INSPVAXA,FILE,0,25.5,FINESTEERING,2319,306154.550,02000800,46eb,17139;INS_SOLUTION_GOOD,INS_PSRDIFF,17.59657381811,78.12146272706,525.0032,-76.2000,-0.0628,3.2622,0.0237,-0.945504442,-0.354316253,89.921135600,0.5385,0.5511,0.6739,0.0222,0.0226,0.0208,0.0221,0.0223,0.4575,ab001243,0*cb22df71
#INSPVAXA,FILE,0,25.5,FINESTEERING,2319,306154.600,02000800,46eb,17139;INS_SOLUTION_GOOD,INS_PSRDIFF,17.59657378758,78.12146425936,525.0044,-76.2000,-0.0837,3.2494,0.0106,-0.884795632,-0.342369227,90.104495180,0.5385,0.5511,0.6739,0.0222,0.0226,0.0208,0.0221,0.0223,0.4575,ab001243,0*80d95aa4
#INSPVAXA,FILE,0,25.5,FINESTEERING,2319,306154.650,02000800,46eb,17139;INS_SOLUTION_GOOD,INS_PSRDIFF,17.59657374876,78.12146578481,525.0054,-76.2000,-0.0986,3.2341,0.0120,-0.837702383,-0.312617272,90.273688027,0.5385,0.5511,0.6739,0.0222,0.0226,0.0208,0.0221,0.0223,0.4575,ab001243,0*dfa781dc
#INSPVAXA,FILE,0,25.5,FINESTEERING,2319,306154.700,02000800,46eb,17139;INS_SOLUTION_GOOD,INS_PSRDIFF,17.59657370612,78.12146730402,525.0063,-76.2000,-0.0994,3.2244,0.0068,-0.814352363,-0.279500887,90.437600316,0.5385,0.5511,0.6739,0.0222,0.0226,0.0208,0.0221,0.0223,0.4575,ab001243,0*5026e213
#INSPVAXA,FILE,0,25.5,FINESTEERING,2319,306154.750,02000800,46eb,17139;INS_SOLUTION_GOOD,INS_PSRDIFF,17.59657366199,78.12146881635,525.0070,-76.2000,-0.1010,3.2075,0.0139,-0.780249872,-0.261880326,90.604848904,0.5385,0.5511,0.6739,0.0222,0.0226,0.0208,0.0221,0.0223,0.4575,ab001243,0*8d1333d9
#INSPVAXA,FILE,0,25.5,FINESTEERING,2319,306154.800,02000800,46eb,17139;INS_SOLUTION_GOOD,INS_PSRDIFF,17.59657361600,78.12147032232,525.0078,-76.2000,-0.1082,3.1950,0.0161,-0.763461141,-0.248483004,90.777599960,0.5385,0.5511,0.6739,0.0222,0.0226,0.0208,0.0221,0.0223,0.4575,ab001243,0*8c23556f
#INSPVAXA,FILE,0,25.5,FINESTEERING,2319,306154.850,02000800,46eb,17139;INS_SOLUTION_GOOD,INS_PSRDIFF,17.59657356687,78.12147182086,525.0089,-76.2000,-0.1154,3.1777,0.0275,-0.748677986,-0.255689563,90.952876095,0.5385,0.5511,0.6739,0.0222,0.0226,0.0208,0.0221,0.0223,0.4575,ab001243,0*6c1aba62
#INSPVAXA,FILE,0,25.5,FINESTEERING,2319,306154.900,02000800,46eb,17139;INS_SOLUTION_GOOD,INS_PSRDIFF,17.59657351330,78.12147331303,525.0100,-76.2000,-0.1265,3.1643,0.0201,-0.743382274,-0.278160365,91.126401896,0.5385,0.5511,0.6739,0.0222,0.0226,0.0208,0.0221,0.0223,0.4575,ab001243,0*6f206b32
#INSPVAXA,FILE,0,25.5,FINESTEERING,2319,306154.950,02000800,46eb,17139;INS_SOLUTION_GOOD,INS_PSRDIFF,17.59657345548,78.12147479794,525.0114,-76.2000,-0.1360,3.1498,0.0236,-0.750571094,-0.284421576,91.301295540,0.5385,0.5511,0.6739,0.0222,0.0226,0.0208,0.0221,0.0223,0.4575,ab001243,0*524ac8be
#INSPVAXA,FILE,0,25.5,FINESTEERING,2319,306155.000,02000800,46eb,17139;INS_SOLUTION_GOOD,INS_PSRDIFF,17.59657339382,78.12147627643,525.0124,-76.2000,-0.1430,3.1353,0.0123,-0.757427707,-0.288369324,91.472233665,0.5385,0.5511,0.6739,0.0222,0.0226,0.0208,0.0221,0.0223,0.4575,ab001243,0*fbd6b197
#INSPVAXA,FILE,0,25.5,FINESTEERING,2319,306155.050,02000800,46eb,17139;INS_SOLUTION_GOOD,INS_PSRDIFF,17.59657332337,78.12147775363,525.0134,-76.2000,-0.1511,3.1204,0.0140,-0.774195816,-0.271196427,91.643931988,0.5341,0.5476,0.6817,0.0221,0.0225,0.0205,0.0222,0.0224,0.4577,ab001243,0*8d0df7ed
#INSPVAXA,FILE,0,25.5,FINESTEERING,2319,306155.100,02000800,46eb,17139;INS_SOLUTION_GOOD,INS_PSRDIFF,17.59657323530,78.12147923760,525.0145,-76.2000,-0.1586,3.1057,0.0200,-0.771611943,-0.260020654,91.812335249,0.5341,0.5476,0.6817,0.0221,0.0225,0.0205,0.0222,0.0224,0.4577,ab001243,0*8c8b0ef8
#INSPVAXA,FILE,0,29.5,FINESTEERING,2319,306155.150,02000000,46eb,17139;INS_SOLUTION_GOOD,INS_PSRDIFF,17.59657314286,78.12148071578,525.0155,-76.2000,-0.1694,3.0947,0.0079,-0.772738006,-0.253687426,91.980017386,0.5341,0.5476,0.6817,0.0221,0.0225,0.0205,0.0222,0.0224,0.4577,ab001243,0*a3aff360
#INSPVAXA,FILE,0,29.5,FINESTEERING,2319,306155.200,02000000,46eb,17139;INS_SOLUTION_GOOD,INS_PSRDIFF,17.59657304678,78.12148218741,525.0161,-76.2000,-0.1792,3.0807,0.0093,-0.742689477,-0.235468555,92.151521908,0.5341,0.5476,0.6817,0.0221,0.0225,0.0205,0.0222,0.0224,0.4577,ab001243,0*c355858d
#INSPVAXA,FILE,0,29.5,FINESTEERING,2319,306155.250,02000000,46eb,17139;INS_SOLUTION_GOOD,INS_PSRDIFF,17.59657294517,78.12148365174,525.0166,-76.2000,-0.1935,3.0650,0.0007,-0.742568967,-0.214005022,92.322054809,0.5341,0.5476,0.6817,0.0221,0.0225,0.0205,0.0222,0.0224,0.4577,ab001243,0*8973d317
#INSPVAXA,FILE,0,29.5,FINESTEERING,2319,306155.300,02000000,46eb,17139;INS_SOLUTION_GOOD,INS_PSRDIFF,17.59657283970,78.12148510955,525.0173,-76.2000,-0.2009,3.0508,0.0120,-0.715130326,-0.201134735,92.491121751,0.5341,0.5476,0.6817,0.0221,0.0225,0.0205,0.0222,0.0224,0.4577,ab001243,0*77a8d89d
#INSPVAXA,FILE,0,29.5,FINESTEERING,2319,306155.350,02000000,46eb,17139;INS_SOLUTION_GOOD,INS_PSRDIFF,17.59657272950,78.12148655998,525.0184,-76.2000,-0.2127,3.0366,0.0239,-0.683322672,-0.198892768,92.660806026,0.5341,0.5476,0.6817,0.0221,0.0225,0.0205,0.0222,0.0224,0.4577,ab001243,0*c388d5e2
#INSPVAXA,FILE,0,29.5,FINESTEERING,2319,306155.400,02000000,46eb,17139;INS_SOLUTION_GOOD,INS_PSRDIFF,17.59657261489,78.12148800417,525.0202,-76.2000,-0.2200,3.0234,0.0327,-0.662500647,-0.227730823,92.841622098,0.5341,0.5476,0.6817,0.0221,0.0225,0.0205,0.0222,0.0224,0.4577,ab001243,0*fe7d8caf
#INSPVAXA,FILE,0,29.5,FINESTEERING,2319,306155.450,02000000,46eb,17139;INS_SOLUTION_GOOD,INS_PSRDIFF,17.59657249699,78.12148944203,525.0222,-76.2000,-0.2265,3.0117,0.0370,-0.630625011,-0.270341794,93.040489792,0.5341,0.5476,0.6817,0.0221,0.0225,0.0205,0.0222,0.0224,0.4577,ab001243,0*e1a39e46
#INSPVAXA,FILE,0,29.5,FINESTEERING,2319,306155.500,02000000,46eb,17139;INS_SOLUTION_GOOD,INS_PSRDIFF,17.59657237673,78.12149087411,525.0244,-76.2000,-0.2312,2.9985,0.0395,-0.602662653,-0.326517156,93.267562743,0.5341,0.5476,0.6817,0.0221,0.0225,0.0205,0.0222,0.0224,0.4577,ab001243,0*edfec27b
#INSPVAXA,FILE,0,29.5,FINESTEERING,2319,306155.550,02000000,46eb,17139;INS_SOLUTION_GOOD,INS_PSRDIFF,17.59657225328,78.12149230108,525.0266,-76.2000,-0.2391,2.9904,0.0359,-0.582495165,-0.378298681,93.521001105,0.5341,0.5476,0.6817,0.0221,0.0225,0.0205,0.0222,0.0224,0.4577,ab001243,0*bed3571c
#INSPVAXA,FILE,0,29.5,FINESTEERING,2319,306155.600,02000000,46eb,17139;INS_SOLUTION_GOOD,INS_PSRDIFF,17.59657212634,78.12149372224,525.0286,-76.2000,-0.2482,2.9776,0.0323,-0.541341441,-0.442994070,93.801899128,0.5341,0.5476,0.6817,0.0221,0.0225,0.0205,0.0222,0.0224,0.4577,ab001243,0*5719a3bc
#INSPVAXA,FILE,0,29.5,FINESTEERING,2319,306155.650,02000000,46eb,17139;INS_SOLUTION_GOOD,INS_PSRDIFF,17.59657199395,78.12149513705,525.0300,-76.2000,-0.2654,2.9604,0.0181,-0.487186945,-0.481685791,94.101354431,0.5341,0.5476,0.6817,0.0221,0.0225,0.0205,0.0222,0.0224,0.4577,ab001243,0*f2eb4882
#INSPVAXA,FILE,0,29.5,FINESTEERING,2319,306155.700,02000000,46eb,17139;INS_SOLUTION_GOOD,INS_PSRDIFF,17.59657185531,78.12149654292,525.0310,-76.2000,-0.2815,2.9420,0.0108,-0.417101864,-0.461467802,94.413163852,0.5341,0.5476,0.6817,0.0221,0.0225,0.0205,0.0222,0.0224,0.4577,ab001243,0*414069a1
#INSPVAXA,FILE,0,29.5,FINESTEERING,2319,306155.750,02000000,46eb,17139;INS_SOLUTION_GOOD,INS_PSRDIFF,17.59657170958,78.12149793789,525.0315,-76.2000,-0.2968,2.9167,-0.0006,-0.385553875,-0.382959928,94.744122542,0.5341,0.5476,0.6817,0.0221,0.0225,0.0205,0.0222,0.0224,0.4577,ab001243,0*d5542fe3
#INSPVAXA,FILE,0,29.5,FINESTEERING,2319,306155.800,02000000,46eb,17139;INS_SOLUTION_GOOD,INS_PSRDIFF,17.59657155690,78.12149932300,525.0318,-76.2000,-0.3097,2.9002,-0.0020,-0.456937661,-0.240790524,95.093546555,0.5341,0.5476,0.6817,0.0221,0.0225,0.0205,0.0222,0.0224,0.4577,ab001243,0*886483cf
#INSPVAXA,FILE,0,29.5,FINESTEERING,2319,306155.850,02000000,46eb,17139;INS_SOLUTION_GOOD,INS_PSRDIFF,17.59657140229,78.12150070021,525.0320,-76.2000,-0.3094,2.8809,0.0028,-0.528908575,-0.087251960,95.460152555,0.5341,0.5476,0.6817,0.0221,0.0225,0.0205,0.0222,0.0224,0.4577,ab001243,0*c50fc56d
#INSPVAXA,FILE,0,29.5,FINESTEERING,2319,306155.900,02000000,46eb,17139;INS_SOLUTION_GOOD,INS_PSRDIFF,17.59657124782,78.12150207149,525.0325,-76.2000,-0.3139,2.8710,0.0070,-0.545455510,0.083889420,95.847596741,0.5341,0.5476,0.6817,0.0221,0.0225,0.0205,0.0222,0.0224,0.4577,ab001243,0*b8357c6b
#INSPVAXA,FILE,0,29.5,FINESTEERING,2319,306155.950,02000000,46eb,17139;INS_SOLUTION_GOOD,INS_PSRDIFF,17.59657108639,78.12150343397,525.0335,-76.2000,-0.3350,2.8509,0.0213,-0.567687867,0.194244254,96.247663370,0.5341,0.5476,0.6817,0.0221,0.0225,0.0205,0.0222,0.0224,0.4577,ab001243,0*2b80fbaf
#INSPVAXA,FILE,0,29.5,FINESTEERING,2319,306156.000,02000000,46eb,17139;INS_SOLUTION_GOOD,INS_PSRDIFF,17.59657091446,78.12150478807,525.0349,-76.2000,-0.3615,2.8350,0.0246,-0.621736789,0.236132347,96.664972941,0.5341,0.5476,0.6817,0.0221,0.0225,0.0205,0.0222,0.0224,0.4577,ab001243,0*0757f118
#INSPVAXA,FILE,0,29.5,FINESTEERING,2319,306156.050,02000000,46eb,17139;INS_SOLUTION_GOOD,INS_PSRDIFF,17.59657072430,78.12150613359,525.0364,-76.2000,-0.3879,2.8121,0.0290,-0.661711617,0.216688605,97.080041963,0.5297,0.5441,0.6892,0.0228,0.0229,0.0210,0.0223,0.0224,0.4579,ab001243,0*374227a5
#INSPVAXA,FILE,0,29.0,FINESTEERING,2319,306156.100,02000000,46eb,17139;INS_SOLUTION_GOOD,INS_PSRDIFF,17.59657051786,78.12150747089,525.0383,-76.2000,-0.4082,2.7990,0.0342,-0.666462456,0.143733415,97.491079408,0.5297,0.5441,0.6892,0.0228,0.0229,0.0210,0.0223,0.0224,0.4579,ab001243,0*c2689ae7
#INSPVAXA,FILE,0,29.0,FINESTEERING,2319,306156.150,02000000,46eb,17139;INS_SOLUTION_GOOD,INS_PSRDIFF,17.59657029988,78.12150879997,525.0400,-76.2000,-0.4369,2.7799,0.0232,-0.639452936,0.048122141,97.888786476,0.5297,0.5441,0.6892,0.0228,0.0229,0.0210,0.0223,0.0224,0.4579,ab001243,0*7ce9331e
#INSPVAXA,FILE,0,29.0,FINESTEERING,2319,306156.200,02000000,46eb,17139;INS_SOLUTION_GOOD,INS_PSRDIFF,17.59657006996,78.12151012160,525.0413,-76.2000,-0.4625,2.7678,0.0155,-0.612848222,-0.042779915,98.280933934,0.5297,0.5441,0.6892,0.0228,0.0229,0.0210,0.0223,0.0224,0.4579,ab001243,0*aa8965e5
#INSPVAXA,FILE,0,29.0,FINESTEERING,2319,306156.250,02000000,46eb,17139;INS_SOLUTION_GOOD,INS_PSRDIFF,17.59656983170,78.12151143585,525.0422,-76.2000,-0.4772,2.7507,0.0082,-0.589366703,-0.133190641,98.686429867,0.5297,0.5441,0.6892,0.0228,0.0229,0.0210,0.0223,0.0224,0.4579,ab001243,0*060eb491
#INSPVAXA,FILE,0,29.0,FINESTEERING,2319,306156.300,02000000,46eb,17139;INS_SOLUTION_GOOD,INS_PSRDIFF,17.59656958884,78.12151274520,525.0429,-76.2000,-0.4856,2.7467,-0.0005,-0.560024768,-0.181839830,99.124093946,0.5297,0.5441,0.6892,0.0228,0.0229,0.0210,0.0223,0.0224,0.4579,ab001243,0*d0b8dabf
#INSPVAXA,FILE,0,29.0,FINESTEERING,2319,306156.350,02000000,46eb,17139;INS_SOLUTION_GOOD,INS_PSRDIFF,17.59656934032,78.12151404937,525.0433,-76.2000,-0.4987,2.7300,0.0005,-0.539457902,-0.243878386,99.580499094,0.5297,0.5441,0.6892,0.0228,0.0229,0.0210,0.0223,0.0224,0.4579,ab001243,0*0b4a883d
#INSPVAXA,FILE,0,29.0,FINESTEERING,2319,306156.400,02000000,46eb,17139;INS_SOLUTION_GOOD,INS_PSRDIFF,17.59656908651,78.12151535157,525.0435,-76.2000,-0.5135,2.7343,-0.0056,-0.468490552,-0.241274828,100.049586585,0.5297,0.5441,0.6892,0.0228,0.0229,0.0210,0.0223,0.0224,0.4579,ab001243,0*0db6f045
#INSPVAXA,FILE,0,29.0,FINESTEERING,2319,306156.450,02000000,46eb,17139;INS_SOLUTION_GOOD,INS_PSRDIFF,17.59656881953,78.12151664809,525.0437,-76.2000,-0.5457,2.7148,0.0024,-0.340555866,-0.292034976,100.495945085,0.5297,0.5441,0.6892,0.0228,0.0229,0.0210,0.0223,0.0224,0.4579,ab001243,0*adb4368a
#INSPVAXA,FILE,0,29.0,FINESTEERING,2319,306156.500,02000000,46eb,17139;INS_SOLUTION_GOOD,INS_PSRDIFF,17.59656853653,78.12151793784,525.0444,-76.2000,-0.5897,2.7045,0.0066,-0.238537143,-0.333992154,100.930799530,0.5297,0.5441,0.6892,0.0228,0.0229,0.0210,0.0223,0.0224,0.4579,ab001243,0*f94e5cb6
#INSPVAXA,FILE,0,29.0,FINESTEERING,2319,306156.550,02000000,46eb,17139;INS_SOLUTION_GOOD,INS_PSRDIFF,17.59656823616,78.12151921560,525.0463,-76.2000,-0.6228,2.6666,0.0548,-0.186592943,-0.472271783,101.319955615,0.5297,0.5441,0.6892,0.0228,0.0229,0.0210,0.0223,0.0224,0.4579,ab001243,0*b3b22823
#INSPVAXA,FILE,0,29.0,FINESTEERING,2319,306156.600,02000000,46eb,17139;INS_SOLUTION_GOOD,INS_PSRDIFF,17.59656793194,78.12152048386,525.0497,-76.2000,-0.6185,2.6552,0.0783,-0.178169516,-0.582456819,101.692801603,0.5297,0.5441,0.6892,0.0228,0.0229,0.0210,0.0223,0.0224,0.4579,ab001243,0*25a05420
#INSPVAXA,FILE,0,29.0,FINESTEERING,2319,306156.650,02000000,46eb,17139;INS_SOLUTION_GOOD,INS_PSRDIFF,17.59656763113,78.12152174213,525.0552,-76.2000,-0.6114,2.6297,0.1230,-0.105327327,-0.720009779,102.063515971,0.5297,0.5441,0.6892,0.0228,0.0229,0.0210,0.0223,0.0224,0.4579,ab001243,0*b96555f0
#INSPVAXA,FILE,0,29.0,FINESTEERING,2319,306156.700,02000000,46eb,17139;INS_SOLUTION_GOOD,INS_PSRDIFF,17.59656733129,78.12152298804,525.0628,-76.2000,-0.6128,2.6069,0.1746,-0.084375800,-0.856171822,102.444825484,0.5297,0.5441,0.6892,0.0228,0.0229,0.0210,0.0223,0.0224,0.4579,ab001243,0*07290779
#INSPVAXA,FILE,0,29.0,FINESTEERING,2319,306156.750,02000000,46eb,17139;INS_SOLUTION_GOOD,INS_PSRDIFF,17.59656702545,78.12152422338,525.0720,-76.2000,-0.6334,2.5836,0.1836,-0.153015036,-0.986798687,102.823217450,0.5297,0.5441,0.6892,0.0228,0.0229,0.0210,0.0223,0.0224,0.4579,ab001243,0*36e2b4c7
#INSPVAXA,FILE,0,29.0,FINESTEERING,2319,306156.800,02000000,46eb,17139;INS_SOLUTION_GOOD,INS_PSRDIFF,17.59656671279,78.12152545152,525.0794,-76.2000,-0.6510,2.5735,0.1180,-0.242492752,-1.053154604,103.197000911,0.5297,0.5441,0.6892,0.0228,0.0229,0.0210,0.0223,0.0224,0.4579,ab001243,0*24263660
#INSPVAXA,FILE,0,29.0,FINESTEERING,2319,306156.850,02000000,46eb,17139;INS_SOLUTION_GOOD,INS_PSRDIFF,17.59656639474,78.12152667449,525.0844,-76.2000,-0.6572,2.5593,0.0638,-0.356400153,-1.077817714,103.557982397,0.5297,0.5441,0.6892,0.0228,0.0229,0.0210,0.0223,0.0224,0.4579,ab001243,0*8996e504
#INSPVAXA,FILE,0,29.0,FINESTEERING,2319,306156.900,02000000,46eb,17139;INS_SOLUTION_GOOD,INS_PSRDIFF,17.59656607262,78.12152789009,525.0864,-76.2000,-0.6694,2.5477,0.0009,-0.442977396,-0.997287859,103.916377053,0.5297,0.5441,0.6892,0.0228,0.0229,0.0210,0.0223,0.0224,0.4579,ab001243,0*99e183fe
#INSPVAXA,FILE,0,29.0,FINESTEERING,2319,306156.950,02000000,46eb,17139;INS_SOLUTION_GOOD,INS_PSRDIFF,17.59656574450,78.12152909995,525.0855,-76.2000,-0.6834,2.5323,-0.0511,-0.530261057,-0.892682713,104.279116421,0.5297,0.5441,0.6892,0.0228,0.0229,0.0210,0.0223,0.0224,0.4579,ab001243,0*1540299c
#INSPVAXA,FILE,0,29.0,FINESTEERING,2319,306157.000,02000000,46eb,17139;INS_SOLUTION_GOOD,INS_PSRDIFF,17.59656541008,78.12153030159,525.0823,-76.2000,-0.6975,2.5176,-0.0898,-0.620646117,-0.731247122,104.650123958,0.5297,0.5441,0.6892,0.0228,0.0229,0.0210,0.0223,0.0224,0.4579,ab001243,0*b8ee0f5d
#INSPVAXA,FILE,0,29.0,FINESTEERING,2319,306157.050,02000800,46eb,17139;INS_SOLUTION_GOOD,INS_PSRDIFF,17.59656506570,78.12153149762,525.0776,-76.2000,-0.7093,2.5049,-0.1055,-0.698429278,-0.583839536,105.040497603,0.5258,0.5412,0.6962,0.0236,0.0237,0.0218,0.0225,0.0226,0.4581,ab001243,0*7853c067
#INSPVAXA,FILE,0,29.0,FINESTEERING,2319,306157.100,02000800,46eb,17139;INS_SOLUTION_GOOD,INS_PSRDIFF,17.59656470748,78.12153268530,525.0728,-76.2000,-0.7222,2.4843,-0.0854,-0.750049124,-0.475812149,105.436691336,0.5258,0.5412,0.6962,0.0236,0.0237,0.0218,0.0225,0.0226,0.4581,ab001243,0*4e20cfc1
#INSPVAXA,FILE,0,30.5,FINESTEERING,2319,306157.150,02000800,46eb,17139;INS_SOLUTION_GOOD,INS_PSRDIFF,17.59656434199,78.12153386398,525.0691,-76.2000,-0.7417,2.4624,-0.0537,-0.743519202,-0.406944431,105.829303993,0.5258,0.5412,0.6962,0.0236,0.0237,0.0218,0.0225,0.0226,0.4581,ab001243,0*2cace7c5
#INSPVAXA,FILE,0,30.5,FINESTEERING,2319,306157.200,02000800,46eb,17139;INS_SOLUTION_GOOD,INS_PSRDIFF,17.59656396667,78.12153503248,525.0671,-76.2000,-0.7670,2.4441,-0.0274,-0.701636304,-0.347864031,106.210110097,0.5258,0.5412,0.6962,0.0236,0.0237,0.0218,0.0225,0.0226,0.4581,ab001243,0*af03e1a2
#INSPVAXA,FILE,0,30.5,FINESTEERING,2319,306157.250,02000800,46eb,17139;INS_SOLUTION_GOOD,INS_PSRDIFF,17.59656357952,78.12153618819,525.0663,-76.2000,-0.7917,2.4088,0.0089,-0.615118079,-0.346412921,106.582627976,0.5258,0.5412,0.6962,0.0236,0.0237,0.0218,0.0225,0.0226,0.4581,ab001243,0*f0974c1d
#INSPVAXA,FILE,0,30.5,FINESTEERING,2319,306157.300,02000800,46eb,17139;INS_SOLUTION_GOOD,INS_PSRDIFF,17.59656318403,78.12153733365,525.0670,-76.2000,-0.8083,2.3967,0.0112,-0.573089518,-0.291671963,106.962810401,0.5258,0.5412,0.6962,0.0236,0.0237,0.0218,0.0225,0.0226,0.4581,ab001243,0*ab6e4787
#INSPVAXA,FILE,0,30.5,FINESTEERING,2319,306157.350,02000800,46eb,17139;INS_SOLUTION_GOOD,INS_PSRDIFF,17.59656278474,78.12153847143,525.0674,-76.2000,-0.8097,2.3842,0.0130,-0.473061914,-0.249277373,107.362729806,0.5258,0.5412,0.6962,0.0236,0.0237,0.0218,0.0225,0.0226,0.4581,ab001243,0*5b26ddc5
#INSPVAXA,FILE,0,30.5,FINESTEERING,2319,306157.400,02000800,46eb,17139;INS_SOLUTION_GOOD,INS_PSRDIFF,17.59656238282,78.12153960878,525.0665,-76.2000,-0.8227,2.3864,-0.0398,-0.401721026,-0.139120907,107.792198227,0.5258,0.5412,0.6962,0.0236,0.0237,0.0218,0.0225,0.0226,0.4581,ab001243,0*2cb14a82
#INSPVAXA,FILE,0,30.5,FINESTEERING,2319,306157.450,02000800,46eb,17139;INS_SOLUTION_GOOD,INS_PSRDIFF,17.59656197456,78.12154074177,525.0626,-76.2000,-0.8390,2.3725,-0.0946,-0.309837204,0.025096650,108.225539971,0.5258,0.5412,0.6962,0.0236,0.0237,0.0218,0.0225,0.0226,0.4581,ab001243,0*7825a194
#INSPVAXA,FILE,0,30.5,FINESTEERING,2319,306157.500,02000800,46eb,17139;INS_SOLUTION_GOOD,INS_PSRDIFF,17.59656155995,78.12154186854,525.0580,-76.2000,-0.8538,2.3552,-0.0931,-0.301014652,0.194371666,108.653449327,0.5258,0.5412,0.6962,0.0236,0.0237,0.0218,0.0225,0.0226,0.4581,ab001243,0*80ccf546
#INSPVAXA,FILE,0,30.5,FINESTEERING,2319,306157.550,02000800,46eb,17139;INS_SOLUTION_GOOD,INS_PSRDIFF,17.59656114074,78.12154298484,525.0541,-76.2000,-0.8609,2.3328,-0.0645,-0.310548154,0.353753793,109.066617305,0.5258,0.5412,0.6962,0.0236,0.0237,0.0218,0.0225,0.0226,0.4581,ab001243,0*f71c0b45
#INSPVAXA,FILE,0,30.5,FINESTEERING,2319,306157.600,02000800,46eb,17139;INS_SOLUTION_GOOD,INS_PSRDIFF,17.59656071867,78.12154409173,525.0519,-76.2000,-0.8666,2.3146,-0.0201,-0.308526794,0.437716905,109.461632169,0.5258,0.5412,0.6962,0.0236,0.0237,0.0218,0.0225,0.0226,0.4581,ab001243,0*07bdd5aa
#INSPVAXA,FILE,0,30.5,FINESTEERING,2319,306157.650,02000800,46eb,17139;INS_SOLUTION_GOOD,INS_PSRDIFF,17.59656029410,78.12154518734,525.0521,-76.2000,-0.8744,2.2859,0.0309,-0.309018556,0.455014278,109.862135392,0.5258,0.5412,0.6962,0.0236,0.0237,0.0218,0.0225,0.0226,0.4581,ab001243,0*6d5380ac
#INSPVAXA,FILE,0,30.5,FINESTEERING,2319,306157.700,02000800,46eb,17139;INS_SOLUTION_GOOD,INS_PSRDIFF,17.59655986633,78.12154627276,525.0550,-76.2000,-0.8817,2.2687,0.0878,-0.349263155,0.414831009,110.270859010,0.5258,0.5412,0.6962,0.0236,0.0237,0.0218,0.0225,0.0226,0.4581,ab001243,0*d1629056
#INSPVAXA,FILE,0,30.5,FINESTEERING,2319,306157.750,02000800,46eb,17139;INS_SOLUTION_GOOD,INS_PSRDIFF,17.59655943740,78.12154734672,525.0604,-76.2000,-0.8822,2.2427,0.1346,-0.406657168,0.298284283,110.690532334,0.5258,0.5412,0.6962,0.0236,0.0237,0.0218,0.0225,0.0226,0.4581,ab001243,0*66fb1ae0
#INSPVAXA,FILE,0,30.5,FINESTEERING,2319,306157.800,02000800,46eb,17139;INS_SOLUTION_GOOD,INS_PSRDIFF,17.59655900440,78.12154841200,525.0671,-76.2000,-0.9004,2.2278,0.1392,-0.471018332,0.158379574,111.107664602,0.5258,0.5412,0.6962,0.0236,0.0237,0.0218,0.0225,0.0226,0.4581,ab001243,0*9ae3838b
#INSPVAXA,FILE,0,30.5,FINESTEERING,2319,306157.850,02000800,46eb,17139;INS_SOLUTION_GOOD,INS_PSRDIFF,17.59655856278,78.12154946617,525.0734,-76.2000,-0.9218,2.1997,0.1246,-0.516270773,0.018444864,111.502216367,0.5258,0.5412,0.6962,0.0236,0.0237,0.0218,0.0225,0.0226,0.4581,ab001243,0*206691fb
#INSPVAXA,FILE,0,30.5,FINESTEERING,2319,306157.900,02000800,46eb,17139;INS_SOLUTION_GOOD,INS_PSRDIFF,17.59655811274,78.12155051365,525.0783,-76.2000,-0.9409,2.1909,0.0763,-0.584774734,-0.056958583,111.893134523,0.5258,0.5412,0.6962,0.0236,0.0237,0.0218,0.0225,0.0226,0.4581,ab001243,0*d3680303
#INSPVAXA,FILE,0,30.5,FINESTEERING,2319,306157.950,02000800,46eb,17139;INS_SOLUTION_GOOD,INS_PSRDIFF,17.59655765947,78.12155155297,525.0815,-76.2000,-0.9401,2.1731,0.0510,-0.627472592,-0.107058959,112.296856970,0.5258,0.5412,0.6962,0.0236,0.0237,0.0218,0.0225,0.0226,0.4581,ab001243,0*d9754fee
#INSPVAXA,FILE,0,30.5,FINESTEERING,2319,306158.000,02000800,46eb,17139;INS_SOLUTION_GOOD,INS_PSRDIFF,17.59655720488,78.12155258844,525.0831,-76.2000,-0.9448,2.1711,0.0071,-0.706738569,-0.116490613,112.735436477,0.5258,0.5412,0.6962,0.0236,0.0237,0.0218,0.0225,0.0226,0.4581,ab001243,0*b99cdde5
#INSPVAXA,FILE,0,30.5,FINESTEERING,2319,306158.050,02000800,46eb,17139;INS_SOLUTION_GOOD,INS_PSRDIFF,17.59655673805,78.12155362345,525.0827,-76.2000,-0.9576,2.1562,-0.0162,-0.733955621,-0.092235680,113.183843472,0.5227,0.5388,0.7036,0.0247,0.0248,0.0228,0.0227,0.0227,0.4583,ab001243,0*70ccf1f6
#INSPVAXA,FILE,0,30.5,FINESTEERING,2319,306158.100,02000800,46eb,17139;INS_SOLUTION_GOOD,INS_PSRDIFF,17.59655625644,78.12155465625,525.0812,-76.2000,-0.9802,2.1373,-0.0309,-0.768130229,-0.038596329,113.623487087,0.5227,0.5388,0.7036,0.0247,0.0248,0.0228,0.0227,0.0227,0.4583,ab001243,0*5d720805
#INSPVAXA,FILE,0,30.5,FINESTEERING,2319,306158.150,02000000,46eb,17139;INS_SOLUTION_GOOD,INS_PSRDIFF,17.59655576582,78.12155567749,525.0800,-76.2000,-1.0001,2.1082,-0.0104,-0.750591514,0.007791755,114.037084635,0.5227,0.5388,0.7036,0.0247,0.0248,0.0228,0.0227,0.0227,0.4583,ab001243,0*1c2b78d7
#INSPVAXA,FILE,0,30.5,FINESTEERING,2319,306158.200,02000000,46eb,17139;INS_SOLUTION_GOOD,INS_PSRDIFF,17.59655526357,78.12155668887,525.0798,-76.2000,-1.0287,2.0933,0.0026,-0.747307060,0.061617671,114.437634470,0.5227,0.5388,0.7036,0.0247,0.0248,0.0228,0.0227,0.0227,0.4583,ab001243,0*399072de
#INSPVAXA,FILE,0,30.5,FINESTEERING,2319,306158.250,02000000,46eb,17139;INS_SOLUTION_GOOD,INS_PSRDIFF,17.59655475060,78.12155769566,525.0804,-76.2000,-1.0521,2.0910,0.0216,-0.734021265,0.103544883,114.839337032,0.5227,0.5388,0.7036,0.0247,0.0248,0.0228,0.0227,0.0227,0.4583,ab001243,0*f0cc353a
#INSPVAXA,FILE,0,30.5,FINESTEERING,2319,306158.300,02000000,46eb,17139;INS_SOLUTION_GOOD,INS_PSRDIFF,17.59655422924,78.12155870351,525.0819,-76.2000,-1.0690,2.1009,0.0447,-0.703655921,0.124738353,115.262024599,0.5227,0.5388,0.7036,0.0247,0.0248,0.0228,0.0227,0.0227,0.4583,ab001243,0*370d7b4a
#INSPVAXA,FILE,0,30.5,FINESTEERING,2319,306158.350,02000000,46eb,17139;INS_SOLUTION_GOOD,INS_PSRDIFF,17.59655370087,78.12155971657,525.0846,-76.2000,-1.0854,2.1133,0.0696,-0.652825490,0.134848494,115.712948800,0.5227,0.5388,0.7036,0.0247,0.0248,0.0228,0.0227,0.0227,0.4583,ab001243,0*a0e1b483
#INSPVAXA,FILE,0,30.5,FINESTEERING,2319,306158.400,02000000,46eb,17139;INS_SOLUTION_GOOD,INS_PSRDIFF,17.59655316338,78.12156073889,525.0875,-76.2000,-1.1108,2.1371,0.0579,-0.603013663,0.151544143,116.193047545,0.5227,0.5388,0.7036,0.0247,0.0248,0.0228,0.0227,0.0227,0.4583,ab001243,0*eef977e9
#INSPVAXA,FILE,0,30.5,FINESTEERING,2319,306158.450,02000000,46eb,17139;INS_SOLUTION_GOOD,INS_PSRDIFF,17.59655261337,78.12156176851,525.0900,-76.2000,-1.1406,2.1527,0.0503,-0.556263602,0.158897659,116.686735413,0.5227,0.5388,0.7036,0.0247,0.0248,0.0228,0.0227,0.0227,0.4583,ab001243,0*d0b24950
#INSPVAXA,FILE,0,30.5,FINESTEERING,2319,306158.500,02000000,46eb,17139;INS_SOLUTION_GOOD,INS_PSRDIFF,17.59655204976,78.12156280533,525.0924,-76.2000,-1.1749,2.1613,0.0474,-0.539620585,0.159525208,117.192225249,0.5227,0.5388,0.7036,0.0247,0.0248,0.0228,0.0227,0.0227,0.4583,ab001243,0*400a05f0
#INSPVAXA,FILE,0,30.5,FINESTEERING,2319,306158.550,02000000,46eb,17139;INS_SOLUTION_GOOD,INS_PSRDIFF,17.59655147059,78.12156384692,525.0948,-76.2000,-1.2110,2.1798,0.0493,-0.544878118,0.202711077,117.694709591,0.5227,0.5388,0.7036,0.0247,0.0248,0.0228,0.0227,0.0227,0.4583,ab001243,0*004061ec
#INSPVAXA,FILE,0,30.5,FINESTEERING,2319,306158.600,02000000,46eb,17139;INS_SOLUTION_GOOD,INS_PSRDIFF,17.59655087632,78.12156489873,525.0964,-76.2000,-1.2439,2.2006,0.0261,-0.566580053,0.204724881,118.219434732,0.5227,0.5388,0.7036,0.0247,0.0248,0.0228,0.0227,0.0227,0.4583,ab001243,0*e211dcac
#INSPVAXA,FILE,0,30.5,FINESTEERING,2319,306158.650,02000000,46eb,17139;INS_SOLUTION_GOOD,INS_PSRDIFF,17.59655026767,78.12156596338,525.0969,-76.2000,-1.2779,2.2347,0.0005,-0.623858418,0.258613869,118.764686324,0.5227,0.5388,0.7036,0.0247,0.0248,0.0228,0.0227,0.0227,0.4583,ab001243,0*5ef0d429
#INSPVAXA,FILE,0,30.5,FINESTEERING,2319,306158.700,02000000,46eb,17139;INS_SOLUTION_GOOD,INS_PSRDIFF,17.59654964335,78.12156704162,525.0967,-76.2000,-1.3148,2.2620,-0.0060,-0.669506363,0.293135468,119.327716515,0.5227,0.5388,0.7036,0.0247,0.0248,0.0228,0.0227,0.0227,0.4583,ab001243,0*b9c3075f
#INSPVAXA,FILE,0,30.5,FINESTEERING,2319,306158.750,02000000,46eb,17139;INS_SOLUTION_GOOD,INS_PSRDIFF,17.59654900128,78.12156813340,525.0962,-76.2000,-1.3593,2.2939,-0.0153,-0.741953818,0.348576616,119.904345202,0.5227,0.5388,0.7036,0.0247,0.0248,0.0228,0.0227,0.0227,0.4583,ab001243,0*0c8dc292
#INSPVAXA,FILE,0,30.5,FINESTEERING,2319,306158.800,02000000,46eb,17139;INS_SOLUTION_GOOD,INS_PSRDIFF,17.59654833751,78.12156923777,525.0954,-76.2000,-1.4109,2.3181,-0.0072,-0.805893255,0.402542284,120.499636445,0.5227,0.5388,0.7036,0.0247,0.0248,0.0228,0.0227,0.0227,0.4583,ab001243,0*6be29084
#INSPVAXA,FILE,0,30.5,FINESTEERING,2319,306158.850,02000000,46eb,17139;INS_SOLUTION_GOOD,INS_PSRDIFF,17.59654764848,78.12157035711,525.0945,-76.2000,-1.4715,2.3551,-0.0182,-0.915033215,0.489791702,121.116679307,0.5227,0.5388,0.7036,0.0247,0.0248,0.0228,0.0227,0.0227,0.4583,ab001243,0*3aa07a6f
#INSPVAXA,FILE,0,30.5,FINESTEERING,2319,306158.900,02000000,46eb,17139;INS_SOLUTION_GOOD,INS_PSRDIFF,17.59654693504,78.12157149350,525.0934,-76.2000,-1.5229,2.3921,-0.0157,-1.010959385,0.565619872,121.763776294,0.5227,0.5388,0.7036,0.0247,0.0248,0.0228,0.0227,0.0227,0.4583,ab001243,0*00246ff6
#INSPVAXA,FILE,0,30.5,FINESTEERING,2319,306158.950,02000000,46eb,17139;INS_SOLUTION_GOOD,INS_PSRDIFF,17.59654620036,78.12157264799,525.0927,-76.2000,-1.5700,2.4298,-0.0057,-1.085566018,0.660765794,122.447783772,0.5227,0.5388,0.7036,0.0247,0.0248,0.0228,0.0227,0.0227,0.4583,ab001243,0*c54b3815
#INSPVAXA,FILE,0,30.5,FINESTEERING,2319,306159.000,02000000,46eb,17139;INS_SOLUTION_GOOD,INS_PSRDIFF,17.59654544060,78.12157381545,525.0932,-76.2000,-1.6329,2.4525,0.0243,-1.116188395,0.727764126,123.152297777,0.5227,0.5388,0.7036,0.0247,0.0248,0.0228,0.0227,0.0227,0.4583,ab001243,0*6fb55b99
#INSPVAXA,FILE,0,30.5,FINESTEERING,2319,306159.050,02000000,46eb,17139;INS_SOLUTION_GOOD,INS_PSRDIFF,17.59654464572,78.12157498590,525.0945,-76.2000,-1.7034,2.4664,0.0379,-1.170969600,0.761490113,123.866821682,0.5198,0.5365,0.7103,0.0252,0.0255,0.0232,0.0229,0.0229,0.4585,ab001243,0*fb7f02f1
#INSPVAXA,FILE,0,29.0,FINESTEERING,2319,306159.100,02000000,46eb,17139;INS_SOLUTION_GOOD,INS_PSRDIFF,17.59654381136,78.12157615864,525.0965,-76.2000,-1.7696,2.4879,0.0645,-1.212129654,0.783350192,124.593527686,0.5198,0.5365,0.7103,0.0252,0.0255,0.0232,0.0229,0.0229,0.4585,ab001243,0*da967101
#INSPVAXA,FILE,0,29.0,FINESTEERING,2319,306159.150,02000000,46eb,17139;INS_SOLUTION_GOOD,INS_PSRDIFF,17.59654294871,78.12157733955,525.0993,-76.2000,-1.8345,2.5061,0.0717,-1.227719565,0.791731072,125.341910644,0.5198,0.5365,0.7103,0.0252,0.0255,0.0232,0.0229,0.0229,0.4585,ab001243,0*ec6c703b
#INSPVAXA,FILE,0,29.0,FINESTEERING,2319,306159.200,02000000,46eb,17139;INS_SOLUTION_GOOD,INS_PSRDIFF,17.59654205597,78.12157852869,525.1021,-76.2000,-1.8986,2.5235,0.0697,-1.248695706,0.780667296,126.109550166,0.5198,0.5365,0.7103,0.0252,0.0255,0.0232,0.0229,0.0229,0.4585,ab001243,0*7956220a
#INSPVAXA,FILE,0,29.0,FINESTEERING,2319,306159.250,02000000,46eb,17139;INS_SOLUTION_GOOD,INS_PSRDIFF,17.59654113550,78.12157972725,525.1044,-76.2000,-1.9615,2.5435,0.0528,-1.267571516,0.806565706,126.912388732,0.5198,0.5365,0.7103,0.0252,0.0255,0.0232,0.0229,0.0229,0.4585,ab001243,0*be413c8c
#INSPVAXA,FILE,0,29.0,FINESTEERING,2319,306159.300,02000000,46eb,17139;INS_SOLUTION_GOOD,INS_PSRDIFF,17.59654018838,78.12158093339,525.1061,-76.2000,-2.0232,2.5520,0.0430,-1.295653578,0.821000492,127.751239734,0.5198,0.5365,0.7103,0.0252,0.0255,0.0232,0.0229,0.0229,0.4585,ab001243,0*952acc19
#INSPVAXA,FILE,0,29.0,FINESTEERING,2319,306159.350,02000000,46eb,17139;INS_SOLUTION_GOOD,INS_PSRDIFF,17.59653921570,78.12158214570,525.1072,-76.2000,-2.0790,2.5661,0.0297,-1.325716079,0.842205264,128.613194188,0.5198,0.5365,0.7103,0.0252,0.0255,0.0232,0.0229,0.0229,0.4585,ab001243,0*cbdfa7bc
#INSPVAXA,FILE,0,29.0,FINESTEERING,2319,306159.400,02000000,46eb,17139;INS_SOLUTION_GOOD,INS_PSRDIFF,17.59653821756,78.12158335794,525.1083,-76.2000,-2.1367,2.5578,0.0391,-1.320047078,0.857305722,129.491369552,0.5198,0.5365,0.7103,0.0252,0.0255,0.0232,0.0229,0.0229,0.4585,ab001243,0*dc4a6b71
#INSPVAXA,FILE,0,29.0,FINESTEERING,2319,306159.450,02000000,46eb,17139;INS_SOLUTION_GOOD,INS_PSRDIFF,17.59653719229,78.12158456397,525.1100,-76.2000,-2.2011,2.5387,0.0507,-1.294331417,0.864789412,130.371745548,0.5198,0.5365,0.7103,0.0252,0.0255,0.0232,0.0229,0.0229,0.4585,ab001243,0*dbd4db8b
#INSPVAXA,FILE,0,29.0,FINESTEERING,2319,306159.500,02000000,46eb,17139;INS_SOLUTION_GOOD,INS_PSRDIFF,17.59653613814,78.12158575881,525.1122,-76.2000,-2.2651,2.5113,0.0612,-1.239519170,0.844861782,131.243795262,0.5198,0.5365,0.7103,0.0252,0.0255,0.0232,0.0229,0.0229,0.4585,ab001243,0*43276409
#INSPVAXA,FILE,0,29.0,FINESTEERING,2319,306159.550,02000000,46eb,17139;INS_SOLUTION_GOOD,INS_PSRDIFF,17.59653505578,78.12158694143,525.1149,-76.2000,-2.3276,2.4850,0.0691,-1.165213716,0.815197202,132.113073018,0.5198,0.5365,0.7103,0.0252,0.0255,0.0232,0.0229,0.0229,0.4585,ab001243,0*defc3c6f
#INSPVAXA,FILE,0,29.0,FINESTEERING,2319,306159.600,02000000,46eb,17139;INS_SOLUTION_GOOD,INS_PSRDIFF,17.59653394844,78.12158811337,525.1180,-76.2000,-2.3800,2.4652,0.0741,-1.079412389,0.771878826,132.987245142,0.5198,0.5365,0.7103,0.0252,0.0255,0.0232,0.0229,0.0229,0.4585,ab001243,0*d59a76e2
#INSPVAXA,FILE,0,29.0,FINESTEERING,2319,306159.650,02000000,46eb,17139;INS_SOLUTION_GOOD,INS_PSRDIFF,17.59653281787,78.12158927569,525.1212,-76.2000,-2.4320,2.4440,0.0757,-0.957444708,0.719394714,133.871658267,0.5198,0.5365,0.7103,0.0252,0.0255,0.0232,0.0229,0.0229,0.4585,ab001243,0*9f203f93
#INSPVAXA,FILE,0,29.0,FINESTEERING,2319,306159.700,02000000,46eb,17139;INS_SOLUTION_GOOD,INS_PSRDIFF,17.59653166344,78.12159042750,525.1242,-76.2000,-2.4858,2.4218,0.0699,-0.839633273,0.682302431,134.762637029,0.5198,0.5365,0.7103,0.0252,0.0255,0.0232,0.0229,0.0229,0.4585,ab001243,0*2d36e925
#INSPVAXA,FILE,0,29.0,FINESTEERING,2319,306159.750,02000000,46eb,17139;INS_SOLUTION_GOOD,INS_PSRDIFF,17.59653048594,78.12159156855,525.1273,-76.2000,-2.5378,2.3994,0.0712,-0.744215657,0.641839279,135.661507559,0.5198,0.5365,0.7103,0.0252,0.0255,0.0232,0.0229,0.0229,0.4585,ab001243,0*4d3ffd85
#INSPVAXA,FILE,0,29.0,FINESTEERING,2319,306159.800,02000000,46eb,17139;INS_SOLUTION_GOOD,INS_PSRDIFF,17.59652928711,78.12159269913,525.1302,-76.2000,-2.5816,2.3781,0.0713,-0.687490573,0.583054490,136.569352557,0.5198,0.5365,0.7103,0.0252,0.0255,0.0232,0.0229,0.0229,0.4585,ab001243,0*859f59f6
#INSPVAXA,FILE,0,29.0,FINESTEERING,2319,306159.850,02000000,46eb,17139;INS_SOLUTION_GOOD,INS_PSRDIFF,17.59652806825,78.12159382025,525.1335,-76.2000,-2.6276,2.3577,0.0777,-0.663729892,0.531285516,137.487066162,0.5198,0.5365,0.7103,0.0252,0.0255,0.0232,0.0229,0.0229,0.4585,ab001243,0*bc1e1f0c
#INSPVAXA,FILE,0,29.0,FINESTEERING,2319,306159.900,02000000,46eb,17139;INS_SOLUTION_GOOD,INS_PSRDIFF,17.59652682818,78.12159493008,525.1366,-76.2000,-2.6785,2.3317,0.0712,-0.668412716,0.478846524,138.405262577,0.5198,0.5365,0.7103,0.0252,0.0255,0.0232,0.0229,0.0229,0.4585,ab001243,0*ddfc41b2
#INSPVAXA,FILE,0,29.0,FINESTEERING,2319,306159.950,02000000,46eb,17139;INS_SOLUTION_GOOD,INS_PSRDIFF,17.59652556767,78.12159602583,525.1395,-76.2000,-2.7207,2.3006,0.0769,-0.709931983,0.412296912,139.316965822,0.5198,0.5365,0.7103,0.0252,0.0255,0.0232,0.0229,0.0229,0.4585,ab001243,0*44823ed8
#INSPVAXA,FILE,0,29.0,FINESTEERING,2319,306160.000,02000000,46eb,17139;INS_SOLUTION_GOOD,INS_PSRDIFF,17.59652428790,78.12159710706,525.1434,-76.2000,-2.7638,2.2678,0.0955,-0.787332909,0.347327024,140.229171514,0.5198,0.5365,0.7103,0.0252,0.0255,0.0232,0.0229,0.0229,0.4585,ab001243,0*3a6f81b7
#INSPVAXA,FILE,0,29.0,FINESTEERING,2319,306160.050,02000000,46eb,17139;INS_SOLUTION_GOOD,INS_PSRDIFF,17.59652296895,78.12159816488,525.1479,-76.2000,-2.8078,2.2311,0.1031,-0.877830206,0.266506692,141.142812506,0.5188,0.5336,0.7163,0.0263,0.0268,0.0234,0.0231,0.0231,0.4586,ab001243,0*002c0699
#INSPVAXA,FILE,0,29.0,FINESTEERING,2319,306160.100,02000000,46eb,17139;INS_SOLUTION_GOOD,INS_PSRDIFF,17.59652160252,78.12159919459,525.1533,-76.2000,-2.8518,2.1929,0.1075,-0.965776944,0.179540203,142.059190700,0.5188,0.5336,0.7163,0.0263,0.0268,0.0234,0.0231,0.0231,0.4586,ab001243,0*337e55bb
#INSPVAXA,FILE,0,30.0,FINESTEERING,2319,306160.150,02000000,46eb,17139;INS_SOLUTION_GOOD,INS_PSRDIFF,17.59652021611,78.12160020434,525.1589,-76.2000,-2.8990,2.1478,0.1116,-1.040009255,0.078758426,142.972903279,0.5188,0.5336,0.7163,0.0263,0.0268,0.0234,0.0231,0.0231,0.4586,ab001243,0*7dd82b17
#INSPVAXA,FILE,0,30.0,FINESTEERING,2319,306160.200,02000000,46eb,17139;INS_SOLUTION_GOOD,INS_PSRDIFF,17.59651880844,78.12160119324,525.1642,-76.2000,-2.9499,2.1039,0.0925,-1.112036452,0.001826235,143.881939080,0.5188,0.5336,0.7163,0.0263,0.0268,0.0234,0.0231,0.0231,0.4586,ab001243,0*968f952e
#INSPVAXA,FILE,0,30.0,FINESTEERING,2319,306160.250,02000000,46eb,17139;INS_SOLUTION_GOOD,INS_PSRDIFF,17.59651737912,78.12160216031,525.1683,-76.2000,-2.9980,2.0582,0.0679,-1.162461780,-0.053519736,144.782081627,0.5188,0.5336,0.7163,0.0263,0.0268,0.0234,0.0231,0.0231,0.4586,ab001243,0*e002ab69
#INSPVAXA,FILE,0,30.0,FINESTEERING,2319,306160.300,02000000,46eb,17139;INS_SOLUTION_GOOD,INS_PSRDIFF,17.59651592876,78.12160310743,525.1708,-76.2000,-3.0458,2.0123,0.0372,-1.187243606,-0.061181149,145.683813074,0.5188,0.5336,0.7163,0.0263,0.0268,0.0234,0.0231,0.0231,0.4586,ab001243,0*600f8859
#INSPVAXA,FILE,0,30.0,FINESTEERING,2319,306160.350,02000000,46eb,17139;INS_SOLUTION_GOOD,INS_PSRDIFF,17.59651445868,78.12160403403,525.1723,-76.2000,-3.0898,1.9708,0.0140,-1.187483773,-0.030078243,146.578073232,0.5188,0.5336,0.7163,0.0263,0.0268,0.0234,0.0231,0.0231,0.4586,ab001243,0*254e2e86
#INSPVAXA,FILE,0,30.0,FINESTEERING,2319,306160.400,02000000,46eb,17139;INS_SOLUTION_GOOD,INS_PSRDIFF,17.59651296851,78.12160494063,525.1725,-76.2000,-3.1371,1.9272,-0.0028,-1.146915933,0.022879588,147.476089023,0.5188,0.5336,0.7163,0.0263,0.0268,0.0234,0.0231,0.0231,0.4586,ab001243,0*a3bddcfe
#INSPVAXA,FILE,0,30.0,FINESTEERING,2319,306160.450,02000000,46eb,17139;INS_SOLUTION_GOOD,INS_PSRDIFF,17.59651145996,78.12160582707,525.1721,-76.2000,-3.1754,1.8851,-0.0156,-1.098962633,0.095099457,148.375625546,0.5188,0.5336,0.7163,0.0263,0.0268,0.0234,0.0231,0.0231,0.4586,ab001243,0*13b3675d
#INSPVAXA,FILE,0,30.0,FINESTEERING,2319,306160.500,02000000,46eb,17139;INS_SOLUTION_GOOD,INS_PSRDIFF,17.59650993289,78.12160669506,525.1717,-76.2000,-3.2180,1.8449,-0.0094,-1.018780707,0.182089878,149.277885283,0.5188,0.5336,0.7163,0.0263,0.0268,0.0234,0.0231,0.0231,0.4586,ab001243,0*aecc53d9
