#BESTPOSA,FILE,0,31.0,FINESTEERING,2319,303911.950,02000000,cdba,17139;SOL_COMPUTED,NARROW_INT,17.60110584145,78.12300115533,526.2231,-76.2000,WGS84,0.0065,0.0074,0.0174,"0",0.950,0.000,50,49,49,47,00,21,3f,37*2581d8a1
#BESTPOSA,FILE,0,31.0,FINESTEERING,2319,303912.000,02000000,cdba,17139;SOL_COMPUTED,NARROW_INT,17.60110756547,78.12299685713,526.2211,-76.2000,WGS84,0.0065,0.0074,0.0174,"0",1.000,0.000,50,49,49,47,00,21,3f,37*1230f854
#BESTPOSA,FILE,0,31.0,FINESTEERING,2319,303912.050,02000000,cdba,17139;SOL_COMPUTED,NARROW_INT,17.60110931171,78.12299255869,526.2149,-76.2000,WGS84,0.0066,0.0075,0.0177,"0",1.050,0.000,50,50,50,48,00,21,3f,37*2cb1c852
#BESTPOSA,FILE,0,30.0,FINESTEERING,2319,303912.100,02000000,cdba,17139;SOL_COMPUTED,NARROW_INT,17.60111104423,78.12298825481,526.2097,-76.2000,WGS84,0.0067,0.0076,0.0177,"0",1.100,0.000,50,50,50,48,00,21,3f,37*ef1a7682
#BESTPOSA,FILE,0,30.0,FINESTEERING,2319,303912.150,02000000,cdba,17139;SOL_COMPUTED,NARROW_INT,17.60111273435,78.12298401553,526.2093,-76.2000,WGS84,0.0067,0.0076,0.0178,"0",1.150,0.000,50,50,50,48,00,21,3f,37*58799b06
#BESTPOSA,FILE,0,30.0,FINESTEERING,2319,303912.200,02000000,cdba,17139;SOL_COMPUTED,NARROW_INT,17.60111441307,78.12297981514,526.2051,-76.2000,WGS84,0.0067,0.0076,0.0178,"0",1.200,0.000,50,50,50,48,00,21,3f,37*f5e223db
#BESTPOSA,FILE,0,30.0,FINESTEERING,2319,303912.250,02000000,cdba,17139;SOL_COMPUTED,NARROW_INT,17.60111614468,78.12297567229,526.2019,-76.2000,WGS84,0.0067,0.0076,0.0179,"0",1.250,0.000,50,50,50,48,00,21,3f,37*7e50704a
#BESTPOSA,FILE,0,30.0,FINESTEERING,2319,303912.300,02000000,cdba,17139;SOL_COMPUTED,NARROW_INT,17.60111788508,78.12297158790,526.1914,-76.2000,WGS84,0.0068,0.0076,0.0179,"0",1.300,0.000,51,50,50,48,00,21,3f,37*418a20cf
#BESTPOSA,FILE,0,30.0,FINESTEERING,2319,303912.350,02000000,cdba,17139;SOL_COMPUTED,NARROW_INT,17.60111963939,78.12296749506,526.1780,-76.2000,WGS84,0.0068,0.0077,0.0180,"0",1.350,0.000,51,50,50,48,00,21,3f,37*744708ef
#BESTPOSA,FILE,0,30.0,FINESTEERING,2319,303912.400,02000000,cdba,17139;SOL_COMPUTED,NARROW_INT,17.60112139367,78.12296337649,526.1711,-76.2000,WGS84,0.0068,0.0077,0.0180,"0",1.400,0.000,51,50,50,48,00,21,3f,37*a2197b3c
#BESTPOSA,FILE,0,30.0,FINESTEERING,2319,303912.450,02000000,cdba,17139;SOL_COMPUTED,NARROW_INT,17.60112315120,78.12295922378,526.1746,-76.2000,WGS84,0.0068,0.0077,0.0180,"0",1.450,0.000,51,50,50,48,00,21,3f,37*e76376bf
#BESTPOSA,FILE,0,30.0,FINESTEERING,2319,303912.500,02000000,cdba,17139;SOL_COMPUTED,NARROW_INT,17.60112493244,78.12295507409,526.1788,-76.2000,WGS84,0.0069,0.0077,0.0181,"0",1.500,0.000,51,50,50,48,00,21,3f,37*25f1089f
#BESTPOSA,FILE,0,30.0,FINESTEERING,2319,303912.550,02000000,cdba,17139;SOL_COMPUTED,NARROW_INT,17.60112669723,78.12295095567,526.1810,-76.2000,WGS84,0.0069,0.0078,0.0181,"0",1.550,0.000,51,50,50,48,00,21,3f,37*ef8621c2
#BESTPOSA,FILE,0,30.0,FINESTEERING,2319,303912.600,02000000,cdba,17139;SOL_COMPUTED,NARROW_INT,17.60112845827,78.12294688888,526.1787,-76.2000,WGS84,0.0069,0.0078,0.0181,"0",1.600,0.000,51,50,50,48,00,21,3f,37*e06b3285
#BESTPOSA,FILE,0,30.0,FINESTEERING,2319,303912.650,02000000,cdba,17139;SOL_COMPUTED,NARROW_INT,17.60113020550,78.12294284498,526.1766,-76.2000,WGS84,0.0069,0.0078,0.0182,"0",1.650,0.000,51,50,50,48,00,21,3f,37*595f89b6
#BESTPOSA,FILE,0,30.0,FINESTEERING,2319,303912.700,02000000,cdba,17139;SOL_COMPUTED,NARROW_INT,17.60113195195,78.12293883592,526.1728,-76.2000,WGS84,0.0069,0.0078,0.0182,"0",1.700,0.000,51,50,50,48,00,21,3f,37*de0e96bc
#BESTPOSA,FILE,0,30.0,FINESTEERING,2319,303912.750,02000000,cdba,17139;SOL_COMPUTED,NARROW_INT,17.60113364729,78.12293482869,526.1643,-76.2000,WGS84,0.0070,0.0078,0.0182,"0",1.750,0.000,51,50,50,48,00,21,3f,37*ce00f184
#BESTPOSA,FILE,0,30.0,FINESTEERING,2319,303912.800,02000000,cdba,17139;SOL_COMPUTED,NARROW_INT,17.60113537525,78.12293086794,526.1544,-76.2000,WGS84,0.0070,0.0079,0.0183,"0",1.800,0.000,51,50,50,48,00,21,3f,37*770bb650
#BESTPOSA,FILE,0,30.0,FINESTEERING,2319,303912.850,02000000,cdba,17139;SOL_COMPUTED,NARROW_INT,17.60113710538,78.12292690728,526.1491,-76.2000,WGS84,0.0070,0.0079,0.0183,"0",1.850,0.000,51,50,50,48,00,21,3f,37*0bddcee0
#BESTPOSA,FILE,0,30.0,FINESTEERING,2319,303912.900,02000000,cdba,17139;SOL_COMPUTED,NARROW_INT,17.60113881576,78.12292294137,526.1449,-76.2000,WGS84,0.0071,0.0079,0.0184,"0",1.900,0.000,51,50,50,48,00,21,3f,37*e9ae1eed
#BESTPOSA,FILE,0,30.0,FINESTEERING,2319,303912.950,02000000,cdba,17139;SOL_COMPUTED,NARROW_INT,17.60114054196,78.12291895945,526.1413,-76.2000,WGS84,0.0071,0.0079,0.0184,"0",1.950,0.000,51,50,50,48,00,21,3f,37*cbc00c4c
#BESTPOSA,FILE,0,30.0,FINESTEERING,2319,303913.000,02000000,cdba,17139;SOL_COMPUTED,NARROW_INT,17.60114229095,78.12291497616,526.1440,-76.2000,WGS84,0.0072,0.0080,0.0185,"0",2.000,0.000,51,50,50,48,00,21,3f,37*c7c1260b
#BESTPOSA,FILE,0,30.0,FINESTEERING,2319,303913.050,02000000,cdba,17139;SOL_COMPUTED,NARROW_INT,17.60114404887,78.12291100864,526.1474,-76.2000,WGS84,0.0074,0.0081,0.0188,"0",2.050,0.000,50,50,50,48,00,21,3f,37*44cfaeaa
#BESTPOSA,FILE,0,28.5,FINESTEERING,2319,303913.100,02000000,cdba,17139;SOL_COMPUTED,NARROW_INT,17.60114580117,78.12290701807,526.1514,-76.2000,WGS84,0.0074,0.0081,0.0188,"0",2.100,0.000,50,50,50,47,00,21,3f,37*cad87f81
#BESTPOSA,FILE,0,28.5,FINESTEERING,2319,303913.150,02000000,cdba,17139;SOL_COMPUTED,NARROW_INT,17.60114755695,78.12290304004,526.1570,-76.2000,WGS84,0.0074,0.0081,0.0188,"0",2.150,0.000,50,50,50,47,00,21,3f,37*2f217795
#BESTPOSA,FILE,0,28.5,FINESTEERING,2319,303913.200,02000000,cdba,17139;SOL_COMPUTED,NARROW_INT,17.60114929852,78.12289909339,526.1604,-76.2000,WGS84,0.0074,0.0082,0.0189,"0",2.200,0.000,50,50,50,47,00,21,3f,37*5dd5ba1f
#BESTPOSA,FILE,0,28.5,FINESTEERING,2319,303913.250,02000000,cdba,17139;SOL_COMPUTED,NARROW_INT,17.60115104800,78.12289515272,526.1609,-76.2000,WGS84,0.0075,0.0082,0.0189,"0",2.250,0.000,50,50,50,47,00,21,3f,37*3d18d2d9
#BESTPOSA,FILE,0,28.5,FINESTEERING,2319,303913.300,02000000,cdba,17139;SOL_COMPUTED,NARROW_INT,17.60115276378,78.12289122738,526.1558,-76.2000,WGS84,0.0075,0.0082,0.0190,"0",2.300,0.000,50,50,50,47,00,21,3f,37*118f1375
#BESTPOSA,FILE,0,28.5,FINESTEERING,2319,303913.350,02000000,cdba,17139;SOL_COMPUTED,NARROW_INT,17.60115448195,78.12288734055,526.1569,-76.2000,WGS84,0.0075,0.0083,0.0191,"0",2.350,0.000,50,49,49,45,00,21,3f,37*6342313e
#BESTPOSA,FILE,0,28.5,FINESTEERING,2319,303913.400,02000000,cdba,17139;SOL_COMPUTED,NARROW_INT,17.60115621792,78.12288344978,526.1501,-76.2000,WGS84,0.0076,0.0083,0.0191,"0",2.400,0.000,50,49,49,45,00,21,3f,37*99961eff
#BESTPOSA,FILE,0,28.5,FINESTEERING,2319,303913.450,02000000,cdba,17139;SOL_COMPUTED,NARROW_INT,17.60115796516,78.12287955748,526.1395,-76.2000,WGS84,0.0076,0.0083,0.0192,"0",2.450,0.000,50,49,49,45,00,21,3f,37*0a1496d5
#BESTPOSA,FILE,0,28.5,FINESTEERING,2319,303913.500,02000000,cdba,17139;SOL_COMPUTED,NARROW_INT,17.60115974829,78.12287567667,526.1385,-76.2000,WGS84,0.0076,0.0083,0.0192,"0",2.500,0.000,50,48,48,44,00,21,3f,37*3e6b1fd9
#BESTPOSA,FILE,0,28.5,FINESTEERING,2319,303913.550,02000000,cdba,17139;SOL_COMPUTED,NARROW_INT,17.60116152737,78.12287179134,526.1379,-76.2000,WGS84,0.0076,0.0083,0.0192,"0",2.550,0.000,49,47,47,44,00,21,3f,37*61ba8e65
#BESTPOSA,FILE,0,28.5,FINESTEERING,2319,303913.600,02000000,cdba,17139;SOL_COMPUTED,NARROW_INT,17.60116331592,78.12286787751,526.1386,-76.2000,WGS84,0.0077,0.0084,0.0193,"0",2.600,0.000,50,47,47,44,00,21,3f,37*fef0b789
#BESTPOSA,FILE,0,28.5,FINESTEERING,2319,303913.650,02000000,cdba,17139;SOL_COMPUTED,NARROW_INT,17.60116510555,78.12286397589,526.1353,-76.2000,WGS84,0.0077,0.0084,0.0193,"0",2.650,0.000,49,47,47,44,00,21,3f,37*28b7f36d
#BESTPOSA,FILE,0,28.5,FINESTEERING,2319,303913.700,02000000,cdba,17139;SOL_COMPUTED,NARROW_INT,17.60116691941,78.12286007659,526.1362,-76.2000,WGS84,0.0077,0.0084,0.0194,"0",2.700,0.000,49,47,47,44,00,21,3f,37*60b074ae
#BESTPOSA,FILE,0,28.5,FINESTEERING,2319,303913.750,02000000,cdba,17139;SOL_COMPUTED,NARROW_INT,17.60116876300,78.12285621736,526.1328,-76.2000,WGS84,0.0077,0.0084,0.0194,"0",2.750,0.000,49,47,47,44,00,21,3f,37*579027db
#BESTPOSA,FILE,0,28.5,FINESTEERING,2319,303913.800,02000000,cdba,17139;SOL_COMPUTED,NARROW_INT,17.60117063169,78.12285238142,526.1306,-76.2000,WGS84,0.0078,0.0084,0.0194,"0",2.800,0.000,49,47,47,44,00,21,3f,37*0cc0259e
#BESTPOSA,FILE,0,28.5,FINESTEERING,2319,303913.850,02000000,cdba,17139;SOL_COMPUTED,NARROW_INT,17.60117249954,78.12284856033,526.1276,-76.2000,WGS84,0.0078,0.0084,0.0195,"0",2.850,0.000,49,47,47,44,00,21,3f,37*c285fb53
#BESTPOSA,FILE,0,28.5,FINESTEERING,2319,303913.900,02000000,cdba,17139;SOL_COMPUTED,NARROW_INT,17.60117434673,78.12284475548,526.1238,-76.2000,WGS84,0.0078,0.0085,0.0195,"0",2.900,0.000,49,47,47,44,00,21,3f,37*1734f1f4
#BESTPOSA,FILE,0,28.5,FINESTEERING,2319,303913.950,02000000,cdba,17139;SOL_COMPUTED,NARROW_INT,17.60117623221,78.12284097994,526.1199,-76.2000,WGS84,0.0078,0.0085,0.0195,"0",2.950,0.000,49,47,47,44,00,21,3f,37*f2be9213
#BESTPOSA,FILE,0,28.5,FINESTEERING,2319,303914.000,02000000,cdba,17139;SOL_COMPUTED,NARROW_INT,17.60117809236,78.12283721743,526.1119,-76.2000,WGS84,0.0078,0.0085,0.0196,"0",3.000,0.000,49,47,47,44,00,21,3f,37*c107248f
#BESTPOSA,FILE,0,28.5,FINESTEERING,2319,303914.050,02000000,cdba,17139;SOL_COMPUTED,NARROW_INT,17.60117996259,78.12283348385,526.1067,-76.2000,WGS84,0.0080,0.0086,0.0199,"0",3.050,0.000,50,49,49,47,00,21,3f,37*fb885318
#BESTPOSA,FILE,0,28.5,FINESTEERING,2319,303914.100,02000000,cdba,17139;SOL_COMPUTED,NARROW_INT,17.60118182795,78.12282972777,526.1026,-76.2000,WGS84,0.0081,0.0087,0.0199,"0",3.100,0.000,51,49,49,47,00,21,3f,37*93d21fe0
#BESTPOSA,FILE,0,29.0,FINESTEERING,2319,303914.150,02000000,cdba,17139;SOL_COMPUTED,NARROW_INT,17.60118370130,78.12282597498,526.0983,-76.2000,WGS84,0.0081,0.0087,0.0200,"0",3.150,0.000,51,49,49,47,00,21,3f,37*06195320
#BESTPOSA,FILE,0,29.0,FINESTEERING,2319,303914.200,02000000,cdba,17139;SOL_COMPUTED,NARROW_INT,17.60118557997,78.12282221633,526.0975,-76.2000,WGS84,0.0081,0.0087,0.0200,"0",3.200,0.000,51,49,49,47,00,21,3f,37*735d48b2
#BESTPOSA,FILE,0,29.0,FINESTEERING,2319,303914.250,02000000,cdba,17139;SOL_COMPUTED,NARROW_INT,17.60118747021,78.12281847178,526.0975,-76.2000,WGS84,0.0081,0.0087,0.0201,"0",3.250,0.000,51,49,49,47,00,21,3f,37*a491a9d9
#BESTPOSA,FILE,0,29.0,FINESTEERING,2319,303914.300,02000000,cdba,17139;SOL_COMPUTED,NARROW_INT,17.60118938594,78.12281471495,526.1021,-76.2000,WGS84,0.0082,0.0087,0.0201,"0",3.300,0.000,51,49,49,47,00,21,3f,37*0e39bf10
#BESTPOSA,FILE,0,29.0,FINESTEERING,2319,303914.350,02000000,cdba,17139;SOL_COMPUTED,NARROW_INT,17.60119129177,78.12281095850,526.1055,-76.2000,WGS84,0.0082,0.0088,0.0202,"0",3.350,0.000,51,49,49,47,00,21,3f,37*23a951b3
#BESTPOSA,FILE,0,29.0,FINESTEERING,2319,303914.400,02000000,cdba,17139;SOL_COMPUTED,NARROW_INT,17.60119320406,78.12280723304,526.1085,-76.2000,WGS84,0.0082,0.0088,0.0202,"0",3.400,0.000,51,49,49,47,00,21,3f,37*4541e359
#BESTPOSA,FILE,0,29.0,FINESTEERING,2319,303914.450,02000000,cdba,17139;SOL_COMPUTED,NARROW_INT,17.60119512072,78.12280353223,526.1097,-76.2000,WGS84,0.0083,0.0088,0.0202,"0",3.450,0.000,51,49,49,47,00,21,3f,37*41d74720
#BESTPOSA,FILE,0,29.0,FINESTEERING,2319,303914.500,02000000,cdba,17139;SOL_COMPUTED,NARROW_INT,17.60119702383,78.12279984294,526.1073,-76.2000,WGS84,0.0083,0.0088,0.0203,"0",3.500,0.000,51,49,49,47,00,21,3f,37*ce6904b8
#BESTPOSA,FILE,0,29.0,FINESTEERING,2319,303914.550,02000000,cdba,17139;SOL_COMPUTED,NARROW_INT,17.60119891742,78.12279620132,526.1023,-76.2000,WGS84,0.0083,0.0088,0.0203,"0",3.550,0.000,51,49,49,47,00,21,3f,37*67a9dccc
#BESTPOSA,FILE,0,29.0,FINESTEERING,2319,303914.600,02000000,cdba,17139;SOL_COMPUTED,NARROW_INT,17.60120081376,78.12279259990,526.0991,-76.2000,WGS84,0.0083,0.0089,0.0203,"0",3.600,0.000,51,49,49,47,00,21,3f,37*05269500
#BESTPOSA,FILE,0,29.0,FINESTEERING,2319,303914.650,02000000,cdba,17139;SOL_COMPUTED,NARROW_INT,17.60120273349,78.12278902033,526.0938,-76.2000,WGS84,0.0083,0.0089,0.0204,"0",3.650,0.000,51,49,49,47,00,21,3f,37*581a0dd5
#BESTPOSA,FILE,0,29.0,FINESTEERING,2319,303914.700,02000000,cdba,17139;SOL_COMPUTED,NARROW_INT,17.60120463537,78.12278547229,526.0890,-76.2000,WGS84,0.0084,0.0089,0.0204,"0",3.700,0.000,51,49,49,47,00,21,3f,37*986fe4cb
#BESTPOSA,FILE,0,29.0,FINESTEERING,2319,303914.750,02000000,cdba,17139;SOL_COMPUTED,NARROW_INT,17.60120652902,78.12278190610,526.0853,-76.2000,WGS84,0.0084,0.0089,0.0204,"0",3.750,0.000,52,49,49,47,00,21,3f,37*1ffd5667
#BESTPOSA,FILE,0,29.0,FINESTEERING,2319,303914.800,02000000,cdba,17139;SOL_COMPUTED,NARROW_INT,17.60120842255,78.12277830794,526.0770,-76.2000,WGS84,0.0084,0.0090,0.0205,"0",3.800,0.000,52,49,49,47,00,21,3f,37*82854e14
#BESTPOSA,FILE,0,29.0,FINESTEERING,2319,303914.850,02000000,cdba,17139;SOL_COMPUTED,NARROW_INT,17.60121033286,78.12277471387,526.0788,-76.2000,WGS84,0.0084,0.0090,0.0205,"0",3.850,0.000,52,49,49,47,00,21,3f,37*1a7af75e
#BESTPOSA,FILE,0,29.0,FINESTEERING,2319,303914.900,02000000,cdba,17139;SOL_COMPUTED,NARROW_INT,17.60121223476,78.12277108827,526.0839,-76.2000,WGS84,0.0085,0.0090,0.0206,"0",3.900,0.000,51,48,48,46,00,21,3f,37*5ff62f63
#BESTPOSA,FILE,0,29.0,FINESTEERING,2319,303914.950,02000000,cdba,17139;SOL_COMPUTED,NARROW_INT,17.60121413276,78.12276745400,526.0862,-76.2000,WGS84,0.0085,0.0090,0.0206,"0",3.950,0.000,52,48,48,46,00,21,3f,37*9d5d1259
#BESTPOSA,FILE,0,29.0,FINESTEERING,2319,303915.000,02000000,cdba,17139;SOL_COMPUTED,NARROW_INT,17.60121602383,78.12276382771,526.0866,-76.2000,WGS84,0.0085,0.0090,0.0206,"0",4.000,0.000,52,48,48,46,00,21,3f,37*33563a20
#BESTPOSA,FILE,0,29.0,FINESTEERING,2319,303915.050,02000000,cdba,17139;SOL_COMPUTED,NARROW_INT,17.60121789834,78.12276025131,526.0902,-76.2000,WGS84,0.0087,0.0092,0.0210,"0",4.050,0.000,52,51,51,48,00,21,3f,37*af25a480
#BESTPOSA,FILE,0,29.0,FINESTEERING,2319,303915.100,02000000,cdba,17139;SOL_COMPUTED,NARROW_INT,17.60121973796,78.12275670374,526.0914,-76.2000,WGS84,0.0087,0.0092,0.0210,"0",4.100,0.000,52,51,51,48,00,21,3f,37*555bb961
#BESTPOSA,FILE,0,29.0,FINESTEERING,2319,303915.150,02000000,cdba,17139;SOL_COMPUTED,NARROW_INT,17.60122157467,78.12275317154,526.0846,-76.2000,WGS84,0.0088,0.0093,0.0210,"0",4.150,0.000,52,51,51,48,00,21,3f,37*8e416723
#BESTPOSA,FILE,0,29.0,FINESTEERING,2319,303915.200,02000000,cdba,17139;SOL_COMPUTED,NARROW_INT,17.60122339862,78.12274969267,526.0819,-76.2000,WGS84,0.0088,0.0093,0.0211,"0",4.200,0.000,52,52,52,49,00,21,3f,37*54869ca7
#BESTPOSA,FILE,0,29.0,FINESTEERING,2319,303915.250,02000000,cdba,17139;SOL_COMPUTED,NARROW_INT,17.60122516005,78.12274620053,526.0679,-76.2000,WGS84,0.0088,0.0093,0.0211,"0",4.250,0.000,52,52,52,49,00,21,3f,37*fbb7ac32
#BESTPOSA,FILE,0,29.0,FINESTEERING,2319,303915.300,02000000,cdba,17139;SOL_COMPUTED,NARROW_INT,17.60122696295,78.12274274531,526.0621,-76.2000,WGS84,0.0088,0.0093,0.0212,"0",4.300,0.000,52,52,52,49,00,21,3f,37*8bc26724
#BESTPOSA,FILE,0,29.0,FINESTEERING,2319,303915.350,02000000,cdba,17139;SOL_COMPUTED,NARROW_INT,17.60122876797,78.12273929873,526.0567,-76.2000,WGS84,0.0089,0.0093,0.0212,"0",4.350,0.000,50,50,50,47,00,21,3f,37*f00c94a7
#BESTPOSA,FILE,0,29.0,FINESTEERING,2319,303915.400,02000000,cdba,17139;SOL_COMPUTED,NARROW_INT,17.60123058508,78.12273583766,526.0543,-76.2000,WGS84,0.0089,0.0094,0.0212,"0",4.400,0.000,50,50,50,47,00,21,3f,37*2bf6b3b6
#BESTPOSA,FILE,0,29.0,FINESTEERING,2319,303915.450,02000000,cdba,17139;SOL_COMPUTED,NARROW_INT,17.60123239096,78.12273236940,526.0506,-76.2000,WGS84,0.0089,0.0094,0.0213,"0",4.450,0.000,49,48,48,46,00,21,3f,37*04734a2d
#BESTPOSA,FILE,0,29.0,FINESTEERING,2319,303915.500,02000000,cdba,17139;SOL_COMPUTED,NARROW_INT,17.60123419781,78.12272888476,526.0477,-76.2000,WGS84,0.0089,0.0094,0.0213,"0",4.500,0.000,50,48,48,46,00,21,3f,37*99cd6b88
#BESTPOSA,FILE,0,29.0,FINESTEERING,2319,303915.550,02000000,cdba,17139;SOL_COMPUTED,NARROW_INT,17.60123599483,78.12272538210,526.0505,-76.2000,WGS84,0.0090,0.0094,0.0213,"0",4.550,0.000,49,48,48,46,00,21,3f,37*244101a0
#BESTPOSA,FILE,0,29.0,FINESTEERING,2319,303915.600,02000000,cdba,17139;SOL_COMPUTED,NARROW_INT,17.60123778832,78.12272188490,526.0560,-76.2000,WGS84,0.0090,0.0094,0.0214,"0",4.600,0.000,49,48,48,46,00,21,3f,37*9ea261c2
#BESTPOSA,FILE,0,29.0,FINESTEERING,2319,303915.650,02000000,cdba,17139;SOL_COMPUTED,NARROW_INT,17.60123961998,78.12271840205,526.0588,-76.2000,WGS84,0.0090,0.0094,0.0214,"0",4.650,0.000,49,48,48,46,00,21,3f,37*ffb3ca54
#BESTPOSA,FILE,0,29.0,FINESTEERING,2319,303915.700,02000000,cdba,17139;SOL_COMPUTED,NARROW_INT,17.60124143446,78.12271493081,526.0613,-76.2000,WGS84,0.0090,0.0095,0.0214,"0",4.700,0.000,49,48,48,46,00,21,3f,37*32a68497
#BESTPOSA,FILE,0,29.0,FINESTEERING,2319,303915.750,02000000,cdba,17139;SOL_COMPUTED,NARROW_INT,17.60124324722,78.12271147112,526.0602,-76.2000,WGS84,0.0091,0.0095,0.0215,"0",4.750,0.000,49,48,48,46,00,21,3f,37*58309f42
#BESTPOSA,FILE,0,29.0,FINESTEERING,2319,303915.800,02000000,cdba,17139;SOL_COMPUTED,NARROW_INT,17.60124502086,78.12270801200,526.0577,-76.2000,WGS84,0.0091,0.0095,0.0215,"0",4.800,0.000,49,48,48,46,00,21,3f,37*02b80fc1
#BESTPOSA,FILE,0,29.0,FINESTEERING,2319,303915.850,02000000,cdba,17139;SOL_COMPUTED,NARROW_INT,17.60124679625,78.12270458704,526.0509,-76.2000,WGS84,0.0091,0.0095,0.0216,"0",4.850,0.000,49,48,48,46,00,21,3f,37*f15ccb86
#BESTPOSA,FILE,0,29.0,FINESTEERING,2319,303915.900,02000000,cdba,17139;SOL_COMPUTED,NARROW_INT,17.60124858931,78.12270116681,526.0453,-76.2000,WGS84,0.0091,0.0095,0.0216,"0",4.900,0.000,49,48,48,46,00,21,3f,37*30f45b01
#BESTPOSA,FILE,0,29.0,FINESTEERING,2319,303915.950,02000000,cdba,17139;SOL_COMPUTED,NARROW_INT,17.60125034485,78.12269774214,526.0385,-76.2000,WGS84,0.0091,0.0095,0.0216,"0",4.950,0.000,49,48,48,46,00,21,3f,37*1f9755da
#BESTPOSA,FILE,0,29.0,FINESTEERING,2319,303916.000,02000000,cdba,17139;SOL_COMPUTED,NARROW_INT,17.60125210754,78.12269432323,526.0324,-76.2000,WGS84,0.0091,0.0095,0.0217,"0",5.000,0.000,49,48,48,46,00,21,3f,37*a002e8db
#BESTPOSA,FILE,0,29.0,FINESTEERING,2319,303916.050,02000000,cdba,17139;SOL_COMPUTED,NARROW_INT,17.60125387048,78.12269089190,526.0249,-76.2000,WGS84,0.0093,0.0097,0.0220,"0",5.050,0.000,49,49,49,47,00,21,3f,37*f950023f
#BESTPOSA,FILE,0,29.0,FINESTEERING,2319,303916.100,02000000,cdba,17139;SOL_COMPUTED,NARROW_INT,17.60125562527,78.12268745579,526.0217,-76.2000,WGS84,0.0094,0.0097,0.0220,"0",5.100,0.000,49,49,49,47,00,21,3f,37*d0489084
#BESTPOSA,FILE,0,29.0,FINESTEERING,2319,303916.150,02000000,cdba,17139;SOL_COMPUTED,NARROW_INT,17.60125738420,78.12268402022,526.0220,-76.2000,WGS84,0.0094,0.0097,0.0221,"0",5.150,0.000,49,49,49,47,00,21,3f,37*02cae713
#BESTPOSA,FILE,0,29.0,FINESTEERING,2319,303916.200,02000000,cdba,17139;SOL_COMPUTED,NARROW_INT,17.60125914968,78.12268058770,526.0240,-76.2000,WGS84,0.0094,0.0098,0.0221,"0",5.200,0.000,49,49,49,47,00,21,3f,37*c31eeb7a
#BESTPOSA,FILE,0,29.0,FINESTEERING,2319,303916.250,02000000,cdba,17139;SOL_COMPUTED,NARROW_INT,17.60126092020,78.12267717038,526.0223,-76.2000,WGS84,0.0094,0.0098,0.0221,"0",5.250,0.000,49,49,49,47,00,21,3f,37*7eec7992
#BESTPOSA,FILE,0,29.0,FINESTEERING,2319,303916.300,02000000,cdba,17139;SOL_COMPUTED,NARROW_INT,17.60126268467,78.12267376776,526.0234,-76.2000,WGS84,0.0094,0.0098,0.0222,"0",5.300,0.000,49,48,48,46,00,21,3f,37*6f11ac94
#BESTPOSA,FILE,0,29.0,FINESTEERING,2319,303916.350,02000000,cdba,17139;SOL_COMPUTED,NARROW_INT,17.60126452429,78.12267035026,526.0278,-76.2000,WGS84,0.0083,0.0087,0.0198,"0",3.350,0.000,49,48,48,46,00,21,3f,37*b04413f3
#BESTPOSA,FILE,0,29.0,FINESTEERING,2319,303916.400,02000000,cdba,17139;SOL_COMPUTED,NARROW_INT,17.60126627543,78.12266697481,526.0252,-76.2000,WGS84,0.0083,0.0087,0.0198,"0",3.400,0.000,49,48,48,46,00,21,3f,37*52e92221
#BESTPOSA,FILE,0,29.0,FINESTEERING,2319,303916.450,02000000,cdba,17139;SOL_COMPUTED,NARROW_INT,17.60126803196,78.12266362636,526.0219,-76.2000,WGS84,0.0083,0.0088,0.0199,"0",3.450,0.000,49,48,48,46,00,21,3f,37*3673918d
#BESTPOSA,FILE,0,29.0,FINESTEERING,2319,303916.500,02000000,cdba,17139;SOL_COMPUTED,NARROW_INT,17.60126980240,78.12266028866,526.0211,-76.2000,WGS84,0.0084,0.0088,0.0199,"0",3.500,0.000,49,48,48,46,00,21,3f,37*1feb8c8e
#BESTPOSA,FILE,0,29.0,FINESTEERING,2319,303916.550,02000000,cdba,17139;SOL_COMPUTED,NARROW_INT,17.60127156319,78.12265692997,526.0200,-76.2000,WGS84,0.0084,0.0088,0.0200,"0",3.550,0.000,49,49,49,47,00,21,3f,37*9469dd90
#BESTPOSA,FILE,0,29.0,FINESTEERING,2319,303916.600,02000000,cdba,17139;SOL_COMPUTED,NARROW_INT,17.60127333263,78.12265359843,526.0196,-76.2000,WGS84,0.0084,0.0088,0.0200,"0",3.600,0.000,48,48,48,46,00,21,3f,37*fba21f6e
#BESTPOSA,FILE,0,29.0,FINESTEERING,2319,303916.650,02000000,cdba,17139;SOL_COMPUTED,NARROW_INT,17.60127511421,78.12265022293,526.0234,-76.2000,WGS84,0.0084,0.0088,0.0200,"0",3.650,0.000,49,48,48,46,00,21,3f,37*c3a26c71
#BESTPOSA,FILE,0,29.0,FINESTEERING,2319,303916.700,02000000,cdba,17139;SOL_COMPUTED,NARROW_INT,17.60127688386,78.12264686952,526.0295,-76.2000,WGS84,0.0085,0.0088,0.0201,"0",3.700,0.000,49,48,48,46,00,21,3f,37*e470a20a
#BESTPOSA,FILE,0,29.0,FINESTEERING,2319,303916.750,02000000,cdba,17139;SOL_COMPUTED,NARROW_INT,17.60127865879,78.12264352767,526.0318,-76.2000,WGS84,0.0085,0.0089,0.0201,"0",3.750,0.000,49,48,48,46,00,21,3f,37*59b858bc
#BESTPOSA,FILE,0,29.0,FINESTEERING,2319,303916.800,02000000,cdba,17139;SOL_COMPUTED,NARROW_INT,17.60128043598,78.12264021140,526.0361,-76.2000,WGS84,0.0085,0.0089,0.0201,"0",3.800,0.000,49,48,48,46,00,21,3f,37*3c29f13f
#BESTPOSA,FILE,0,29.0,FINESTEERING,2319,303916.850,02000000,cdba,17139;SOL_COMPUTED,NARROW_INT,17.60128223886,78.12263692788,526.0430,-76.2000,WGS84,0.0085,0.0089,0.0201,"0",3.850,0.000,48,47,47,45,00,21,3f,37*4713f800
#BESTPOSA,FILE,0,29.0,FINESTEERING,2319,303916.900,02000000,cdba,17139;SOL_COMPUTED,NARROW_INT,17.60128402456,78.12263364143,526.0455,-76.2000,WGS84,0.0085,0.0089,0.0202,"0",3.900,0.000,48,47,47,45,00,21,3f,37*42e84c41
#BESTPOSA,FILE,0,29.0,FINESTEERING,2319,303916.950,02000000,cdba,17139;SOL_COMPUTED,NARROW_INT,17.60128581468,78.12263037180,526.0471,-76.2000,WGS84,0.0086,0.0089,0.0202,"0",3.950,0.000,47,47,47,45,00,21,3f,37*93d6993c
#BESTPOSA,FILE,0,29.0,FINESTEERING,2319,303917.000,02000000,cdba,17139;SOL_COMPUTED,NARROW_INT,17.60128760669,78.12262709616,526.0519,-76.2000,WGS84,0.0086,0.0089,0.0202,"0",4.000,0.000,48,47,47,45,00,21,3f,37*b0499095
#BESTPOSA,FILE,0,29.0,FINESTEERING,2319,303917.050,02000000,cdba,17139;SOL_COMPUTED,NARROW_INT,17.60128940694,78.12262381873,526.0560,-76.2000,WGS84,0.0087,0.0091,0.0205,"0",4.050,0.000,48,47,47,45,00,21,3f,37*468fbff9
#BESTPOSA,FILE,0,28.5,FINESTEERING,2319,303917.100,02000000,cdba,17139;SOL_COMPUTED,NARROW_INT,17.60129120283,78.12262054464,526.0630,-76.2000,WGS84,0.0088,0.0091,0.0206,"0",4.100,0.000,48,47,47,45,00,21,3f,37*93503932
#BESTPOSA,FILE,0,28.5,FINESTEERING,2319,303917.150,02000000,cdba,17139;SOL_COMPUTED,NARROW_INT,17.60129298731,78.12261728224,526.0689,-76.2000,WGS84,0.0088,0.0091,0.0206,"0",4.150,0.000,47,47,47,45,00,21,3f,37*0416cae7
#BESTPOSA,FILE,0,28.5,FINESTEERING,2319,303917.200,02000000,cdba,17139;SOL_COMPUTED,NARROW_INT,17.60129477871,78.12261404802,526.0762,-76.2000,WGS84,0.0088,0.0091,0.0206,"0",4.200,0.000,47,47,47,45,00,21,3f,37*26d1a03a
#BESTPOSA,FILE,0,28.5,FINESTEERING,2319,303917.250,02000000,cdba,17139;SOL_COMPUTED,NARROW_INT,17.60129655645,78.12261083014,526.0834,-76.2000,WGS84,0.0088,0.0091,0.0206,"0",4.250,0.000,47,47,47,45,00,21,3f,37*a8fd87cd
#BESTPOSA,FILE,0,28.5,FINESTEERING,2319,303917.300,02000000,cdba,17139;SOL_COMPUTED,NARROW_INT,17.60129832211,78.12260763633,526.0888,-76.2000,WGS84,0.0088,0.0091,0.0207,"0",4.300,0.000,47,47,47,45,00,21,3f,37*875182ff
#BESTPOSA,FILE,0,28.5,FINESTEERING,2319,303917.350,02000000,cdba,17139;SOL_COMPUTED,NARROW_INT,17.60130007224,78.12260445235,526.0954,-76.2000,WGS84,0.0088,0.0092,0.0207,"0",4.350,0.000,47,47,47,45,00,21,3f,37*a9cc4ab6
#BESTPOSA,FILE,0,28.5,FINESTEERING,2319,303917.400,02000000,cdba,17139;SOL_COMPUTED,NARROW_INT,17.60130180694,78.12260129375,526.1016,-76.2000,WGS84,0.0089,0.0092,0.0207,"0",4.400,0.000,47,47,47,45,00,21,3f,37*d8c87344
#BESTPOSA,FILE,0,28.5,FINESTEERING,2319,303917.450,02000000,cdba,17139;SOL_COMPUTED,NARROW_INT,17.60130355691,78.12259812265,526.1070,-76.2000,WGS84,0.0089,0.0092,0.0208,"0",4.450,0.000,47,47,47,45,00,21,3f,37*380656f1
#BESTPOSA,FILE,0,28.5,FINESTEERING,2319,303917.500,02000000,cdba,17139;SOL_COMPUTED,NARROW_INT,17.60130529728,78.12259494540,526.1157,-76.2000,WGS84,0.0089,0.0092,0.0208,"0",4.500,0.000,47,47,47,45,00,21,3f,37*bf118b0d
#BESTPOSA,FILE,0,28.5,FINESTEERING,2319,303917.550,02000000,cdba,17139;SOL_COMPUTED,NARROW_INT,17.60130703627,78.12259175760,526.1260,-76.2000,WGS84,0.0089,0.0092,0.0208,"0",4.550,0.000,47,47,47,45,00,21,3f,37*764ac82a
#BESTPOSA,FILE,0,28.5,FINESTEERING,2319,303917.600,02000000,cdba,17139;SOL_COMPUTED,NARROW_INT,17.60130879677,78.12258857193,526.1348,-76.2000,WGS84,0.0089,0.0092,0.0208,"0",4.600,0.000,47,47,47,45,00,21,3f,37*1e1066ef
#BESTPOSA,FILE,0,28.5,FINESTEERING,2319,303917.650,02000000,cdba,17139;SOL_COMPUTED,NARROW_INT,17.60131056175,78.12258540289,526.1452,-76.2000,WGS84,0.0090,0.0092,0.0209,"0",4.650,0.000,47,47,47,45,00,21,3f,37*270ed526
#BESTPOSA,FILE,0,28.5,FINESTEERING,2319,303917.700,02000000,cdba,17139;SOL_COMPUTED,NARROW_INT,17.60131229695,78.12258224335,526.1575,-76.2000,WGS84,0.0090,0.0092,0.0209,"0",4.700,0.000,47,47,47,45,00,21,3f,37*75b2dbbe
#BESTPOSA,FILE,0,28.5,FINESTEERING,2319,303917.750,02000000,cdba,17139;SOL_COMPUTED,NARROW_INT,17.60131404503,78.12257910814,526.1670,-76.2000,WGS84,0.0090,0.0092,0.0209,"0",4.750,0.000,47,47,47,45,00,21,3f,37*016eb7f0
#BESTPOSA,FILE,0,28.5,FINESTEERING,2319,303917.800,02000000,cdba,17139;SOL_COMPUTED,NARROW_INT,17.60131576453,78.12257600070,526.1755,-76.2000,WGS84,0.0090,0.0093,0.0209,"0",4.800,0.000,47,47,47,45,00,21,3f,37*128afb90
#BESTPOSA,FILE,0,28.5,FINESTEERING,2319,303917.850,02000000,cdba,17139;SOL_COMPUTED,NARROW_INT,17.60131746556,78.12257290672,526.1834,-76.2000,WGS84,0.0090,0.0093,0.0210,"0",4.850,0.000,47,47,47,45,00,21,3f,37*6ec5b755
#BESTPOSA,FILE,0,28.5,FINESTEERING,2319,303917.900,02000000,cdba,17139;SOL_COMPUTED,NARROW_INT,17.60131913751,78.12256985553,526.1887,-76.2000,WGS84,0.0090,0.0093,0.0210,"0",4.900,0.000,47,47,47,45,00,21,3f,37*44927554
#BESTPOSA,FILE,0,28.5,FINESTEERING,2319,303917.950,02000000,cdba,17139;SOL_COMPUTED,NARROW_INT,17.60132079101,78.12256683659,526.1922,-76.2000,WGS84,0.0090,0.0093,0.0210,"0",4.950,0.000,47,47,47,45,00,21,3f,37*7f835023
#BESTPOSA,FILE,0,28.5,FINESTEERING,2319,303918.000,02000000,cdba,17139;SOL_COMPUTED,NARROW_INT,17.60132243112,78.12256382030,526.1938,-76.2000,WGS84,0.0091,0.0093,0.0211,"0",5.000,0.000,47,47,47,45,00,21,3f,37*a6527a1e
#BESTPOSA,FILE,0,28.5,FINESTEERING,2319,303918.050,02000000,cdba,17139;SOL_COMPUTED,NARROW_INT,17.60132404329,78.12256080681,526.1975,-76.2000,WGS84,0.0092,0.0094,0.0213,"0",5.050,0.000,47,47,47,45,00,21,3f,37*7b907bb6
#BESTPOSA,FILE,0,28.5,FINESTEERING,2319,303918.100,02000000,cdba,17139;SOL_COMPUTED,NARROW_INT,17.60132563964,78.12255779633,526.1987,-76.2000,WGS84,0.0092,0.0094,0.0213,"0",5.100,0.000,47,47,47,45,00,21,3f,37*b24aef73
#BESTPOSA,FILE,0,33.0,FINESTEERING,2319,303918.150,02000000,cdba,17139;SOL_COMPUTED,NARROW_INT,17.60132722819,78.12255479258,526.2036,-76.2000,WGS84,0.0092,0.0094,0.0214,"0",5.150,0.000,47,47,47,45,00,21,3f,37*4bd721de
#BESTPOSA,FILE,0,33.0,FINESTEERING,2319,303918.200,02000000,cdba,17139;SOL_COMPUTED,NARROW_INT,17.60132878952,78.12255178521,526.2130,-76.2000,WGS84,0.0092,0.0095,0.0214,"0",5.200,0.000,47,47,47,45,00,21,3f,37*29745121
#BESTPOSA,FILE,0,33.0,FINESTEERING,2319,303918.250,02000000,cdba,17139;SOL_COMPUTED,NARROW_INT,17.60133035540,78.12254878462,526.2228,-76.2000,WGS84,0.0093,0.0095,0.0214,"0",5.250,0.000,47,47,47,45,00,21,3f,37*37c4b2d4
#BESTPOSA,FILE,0,33.0,FINESTEERING,2319,303918.300,02000000,cdba,17139;SOL_COMPUTED,NARROW_INT,17.60133188331,78.12254579261,526.2306,-76.2000,WGS84,0.0093,0.0095,0.0214,"0",5.300,0.000,47,47,47,45,00,21,3f,37*39291f3b
#BESTPOSA,FILE,0,33.0,FINESTEERING,2319,303918.350,02000000,cdba,17139;SOL_COMPUTED,NARROW_INT,17.60133341058,78.12254282528,526.2386,-76.2000,WGS84,0.0093,0.0095,0.0215,"0",5.350,0.000,47,47,47,45,00,21,3f,37*366a1e16
#BESTPOSA,FILE,0,33.0,FINESTEERING,2319,303918.400,02000000,cdba,17139;SOL_COMPUTED,NARROW_INT,17.60133492451,78.12253989045,526.2444,-76.2000,WGS84,0.0093,0.0095,0.0215,"0",5.400,0.000,47,47,47,45,00,21,3f,37*9b5aa123
#BESTPOSA,FILE,0,33.0,FINESTEERING,2319,303918.450,02000000,cdba,17139;SOL_COMPUTED,NARROW_INT,17.60133641248,78.12253697181,526.2509,-76.2000,WGS84,0.0093,0.0095,0.0215,"0",5.450,0.000,47,47,47,45,00,21,3f,37*1f545c76
#BESTPOSA,FILE,0,33.0,FINESTEERING,2319,303918.500,02000000,cdba,17139;SOL_COMPUTED,NARROW_INT,17.60133786937,78.12253405780,526.2549,-76.2000,WGS84,0.0093,0.0095,0.0215,"0",5.500,0.000,47,47,47,45,00,21,3f,37*7eb1356a
#BESTPOSA,FILE,0,33.0,FINESTEERING,2319,303918.550,02000000,cdba,17139;SOL_COMPUTED,NARROW_INT,17.60133931374,78.12253116559,526.2616,-76.2000,WGS84,0.0094,0.0095,0.0216,"0",5.550,0.000,48,47,47,45,00,21,3f,37*3493acfd
#BESTPOSA,FILE,0,33.0,FINESTEERING,2319,303918.600,02000000,cdba,17139;SOL_COMPUTED,NARROW_INT,17.60134072588,78.12252829243,526.2637,-76.2000,WGS84,0.0094,0.0096,0.0216,"0",5.600,0.000,47,47,47,45,00,21,3f,37*b0fbb4ee
#BESTPOSA,FILE,0,33.0,FINESTEERING,2319,303918.650,02000000,cdba,17139;SOL_COMPUTED,NARROW_INT,17.60134211581,78.12252540768,526.2649,-76.2000,WGS84,0.0094,0.0096,0.0216,"0",5.650,0.000,47,47,47,45,00,21,3f,37*f09299f7
#BESTPOSA,FILE,0,33.0,FINESTEERING,2319,303918.700,02000000,cdba,17139;SOL_COMPUTED,NARROW_INT,17.60134348842,78.12252255714,526.2694,-76.2000,WGS84,0.0094,0.0096,0.0217,"0",5.700,0.000,47,47,47,45,00,21,3f,37*ca8016f1
#BESTPOSA,FILE,0,33.0,FINESTEERING,2319,303918.750,02000000,cdba,17139;SOL_COMPUTED,NARROW_INT,17.60134482279,78.12251972219,526.2709,-76.2000,WGS84,0.0094,0.0096,0.0217,"0",5.750,0.000,47,47,47,45,00,21,3f,37*97e07427
#BESTPOSA,FILE,0,33.0,FINESTEERING,2319,303918.800,02000000,cdba,17139;SOL_COMPUTED,NARROW_INT,17.60134612919,78.12251686504,526.2775,-76.2000,WGS84,0.0094,0.0096,0.0217,"0",5.800,0.000,47,47,47,45,00,21,3f,37*d440f29e
#BESTPOSA,FILE,0,33.0,FINESTEERING,2319,303918.850,02000000,cdba,17139;SOL_COMPUTED,NARROW_INT,17.60134740275,78.12251402284,526.2805,-76.2000,WGS84,0.0095,0.0096,0.0218,"0",5.850,0.000,48,47,47,45,00,21,3f,37*126fa8e0
#BESTPOSA,FILE,0,33.0,FINESTEERING,2319,303918.900,02000000,cdba,17139;SOL_COMPUTED,NARROW_INT,17.60134865001,78.12251120604,526.2871,-76.2000,WGS84,0.0095,0.0096,0.0218,"0",5.900,0.000,48,47,47,45,00,21,3f,37*72d589e0
#BESTPOSA,FILE,0,33.0,FINESTEERING,2319,303918.950,02000000,cdba,17139;SOL_COMPUTED,NARROW_INT,17.60134987478,78.12250840103,526.2937,-76.2000,WGS84,0.0095,0.0096,0.0218,"0",5.950,0.000,48,47,47,45,00,21,3f,37*2402dc98
#BESTPOSA,FILE,0,33.0,FINESTEERING,2319,303919.000,02000000,cdba,17139;SOL_COMPUTED,NARROW_INT,17.60135106591,78.12250560830,526.3012,-76.2000,WGS84,0.0095,0.0097,0.0218,"0",6.000,0.000,48,47,47,45,00,21,3f,37*760f0c0f
#BESTPOSA,FILE,0,33.0,FINESTEERING,2319,303919.050,02000000,cdba,17139;SOL_COMPUTED,NARROW_INT,17.60135222996,78.12250282708,526.3033,-76.2000,WGS84,0.0096,0.0098,0.0221,"0",6.050,0.000,48,48,48,45,00,21,3f,37*0df4cade
#BESTPOSA,FILE,0,31.0,FINESTEERING,2319,303919.100,02000000,cdba,17139;SOL_COMPUTED,NARROW_INT,17.60135334637,78.12250006416,526.3097,-76.2000,WGS84,0.0096,0.0098,0.0221,"0",6.100,0.000,48,48,48,46,00,21,3f,37*7363903e
#BESTPOSA,FILE,0,31.0,FINESTEERING,2319,303919.150,02000000,cdba,17139;SOL_COMPUTED,NARROW_INT,17.60135443510,78.12249730614,526.3125,-76.2000,WGS84,0.0096,0.0098,0.0221,"0",6.150,0.000,48,48,48,46,00,21,3f,37*4876c349
#BESTPOSA,FILE,0,31.0,FINESTEERING,2319,303919.200,02000000,cdba,17139;SOL_COMPUTED,NARROW_INT,17.60135547775,78.12249456674,526.3171,-76.2000,WGS84,0.0097,0.0098,0.0222,"0",6.200,0.000,48,48,48,46,00,21,3f,37*14c8d79a
#BESTPOSA,FILE,0,31.0,FINESTEERING,2319,303919.250,02000000,cdba,17139;SOL_COMPUTED,NARROW_INT,17.60135648592,78.12249183024,526.3197,-76.2000,WGS84,0.0097,0.0098,0.0222,"0",6.250,0.000,48,48,48,46,00,21,3f,37*10949c1c
#BESTPOSA,FILE,0,31.0,FINESTEERING,2319,303919.300,02000000,cdba,17139;SOL_COMPUTED,NARROW_INT,17.60135746547,78.12248909094,526.3235,-76.2000,WGS84,0.0097,0.0098,0.0222,"0",6.300,0.000,48,48,48,46,00,21,3f,37*be81cf52
#BESTPOSA,FILE,0,31.0,FINESTEERING,2319,303919.350,02000000,cdba,17139;SOL_COMPUTED,NARROW_INT,17.60135840531,78.12248636602,526.3279,-76.2000,WGS84,0.0097,0.0099,0.0223,"0",6.350,0.000,48,48,48,46,00,21,3f,37*4de77f22
#BESTPOSA,FILE,0,31.0,FINESTEERING,2319,303919.400,02000000,cdba,17139;SOL_COMPUTED,NARROW_INT,17.60135928814,78.12248364679,526.3346,-76.2000,WGS84,0.0097,0.0099,0.0223,"0",6.400,0.000,48,48,48,46,00,21,3f,37*b2696377
#BESTPOSA,FILE,0,31.0,FINESTEERING,2319,303919.450,02000000,cdba,17139;SOL_COMPUTED,NARROW_INT,17.60136011800,78.12248093572,526.3420,-76.2000,WGS84,0.0097,0.0099,0.0223,"0",6.450,0.000,48,48,48,46,00,21,3f,37*2afab2fb
#BESTPOSA,FILE,0,31.0,FINESTEERING,2319,303919.500,02000000,cdba,17139;SOL_COMPUTED,NARROW_INT,17.60136091004,78.12247823274,526.3453,-76.2000,WGS84,0.0098,0.0099,0.0224,"0",6.500,0.000,48,48,48,46,00,21,3f,37*e0a93a96
#BESTPOSA,FILE,0,31.0,FINESTEERING,2319,303919.550,02000000,cdba,17139;SOL_COMPUTED,NARROW_INT,17.60136166327,78.12247552255,526.3519,-76.2000,WGS84,0.0098,0.0099,0.0224,"0",6.550,0.000,48,48,48,46,00,21,3f,37*3a01cf32
#BESTPOSA,FILE,0,31.0,FINESTEERING,2319,303919.600,02000000,cdba,17139;SOL_COMPUTED,NARROW_INT,17.60136240152,78.12247284863,526.3617,-76.2000,WGS84,0.0098,0.0099,0.0224,"0",6.600,0.000,48,48,48,46,00,21,3f,37*d1401e87
#BESTPOSA,FILE,0,31.0,FINESTEERING,2319,303919.650,02000000,cdba,17139;SOL_COMPUTED,NARROW_INT,17.60136307132,78.12247016922,526.3655,-76.2000,WGS84,0.0098,0.0099,0.0224,"0",6.650,0.000,48,48,48,46,00,21,3f,37*8e7842f8
#BESTPOSA,FILE,0,31.0,FINESTEERING,2319,303919.700,02000000,cdba,17139;SOL_COMPUTED,NARROW_INT,17.60136371484,78.12246752142,526.3717,-76.2000,WGS84,0.0098,0.0099,0.0225,"0",6.700,0.000,48,48,48,46,00,21,3f,37*b5d504fa
#BESTPOSA,FILE,0,31.0,FINESTEERING,2319,303919.750,02000000,cdba,17139;SOL_COMPUTED,NARROW_INT,17.60136431204,78.12246488222,526.3766,-76.2000,WGS84,0.0098,0.0100,0.0225,"0",6.750,0.000,48,48,48,46,00,21,3f,37*8d431b8b
#BESTPOSA,FILE,0,31.0,FINESTEERING,2319,303919.800,02000000,cdba,17139;SOL_COMPUTED,NARROW_INT,17.60136489714,78.12246225791,526.3801,-76.2000,WGS84,0.0099,0.0100,0.0225,"0",6.800,0.000,48,48,48,46,00,21,3f,37*f2751b2e
#BESTPOSA,FILE,0,31.0,FINESTEERING,2319,303919.850,02000000,cdba,17139;SOL_COMPUTED,NARROW_INT,17.60136544408,78.12245964496,526.3857,-76.2000,WGS84,0.0099,0.0100,0.0226,"0",6.850,0.000,48,48,48,46,00,21,3f,37*b156e578
#BESTPOSA,FILE,0,31.0,FINESTEERING,2319,303919.900,02000000,cdba,17139;SOL_COMPUTED,NARROW_INT,17.60136594839,78.12245703262,526.3889,-76.2000,WGS84,0.0099,0.0100,0.0226,"0",6.900,0.000,48,48,48,46,00,21,3f,37*5db996ca
#BESTPOSA,FILE,0,31.0,FINESTEERING,2319,303919.950,02000000,cdba,17139;SOL_COMPUTED,NARROW_INT,17.60136642483,78.12245442409,526.3938,-76.2000,WGS84,0.0099,0.0100,0.0226,"0",6.950,0.000,48,48,48,46,00,21,3f,37*d8b7c07f
#BESTPOSA,FILE,0,31.0,FINESTEERING,2319,303920.000,02000000,cdba,17139;SOL_COMPUTED,NARROW_INT,17.60136686050,78.12245183403,526.4005,-76.2000,WGS84,0.0099,0.0100,0.0226,"0",7.000,0.000,48,48,48,46,00,21,3f,37*783a99db
#BESTPOSA,FILE,0,31.0,FINESTEERING,2319,303920.050,02000000,cdba,17139;SOL_COMPUTED,NARROW_INT,17.60136727255,78.12244924004,526.4045,-76.2000,WGS84,0.0100,0.0101,0.0229,"0",7.050,0.000,48,48,48,46,00,21,3f,37*5f6f9e32
#BESTPOSA,FILE,0,31.0,FINESTEERING,2319,303920.100,02000000,cdba,17139;SOL_COMPUTED,NARROW_INT,17.60136765202,78.12244662626,526.4080,-76.2000,WGS84,0.0101,0.0101,0.0229,"0",7.100,0.000,48,48,48,46,00,21,3f,37*757582f6
#BESTPOSA,FILE,0,33.5,FINESTEERING,2319,303920.150,02000000,cdba,17139;SOL_COMPUTED,NARROW_INT,17.60136800982,78.12244403169,526.4139,-76.2000,WGS84,0.0101,0.0101,0.0229,"0",7.150,0.000,48,48,48,46,00,21,3f,37*cad58d55
#BESTPOSA,FILE,0,33.5,FINESTEERING,2319,303920.200,02000000,cdba,17139;SOL_COMPUTED,NARROW_INT,17.60136830958,78.12244143856,526.4166,-76.2000,WGS84,0.0101,0.0102,0.0230,"0",7.200,0.000,48,48,48,46,00,21,3f,37*4681c834
#BESTPOSA,FILE,0,33.5,FINESTEERING,2319,303920.250,02000000,cdba,17139;SOL_COMPUTED,NARROW_INT,17.60136857102,78.12243884220,526.4208,-76.2000,WGS84,0.0101,0.0102,0.0230,"0",7.250,0.000,48,48,48,46,00,21,3f,37*0a3b2dcb
#BESTPOSA,FILE,0,33.5,FINESTEERING,2319,303920.300,02000000,cdba,17139;SOL_COMPUTED,NARROW_INT,17.60136877324,78.12243624247,526.4263,-76.2000,WGS84,0.0101,0.0102,0.0230,"0",7.300,0.000,48,48,48,46,00,21,3f,37*150da72e
#BESTPOSA,FILE,0,33.5,FINESTEERING,2319,303920.350,02000000,cdba,17139;SOL_COMPUTED,NARROW_INT,17.60136893949,78.12243366829,526.4277,-76.2000,WGS84,0.0101,0.0102,0.0231,"0",7.350,0.000,48,48,48,46,00,21,3f,37*c2173461
#BESTPOSA,FILE,0,33.5,FINESTEERING,2319,303920.400,02000000,cdba,17139;SOL_COMPUTED,NARROW_INT,17.60136907068,78.12243109616,526.4326,-76.2000,WGS84,0.0101,0.0102,0.0231,"0",7.400,0.000,48,48,48,46,00,21,3f,37*57122bd3
#BESTPOSA,FILE,0,33.5,FINESTEERING,2319,303920.450,02000000,cdba,17139;SOL_COMPUTED,NARROW_INT,17.60136918050,78.12242851691,526.4390,-76.2000,WGS84,0.0102,0.0102,0.0231,"0",7.450,0.000,48,48,48,46,00,21,3f,37*4cfbeb7a
#BESTPOSA,FILE,0,33.5,FINESTEERING,2319,303920.500,02000000,cdba,17139;SOL_COMPUTED,NARROW_INT,17.60136926642,78.12242596008,526.4429,-76.2000,WGS84,0.0102,0.0102,0.0231,"0",7.500,0.000,48,48,48,46,00,21,3f,37*f4f1b8c4
#BESTPOSA,FILE,0,33.5,FINESTEERING,2319,303920.550,02000000,cdba,17139;SOL_COMPUTED,NARROW_INT,17.60136933641,78.12242340382,526.4433,-76.2000,WGS84,0.0102,0.0102,0.0232,"0",7.550,0.000,48,48,48,46,00,21,3f,37*d9fed9ef
#BESTPOSA,FILE,0,33.5,FINESTEERING,2319,303920.600,02000000,cdba,17139;SOL_COMPUTED,NARROW_INT,17.60136936638,78.12242085493,526.4452,-76.2000,WGS84,0.0102,0.0103,0.0232,"0",7.600,0.000,48,48,48,46,00,21,3f,37*2141af25
#BESTPOSA,FILE,0,33.5,FINESTEERING,2319,303920.650,02000000,cdba,17139;SOL_COMPUTED,NARROW_INT,17.60136932616,78.12241830350,526.4423,-76.2000,WGS84,0.0102,0.0103,0.0232,"0",7.650,0.000,48,48,48,46,00,21,3f,37*9791308c
#BESTPOSA,FILE,0,33.5,FINESTEERING,2319,303920.700,02000000,cdba,17139;SOL_COMPUTED,NARROW_INT,17.60136924958,78.12241574391,526.4443,-76.2000,WGS84,0.0102,0.0103,0.0232,"0",7.700,0.000,49,48,48,46,00,21,3f,37*68a0e51d
#BESTPOSA,FILE,0,33.5,FINESTEERING,2319,303920.750,02000000,cdba,17139;SOL_COMPUTED,NARROW_INT,17.60136914198,78.12241319149,526.4471,-76.2000,WGS84,0.0102,0.0103,0.0233,"0",7.750,0.000,49,48,48,46,00,21,3f,37*fe07a734
#BESTPOSA,FILE,0,33.5,FINESTEERING,2319,303920.800,02000000,cdba,17139;SOL_COMPUTED,NARROW_INT,17.60136899069,78.12241065225,526.4466,-76.2000,WGS84,0.0102,0.0103,0.0233,"0",7.800,0.000,49,48,48,46,00,21,3f,37*3937437c
#BESTPOSA,FILE,0,33.5,FINESTEERING,2319,303920.850,02000000,cdba,17139;SOL_COMPUTED,NARROW_INT,17.60136882071,78.12240811545,526.4513,-76.2000,WGS84,0.0103,0.0103,0.0233,"0",7.850,0.000,49,48,48,46,00,21,3f,37*cbb98b5f
#BESTPOSA,FILE,0,33.5,FINESTEERING,2319,303920.900,02000000,cdba,17139;SOL_COMPUTED,NARROW_INT,17.60136862392,78.12240558752,526.4543,-76.2000,WGS84,0.0103,0.0103,0.0233,"0",7.900,0.000,49,48,48,46,00,21,3f,37*1568f662
#BESTPOSA,FILE,0,33.5,FINESTEERING,2319,303920.950,02000000,cdba,17139;SOL_COMPUTED,NARROW_INT,17.60136840351,78.12240307796,526.4570,-76.2000,WGS84,0.0103,0.0103,0.0234,"0",7.950,0.000,49,48,48,46,00,21,3f,37*ab4976f8
#BESTPOSA,FILE,0,33.5,FINESTEERING,2319,303921.000,02000000,cdba,17139;SOL_COMPUTED,NARROW_INT,17.60136815715,78.12240057004,526.4583,-76.2000,WGS84,0.0103,0.0103,0.0234,"0",8.000,0.000,50,48,48,46,00,21,3f,37*5a147fe4
#BESTPOSA,FILE,0,33.5,FINESTEERING,2319,303921.050,02000000,cdba,17139;SOL_COMPUTED,NARROW_INT,17.60136789511,78.12239808071,526.4606,-76.2000,WGS84,0.0104,0.0104,0.0236,"0",8.050,0.000,50,49,49,47,00,21,3f,37*f6551dd0
#BESTPOSA,FILE,0,31.5,FINESTEERING,2319,303921.100,02000000,cdba,17139;SOL_COMPUTED,NARROW_INT,17.60136760453,78.12239558499,526.4599,-76.2000,WGS84,0.0104,0.0104,0.0236,"0",8.100,0.000,50,49,49,47,00,21,3f,37*e86b781c
#BESTPOSA,FILE,0,31.5,FINESTEERING,2319,303921.150,02000000,cdba,17139;SOL_COMPUTED,NARROW_INT,17.60136729408,78.12239310455,526.4577,-76.2000,WGS84,0.0104,0.0105,0.0237,"0",8.150,0.000,50,49,49,47,00,21,3f,37*fea2376b
#BESTPOSA,FILE,0,31.5,FINESTEERING,2319,303921.200,02000000,cdba,17139;SOL_COMPUTED,NARROW_INT,17.60136693627,78.12239062522,526.4576,-76.2000,WGS84,0.0105,0.0105,0.0237,"0",8.200,0.000,50,50,50,47,00,21,3f,37*24fee7ab
#BESTPOSA,FILE,0,31.5,FINESTEERING,2319,303921.250,02000000,cdba,17139;SOL_COMPUTED,NARROW_INT,17.60136654879,78.12238815756,526.4585,-76.2000,WGS84,0.0105,0.0105,0.0237,"0",8.250,0.000,50,50,50,47,00,21,3f,37*571af6f6
#BESTPOSA,FILE,0,31.5,FINESTEERING,2319,303921.300,02000000,cdba,17139;SOL_COMPUTED,NARROW_INT,17.60136613858,78.12238568689,526.4567,-76.2000,WGS84,0.0105,0.0105,0.0237,"0",8.300,0.000,50,50,50,47,00,21,3f,37*a6452c0b
#BESTPOSA,FILE,0,31.5,FINESTEERING,2319,303921.350,02000000,cdba,17139;SOL_COMPUTED,NARROW_INT,17.60136568974,78.12238321939,526.4553,-76.2000,WGS84,0.0105,0.0105,0.0238,"0",8.350,0.000,50,50,50,47,00,21,3f,37*c495ff58
#BESTPOSA,FILE,0,31.5,FINESTEERING,2319,303921.400,02000000,cdba,17139;SOL_COMPUTED,NARROW_INT,17.60136518229,78.12238065343,526.4601,-76.2000,WGS84,0.0063,0.0071,0.0169,"0",0.400,0.000,50,50,50,47,00,21,3f,37*dfb003c2
#BESTPOSA,FILE,0,31.5,FINESTEERING,2319,303921.450,02000000,cdba,17139;SOL_COMPUTED,NARROW_INT,17.60136465537,78.12237822348,526.4630,-76.2000,WGS84,0.0063,0.0071,0.0169,"0",0.450,0.000,50,50,50,47,00,21,3f,37*00e0b2da
#BESTPOSA,FILE,0,31.5,FINESTEERING,2319,303921.500,02000000,cdba,17139;SOL_COMPUTED,NARROW_INT,17.60136411324,78.12237579223,526.4656,-76.2000,WGS84,0.0064,0.0072,0.0170,"0",0.500,0.000,51,50,50,47,00,21,3f,37*998a1303
#BESTPOSA,FILE,0,31.5,FINESTEERING,2319,303921.550,02000000,cdba,17139;SOL_COMPUTED,NARROW_INT,17.60136353443,78.12237339085,526.4658,-76.2000,WGS84,0.0064,0.0072,0.0170,"0",0.550,0.000,51,50,50,47,00,21,3f,37*0158b6c4
#BESTPOSA,FILE,0,31.5,FINESTEERING,2319,303921.600,02000000,cdba,17139;SOL_COMPUTED,NARROW_INT,17.60136291923,78.12237100288,526.4665,-76.2000,WGS84,0.0064,0.0072,0.0170,"0",0.600,0.000,51,50,50,47,00,21,3f,37*8bbac574
#BESTPOSA,FILE,0,31.5,FINESTEERING,2319,303921.650,02000000,cdba,17139;SOL_COMPUTED,NARROW_INT,17.60136229344,78.12236862831,526.4667,-76.2000,WGS84,0.0064,0.0072,0.0171,"0",0.650,0.000,51,50,50,47,00,21,3f,37*03bb5cea
#BESTPOSA,FILE,0,31.5,FINESTEERING,2319,303921.700,02000000,cdba,17139;SOL_COMPUTED,NARROW_INT,17.60136162640,78.12236628624,526.4656,-76.2000,WGS84,0.0064,0.0072,0.0171,"0",0.700,0.000,51,50,50,47,00,21,3f,37*adf60192
#BESTPOSA,FILE,0,31.5,FINESTEERING,2319,303921.750,02000000,cdba,17139;SOL_COMPUTED,NARROW_INT,17.60136093410,78.12236395452,526.4608,-76.2000,WGS84,0.0065,0.0072,0.0171,"0",0.750,0.000,51,50,50,47,00,21,3f,37*03530c09
#BESTPOSA,FILE,0,31.5,FINESTEERING,2319,303921.800,02000000,cdba,17139;SOL_COMPUTED,NARROW_INT,17.60136023136,78.12236164809,526.4576,-76.2000,WGS84,0.0065,0.0072,0.0172,"0",0.800,0.000,51,50,50,47,00,21,3f,37*06d1af55
#BESTPOSA,FILE,0,31.5,FINESTEERING,2319,303921.850,02000000,cdba,17139;SOL_COMPUTED,NARROW_INT,17.60135949084,78.12235934046,526.4559,-76.2000,WGS84,0.0065,0.0073,0.0172,"0",0.850,0.000,51,50,50,47,00,21,3f,37*4b0439ba
#BESTPOSA,FILE,0,31.5,FINESTEERING,2319,303921.900,02000000,cdba,17139;SOL_COMPUTED,NARROW_INT,17.60135870192,78.12235704191,526.4562,-76.2000,WGS84,0.0065,0.0073,0.0173,"0",0.900,0.000,51,50,50,47,00,21,3f,37*5c70f809
#BESTPOSA,FILE,0,31.5,FINESTEERING,2319,303921.950,02000000,cdba,17139;SOL_COMPUTED,NARROW_INT,17.60135789497,78.12235474776,526.4555,-76.2000,WGS84,0.0065,0.0073,0.0173,"0",0.950,0.000,51,50,50,47,00,21,3f,37*43169a80
#BESTPOSA,FILE,0,31.5,FINESTEERING,2319,303922.000,02000000,cdba,17139;SOL_COMPUTED,NARROW_INT,17.60135704345,78.12235246999,526.4577,-76.2000,WGS84,0.0066,0.0073,0.0173,"0",1.000,0.000,51,50,50,47,00,21,3f,37*ec9507fe
#BESTPOSA,FILE,0,31.5,FINESTEERING,2319,303922.050,02000000,cdba,17139;SOL_COMPUTED,NARROW_INT,17.60135615744,78.12235020358,526.4605,-76.2000,WGS84,0.0067,0.0074,0.0175,"0",1.050,0.000,51,51,51,48,00,21,3f,37*49b4c807
#BESTPOSA,FILE,0,31.5,FINESTEERING,2319,303922.100,02000000,cdba,17139;SOL_COMPUTED,NARROW_INT,17.60135524433,78.12234797150,526.4602,-76.2000,WGS84,0.0067,0.0074,0.0176,"0",1.100,0.000,51,51,51,48,00,21,3f,37*f0eed207
#BESTPOSA,FILE,0,31.5,FINESTEERING,2319,303922.150,02000000,cdba,17139;SOL_COMPUTED,NARROW_INT,17.60135431118,78.12234576089,526.4618,-76.2000,WGS84,0.0067,0.0074,0.0176,"0",1.150,0.000,51,51,51,48,00,21,3f,37*7cf3671a
#BESTPOSA,FILE,0,28.5,FINESTEERING,2319,303922.200,02000000,cdba,17139;SOL_COMPUTED,NARROW_INT,17.60135335524,78.12234354502,526.4667,-76.2000,WGS84,0.0067,0.0074,0.0176,"0",1.200,0.000,51,51,51,48,00,21,3f,37*5f556d97
#BESTPOSA,FILE,0,28.5,FINESTEERING,2319,303922.250,02000000,cdba,17139;SOL_COMPUTED,NARROW_INT,17.60135237621,78.12234135647,526.4665,-76.2000,WGS84,0.0068,0.0075,0.0177,"0",1.250,0.000,51,51,51,48,00,21,3f,37*36c7850f
#BESTPOSA,FILE,0,28.5,FINESTEERING,2319,303922.300,02000000,cdba,17139;SOL_COMPUTED,NARROW_INT,17.60135136475,78.12233920592,526.4643,-76.2000,WGS84,0.0068,0.0075,0.0177,"0",1.300,0.000,51,51,51,48,00,21,3f,37*47a73a49
#BESTPOSA,FILE,0,28.5,FINESTEERING,2319,303922.350,02000000,cdba,17139;SOL_COMPUTED,NARROW_INT,17.60135034214,78.12233708513,526.4647,-76.2000,WGS84,0.0068,0.0075,0.0177,"0",1.350,0.000,51,51,51,48,00,21,3f,37*ca70dd09
#BESTPOSA,FILE,0,28.5,FINESTEERING,2319,303922.400,02000000,cdba,17139;SOL_COMPUTED,NARROW_INT,17.60134928905,78.12233493747,526.4665,-76.2000,WGS84,0.0068,0.0075,0.0178,"0",1.400,0.000,51,51,51,48,00,21,3f,37*c75e13d4
#BESTPOSA,FILE,0,28.5,FINESTEERING,2319,303922.450,02000000,cdba,17139;SOL_COMPUTED,NARROW_INT,17.60134821400,78.12233283617,526.4689,-76.2000,WGS84,0.0068,0.0075,0.0178,"0",1.450,0.000,51,51,51,48,00,21,3f,37*6238f19d
#BESTPOSA,FILE,0,28.5,FINESTEERING,2319,303922.500,02000000,cdba,17139;SOL_COMPUTED,NARROW_INT,17.60134710638,78.12233075818,526.4707,-76.2000,WGS84,0.0068,0.0075,0.0178,"0",1.500,0.000,51,51,51,48,00,21,3f,37*b1ff05ba
#BESTPOSA,FILE,0,28.5,FINESTEERING,2319,303922.550,02000000,cdba,17139;SOL_COMPUTED,NARROW_INT,17.60134597393,78.12232868609,526.4703,-76.2000,WGS84,0.0069,0.0076,0.0179,"0",1.550,0.000,51,51,51,48,00,21,3f,37*3823b026
#BESTPOSA,FILE,0,28.5,FINESTEERING,2319,303922.600,02000000,cdba,17139;SOL_COMPUTED,NARROW_INT,17.60134482791,78.12232662464,526.4695,-76.2000,WGS84,0.0069,0.0076,0.0179,"0",1.600,0.000,51,51,51,48,00,21,3f,37*8cba8e7a
#BESTPOSA,FILE,0,28.5,FINESTEERING,2319,303922.650,02000000,cdba,17139;SOL_COMPUTED,NARROW_INT,17.60134364722,78.12232456995,526.4700,-76.2000,WGS84,0.0069,0.0076,0.0179,"0",1.650,0.000,51,51,51,48,00,21,3f,37*5d9b7315
#BESTPOSA,FILE,0,28.5,FINESTEERING,2319,303922.700,02000000,cdba,17139;SOL_COMPUTED,NARROW_INT,17.60134245559,78.12232253704,526.4715,-76.2000,WGS84,0.0069,0.0076,0.0180,"0",1.700,0.000,51,51,51,48,00,21,3f,37*e1ea8c22
#BESTPOSA,FILE,0,28.5,FINESTEERING,2319,303922.750,02000000,cdba,17139;SOL_COMPUTED,NARROW_INT,17.60134124867,78.12232051487,526.4744,-76.2000,WGS84,0.0069,0.0076,0.0180,"0",1.750,0.000,51,51,51,48,00,21,3f,37*44e6ef47
#BESTPOSA,FILE,0,28.5,FINESTEERING,2319,303922.800,02000000,cdba,17139;SOL_COMPUTED,NARROW_INT,17.60134000779,78.12231851926,526.4762,-76.2000,WGS84,0.0070,0.0076,0.0180,"0",1.800,0.000,51,51,51,48,00,21,3f,37*8e566835
#BESTPOSA,FILE,0,28.5,FINESTEERING,2319,303922.850,02000000,cdba,17139;SOL_COMPUTED,NARROW_INT,17.60133875269,78.12231653988,526.4775,-76.2000,WGS84,0.0070,0.0076,0.0181,"0",1.850,0.000,52,51,51,48,00,21,3f,37*315280b2
#BESTPOSA,FILE,0,28.5,FINESTEERING,2319,303922.900,02000000,cdba,17139;SOL_COMPUTED,NARROW_INT,17.60133747173,78.12231457502,526.4784,-76.2000,WGS84,0.0070,0.0077,0.0181,"0",1.900,0.000,52,51,51,48,00,21,3f,37*d168292e
#BESTPOSA,FILE,0,28.5,FINESTEERING,2319,303922.950,02000000,cdba,17139;SOL_COMPUTED,NARROW_INT,17.60133615994,78.12231263729,526.4808,-76.2000,WGS84,0.0070,0.0077,0.0181,"0",1.950,0.000,52,51,51,48,00,21,3f,37*1574de42
#BESTPOSA,FILE,0,28.5,FINESTEERING,2319,303923.000,02000000,cdba,17139;SOL_COMPUTED,NARROW_INT,17.60133481532,78.12231071926,526.4816,-76.2000,WGS84,0.0070,0.0077,0.0182,"0",2.000,0.000,52,51,51,48,00,21,3f,37*eb901895
#BESTPOSA,FILE,0,28.5,FINESTEERING,2319,303923.050,02000000,cdba,17139;SOL_COMPUTED,NARROW_INT,17.60133344621,78.12230880546,526.4851,-76.2000,WGS84,0.0071,0.0078,0.0184,"0",2.050,0.000,52,52,52,48,00,21,3f,37*dc48f5b5
#BESTPOSA,FILE,0,28.5,FINESTEERING,2319,303923.100,02000000,cdba,17139;SOL_COMPUTED,NARROW_INT,17.60133207096,78.12230693382,526.4870,-76.2000,WGS84,0.0072,0.0078,0.0184,"0",2.100,0.000,52,52,52,49,00,21,3f,37*2d5f7325
#BESTPOSA,FILE,0,30.5,FINESTEERING,2319,303923.150,02000000,cdba,17139;SOL_COMPUTED,NARROW_INT,17.60133067549,78.12230506528,526.4857,-76.2000,WGS84,0.0072,0.0078,0.0184,"0",2.150,0.000,52,52,52,49,00,21,3f,37*9be5e8ac
#BESTPOSA,FILE,0,30.5,FINESTEERING,2319,303923.200,02000000,cdba,17139;SOL_COMPUTED,NARROW_INT,17.60132923642,78.12230323792,526.4766,-76.2000,WGS84,0.0076,0.0100,0.0225,"0",1.200,0.000,52,52,52,48,00,21,3f,37*f1373644
#BESTPOSA,FILE,0,30.5,FINESTEERING,2319,303923.250,02000000,cdba,17139;SOL_COMPUTED,NARROW_INT,17.60132780971,78.12230141708,526.4752,-76.2000,WGS84,0.0076,0.0100,0.0226,"0",1.250,0.000,52,52,52,48,00,21,3f,37*e93f972d
#BESTPOSA,FILE,0,30.5,FINESTEERING,2319,303923.300,02000000,cdba,17139;SOL_COMPUTED,NARROW_INT,17.60132637212,78.12229963421,526.4769,-76.2000,WGS84,0.0076,0.0100,0.0226,"0",1.300,0.000,52,52,52,48,00,21,3f,37*f4821d18
#BESTPOSA,FILE,0,30.5,FINESTEERING,2319,303923.350,02000000,cdba,17139;SOL_COMPUTED,NARROW_INT,17.60132491180,78.12229782894,526.4793,-76.2000,WGS84,0.0064,0.0072,0.0172,"0",0.350,0.000,52,52,52,48,00,21,3f,37*f5ae394f
#BESTPOSA,FILE,0,30.5,FINESTEERING,2319,303923.400,02000000,cdba,17139;SOL_COMPUTED,NARROW_INT,17.60132342754,78.12229609209,526.4769,-76.2000,WGS84,0.0064,0.0072,0.0172,"0",0.400,0.000,52,52,52,48,00,21,3f,37*1a16eaed
#BESTPOSA,FILE,0,30.5,FINESTEERING,2319,303923.450,02000000,cdba,17139;SOL_COMPUTED,NARROW_INT,17.60132191150,78.12229438955,526.4749,-76.2000,WGS84,0.0064,0.0072,0.0172,"0",0.450,0.000,52,52,52,48,00,21,3f,37*a1ca0a3f
#BESTPOSA,FILE,0,30.5,FINESTEERING,2319,303923.500,02000000,cdba,17139;SOL_COMPUTED,NARROW_INT,17.60132038196,78.12229270146,526.4734,-76.2000,WGS84,0.0064,0.0072,0.0173,"0",0.500,0.000,52,52,52,48,00,21,3f,37*ec978e57
#BESTPOSA,FILE,0,30.5,FINESTEERING,2319,303923.550,02000000,cdba,17139;SOL_COMPUTED,NARROW_INT,17.60131883892,78.12229101208,526.4743,-76.2000,WGS84,0.0064,0.0072,0.0173,"0",0.550,0.000,52,52,52,48,00,21,3f,37*036ad74b
#BESTPOSA,FILE,0,30.5,FINESTEERING,2319,303923.600,02000000,cdba,17139;SOL_COMPUTED,NARROW_INT,17.60131727748,78.12228934974,526.4719,-76.2000,WGS84,0.0065,0.0073,0.0173,"0",0.600,0.000,52,52,52,48,00,21,3f,37*93d9f86f
#BESTPOSA,FILE,0,30.5,FINESTEERING,2319,303923.650,02000000,cdba,17139;SOL_COMPUTED,NARROW_INT,17.60131570268,78.12228770906,526.4689,-76.2000,WGS84,0.0065,0.0073,0.0174,"0",0.650,0.000,52,52,52,48,00,21,3f,37*e7a719a3
#BESTPOSA,FILE,0,30.5,FINESTEERING,2319,303923.700,02000000,cdba,17139;SOL_COMPUTED,NARROW_INT,17.60131410793,78.12228609102,526.4675,-76.2000,WGS84,0.0065,0.0073,0.0174,"0",0.700,0.000,52,52,52,48,00,21,3f,37*d31aab80
#BESTPOSA,FILE,0,30.5,FINESTEERING,2319,303923.750,02000000,cdba,17139;SOL_COMPUTED,NARROW_INT,17.60131249443,78.12228449860,526.4657,-76.2000,WGS84,0.0065,0.0073,0.0174,"0",0.750,0.000,52,52,52,48,00,21,3f,37*19176839
#BESTPOSA,FILE,0,30.5,FINESTEERING,2319,303923.800,02000000,cdba,17139;SOL_COMPUTED,NARROW_INT,17.60131084782,78.12228295427,526.4612,-76.2000,WGS84,0.0065,0.0073,0.0175,"0",0.800,0.000,52,52,52,48,00,21,3f,37*d5203647
#BESTPOSA,FILE,0,30.5,FINESTEERING,2319,303923.850,02000000,cdba,17139;SOL_COMPUTED,NARROW_INT,17.60130917731,78.12228144252,526.4624,-76.2000,WGS84,0.0066,0.0073,0.0175,"0",0.850,0.000,52,52,52,48,00,21,3f,37*2987bd81
#BESTPOSA,FILE,0,30.5,FINESTEERING,2319,303923.900,02000000,cdba,17139;SOL_COMPUTED,NARROW_INT,17.60130747560,78.12227994367,526.4624,-76.2000,WGS84,0.0066,0.0074,0.0175,"0",0.900,0.000,52,52,52,48,00,21,3f,37*c795b89d
#BESTPOSA,FILE,0,30.5,FINESTEERING,2319,303923.950,02000000,cdba,17139;SOL_COMPUTED,NARROW_INT,17.60130575165,78.12227846261,526.4650,-76.2000,WGS84,0.0066,0.0074,0.0176,"0",0.950,0.000,52,52,52,48,00,21,3f,37*67e8fd97
#BESTPOSA,FILE,0,30.5,FINESTEERING,2319,303924.000,02000000,cdba,17139;SOL_COMPUTED,NARROW_INT,17.60130401629,78.12227699408,526.4640,-76.2000,WGS84,0.0066,0.0074,0.0176,"0",1.000,0.000,52,52,52,48,00,21,3f,37*545942fc
#BESTPOSA,FILE,0,30.5,FINESTEERING,2319,303924.050,02000000,cdba,17139;SOL_COMPUTED,NARROW_INT,17.60130226293,78.12227554324,526.4628,-76.2000,WGS84,0.0067,0.0075,0.0178,"0",1.050,0.000,52,52,52,49,00,21,3f,37*6effc05b
#BESTPOSA,FILE,0,27.0,FINESTEERING,2319,303924.100,02000000,cdba,17139;SOL_COMPUTED,NARROW_INT,17.60130049951,78.12227411590,526.4620,-76.2000,WGS84,0.0067,0.0075,0.0178,"0",1.100,0.000,52,52,52,49,00,21,3f,37*bf57482b
#BESTPOSA,FILE,0,27.0,FINESTEERING,2319,303924.150,02000000,cdba,17139;SOL_COMPUTED,NARROW_INT,17.60129871187,78.12227271202,526.4625,-76.2000,WGS84,0.0067,0.0075,0.0179,"0",1.150,0.000,52,52,52,49,00,21,3f,37*209120a0
#BESTPOSA,FILE,0,27.0,FINESTEERING,2319,303924.200,02000000,cdba,17139;SOL_COMPUTED,NARROW_INT,17.60129691838,78.12227133061,526.4622,-76.2000,WGS84,0.0068,0.0075,0.0179,"0",1.200,0.000,52,52,52,49,00,21,3f,37*d25cf79c
#BESTPOSA,FILE,0,27.0,FINESTEERING,2319,303924.250,02000000,cdba,17139;SOL_COMPUTED,NARROW_INT,17.60129511635,78.12226997917,526.4619,-76.2000,WGS84,0.0068,0.0076,0.0179,"0",1.250,0.000,52,52,52,49,00,21,3f,37*69962384
#BESTPOSA,FILE,0,27.0,FINESTEERING,2319,303924.300,02000000,cdba,17139;SOL_COMPUTED,NARROW_INT,17.60129328873,78.12226865735,526.4601,-76.2000,WGS84,0.0068,0.0076,0.0180,"0",1.300,0.000,52,52,52,49,00,21,3f,37*7393d4d0
#BESTPOSA,FILE,0,27.0,FINESTEERING,2319,303924.350,02000000,cdba,17139;SOL_COMPUTED,NARROW_INT,17.60129144464,78.12226736852,526.4586,-76.2000,WGS84,0.0068,0.0076,0.0180,"0",1.350,0.000,52,52,52,49,00,21,3f,37*7316abfd
#BESTPOSA,FILE,0,27.0,FINESTEERING,2319,303924.400,02000000,cdba,17139;SOL_COMPUTED,NARROW_INT,17.60128959027,78.12226609173,526.4592,-76.2000,WGS84,0.0068,0.0076,0.0180,"0",1.400,0.000,52,52,52,49,00,21,3f,37*6de8126f
#BESTPOSA,FILE,0,27.0,FINESTEERING,2319,303924.450,02000000,cdba,17139;SOL_COMPUTED,NARROW_INT,17.60128771809,78.12226484605,526.4577,-76.2000,WGS84,0.0069,0.0076,0.0181,"0",1.450,0.000,52,52,52,49,00,21,3f,37*089d9908
#BESTPOSA,FILE,0,27.0,FINESTEERING,2319,303924.500,02000000,cdba,17139;SOL_COMPUTED,NARROW_INT,17.60128583999,78.12226363530,526.4583,-76.2000,WGS84,0.0069,0.0076,0.0181,"0",1.500,0.000,52,52,52,49,00,21,3f,37*a428b5bb
#BESTPOSA,FILE,0,27.0,FINESTEERING,2319,303924.550,02000000,cdba,17139;SOL_COMPUTED,NARROW_INT,17.60128395429,78.12226244970,526.4557,-76.2000,WGS84,0.0069,0.0077,0.0181,"0",1.550,0.000,52,52,52,49,00,21,3f,37*bbc82731
#BESTPOSA,FILE,0,27.0,FINESTEERING,2319,303924.600,02000000,cdba,17139;SOL_COMPUTED,NARROW_INT,17.60128205259,78.12226127045,526.4521,-76.2000,WGS84,0.0069,0.0077,0.0182,"0",1.600,0.000,52,52,52,49,00,21,3f,37*1ef2ccac
#BESTPOSA,FILE,0,27.0,FINESTEERING,2319,303924.650,02000000,cdba,17139;SOL_COMPUTED,NARROW_INT,17.60128013770,78.12226013220,526.4506,-76.2000,WGS84,0.0069,0.0077,0.0182,"0",1.650,0.000,52,52,52,49,00,21,3f,37*6f9de2d4
#BESTPOSA,FILE,0,27.0,FINESTEERING,2319,303924.700,02000000,cdba,17139;SOL_COMPUTED,NARROW_INT,17.60127818750,78.12225901086,526.4466,-76.2000,WGS84,0.0069,0.0077,0.0182,"0",1.700,0.000,52,52,52,49,00,21,3f,37*34151040
#BESTPOSA,FILE,0,27.0,FINESTEERING,2319,303924.750,02000000,cdba,17139;SOL_COMPUTED,NARROW_INT,17.60127622908,78.12225792597,526.4433,-76.2000,WGS84,0.0070,0.0077,0.0183,"0",1.750,0.000,52,52,52,49,00,21,3f,37*7b6d1798
#BESTPOSA,FILE,0,27.0,FINESTEERING,2319,303924.800,02000000,cdba,17139;SOL_COMPUTED,NARROW_INT,17.60127425394,78.12225685049,526.4407,-76.2000,WGS84,0.0070,0.0077,0.0183,"0",1.800,0.000,52,52,52,49,00,21,3f,37*41631c1b
#BESTPOSA,FILE,0,27.0,FINESTEERING,2319,303924.850,02000000,cdba,17139;SOL_COMPUTED,NARROW_INT,17.60127226429,78.12225579386,526.4385,-76.2000,WGS84,0.0070,0.0077,0.0183,"0",1.850,0.000,52,52,52,49,00,21,3f,37*acc47009
#BESTPOSA,FILE,0,27.0,FINESTEERING,2319,303924.900,02000000,cdba,17139;SOL_COMPUTED,NARROW_INT,17.60127025898,78.12225476907,526.4389,-76.2000,WGS84,0.0070,0.0078,0.0184,"0",1.900,0.000,52,52,52,49,00,21,3f,37*516dbc8a
#BESTPOSA,FILE,0,27.0,FINESTEERING,2319,303924.950,02000000,cdba,17139;SOL_COMPUTED,NARROW_INT,17.60126823315,78.12225376550,526.4376,-76.2000,WGS84,0.0070,0.0078,0.0184,"0",1.950,0.000,52,52,52,49,00,21,3f,37*afd61020
#BESTPOSA,FILE,0,27.0,FINESTEERING,2319,303925.000,02000000,cdba,17139;SOL_COMPUTED,NARROW_INT,17.60126620161,78.12225278274,526.4342,-76.2000,WGS84,0.0071,0.0078,0.0184,"0",2.000,0.000,52,52,52,49,00,21,3f,37*1ea4d42b
#BESTPOSA,FILE,0,27.0,FINESTEERING,2319,303925.050,02000000,cdba,17139;SOL_COMPUTED,NARROW_INT,17.60126415906,78.12225183238,526.4335,-76.2000,WGS84,0.0071,0.0079,0.0186,"0",2.050,0.000,52,52,52,49,00,21,3f,37*ae7ced1e
#BESTPOSA,FILE,0,27.0,FINESTEERING,2319,303925.100,02000000,cdba,17139;SOL_COMPUTED,NARROW_INT,17.60126208521,78.12225087822,526.4304,-76.2000,WGS84,0.0072,0.0079,0.0186,"0",2.100,0.000,52,52,52,49,00,21,3f,37*c9ce958b
#BESTPOSA,FILE,0,31.5,FINESTEERING,2319,303925.150,02000000,cdba,17139;SOL_COMPUTED,NARROW_INT,17.60126000413,78.12224997576,526.4254,-76.2000,WGS84,0.0072,0.0079,0.0187,"0",2.150,0.000,52,52,52,49,00,21,3f,37*2e200f51
#BESTPOSA,FILE,0,31.5,FINESTEERING,2319,303925.200,02000000,cdba,17139;SOL_COMPUTED,NARROW_INT,17.60125790163,78.12224910869,526.4218,-76.2000,WGS84,0.0072,0.0079,0.0187,"0",2.200,0.000,52,52,52,49,00,21,3f,37*193f726c
#BESTPOSA,FILE,0,31.5,FINESTEERING,2319,303925.250,02000000,cdba,17139;SOL_COMPUTED,NARROW_INT,17.60125579911,78.12224826774,526.4166,-76.2000,WGS84,0.0072,0.0080,0.0187,"0",2.250,0.000,52,52,52,49,00,21,3f,37*0d3534d9
#BESTPOSA,FILE,0,31.5,FINESTEERING,2319,303925.300,02000000,cdba,17139;SOL_COMPUTED,NARROW_INT,17.60125367961,78.12224744683,526.4104,-76.2000,WGS84,0.0072,0.0080,0.0188,"0",2.300,0.000,52,52,52,49,00,21,3f,37*ef2cbade
#BESTPOSA,FILE,0,31.5,FINESTEERING,2319,303925.350,02000000,cdba,17139;SOL_COMPUTED,NARROW_INT,17.60125152993,78.12224669041,526.3934,-76.2000,WGS84,0.0059,0.0069,0.0158,"0",0.350,0.000,52,52,52,49,00,21,3f,37*83675cbb
#BESTPOSA,FILE,0,31.5,FINESTEERING,2319,303925.400,02000000,cdba,17139;SOL_COMPUTED,NARROW_INT,17.60124937403,78.12224591450,526.3855,-76.2000,WGS84,0.0059,0.0069,0.0158,"0",0.400,0.000,52,52,52,49,00,21,3f,37*45c14362
#BESTPOSA,FILE,0,31.5,FINESTEERING,2319,303925.450,02000000,cdba,17139;SOL_COMPUTED,NARROW_INT,17.60124721123,78.12224517870,526.3788,-76.2000,WGS84,0.0060,0.0070,0.0158,"0",0.450,0.000,51,51,51,49,00,21,3f,37*1f3b6370
#BESTPOSA,FILE,0,31.5,FINESTEERING,2319,303925.500,02000000,cdba,17139;SOL_COMPUTED,NARROW_INT,17.60124501188,78.12224447389,526.3788,-76.2000,WGS84,0.0060,0.0070,0.0159,"0",0.500,0.000,52,51,51,49,00,21,3f,37*84038743
