#BESTVELA,FILE,0,31.0,FINESTEERING,2319,303911.950,02000000,10a2,17139;SOL_COMPUTED,NARROW_INT,0.025,0.950,9.9283,292.144254,-0.0217,0*78b001c7
#BESTVELA,FILE,0,31.0,FINESTEERING,2319,303912.000,02000000,10a2,17139;SOL_COMPUTED,NARROW_INT,0.025,1.000,9.8909,292.696846,-0.0398,0*5b3ce9cf
#BESTVELA,FILE,0,31.0,FINESTEERING,2319,303912.050,02000000,10a2,17139;SOL_COMPUTED,NARROW_INT,0.025,1.050,9.9104,292.957895,-0.1234,0*4fa2a1c4
#BESTVELA,FILE,0,30.0,FINESTEERING,2319,303912.100,02000000,10a2,17139;SOL_COMPUTED,NARROW_INT,0.025,1.100,9.9092,292.770198,-0.1043,0*96baccbc
#BESTVELA,FILE,0,30.0,FINESTEERING,2319,303912.150,02000000,10a2,17139;SOL_COMPUTED,NARROW_INT,0.025,1.150,9.7465,292.573596,-0.0085,0*17a88794
#BESTVELA,FILE,0,30.0,FINESTEERING,2319,303912.200,02000000,10a2,17139;SOL_COMPUTED,NARROW_INT,0.025,1.200,9.6606,292.623235,-0.0822,0*9f8bde49
#BESTVELA,FILE,0,30.0,FINESTEERING,2319,303912.250,02000000,10a2,17139;SOL_COMPUTED,NARROW_INT,0.025,1.250,9.5941,293.549324,-0.0641,0*55157b9d
#BESTVELA,FILE,0,30.0,FINESTEERING,2319,303912.300,02000000,10a2,17139;SOL_COMPUTED,NARROW_INT,0.025,1.300,9.4884,293.956448,-0.2110,0*d034bbfa
#BESTVELA,FILE,0,30.0,FINESTEERING,2319,303912.350,02000000,10a2,17139;SOL_COMPUTED,NARROW_INT,0.025,1.350,9.5173,294.082004,-0.2685,0*bceb627e
#BESTVELA,FILE,0,30.0,FINESTEERING,2319,303912.400,02000000,10a2,17139;SOL_COMPUTED,NARROW_INT,0.025,1.400,9.5672,293.948197,-0.1366,0*cbce4a7d
#BESTVELA,FILE,0,30.0,FINESTEERING,2319,303912.450,02000000,10a2,17139;SOL_COMPUTED,NARROW_INT,0.025,1.450,9.6363,293.812437,0.0693,0*1e27e57f
#BESTVELA,FILE,0,30.0,FINESTEERING,2319,303912.500,02000000,10a2,17139;SOL_COMPUTED,NARROW_INT,0.025,1.500,9.6518,294.112690,0.0841,0*8b95e256
#BESTVELA,FILE,0,30.0,FINESTEERING,2319,303912.550,02000000,10a2,17139;SOL_COMPUTED,NARROW_INT,0.025,1.550,9.5764,294.076208,0.0440,0*530e869a
#BESTVELA,FILE,0,30.0,FINESTEERING,2319,303912.600,02000000,10a2,17139;SOL_COMPUTED,NARROW_INT,0.025,1.600,9.4730,294.300767,-0.0459,0*4274149b
#BESTVELA,FILE,0,30.0,FINESTEERING,2319,303912.650,02000000,10a2,17139;SOL_COMPUTED,NARROW_INT,0.025,1.650,9.4161,294.252884,-0.0423,0*9538c197
#BESTVELA,FILE,0,30.0,FINESTEERING,2319,303912.700,02000000,10a2,17139;SOL_COMPUTED,NARROW_INT,0.025,1.700,9.3480,294.429530,-0.0755,0*652b0d6d
#BESTVELA,FILE,0,30.0,FINESTEERING,2319,303912.750,02000000,10a2,17139;SOL_COMPUTED,NARROW_INT,0.025,1.750,9.2982,293.804680,-0.1697,0*ae8c4c69
#BESTVELA,FILE,0,30.0,FINESTEERING,2319,303912.800,02000000,10a2,17139;SOL_COMPUTED,NARROW_INT,0.025,1.800,9.2377,294.461389,-0.1999,0*01f9cfd1
#BESTVELA,FILE,0,30.0,FINESTEERING,2319,303912.850,02000000,10a2,17139;SOL_COMPUTED,NARROW_INT,0.025,1.850,9.2395,294.489036,-0.1047,0*e6a004c7
#BESTVELA,FILE,0,30.0,FINESTEERING,2319,303912.900,02000000,10a2,17139;SOL_COMPUTED,NARROW_INT,0.025,1.900,9.2316,294.213514,-0.0855,0*32d7bb1f
#BESTVELA,FILE,0,30.0,FINESTEERING,2319,303912.950,02000000,10a2,17139;SOL_COMPUTED,NARROW_INT,0.025,1.950,9.2770,294.324527,-0.0708,0*1d0c82fa
#BESTVELA,FILE,0,30.0,FINESTEERING,2319,303913.000,02000000,10a2,17139;SOL_COMPUTED,NARROW_INT,0.025,2.000,9.3005,294.600509,0.0534,0*7cb6c40e
#BESTVELA,FILE,0,30.0,FINESTEERING,2319,303913.050,02000000,10a2,17139;SOL_COMPUTED,NARROW_INT,0.025,2.050,9.2784,294.797525,0.0674,0*5c101f51
#BESTVELA,FILE,0,28.5,FINESTEERING,2319,303913.100,02000000,10a2,17139;SOL_COMPUTED,NARROW_INT,0.025,2.100,9.3176,294.601735,0.0802,0*752200ba
#BESTVELA,FILE,0,28.5,FINESTEERING,2319,303913.150,02000000,10a2,17139;SOL_COMPUTED,NARROW_INT,0.025,2.150,9.2967,294.713398,0.1133,0*e867c706
#BESTVELA,FILE,0,28.5,FINESTEERING,2319,303913.200,02000000,10a2,17139;SOL_COMPUTED,NARROW_INT,0.025,2.200,9.2230,294.708764,0.0668,0*2f45cd96
#BESTVELA,FILE,0,28.5,FINESTEERING,2319,303913.250,02000000,10a2,17139;SOL_COMPUTED,NARROW_INT,0.025,2.250,9.2188,294.840744,0.0109,0*3444ac3c
#BESTVELA,FILE,0,28.5,FINESTEERING,2319,303913.300,02000000,10a2,17139;SOL_COMPUTED,NARROW_INT,0.025,2.300,9.1581,294.502592,-0.1027,0*5e4842d7
#BESTVELA,FILE,0,28.5,FINESTEERING,2319,303913.350,02000000,10a2,17139;SOL_COMPUTED,NARROW_INT,0.025,2.350,9.0860,294.746794,0.0231,0*5adeb894
#BESTVELA,FILE,0,28.5,FINESTEERING,2319,303913.400,02000000,10a2,17139;SOL_COMPUTED,NARROW_INT,0.025,2.400,9.1101,294.949952,-0.1370,0*60b6590c
#BESTVELA,FILE,0,28.5,FINESTEERING,2319,303913.450,02000000,10a2,17139;SOL_COMPUTED,NARROW_INT,0.025,2.450,9.1236,295.083326,-0.2120,0*ebff8fe7
#BESTVELA,FILE,0,28.5,FINESTEERING,2319,303913.500,02000000,10a2,17139;SOL_COMPUTED,NARROW_INT,0.025,2.500,9.1356,295.599408,-0.0203,0*0492109b
#BESTVELA,FILE,0,28.5,FINESTEERING,2319,303913.550,02000000,10a2,17139;SOL_COMPUTED,NARROW_INT,0.025,2.550,9.1404,295.522836,-0.0124,0*169942c2
#BESTVELA,FILE,0,28.5,FINESTEERING,2319,303913.600,02000000,10a2,17139;SOL_COMPUTED,NARROW_INT,0.025,2.600,9.2040,295.478268,0.0149,0*39a88dbc
#BESTVELA,FILE,0,28.5,FINESTEERING,2319,303913.650,02000000,10a2,17139;SOL_COMPUTED,NARROW_INT,0.025,2.650,9.1816,295.561153,-0.0666,0*f7cb6402
#BESTVELA,FILE,0,28.5,FINESTEERING,2319,303913.700,02000000,10a2,17139;SOL_COMPUTED,NARROW_INT,0.025,2.700,9.2005,295.875840,0.0188,0*a6bf45ba
#BESTVELA,FILE,0,28.5,FINESTEERING,2319,303913.750,02000000,10a2,17139;SOL_COMPUTED,NARROW_INT,0.025,2.750,9.1532,296.479009,-0.0678,0*043c02db
#BESTVELA,FILE,0,28.5,FINESTEERING,2319,303913.800,02000000,10a2,17139;SOL_COMPUTED,NARROW_INT,0.025,2.800,9.1340,296.929161,-0.0438,0*3cdcaf5f
#BESTVELA,FILE,0,28.5,FINESTEERING,2319,303913.850,02000000,10a2,17139;SOL_COMPUTED,NARROW_INT,0.025,2.850,9.1050,297.008520,-0.0605,0*ca997ba6
#BESTVELA,FILE,0,28.5,FINESTEERING,2319,303913.900,02000000,10a2,17139;SOL_COMPUTED,NARROW_INT,0.025,2.900,9.0536,296.849829,-0.0765,0*445cf78a
#BESTVELA,FILE,0,28.5,FINESTEERING,2319,303913.950,02000000,10a2,17139;SOL_COMPUTED,NARROW_INT,0.025,2.950,9.0369,297.507532,-0.0771,0*0422c843
#BESTVELA,FILE,0,28.5,FINESTEERING,2319,303914.000,02000000,10a2,17139;SOL_COMPUTED,NARROW_INT,0.025,3.000,8.9866,297.271830,-0.1618,0*d2e2cc24
#BESTVELA,FILE,0,28.5,FINESTEERING,2319,303914.050,02000000,10a2,17139;SOL_COMPUTED,NARROW_INT,0.025,3.050,8.9423,297.579295,-0.1035,0*3026cc81
#BESTVELA,FILE,0,28.5,FINESTEERING,2319,303914.100,02000000,10a2,17139;SOL_COMPUTED,NARROW_INT,0.025,3.100,8.9798,297.377104,-0.0826,0*55602add
#BESTVELA,FILE,0,29.0,FINESTEERING,2319,303914.150,02000000,10a2,17139;SOL_COMPUTED,NARROW_INT,0.025,3.150,8.9817,297.497826,-0.0848,0*6a0dbd5a
#BESTVELA,FILE,0,29.0,FINESTEERING,2319,303914.200,02000000,10a2,17139;SOL_COMPUTED,NARROW_INT,0.025,3.200,8.9982,297.527888,-0.0170,0*8c4a0be7
#BESTVELA,FILE,0,29.0,FINESTEERING,2319,303914.250,02000000,10a2,17139;SOL_COMPUTED,NARROW_INT,0.025,3.250,8.9835,297.760886,0.0016,0*32902514
#BESTVELA,FILE,0,29.0,FINESTEERING,2319,303914.300,02000000,10a2,17139;SOL_COMPUTED,NARROW_INT,0.025,3.300,9.0330,298.000575,0.0909,0*3730984d
#BESTVELA,FILE,0,29.0,FINESTEERING,2319,303914.350,02000000,10a2,17139;SOL_COMPUTED,NARROW_INT,0.025,3.350,9.0220,297.880145,0.0679,0*15b5105b
#BESTVELA,FILE,0,29.0,FINESTEERING,2319,303914.400,02000000,10a2,17139;SOL_COMPUTED,NARROW_INT,0.025,3.400,8.9706,298.157370,0.0600,0*4e6e25dd
#BESTVELA,FILE,0,29.0,FINESTEERING,2319,303914.450,02000000,10a2,17139;SOL_COMPUTED,NARROW_INT,0.025,3.450,8.9291,298.370449,0.0240,0*5c3459c5
#BESTVELA,FILE,0,29.0,FINESTEERING,2319,303914.500,02000000,10a2,17139;SOL_COMPUTED,NARROW_INT,0.025,3.500,8.8934,298.275391,-0.0470,0*e464fc89
#BESTVELA,FILE,0,29.0,FINESTEERING,2319,303914.550,02000000,10a2,17139;SOL_COMPUTED,NARROW_INT,0.025,3.550,8.7943,298.466808,-0.1007,0*7429dc68
#BESTVELA,FILE,0,29.0,FINESTEERING,2319,303914.600,02000000,10a2,17139;SOL_COMPUTED,NARROW_INT,0.025,3.600,8.7223,298.769108,-0.0641,0*4a80190f
#BESTVELA,FILE,0,29.0,FINESTEERING,2319,303914.650,02000000,10a2,17139;SOL_COMPUTED,NARROW_INT,0.025,3.650,8.7068,299.214676,-0.1069,0*41a30eab
#BESTVELA,FILE,0,29.0,FINESTEERING,2319,303914.700,02000000,10a2,17139;SOL_COMPUTED,NARROW_INT,0.025,3.700,8.6291,299.202752,-0.0958,0*030051a5
#BESTVELA,FILE,0,29.0,FINESTEERING,2319,303914.750,02000000,10a2,17139;SOL_COMPUTED,NARROW_INT,0.025,3.750,8.6539,298.972977,-0.0731,0*eae8382d
#BESTVELA,FILE,0,29.0,FINESTEERING,2319,303914.800,02000000,10a2,17139;SOL_COMPUTED,NARROW_INT,0.025,3.800,8.7132,298.755207,-0.1660,0*8fd56dc5
#BESTVELA,FILE,0,29.0,FINESTEERING,2319,303914.850,02000000,10a2,17139;SOL_COMPUTED,NARROW_INT,0.025,3.850,8.7236,298.996520,0.0365,0*1217f012
#BESTVELA,FILE,0,29.0,FINESTEERING,2319,303914.900,02000000,10a2,17139;SOL_COMPUTED,NARROW_INT,0.025,3.900,8.7732,298.678288,0.1021,0*c8788650
#BESTVELA,FILE,0,29.0,FINESTEERING,2319,303914.950,02000000,10a2,17139;SOL_COMPUTED,NARROW_INT,0.025,3.950,8.7852,298.571272,0.0454,0*6a949981
#BESTVELA,FILE,0,29.0,FINESTEERING,2319,303915.000,02000000,10a2,17139;SOL_COMPUTED,NARROW_INT,0.025,4.000,8.7630,298.536106,0.0077,0*1116cb31
#BESTVELA,FILE,0,29.0,FINESTEERING,2319,303915.050,02000000,10a2,17139;SOL_COMPUTED,NARROW_INT,0.025,4.050,8.6525,298.658029,0.0721,0*cddab272
#BESTVELA,FILE,0,29.0,FINESTEERING,2319,303915.100,02000000,10a2,17139;SOL_COMPUTED,NARROW_INT,0.025,4.100,8.5618,298.400789,0.0230,0*543cfade
#BESTVELA,FILE,0,29.0,FINESTEERING,2319,303915.150,02000000,10a2,17139;SOL_COMPUTED,NARROW_INT,0.025,4.150,8.5301,298.467084,-0.1350,0*7a47efd4
#BESTVELA,FILE,0,29.0,FINESTEERING,2319,303915.200,02000000,10a2,17139;SOL_COMPUTED,NARROW_INT,0.025,4.200,8.4171,298.665291,-0.0540,0*0ec43b34
#BESTVELA,FILE,0,29.0,FINESTEERING,2319,303915.250,02000000,10a2,17139;SOL_COMPUTED,NARROW_INT,0.025,4.250,8.3766,297.742235,-0.2801,0*2a5df2e0
#BESTVELA,FILE,0,29.0,FINESTEERING,2319,303915.300,02000000,10a2,17139;SOL_COMPUTED,NARROW_INT,0.025,4.300,8.3507,298.550050,-0.1170,0*3a67022f
#BESTVELA,FILE,0,29.0,FINESTEERING,2319,303915.350,02000000,10a2,17139;SOL_COMPUTED,NARROW_INT,0.025,4.350,8.3369,298.638668,-0.1076,0*900807f0
#BESTVELA,FILE,0,29.0,FINESTEERING,2319,303915.400,02000000,10a2,17139;SOL_COMPUTED,NARROW_INT,0.025,4.400,8.3767,298.698512,-0.0483,0*91885ff4
#BESTVELA,FILE,0,29.0,FINESTEERING,2319,303915.450,02000000,10a2,17139;SOL_COMPUTED,NARROW_INT,0.025,4.450,8.3782,298.499107,-0.0740,0*58b232de
#BESTVELA,FILE,0,29.0,FINESTEERING,2319,303915.500,02000000,10a2,17139;SOL_COMPUTED,NARROW_INT,0.025,4.500,8.4098,298.399116,-0.0582,0*ccd4e5b5
#BESTVELA,FILE,0,29.0,FINESTEERING,2319,303915.550,02000000,10a2,17139;SOL_COMPUTED,NARROW_INT,0.025,4.550,8.4332,298.145287,0.0559,0*6f8b326d
#BESTVELA,FILE,0,29.0,FINESTEERING,2319,303915.600,02000000,10a2,17139;SOL_COMPUTED,NARROW_INT,0.025,4.600,8.4193,298.135773,0.1107,0*cfd6cc3c
#BESTVELA,FILE,0,29.0,FINESTEERING,2319,303915.650,02000000,10a2,17139;SOL_COMPUTED,NARROW_INT,0.025,4.650,8.4327,298.739495,0.0571,0*965d5088
#BESTVELA,FILE,0,29.0,FINESTEERING,2319,303915.700,02000000,10a2,17139;SOL_COMPUTED,NARROW_INT,0.025,4.700,8.3929,298.592851,0.0483,0*d39a798f
#BESTVELA,FILE,0,29.0,FINESTEERING,2319,303915.750,02000000,10a2,17139;SOL_COMPUTED,NARROW_INT,0.025,4.750,8.3695,298.650219,-0.0203,0*44bd26dd
#BESTVELA,FILE,0,29.0,FINESTEERING,2319,303915.800,02000000,10a2,17139;SOL_COMPUTED,NARROW_INT,0.025,4.800,8.3273,298.131462,-0.0502,0*23b812a1
#BESTVELA,FILE,0,29.0,FINESTEERING,2319,303915.850,02000000,10a2,17139;SOL_COMPUTED,NARROW_INT,0.025,4.850,8.2652,298.392124,-0.1373,0*f7c47efa
#BESTVELA,FILE,0,29.0,FINESTEERING,2319,303915.900,02000000,10a2,17139;SOL_COMPUTED,NARROW_INT,0.025,4.900,8.2751,298.663381,-0.1120,0*bb2def8f
#BESTVELA,FILE,0,29.0,FINESTEERING,2319,303915.950,02000000,10a2,17139;SOL_COMPUTED,NARROW_INT,0.025,4.950,8.2439,298.125356,-0.1358,0*36797458
#BESTVELA,FILE,0,29.0,FINESTEERING,2319,303916.000,02000000,10a2,17139;SOL_COMPUTED,NARROW_INT,0.025,5.000,8.2406,298.262703,-0.1220,0*acaf0509
#BESTVELA,FILE,0,29.0,FINESTEERING,2319,303916.050,02000000,10a2,17139;SOL_COMPUTED,NARROW_INT,0.025,5.050,8.2641,298.179306,-0.1497,0*73ee3efb
#BESTVELA,FILE,0,29.0,FINESTEERING,2319,303916.100,02000000,10a2,17139;SOL_COMPUTED,NARROW_INT,0.025,5.100,8.2645,298.035972,-0.0634,0*f0d9a07b
#BESTVELA,FILE,0,29.0,FINESTEERING,2319,303916.150,02000000,10a2,17139;SOL_COMPUTED,NARROW_INT,0.025,5.150,8.2678,298.095845,0.0048,0*bd1ca1b1
#BESTVELA,FILE,0,29.0,FINESTEERING,2319,303916.200,02000000,10a2,17139;SOL_COMPUTED,NARROW_INT,0.025,5.200,8.2690,298.205355,0.0402,0*b306358e
#BESTVELA,FILE,0,29.0,FINESTEERING,2319,303916.250,02000000,10a2,17139;SOL_COMPUTED,NARROW_INT,0.025,5.250,8.2459,298.379875,-0.0345,0*10208763
#BESTVELA,FILE,0,29.0,FINESTEERING,2319,303916.300,02000000,10a2,17139;SOL_COMPUTED,NARROW_INT,0.025,5.300,8.2120,298.401091,0.0223,0*51f7fe37
#BESTVELA,FILE,0,29.0,FINESTEERING,2319,303916.350,02000000,10a2,17139;SOL_COMPUTED,NARROW_INT,0.025,3.350,8.1435,298.683931,0.0096,0*7fe29381
#BESTVELA,FILE,0,29.0,FINESTEERING,2319,303916.400,02000000,10a2,17139;SOL_COMPUTED,NARROW_INT,0.025,3.400,8.1472,298.411415,-0.0517,0*f0209d90
#BESTVELA,FILE,0,29.0,FINESTEERING,2319,303916.450,02000000,10a2,17139;SOL_COMPUTED,NARROW_INT,0.025,3.450,8.1026,298.678542,-0.0655,0*a2f8c98f
#BESTVELA,FILE,0,29.0,FINESTEERING,2319,303916.500,02000000,10a2,17139;SOL_COMPUTED,NARROW_INT,0.025,3.500,8.0974,298.947093,-0.0164,0*38700512
#BESTVELA,FILE,0,29.0,FINESTEERING,2319,303916.550,02000000,10a2,17139;SOL_COMPUTED,NARROW_INT,0.025,3.550,8.1262,298.663245,-0.0228,0*46201d42
#BESTVELA,FILE,0,29.0,FINESTEERING,2319,303916.600,02000000,10a2,17139;SOL_COMPUTED,NARROW_INT,0.025,3.600,8.0849,298.978363,-0.0070,0*0946385f
#BESTVELA,FILE,0,29.0,FINESTEERING,2319,303916.650,02000000,10a2,17139;SOL_COMPUTED,NARROW_INT,0.025,3.650,8.1796,298.826187,0.0764,0*5681b1de
#BESTVELA,FILE,0,29.0,FINESTEERING,2319,303916.700,02000000,10a2,17139;SOL_COMPUTED,NARROW_INT,0.025,3.700,8.1258,298.822444,0.1219,0*633c4446
#BESTVELA,FILE,0,29.0,FINESTEERING,2319,303916.750,02000000,10a2,17139;SOL_COMPUTED,NARROW_INT,0.025,3.750,8.1100,298.978439,0.0444,0*ca959e49
#BESTVELA,FILE,0,29.0,FINESTEERING,2319,303916.800,02000000,10a2,17139;SOL_COMPUTED,NARROW_INT,0.025,3.800,8.0649,299.196427,0.0862,0*f733259c
#BESTVELA,FILE,0,29.0,FINESTEERING,2319,303916.850,02000000,10a2,17139;SOL_COMPUTED,NARROW_INT,0.025,3.850,8.0324,299.792567,0.1396,0*8d0a74cf
#BESTVELA,FILE,0,29.0,FINESTEERING,2319,303916.900,02000000,10a2,17139;SOL_COMPUTED,NARROW_INT,0.025,3.900,8.0190,299.534559,0.0486,0*d9da667a
#BESTVELA,FILE,0,29.0,FINESTEERING,2319,303916.950,02000000,10a2,17139;SOL_COMPUTED,NARROW_INT,0.025,3.950,7.9928,299.721825,0.0331,0*56e7e79a
#BESTVELA,FILE,0,29.0,FINESTEERING,2319,303917.000,02000000,10a2,17139;SOL_COMPUTED,NARROW_INT,0.025,4.000,8.0060,299.702680,0.0952,0*d8a8cccd
#BESTVELA,FILE,0,29.0,FINESTEERING,2319,303917.050,02000000,10a2,17139;SOL_COMPUTED,NARROW_INT,0.025,4.050,8.0183,299.802282,0.0833,0*a82af98e
#BESTVELA,FILE,0,28.5,FINESTEERING,2319,303917.100,02000000,10a2,17139;SOL_COMPUTED,NARROW_INT,0.025,4.100,8.0074,299.767567,0.1381,0*6938afc5
#BESTVELA,FILE,0,28.5,FINESTEERING,2319,303917.150,02000000,10a2,17139;SOL_COMPUTED,NARROW_INT,0.025,4.150,7.9733,299.698529,0.1183,0*faa14654
#BESTVELA,FILE,0,28.5,FINESTEERING,2319,303917.200,02000000,10a2,17139;SOL_COMPUTED,NARROW_INT,0.025,4.200,7.9290,300.008979,0.1457,0*2745298f
#BESTVELA,FILE,0,28.5,FINESTEERING,2319,303917.250,02000000,10a2,17139;SOL_COMPUTED,NARROW_INT,0.025,4.250,7.8839,299.944642,0.1445,0*64062014
#BESTVELA,FILE,0,28.5,FINESTEERING,2319,303917.300,02000000,10a2,17139;SOL_COMPUTED,NARROW_INT,0.025,4.300,7.8262,299.961872,0.1075,0*40d0c313
#BESTVELA,FILE,0,28.5,FINESTEERING,2319,303917.350,02000000,10a2,17139;SOL_COMPUTED,NARROW_INT,0.025,4.350,7.7910,299.819422,0.1338,0*7719a5de
#BESTVELA,FILE,0,28.5,FINESTEERING,2319,303917.400,02000000,10a2,17139;SOL_COMPUTED,NARROW_INT,0.025,4.400,7.7273,299.798425,0.1221,0*0d1f4277
#BESTVELA,FILE,0,28.5,FINESTEERING,2319,303917.450,02000000,10a2,17139;SOL_COMPUTED,NARROW_INT,0.025,4.450,7.7671,299.917355,0.1085,0*4ee5c34b
#BESTVELA,FILE,0,28.5,FINESTEERING,2319,303917.500,02000000,10a2,17139;SOL_COMPUTED,NARROW_INT,0.025,4.500,7.7679,299.733646,0.1749,0*537e317e
#BESTVELA,FILE,0,28.5,FINESTEERING,2319,303917.550,02000000,10a2,17139;SOL_COMPUTED,NARROW_INT,0.025,4.550,7.7858,299.632329,0.2062,0*69f0322b
#BESTVELA,FILE,0,28.5,FINESTEERING,2319,303917.600,02000000,10a2,17139;SOL_COMPUTED,NARROW_INT,0.025,4.600,7.8056,299.952511,0.1760,0*8602670d
#BESTVELA,FILE,0,28.5,FINESTEERING,2319,303917.650,02000000,10a2,17139;SOL_COMPUTED,NARROW_INT,0.025,4.650,7.7800,300.145600,0.2068,0*cb22665d
#BESTVELA,FILE,0,28.5,FINESTEERING,2319,303917.700,02000000,10a2,17139;SOL_COMPUTED,NARROW_INT,0.025,4.700,7.7296,299.798182,0.2467,0*61699433
#BESTVELA,FILE,0,28.5,FINESTEERING,2319,303917.750,02000000,10a2,17139;SOL_COMPUTED,NARROW_INT,0.025,4.750,7.6991,300.173266,0.1899,0*937dc1e1
#BESTVELA,FILE,0,28.5,FINESTEERING,2319,303917.800,02000000,10a2,17139;SOL_COMPUTED,NARROW_INT,0.025,4.800,7.6163,299.984836,0.1692,0*c8745b13
#BESTVELA,FILE,0,28.5,FINESTEERING,2319,303917.850,02000000,10a2,17139;SOL_COMPUTED,NARROW_INT,0.025,4.850,7.5712,299.824830,0.1580,0*0c069000
#BESTVELA,FILE,0,28.5,FINESTEERING,2319,303917.900,02000000,10a2,17139;SOL_COMPUTED,NARROW_INT,0.025,4.900,7.4604,299.742828,0.1072,0*0d8f396d
#BESTVELA,FILE,0,28.5,FINESTEERING,2319,303917.950,02000000,10a2,17139;SOL_COMPUTED,NARROW_INT,0.025,4.950,7.3807,299.731163,0.0700,0*51ad3f5d
#BESTVELA,FILE,0,28.5,FINESTEERING,2319,303918.000,02000000,10a2,17139;SOL_COMPUTED,NARROW_INT,0.025,5.000,7.3611,299.552773,0.0313,0*0e0e1158
#BESTVELA,FILE,0,28.5,FINESTEERING,2319,303918.050,02000000,10a2,17139;SOL_COMPUTED,NARROW_INT,0.025,5.050,7.3256,299.154843,0.0747,0*2e430d03
#BESTVELA,FILE,0,28.5,FINESTEERING,2319,303918.100,02000000,10a2,17139;SOL_COMPUTED,NARROW_INT,0.025,5.100,7.3030,298.939141,0.0228,0*7868148f
#BESTVELA,FILE,0,33.0,FINESTEERING,2319,303918.150,02000000,10a2,17139;SOL_COMPUTED,NARROW_INT,0.025,5.150,7.2822,298.874757,0.0987,0*7f074dfb
#BESTVELA,FILE,0,33.0,FINESTEERING,2319,303918.200,02000000,10a2,17139;SOL_COMPUTED,NARROW_INT,0.025,5.200,7.2600,298.429058,0.1880,0*89992da8
#BESTVELA,FILE,0,33.0,FINESTEERING,2319,303918.250,02000000,10a2,17139;SOL_COMPUTED,NARROW_INT,0.025,5.250,7.2522,298.553218,0.1964,0*443ac554
#BESTVELA,FILE,0,33.0,FINESTEERING,2319,303918.300,02000000,10a2,17139;SOL_COMPUTED,NARROW_INT,0.025,5.300,7.1963,298.034544,0.1551,0*10ca8c67
#BESTVELA,FILE,0,33.0,FINESTEERING,2319,303918.350,02000000,10a2,17139;SOL_COMPUTED,NARROW_INT,0.025,5.350,7.1494,298.222077,0.1609,0*2eb9f11c
#BESTVELA,FILE,0,33.0,FINESTEERING,2319,303918.400,02000000,10a2,17139;SOL_COMPUTED,NARROW_INT,0.025,5.400,7.0747,298.275520,0.1161,0*ec2eab93
#BESTVELA,FILE,0,33.0,FINESTEERING,2319,303918.450,02000000,10a2,17139;SOL_COMPUTED,NARROW_INT,0.025,5.450,7.0173,297.995131,0.1285,0*655b8f77
#BESTVELA,FILE,0,33.0,FINESTEERING,2319,303918.500,02000000,10a2,17139;SOL_COMPUTED,NARROW_INT,0.025,5.500,6.9765,297.534110,0.0799,0*256a1dc6
#BESTVELA,FILE,0,33.0,FINESTEERING,2319,303918.550,02000000,10a2,17139;SOL_COMPUTED,NARROW_INT,0.025,5.550,6.9227,297.507928,0.1346,0*9db72217
#BESTVELA,FILE,0,33.0,FINESTEERING,2319,303918.600,02000000,10a2,17139;SOL_COMPUTED,NARROW_INT,0.025,5.600,6.8540,297.135021,0.0430,0*4705ccc7
#BESTVELA,FILE,0,33.0,FINESTEERING,2319,303918.650,02000000,10a2,17139;SOL_COMPUTED,NARROW_INT,0.025,5.650,6.8537,296.675397,0.0233,0*8b7844e7
#BESTVELA,FILE,0,33.0,FINESTEERING,2319,303918.700,02000000,10a2,17139;SOL_COMPUTED,NARROW_INT,0.025,5.700,6.7716,296.661358,0.0897,0*07e90078
#BESTVELA,FILE,0,33.0,FINESTEERING,2319,303918.750,02000000,10a2,17139;SOL_COMPUTED,NARROW_INT,0.025,5.750,6.7043,296.141846,0.0294,0*3a59db71
#BESTVELA,FILE,0,33.0,FINESTEERING,2319,303918.800,02000000,10a2,17139;SOL_COMPUTED,NARROW_INT,0.025,5.800,6.7197,295.490750,0.1334,0*8d3f3583
#BESTVELA,FILE,0,33.0,FINESTEERING,2319,303918.850,02000000,10a2,17139;SOL_COMPUTED,NARROW_INT,0.025,5.850,6.6600,295.043801,0.0587,0*51d62744
#BESTVELA,FILE,0,33.0,FINESTEERING,2319,303918.900,02000000,10a2,17139;SOL_COMPUTED,NARROW_INT,0.025,5.900,6.5866,294.783438,0.1332,0*143512b5
#BESTVELA,FILE,0,33.0,FINESTEERING,2319,303918.950,02000000,10a2,17139;SOL_COMPUTED,NARROW_INT,0.025,5.950,6.5431,294.479520,0.1321,0*a9e12626
#BESTVELA,FILE,0,33.0,FINESTEERING,2319,303919.000,02000000,10a2,17139;SOL_COMPUTED,NARROW_INT,0.025,6.000,6.4888,293.976567,0.1498,0*ce3b6f68
#BESTVELA,FILE,0,33.0,FINESTEERING,2319,303919.050,02000000,10a2,17139;SOL_COMPUTED,NARROW_INT,0.025,6.050,6.4422,293.577628,0.0419,0*281164c5
#BESTVELA,FILE,0,31.0,FINESTEERING,2319,303919.100,02000000,10a2,17139;SOL_COMPUTED,NARROW_INT,0.025,6.100,6.3649,292.847526,0.1266,0*559f6e88
#BESTVELA,FILE,0,31.0,FINESTEERING,2319,303919.150,02000000,10a2,17139;SOL_COMPUTED,NARROW_INT,0.025,6.150,6.3318,292.372974,0.0577,0*041c47ce
#BESTVELA,FILE,0,31.0,FINESTEERING,2319,303919.200,02000000,10a2,17139;SOL_COMPUTED,NARROW_INT,0.025,6.200,6.2569,291.646996,0.0920,0*ce34d715
#BESTVELA,FILE,0,31.0,FINESTEERING,2319,303919.250,02000000,10a2,17139;SOL_COMPUTED,NARROW_INT,0.025,6.250,6.2234,291.014787,0.0513,0*9e41b7da
#BESTVELA,FILE,0,31.0,FINESTEERING,2319,303919.300,02000000,10a2,17139;SOL_COMPUTED,NARROW_INT,0.025,6.300,6.2065,290.449078,0.0750,0*3f6548e6
#BESTVELA,FILE,0,31.0,FINESTEERING,2319,303919.350,02000000,10a2,17139;SOL_COMPUTED,NARROW_INT,0.025,6.350,6.1476,289.780887,0.0881,0*3d008c00
#BESTVELA,FILE,0,31.0,FINESTEERING,2319,303919.400,02000000,10a2,17139;SOL_COMPUTED,NARROW_INT,0.025,6.400,6.0946,288.702866,0.1350,0*efdb1382
#BESTVELA,FILE,0,31.0,FINESTEERING,2319,303919.450,02000000,10a2,17139;SOL_COMPUTED,NARROW_INT,0.025,6.450,6.0416,287.702223,0.1472,0*4fc35ad4
#BESTVELA,FILE,0,31.0,FINESTEERING,2319,303919.500,02000000,10a2,17139;SOL_COMPUTED,NARROW_INT,0.025,6.500,6.0002,286.990242,0.0658,0*48dfaaf6
#BESTVELA,FILE,0,31.0,FINESTEERING,2319,303919.550,02000000,10a2,17139;SOL_COMPUTED,NARROW_INT,0.025,6.550,5.9904,286.161712,0.1330,0*10038fc4
#BESTVELA,FILE,0,31.0,FINESTEERING,2319,303919.600,02000000,10a2,17139;SOL_COMPUTED,NARROW_INT,0.025,6.600,5.9072,286.060750,0.1947,0*3ba7ea68
#BESTVELA,FILE,0,31.0,FINESTEERING,2319,303919.650,02000000,10a2,17139;SOL_COMPUTED,NARROW_INT,0.025,6.650,5.8783,284.609901,0.0757,0*ac7182e7
#BESTVELA,FILE,0,31.0,FINESTEERING,2319,303919.700,02000000,10a2,17139;SOL_COMPUTED,NARROW_INT,0.025,6.700,5.7989,284.220691,0.1242,0*8c8f87e2
#BESTVELA,FILE,0,31.0,FINESTEERING,2319,303919.750,02000000,10a2,17139;SOL_COMPUTED,NARROW_INT,0.025,6.750,5.7568,283.276153,0.0980,0*429060d5
#BESTVELA,FILE,0,31.0,FINESTEERING,2319,303919.800,02000000,10a2,17139;SOL_COMPUTED,NARROW_INT,0.025,6.800,5.7199,283.087800,0.0707,0*bbd89caa
#BESTVELA,FILE,0,31.0,FINESTEERING,2319,303919.850,02000000,10a2,17139;SOL_COMPUTED,NARROW_INT,0.025,6.850,5.6778,282.312598,0.1125,0*acb6c98f
#BESTVELA,FILE,0,31.0,FINESTEERING,2319,303919.900,02000000,10a2,17139;SOL_COMPUTED,NARROW_INT,0.025,6.900,5.6571,281.381643,0.0626,0*33e5497a
#BESTVELA,FILE,0,31.0,FINESTEERING,2319,303919.950,02000000,10a2,17139;SOL_COMPUTED,NARROW_INT,0.025,6.950,5.6373,280.782924,0.0983,0*08cf16f6
#BESTVELA,FILE,0,31.0,FINESTEERING,2319,303920.000,02000000,10a2,17139;SOL_COMPUTED,NARROW_INT,0.025,7.000,5.5825,279.948146,0.1353,0*30cb6ab4
#BESTVELA,FILE,0,31.0,FINESTEERING,2319,303920.050,02000000,10a2,17139;SOL_COMPUTED,NARROW_INT,0.025,7.050,5.5820,279.404968,0.0792,0*e67ee36b
#BESTVELA,FILE,0,31.0,FINESTEERING,2319,303920.100,02000000,10a2,17139;SOL_COMPUTED,NARROW_INT,0.025,7.100,5.6122,278.608394,0.0691,0*9f1a8e37
#BESTVELA,FILE,0,33.5,FINESTEERING,2319,303920.150,02000000,10a2,17139;SOL_COMPUTED,NARROW_INT,0.025,7.150,5.5648,278.182655,0.1197,0*05ac25d6
#BESTVELA,FILE,0,33.5,FINESTEERING,2319,303920.200,02000000,10a2,17139;SOL_COMPUTED,NARROW_INT,0.025,7.200,5.5449,276.873127,0.0539,0*e8fe0386
#BESTVELA,FILE,0,33.5,FINESTEERING,2319,303920.250,02000000,10a2,17139;SOL_COMPUTED,NARROW_INT,0.025,7.250,5.5423,275.993973,0.0835,0*e416d682
#BESTVELA,FILE,0,33.5,FINESTEERING,2319,303920.300,02000000,10a2,17139;SOL_COMPUTED,NARROW_INT,0.025,7.300,5.5373,274.637177,0.1099,0*3dd192cd
#BESTVELA,FILE,0,33.5,FINESTEERING,2319,303920.350,02000000,10a2,17139;SOL_COMPUTED,NARROW_INT,0.025,7.350,5.4772,273.852546,0.0285,0*6f8d7488
#BESTVELA,FILE,0,33.5,FINESTEERING,2319,303920.400,02000000,10a2,17139;SOL_COMPUTED,NARROW_INT,0.025,7.400,5.4682,273.044488,0.0965,0*155df3d5
#BESTVELA,FILE,0,33.5,FINESTEERING,2319,303920.450,02000000,10a2,17139;SOL_COMPUTED,NARROW_INT,0.025,7.450,5.4810,272.542100,0.1282,0*df016bf2
#BESTVELA,FILE,0,33.5,FINESTEERING,2319,303920.500,02000000,10a2,17139;SOL_COMPUTED,NARROW_INT,0.025,7.500,5.4314,272.006805,0.0796,0*2184e8ff
#BESTVELA,FILE,0,33.5,FINESTEERING,2319,303920.550,02000000,10a2,17139;SOL_COMPUTED,NARROW_INT,0.025,7.550,5.4291,271.635456,0.0077,0*e3e4ebc9
#BESTVELA,FILE,0,33.5,FINESTEERING,2319,303920.600,02000000,10a2,17139;SOL_COMPUTED,NARROW_INT,0.025,7.600,5.4116,270.702335,0.0368,0*d853e354
#BESTVELA,FILE,0,33.5,FINESTEERING,2319,303920.650,02000000,10a2,17139;SOL_COMPUTED,NARROW_INT,0.025,7.650,5.4173,269.058397,-0.0579,0*5b31fd03
#BESTVELA,FILE,0,33.5,FINESTEERING,2319,303920.700,02000000,10a2,17139;SOL_COMPUTED,NARROW_INT,0.025,7.700,5.4366,268.213002,0.0410,0*a1d0ba01
#BESTVELA,FILE,0,33.5,FINESTEERING,2319,303920.750,02000000,10a2,17139;SOL_COMPUTED,NARROW_INT,0.025,7.750,5.4239,267.483178,0.0555,0*778b9005
#BESTVELA,FILE,0,33.5,FINESTEERING,2319,303920.800,02000000,10a2,17139;SOL_COMPUTED,NARROW_INT,0.025,7.800,5.4011,266.444825,-0.0091,0*74fc55f9
#BESTVELA,FILE,0,33.5,FINESTEERING,2319,303920.850,02000000,10a2,17139;SOL_COMPUTED,NARROW_INT,0.025,7.850,5.3986,266.003281,0.0928,0*7ad3807d
#BESTVELA,FILE,0,33.5,FINESTEERING,2319,303920.900,02000000,10a2,17139;SOL_COMPUTED,NARROW_INT,0.025,7.900,5.3843,265.359531,0.0611,0*0accc853
#BESTVELA,FILE,0,33.5,FINESTEERING,2319,303920.950,02000000,10a2,17139;SOL_COMPUTED,NARROW_INT,0.025,7.950,5.3500,264.767177,0.0539,0*712c98b3
#BESTVELA,FILE,0,33.5,FINESTEERING,2319,303921.000,02000000,10a2,17139;SOL_COMPUTED,NARROW_INT,0.025,8.000,5.3521,264.151754,0.0244,0*c81f1e9c
#BESTVELA,FILE,0,33.5,FINESTEERING,2319,303921.050,02000000,10a2,17139;SOL_COMPUTED,NARROW_INT,0.025,8.050,5.3165,263.736066,0.0478,0*6d4d240a
#BESTVELA,FILE,0,31.5,FINESTEERING,2319,303921.100,02000000,10a2,17139;SOL_COMPUTED,NARROW_INT,0.025,8.100,5.3372,263.077866,-0.0153,0*b5ae138b
#BESTVELA,FILE,0,31.5,FINESTEERING,2319,303921.150,02000000,10a2,17139;SOL_COMPUTED,NARROW_INT,0.025,8.150,5.3105,262.564431,-0.0429,0*0cf29bf0
#BESTVELA,FILE,0,31.5,FINESTEERING,2319,303921.200,02000000,10a2,17139;SOL_COMPUTED,NARROW_INT,0.025,8.200,5.3228,261.442051,-0.0036,0*58b42a4c
#BESTVELA,FILE,0,31.5,FINESTEERING,2319,303921.250,02000000,10a2,17139;SOL_COMPUTED,NARROW_INT,0.025,8.250,5.3085,260.701286,0.0182,0*5caa1d37
#BESTVELA,FILE,0,31.5,FINESTEERING,2319,303921.300,02000000,10a2,17139;SOL_COMPUTED,NARROW_INT,0.025,8.300,5.3231,260.178077,-0.0360,0*e88a2f64
#BESTVELA,FILE,0,31.5,FINESTEERING,2319,303921.350,02000000,10a2,17139;SOL_COMPUTED,NARROW_INT,0.025,8.350,5.3318,259.260073,-0.0277,0*b23381f9
#BESTVELA,FILE,0,31.5,FINESTEERING,2319,303921.400,02000000,10a2,17139;SOL_COMPUTED,NARROW_INT,0.025,0.400,5.3075,258.112678,0.0471,0*0088da5e
#BESTVELA,FILE,0,31.5,FINESTEERING,2319,303921.450,02000000,10a2,17139;SOL_COMPUTED,NARROW_INT,0.025,0.450,5.2889,257.259130,0.0568,0*0f6b3a15
#BESTVELA,FILE,0,31.5,FINESTEERING,2319,303921.500,02000000,10a2,17139;SOL_COMPUTED,NARROW_INT,0.025,0.500,5.2991,256.910519,0.0515,0*e4e293b5
#BESTVELA,FILE,0,31.5,FINESTEERING,2319,303921.550,02000000,10a2,17139;SOL_COMPUTED,NARROW_INT,0.025,0.550,5.2566,255.892089,0.0050,0*5b564220
#BESTVELA,FILE,0,31.5,FINESTEERING,2319,303921.600,02000000,10a2,17139;SOL_COMPUTED,NARROW_INT,0.025,0.600,5.2493,254.963315,0.0139,0*04156bc6
#BESTVELA,FILE,0,31.5,FINESTEERING,2319,303921.650,02000000,10a2,17139;SOL_COMPUTED,NARROW_INT,0.025,0.650,5.2280,254.634599,0.0042,0*da7e1b84
#BESTVELA,FILE,0,31.5,FINESTEERING,2319,303921.700,02000000,10a2,17139;SOL_COMPUTED,NARROW_INT,0.025,0.700,5.1867,253.459717,-0.0225,0*379e384f
#BESTVELA,FILE,0,31.5,FINESTEERING,2319,303921.750,02000000,10a2,17139;SOL_COMPUTED,NARROW_INT,0.025,0.750,5.1819,252.797779,-0.0960,0*d1475674
#BESTVELA,FILE,0,31.5,FINESTEERING,2319,303921.800,02000000,10a2,17139;SOL_COMPUTED,NARROW_INT,0.025,0.800,5.1376,252.374634,-0.0645,0*8382e182
#BESTVELA,FILE,0,31.5,FINESTEERING,2319,303921.850,02000000,10a2,17139;SOL_COMPUTED,NARROW_INT,0.025,0.850,5.1660,251.499125,-0.0328,0*5dcaafb6
#BESTVELA,FILE,0,31.5,FINESTEERING,2319,303921.900,02000000,10a2,17139;SOL_COMPUTED,NARROW_INT,0.025,0.900,5.1828,250.308114,0.0062,0*7c1aeffb
#BESTVELA,FILE,0,31.5,FINESTEERING,2319,303921.950,02000000,10a2,17139;SOL_COMPUTED,NARROW_INT,0.025,0.950,5.1876,249.858480,-0.0138,0*8e3ad392
#BESTVELA,FILE,0,31.5,FINESTEERING,2319,303922.000,02000000,10a2,17139;SOL_COMPUTED,NARROW_INT,0.025,1.000,5.1900,248.703428,0.0426,0*771a1a86
#BESTVELA,FILE,0,31.5,FINESTEERING,2319,303922.050,02000000,10a2,17139;SOL_COMPUTED,NARROW_INT,0.025,1.050,5.1959,247.822391,0.0561,0*254772dd
#BESTVELA,FILE,0,31.5,FINESTEERING,2319,303922.100,02000000,10a2,17139;SOL_COMPUTED,NARROW_INT,0.025,1.100,5.1517,246.898794,-0.0047,0*120204d8
#BESTVELA,FILE,0,31.5,FINESTEERING,2319,303922.150,02000000,10a2,17139;SOL_COMPUTED,NARROW_INT,0.025,1.150,5.1275,246.242720,0.0321,0*3b3855f8
#BESTVELA,FILE,0,28.5,FINESTEERING,2319,303922.200,02000000,10a2,17139;SOL_COMPUTED,NARROW_INT,0.025,1.200,5.1583,245.780017,0.0968,0*9e77a1c2
#BESTVELA,FILE,0,28.5,FINESTEERING,2319,303922.250,02000000,10a2,17139;SOL_COMPUTED,NARROW_INT,0.025,1.250,5.1268,244.992797,-0.0040,0*a1dea54f
#BESTVELA,FILE,0,28.5,FINESTEERING,2319,303922.300,02000000,10a2,17139;SOL_COMPUTED,NARROW_INT,0.025,1.300,5.0850,243.875643,-0.0446,0*f6dec89a
#BESTVELA,FILE,0,28.5,FINESTEERING,2319,303922.350,02000000,10a2,17139;SOL_COMPUTED,NARROW_INT,0.025,1.350,5.0394,243.307410,0.0082,0*598cea82
#BESTVELA,FILE,0,28.5,FINESTEERING,2319,303922.400,02000000,10a2,17139;SOL_COMPUTED,NARROW_INT,0.025,1.400,5.1208,242.919577,0.0367,0*baa10c6e
#BESTVELA,FILE,0,28.5,FINESTEERING,2319,303922.450,02000000,10a2,17139;SOL_COMPUTED,NARROW_INT,0.025,1.450,5.0561,241.921202,0.0470,0*55aa0375
#BESTVELA,FILE,0,28.5,FINESTEERING,2319,303922.500,02000000,10a2,17139;SOL_COMPUTED,NARROW_INT,0.025,1.500,5.0471,240.934626,0.0372,0*8a69faef
#BESTVELA,FILE,0,28.5,FINESTEERING,2319,303922.550,02000000,10a2,17139;SOL_COMPUTED,NARROW_INT,0.025,1.550,5.0631,240.322189,-0.0091,0*3cc040ea
#BESTVELA,FILE,0,28.5,FINESTEERING,2319,303922.600,02000000,10a2,17139;SOL_COMPUTED,NARROW_INT,0.025,1.600,5.0585,239.899712,-0.0160,0*23eff18f
#BESTVELA,FILE,0,28.5,FINESTEERING,2319,303922.650,02000000,10a2,17139;SOL_COMPUTED,NARROW_INT,0.025,1.650,5.0851,239.070562,0.0101,0*813d199e
#BESTVELA,FILE,0,28.5,FINESTEERING,2319,303922.700,02000000,10a2,17139;SOL_COMPUTED,NARROW_INT,0.025,1.700,5.0581,238.566016,0.0304,0*12e91c2c
#BESTVELA,FILE,0,28.5,FINESTEERING,2319,303922.750,02000000,10a2,17139;SOL_COMPUTED,NARROW_INT,0.025,1.750,5.0565,238.104199,0.0581,0*54fd03fa
#BESTVELA,FILE,0,28.5,FINESTEERING,2319,303922.800,02000000,10a2,17139;SOL_COMPUTED,NARROW_INT,0.025,1.800,5.0492,237.041728,0.0364,0*aa511dea
#BESTVELA,FILE,0,28.5,FINESTEERING,2319,303922.850,02000000,10a2,17139;SOL_COMPUTED,NARROW_INT,0.025,1.850,5.0376,236.527923,0.0250,0*c1470fc7
#BESTVELA,FILE,0,28.5,FINESTEERING,2319,303922.900,02000000,10a2,17139;SOL_COMPUTED,NARROW_INT,0.025,1.900,5.0439,235.792371,0.0184,0*942cb371
#BESTVELA,FILE,0,28.5,FINESTEERING,2319,303922.950,02000000,10a2,17139;SOL_COMPUTED,NARROW_INT,0.025,1.950,5.0354,234.781881,0.0481,0*a278b1d4
#BESTVELA,FILE,0,28.5,FINESTEERING,2319,303923.000,02000000,10a2,17139;SOL_COMPUTED,NARROW_INT,0.025,2.000,5.0438,233.833230,0.0153,0*ca8fd4fc
#BESTVELA,FILE,0,28.5,FINESTEERING,2319,303923.050,02000000,10a2,17139;SOL_COMPUTED,NARROW_INT,0.025,2.050,5.0688,233.278692,0.0700,0*7023dc86
#BESTVELA,FILE,0,28.5,FINESTEERING,2319,303923.100,02000000,10a2,17139;SOL_COMPUTED,NARROW_INT,0.025,2.100,5.0056,232.541346,0.0398,0*30c37e6b
#BESTVELA,FILE,0,30.5,FINESTEERING,2319,303923.150,02000000,10a2,17139;SOL_COMPUTED,NARROW_INT,0.025,2.150,5.0278,232.090779,-0.0271,0*96e72ed6
#BESTVELA,FILE,0,30.5,FINESTEERING,2319,303923.200,02000000,10a2,17139;SOL_COMPUTED,NARROW_INT,0.025,1.200,5.0359,232.177721,0.0014,0*530d7578
#BESTVELA,FILE,0,30.5,FINESTEERING,2319,303923.250,02000000,10a2,17139;SOL_COMPUTED,NARROW_INT,0.025,1.250,4.9917,230.750356,-0.0278,0*a292026b
#BESTVELA,FILE,0,30.5,FINESTEERING,2319,303923.300,02000000,10a2,17139;SOL_COMPUTED,NARROW_INT,0.025,1.300,4.9450,229.943136,0.0335,0*84f0d156
#BESTVELA,FILE,0,30.5,FINESTEERING,2319,303923.350,02000000,10a2,17139;SOL_COMPUTED,NARROW_INT,0.025,0.350,4.9622,229.486053,0.0023,0*ad325105
#BESTVELA,FILE,0,30.5,FINESTEERING,2319,303923.400,02000000,10a2,17139;SOL_COMPUTED,NARROW_INT,0.025,0.400,4.9388,228.296325,-0.0484,0*c03038e2
#BESTVELA,FILE,0,30.5,FINESTEERING,2319,303923.450,02000000,10a2,17139;SOL_COMPUTED,NARROW_INT,0.025,0.450,4.9322,227.123062,-0.0407,0*3ffdd509
#BESTVELA,FILE,0,30.5,FINESTEERING,2319,303923.500,02000000,10a2,17139;SOL_COMPUTED,NARROW_INT,0.025,0.500,4.9303,226.625996,-0.0284,0*d14ea883
#BESTVELA,FILE,0,30.5,FINESTEERING,2319,303923.550,02000000,10a2,17139;SOL_COMPUTED,NARROW_INT,0.025,0.550,4.9528,226.396355,0.0168,0*7ea2a5f5
#BESTVELA,FILE,0,30.5,FINESTEERING,2319,303923.600,02000000,10a2,17139;SOL_COMPUTED,NARROW_INT,0.025,0.600,4.9398,225.595057,-0.0471,0*7ba28145
#BESTVELA,FILE,0,30.5,FINESTEERING,2319,303923.650,02000000,10a2,17139;SOL_COMPUTED,NARROW_INT,0.025,0.650,4.9280,224.975582,-0.0600,0*39a2d492
#BESTVELA,FILE,0,30.5,FINESTEERING,2319,303923.700,02000000,10a2,17139;SOL_COMPUTED,NARROW_INT,0.025,0.700,4.9257,224.216633,-0.0281,0*0c8381b3
#BESTVELA,FILE,0,30.5,FINESTEERING,2319,303923.750,02000000,10a2,17139;SOL_COMPUTED,NARROW_INT,0.025,0.750,4.9180,223.425459,-0.0368,0*9ac58192
#BESTVELA,FILE,0,30.5,FINESTEERING,2319,303923.800,02000000,10a2,17139;SOL_COMPUTED,NARROW_INT,0.025,0.800,4.9026,221.969741,-0.0901,0*43bc4547
#BESTVELA,FILE,0,30.5,FINESTEERING,2319,303923.850,02000000,10a2,17139;SOL_COMPUTED,NARROW_INT,0.025,0.850,4.8964,220.953960,0.0234,0*e95464d6
#BESTVELA,FILE,0,30.5,FINESTEERING,2319,303923.900,02000000,10a2,17139;SOL_COMPUTED,NARROW_INT,0.025,0.900,4.9311,220.187894,0.0003,0*0ed9c8db
#BESTVELA,FILE,0,30.5,FINESTEERING,2319,303923.950,02000000,10a2,17139;SOL_COMPUTED,NARROW_INT,0.025,0.950,4.9447,219.485142,0.0522,0*34d8cf61
#BESTVELA,FILE,0,30.5,FINESTEERING,2319,303924.000,02000000,10a2,17139;SOL_COMPUTED,NARROW_INT,0.025,1.000,4.9474,219.061396,-0.0206,0*09e51818
#BESTVELA,FILE,0,30.5,FINESTEERING,2319,303924.050,02000000,10a2,17139;SOL_COMPUTED,NARROW_INT,0.025,1.050,4.9550,218.434113,-0.0222,0*5fa386df
#BESTVELA,FILE,0,27.0,FINESTEERING,2319,303924.100,02000000,10a2,17139;SOL_COMPUTED,NARROW_INT,0.025,1.100,4.9417,217.820326,-0.0172,0*589f16d2
#BESTVELA,FILE,0,27.0,FINESTEERING,2319,303924.150,02000000,10a2,17139;SOL_COMPUTED,NARROW_INT,0.025,1.150,4.9540,216.984852,0.0097,0*ce4e179d
#BESTVELA,FILE,0,27.0,FINESTEERING,2319,303924.200,02000000,10a2,17139;SOL_COMPUTED,NARROW_INT,0.025,1.200,4.9359,216.452427,-0.0054,0*81316d97
#BESTVELA,FILE,0,27.0,FINESTEERING,2319,303924.250,02000000,10a2,17139;SOL_COMPUTED,NARROW_INT,0.025,1.250,4.9137,215.724501,-0.0056,0*54774540
#BESTVELA,FILE,0,27.0,FINESTEERING,2319,303924.300,02000000,10a2,17139;SOL_COMPUTED,NARROW_INT,0.025,1.300,4.9237,214.745379,-0.0367,0*95a94d9f
#BESTVELA,FILE,0,27.0,FINESTEERING,2319,303924.350,02000000,10a2,17139;SOL_COMPUTED,NARROW_INT,0.025,1.350,4.9143,213.832416,-0.0295,0*41820342
#BESTVELA,FILE,0,27.0,FINESTEERING,2319,303924.400,02000000,10a2,17139;SOL_COMPUTED,NARROW_INT,0.025,1.400,4.9192,213.437481,0.0127,0*ac7d317d
#BESTVELA,FILE,0,27.0,FINESTEERING,2319,303924.450,02000000,10a2,17139;SOL_COMPUTED,NARROW_INT,0.025,1.450,4.9163,212.541767,-0.0307,0*39fac5fe
#BESTVELA,FILE,0,27.0,FINESTEERING,2319,303924.500,02000000,10a2,17139;SOL_COMPUTED,NARROW_INT,0.025,1.500,4.8879,211.726415,0.0119,0*6a4d0589
#BESTVELA,FILE,0,27.0,FINESTEERING,2319,303924.550,02000000,10a2,17139;SOL_COMPUTED,NARROW_INT,0.025,1.550,4.8745,211.088644,-0.0524,0*e40daed5
#BESTVELA,FILE,0,27.0,FINESTEERING,2319,303924.600,02000000,10a2,17139;SOL_COMPUTED,NARROW_INT,0.025,1.600,4.8979,210.739743,-0.0717,0*b4be2e4c
#BESTVELA,FILE,0,27.0,FINESTEERING,2319,303924.650,02000000,10a2,17139;SOL_COMPUTED,NARROW_INT,0.025,1.650,4.8793,209.685833,-0.0303,0*90af6b63
#BESTVELA,FILE,0,27.0,FINESTEERING,2319,303924.700,02000000,10a2,17139;SOL_COMPUTED,NARROW_INT,0.025,1.700,4.9300,208.873374,-0.0792,0*2abaf14f
#BESTVELA,FILE,0,27.0,FINESTEERING,2319,303924.750,02000000,10a2,17139;SOL_COMPUTED,NARROW_INT,0.025,1.750,4.9091,207.980040,-0.0672,0*799e4bfc
#BESTVELA,FILE,0,27.0,FINESTEERING,2319,303924.800,02000000,10a2,17139;SOL_COMPUTED,NARROW_INT,0.025,1.800,4.9325,207.573394,-0.0508,0*57d9ec63
#BESTVELA,FILE,0,27.0,FINESTEERING,2319,303924.850,02000000,10a2,17139;SOL_COMPUTED,NARROW_INT,0.025,1.850,4.9428,206.989779,-0.0445,0*521631e9
#BESTVELA,FILE,0,27.0,FINESTEERING,2319,303924.900,02000000,10a2,17139;SOL_COMPUTED,NARROW_INT,0.025,1.900,4.9436,206.109325,0.0088,0*bcfcc5ea
#BESTVELA,FILE,0,27.0,FINESTEERING,2319,303924.950,02000000,10a2,17139;SOL_COMPUTED,NARROW_INT,0.025,1.950,4.9649,205.411740,-0.0275,0*e5141fa0
#BESTVELA,FILE,0,27.0,FINESTEERING,2319,303925.000,02000000,10a2,17139;SOL_COMPUTED,NARROW_INT,0.025,2.000,4.9576,204.888125,-0.0671,0*9f83e26e
#BESTVELA,FILE,0,27.0,FINESTEERING,2319,303925.050,02000000,10a2,17139;SOL_COMPUTED,NARROW_INT,0.025,2.050,4.9513,204.047206,-0.0149,0*6f33cdb6
#BESTVELA,FILE,0,27.0,FINESTEERING,2319,303925.100,02000000,10a2,17139;SOL_COMPUTED,NARROW_INT,0.025,2.100,5.0179,203.808722,-0.0615,0*eb125391
#BESTVELA,FILE,0,31.5,FINESTEERING,2319,303925.150,02000000,10a2,17139;SOL_COMPUTED,NARROW_INT,0.025,2.150,4.9894,202.581537,-0.1008,0*1f6108ba
#BESTVELA,FILE,0,31.5,FINESTEERING,2319,303925.200,02000000,10a2,17139;SOL_COMPUTED,NARROW_INT,0.025,2.200,5.0050,201.578792,-0.0719,0*3308aafe
#BESTVELA,FILE,0,31.5,FINESTEERING,2319,303925.250,02000000,10a2,17139;SOL_COMPUTED,NARROW_INT,0.025,2.250,4.9850,200.985906,-0.1038,0*f83e2ed4
#BESTVELA,FILE,0,31.5,FINESTEERING,2319,303925.300,02000000,10a2,17139;SOL_COMPUTED,NARROW_INT,0.025,2.300,5.0051,200.377142,-0.1240,0*68943833
#BESTVELA,FILE,0,31.5,FINESTEERING,2319,303925.350,02000000,10a2,17139;SOL_COMPUTED,NARROW_INT,0.025,0.350,5.0166,199.907993,-0.1464,0*064500de
#BESTVELA,FILE,0,31.5,FINESTEERING,2319,303925.400,02000000,10a2,17139;SOL_COMPUTED,NARROW_INT,0.025,0.400,5.0487,199.042113,-0.1565,0*2886f02e
#BESTVELA,FILE,0,31.5,FINESTEERING,2319,303925.450,02000000,10a2,17139;SOL_COMPUTED,NARROW_INT,0.025,0.450,5.0361,198.069827,-0.1340,0*bdb45a6b
#BESTVELA,FILE,0,31.5,FINESTEERING,2319,303925.500,02000000,10a2,17139;SOL_COMPUTED,NARROW_INT,0.025,0.500,5.0934,197.083891,-0.0006,0*c225168a
#BESTVELA,FILE,0,31.5,FINESTEERING,2319,303925.550,02000000,10a2,17139;SOL_COMPUTED,NARROW_INT,0.025,0.550,5.1144,196.892679,-0.1309,0*050f7f2e
#BESTVELA,FILE,0,31.5,FINESTEERING,2319,303925.600,02000000,10a2,17139;SOL_COMPUTED,NARROW_INT,0.025,0.600,5.1533,196.558081,-0.1385,0*2bb7e35c
#BESTVELA,FILE,0,31.5,FINESTEERING,2319,303925.650,02000000,10a2,17139;SOL_COMPUTED,NARROW_INT,0.025,0.650,5.1374,195.732608,-0.1213,0*aab1cbb0
#BESTVELA,FILE,0,31.5,FINESTEERING,2319,303925.700,02000000,10a2,17139;SOL_COMPUTED,NARROW_INT,0.025,0.700,5.1644,195.138523,-0.1812,0*7f7df785
#BESTVELA,FILE,0,31.5,FINESTEERING,2319,303925.750,02000000,10a2,17139;SOL_COMPUTED,NARROW_INT,0.025,0.750,5.2253,194.098728,-0.1406,0*9225dfe5
#BESTVELA,FILE,0,31.5,FINESTEERING,2319,303925.800,02000000,10a2,17139;SOL_COMPUTED,NARROW_INT,0.025,0.800,5.2711,193.604006,-0.1492,0*943ef6e4
#BESTVELA,FILE,0,31.5,FINESTEERING,2319,303925.850,02000000,10a2,17139;SOL_COMPUTED,NARROW_INT,0.025,0.850,5.3180,192.425397,-0.1424,0*3264d6e8
#BESTVELA,FILE,0,31.5,FINESTEERING,2319,303925.900,02000000,10a2,17139;SOL_COMPUTED,NARROW_INT,0.025,0.900,5.3326,191.592858,-0.1598,0*ea188bd8
#BESTVELA,FILE,0,31.5,FINESTEERING,2319,303925.950,02000000,10a2,17139;SOL_COMPUTED,NARROW_INT,0.025,0.950,5.4006,190.499029,-0.1239,0*fc9c3c64
#BESTVELA,FILE,0,31.5,FINESTEERING,2319,303926.000,02000000,10a2,17139;SOL_COMPUTED,NARROW_INT,0.025,1.000,5.3880,189.685676,-0.1511,0*657bd1e7
#BESTVELA,FILE,0,31.5,FINESTEERING,2319,303926.050,02000000,10a2,17139;SOL_COMPUTED,NARROW_INT,0.025,1.050,5.4321,189.193754,-0.1169,0*386e8bce
#BESTVELA,FILE,0,28.5,FINESTEERING,2319,303926.100,02000000,10a2,17139;SOL_COMPUTED,NARROW_INT,0.025,1.100,5.4877,189.148304,-0.2161,0*688d91e6
#BESTVELA,FILE,0,28.5,FINESTEERING,2319,303926.150,02000000,10a2,17139;SOL_COMPUTED,NARROW_INT,0.025,1.150,5.4684,188.055626,-0.2409,0*100a8e73
#BESTVELA,FILE,0,28.5,FINESTEERING,2319,303926.200,02000000,10a2,17139;SOL_COMPUTED,NARROW_INT,0.025,1.200,5.5391,187.119319,-0.1330,0*cb1573db
#BESTVELA,FILE,0,28.5,FINESTEERING,2319,303926.250,02000000,10a2,17139;SOL_COMPUTED,NARROW_INT,0.025,1.250,5.5810,186.786462,-0.1779,0*c55f4195
#BESTVELA,FILE,0,28.5,FINESTEERING,2319,303926.300,02000000,10a2,17139;SOL_COMPUTED,NARROW_INT,0.025,1.300,5.5886,186.306190,-0.2652,0*eead91bc
#BESTVELA,FILE,0,28.5,FINESTEERING,2319,303926.350,02000000,10a2,17139;SOL_COMPUTED,NARROW_INT,0.025,1.350,5.6602,185.732076,-0.1729,0*757e3f17
#BESTVELA,FILE,0,28.5,FINESTEERING,2319,303926.400,02000000,10a2,17139;SOL_COMPUTED,NARROW_INT,0.025,0.400,5.6830,185.437184,-0.1857,0*b9a72baf
#BESTVELA,FILE,0,28.5,FINESTEERING,2319,303926.450,02000000,10a2,17139;SOL_COMPUTED,NARROW_INT,0.025,0.450,5.7238,184.531530,-0.2211,0*018ca30f
#BESTVELA,FILE,0,28.5,FINESTEERING,2319,303926.500,02000000,10a2,17139;SOL_COMPUTED,NARROW_INT,0.025,0.500,5.7625,183.569890,-0.2742,0*43aeaf15
#BESTVELA,FILE,0,28.5,FINESTEERING,2319,303926.550,02000000,10a2,17139;SOL_COMPUTED,NARROW_INT,0.025,0.550,5.8181,183.464097,-0.2669,0*80e14365
#BESTVELA,FILE,0,28.5,FINESTEERING,2319,303926.600,02000000,10a2,17139;SOL_COMPUTED,NARROW_INT,0.025,0.600,5.8320,182.292051,-0.2238,0*f33d72cb
#BESTVELA,FILE,0,28.5,FINESTEERING,2319,303926.650,02000000,10a2,17139;SOL_COMPUTED,NARROW_INT,0.025,0.650,5.8579,181.719333,-0.2654,0*e55430bc
#BESTVELA,FILE,0,28.5,FINESTEERING,2319,303926.700,02000000,10a2,17139;SOL_COMPUTED,NARROW_INT,0.025,0.700,5.8902,181.300483,-0.2589,0*29bc3018
#BESTVELA,FILE,0,28.5,FINESTEERING,2319,303926.750,02000000,10a2,17139;SOL_COMPUTED,NARROW_INT,0.025,0.750,5.9517,180.065410,-0.1769,0*cfd1332b
#BESTVELA,FILE,0,28.5,FINESTEERING,2319,303926.800,02000000,10a2,17139;SOL_COMPUTED,NARROW_INT,0.025,0.800,5.9975,179.959728,-0.2281,0*ad33de88
#BESTVELA,FILE,0,28.5,FINESTEERING,2319,303926.850,02000000,10a2,17139;SOL_COMPUTED,NARROW_INT,0.025,0.850,6.0296,179.618575,-0.2991,0*fcb55d56
#BESTVELA,FILE,0,28.5,FINESTEERING,2319,303926.900,02000000,10a2,17139;SOL_COMPUTED,NARROW_INT,0.025,0.900,6.0810,178.944615,-0.2469,0*f2184cc1
#BESTVELA,FILE,0,28.5,FINESTEERING,2319,303926.950,02000000,10a2,17139;SOL_COMPUTED,NARROW_INT,0.025,0.950,6.1359,178.902074,-0.2750,0*858f51ba
#BESTVELA,FILE,0,28.5,FINESTEERING,2319,303927.000,02000000,10a2,17139;SOL_COMPUTED,NARROW_INT,0.025,1.000,6.1849,178.094043,-0.2986,0*6917a09a
#BESTVELA,FILE,0,28.5,FINESTEERING,2319,303927.050,02000000,10a2,17139;SOL_COMPUTED,NARROW_INT,0.025,1.050,6.2462,177.861655,-0.2632,0*0ea20582
#BESTVELA,FILE,0,27.0,FINESTEERING,2319,303927.100,02000000,10a2,17139;SOL_COMPUTED,NARROW_INT,0.025,1.100,6.2884,177.184785,-0.2026,0*4b229bd6
#BESTVELA,FILE,0,27.0,FINESTEERING,2319,303927.150,02000000,10a2,17139;SOL_COMPUTED,NARROW_INT,0.025,1.150,6.2829,177.390022,-0.3192,0*bb6f1b12
#BESTVELA,FILE,0,27.0,FINESTEERING,2319,303927.200,02000000,10a2,17139;SOL_COMPUTED,NARROW_INT,0.025,1.200,6.3267,177.480840,-0.2571,0*c56313e7
#BESTVELA,FILE,0,27.0,FINESTEERING,2319,303927.250,02000000,10a2,17139;SOL_COMPUTED,NARROW_INT,0.025,1.250,6.3969,176.962867,-0.2743,0*9022ef44
#BESTVELA,FILE,0,27.0,FINESTEERING,2319,303927.300,02000000,10a2,17139;SOL_COMPUTED,NARROW_INT,0.025,1.300,6.4275,177.311108,-0.3001,0*abb5a26c
#BESTVELA,FILE,0,27.0,FINESTEERING,2319,303927.350,02000000,10a2,17139;SOL_COMPUTED,NARROW_INT,0.025,1.350,6.4311,177.246813,-0.2995,0*b091aa83
#BESTVELA,FILE,0,27.0,FINESTEERING,2319,303927.400,02000000,10a2,17139;SOL_COMPUTED,NARROW_INT,0.025,1.400,6.4858,177.359361,-0.2793,0*2a80b227
#BESTVELA,FILE,0,27.0,FINESTEERING,2319,303927.450,02000000,10a2,17139;SOL_COMPUTED,NARROW_INT,0.025,1.450,6.5589,176.939101,-0.3935,0*c0a92ee1
#BESTVELA,FILE,0,27.0,FINESTEERING,2319,303927.500,02000000,10a2,17139;SOL_COMPUTED,NARROW_INT,0.025,1.500,6.5996,177.120996,-0.3491,0*3a1c4968
#BESTVELA,FILE,0,27.0,FINESTEERING,2319,303927.550,02000000,10a2,17139;SOL_COMPUTED,NARROW_INT,0.025,1.550,6.6587,177.267144,-0.3007,0*be09c80c
#BESTVELA,FILE,0,27.0,FINESTEERING,2319,303927.600,02000000,10a2,17139;SOL_COMPUTED,NARROW_INT,0.025,1.600,6.7022,177.336685,-0.2933,0*51aacd61
#BESTVELA,FILE,0,27.0,FINESTEERING,2319,303927.650,02000000,10a2,17139;SOL_COMPUTED,NARROW_INT,0.025,1.650,6.7522,177.919730,-0.2656,0*9f9fcc54
#BESTVELA,FILE,0,27.0,FINESTEERING,2319,303927.700,02000000,10a2,17139;SOL_COMPUTED,NARROW_INT,0.025,1.700,6.7609,178.074328,-0.3323,0*9e59187d
#BESTVELA,FILE,0,27.0,FINESTEERING,2319,303927.750,02000000,10a2,17139;SOL_COMPUTED,NARROW_INT,0.025,1.750,6.8296,177.863287,-0.2829,0*4e582ee9
#BESTVELA,FILE,0,27.0,FINESTEERING,2319,303927.800,02000000,10a2,17139;SOL_COMPUTED,NARROW_INT,0.025,1.800,6.8390,178.137187,-0.3434,0*2892270b
#BESTVELA,FILE,0,27.0,FINESTEERING,2319,303927.850,02000000,10a2,17139;SOL_COMPUTED,NARROW_INT,0.025,1.850,6.8951,178.096816,-0.3063,0*2cb66dd9
#BESTVELA,FILE,0,27.0,FINESTEERING,2319,303927.900,02000000,10a2,17139;SOL_COMPUTED,NARROW_INT,0.025,1.900,6.8772,178.020971,-0.3393,0*4b03d93a
#BESTVELA,FILE,0,27.0,FINESTEERING,2319,303927.950,02000000,10a2,17139;SOL_COMPUTED,NARROW_INT,0.025,1.950,6.9376,178.011818,-0.3738,0*d8c7bae8
#BESTVELA,FILE,0,27.0,FINESTEERING,2319,303928.000,02000000,10a2,17139;SOL_COMPUTED,NARROW_INT,0.025,2.000,6.9322,178.000086,-0.3167,0*ddfef329
#BESTVELA,FILE,0,27.0,FINESTEERING,2319,303928.050,02000000,10a2,17139;SOL_COMPUTED,NARROW_INT,0.025,2.050,6.9779,178.120274,-0.3996,0*da63b103
#BESTVELA,FILE,0,27.0,FINESTEERING,2319,303928.100,02000000,10a2,17139;SOL_COMPUTED,NARROW_INT,0.025,2.100,7.0237,178.144880,-0.3266,0*015b3567
#BESTVELA,FILE,0,30.0,FINESTEERING,2319,303928.150,02000000,10a2,17139;SOL_COMPUTED,NARROW_INT,0.025,2.150,7.0592,178.176040,-0.3178,0*36703905
#BESTVELA,FILE,0,30.0,FINESTEERING,2319,303928.200,02000000,10a2,17139;SOL_COMPUTED,NARROW_INT,0.025,2.200,7.1352,178.020451,-0.2952,0*ee64b4c5
#BESTVELA,FILE,0,30.0,FINESTEERING,2319,303928.250,02000000,10a2,17139;SOL_COMPUTED,NARROW_INT,0.025,2.250,7.1571,178.038033,-0.3305,0*949498cf
#BESTVELA,FILE,0,30.0,FINESTEERING,2319,303928.300,02000000,10a2,17139;SOL_COMPUTED,NARROW_INT,0.025,2.300,7.1965,177.878194,-0.3467,0*9e0624f7
#BESTVELA,FILE,0,30.0,FINESTEERING,2319,303928.350,02000000,10a2,17139;SOL_COMPUTED,NARROW_INT,0.025,1.350,7.2354,178.184651,-0.2123,0*1d936c17
#BESTVELA,FILE,0,30.0,FINESTEERING,2319,303928.400,02000000,10a2,17139;SOL_COMPUTED,NARROW_INT,0.025,1.400,7.2659,178.518034,-0.3462,0*b3ed4670
#BESTVELA,FILE,0,30.0,FINESTEERING,2319,303928.450,02000000,10a2,17139;SOL_COMPUTED,NARROW_INT,0.025,1.450,7.2858,178.074346,-0.3003,0*a4a0e515
#BESTVELA,FILE,0,30.0,FINESTEERING,2319,303928.500,02000000,10a2,17139;SOL_COMPUTED,NARROW_INT,0.025,1.500,7.3123,178.414756,-0.3097,0*80592c3a
#BESTVELA,FILE,0,30.0,FINESTEERING,2319,303928.550,02000000,10a2,17139;SOL_COMPUTED,NARROW_INT,0.025,1.550,7.3191,178.333832,-0.3063,0*9f0d5971
#BESTVELA,FILE,0,30.0,FINESTEERING,2319,303928.600,02000000,10a2,17139;SOL_COMPUTED,NARROW_INT,0.025,1.600,7.3478,178.568372,-0.2878,0*de584cac
#BESTVELA,FILE,0,30.0,FINESTEERING,2319,303928.650,02000000,10a2,17139;SOL_COMPUTED,NARROW_INT,0.025,1.650,7.3833,178.574126,-0.3298,0*0f3b1d9c
#BESTVELA,FILE,0,30.0,FINESTEERING,2319,303928.700,02000000,10a2,17139;SOL_COMPUTED,NARROW_INT,0.025,1.700,7.4099,178.383122,-0.2491,0*039486f8
#BESTVELA,FILE,0,30.0,FINESTEERING,2319,303928.750,02000000,10a2,17139;SOL_COMPUTED,NARROW_INT,0.025,1.750,7.4774,178.636556,-0.3206,0*658c552e
#BESTVELA,FILE,0,30.0,FINESTEERING,2319,303928.800,02000000,10a2,17139;SOL_COMPUTED,NARROW_INT,0.025,1.800,7.4751,178.417130,-0.2425,0*cdeb5a5e
#BESTVELA,FILE,0,30.0,FINESTEERING,2319,303928.850,02000000,10a2,17139;SOL_COMPUTED,NARROW_INT,0.025,1.850,7.5071,178.896613,-0.2910,0*f51a19ac
#BESTVELA,FILE,0,30.0,FINESTEERING,2319,303928.900,02000000,10a2,17139;SOL_COMPUTED,NARROW_INT,0.025,1.900,7.5265,178.887961,-0.2974,0*15efae1e
#BESTVELA,FILE,0,30.0,FINESTEERING,2319,303928.950,02000000,10a2,17139;SOL_COMPUTED,NARROW_INT,0.025,1.950,7.5365,179.192297,-0.2135,0*0897049a
#BESTVELA,FILE,0,30.0,FINESTEERING,2319,303929.000,02000000,10a2,17139;SOL_COMPUTED,NARROW_INT,0.025,2.000,7.5516,178.714731,-0.2475,0*f06892f8
#BESTVELA,FILE,0,30.0,FINESTEERING,2319,303929.050,02000000,10a2,17139;SOL_COMPUTED,NARROW_INT,0.025,2.050,7.6029,178.674781,-0.2566,0*ad577166
#BESTVELA,FILE,0,28.0,FINESTEERING,2319,303929.100,02000000,10a2,17139;SOL_COMPUTED,NARROW_INT,0.025,2.100,7.6142,178.706923,-0.2457,0*a23389c4
#BESTVELA,FILE,0,28.0,FINESTEERING,2319,303929.150,02000000,10a2,17139;SOL_COMPUTED,NARROW_INT,0.025,2.150,7.6292,179.035985,-0.2030,0*993e7a29
#BESTVELA,FILE,0,28.0,FINESTEERING,2319,303929.200,02000000,10a2,17139;SOL_COMPUTED,NARROW_INT,0.025,2.200,7.6603,178.719570,-0.2274,0*e99a44c8
#BESTVELA,FILE,0,28.0,FINESTEERING,2319,303929.250,02000000,10a2,17139;SOL_COMPUTED,NARROW_INT,0.025,2.250,7.6959,178.819384,-0.2455,0*9e6e76e7
#BESTVELA,FILE,0,28.0,FINESTEERING,2319,303929.300,02000000,10a2,17139;SOL_COMPUTED,NARROW_INT,0.025,2.300,7.7095,178.758125,-0.1463,0*3c14627e
#BESTVELA,FILE,0,28.0,FINESTEERING,2319,303929.350,02000000,10a2,17139;SOL_COMPUTED,NARROW_INT,0.025,2.350,7.7428,178.876974,-0.1549,0*f5b755a8
#BESTVELA,FILE,0,28.0,FINESTEERING,2319,303929.400,02000000,10a2,17139;SOL_COMPUTED,NARROW_INT,0.025,2.400,7.7791,178.490940,-0.1442,0*becd9ea3
#BESTVELA,FILE,0,28.0,FINESTEERING,2319,303929.450,02000000,10a2,17139;SOL_COMPUTED,NARROW_INT,0.025,2.450,7.8016,178.846920,-0.1402,0*9b4bfd41
#BESTVELA,FILE,0,28.0,FINESTEERING,2319,303929.500,02000000,10a2,17139;SOL_COMPUTED,NARROW_INT,0.025,2.500,7.8294,178.805638,-0.1434,0*79a41a9f
#BESTVELA,FILE,0,28.0,FINESTEERING,2319,303929.550,02000000,10a2,17139;SOL_COMPUTED,NARROW_INT,0.025,2.550,7.8356,178.810254,-0.1794,0*b6fbb824
#BESTVELA,FILE,0,28.0,FINESTEERING,2319,303929.600,02000000,10a2,17139;SOL_COMPUTED,NARROW_INT,0.025,2.600,7.8746,178.897699,-0.0606,0*0617448e
#BESTVELA,FILE,0,28.0,FINESTEERING,2319,303929.650,02000000,10a2,17139;SOL_COMPUTED,NARROW_INT,0.025,2.650,7.8961,178.858988,-0.0279,0*b14ddb2c
#BESTVELA,FILE,0,28.0,FINESTEERING,2319,303929.700,02000000,10a2,17139;SOL_COMPUTED,NARROW_INT,0.025,2.700,7.9078,179.158939,-0.1621,0*04dce73d
#BESTVELA,FILE,0,28.0,FINESTEERING,2319,303929.750,02000000,10a2,17139;SOL_COMPUTED,NARROW_INT,0.025,2.750,7.9058,178.646464,-0.0996,0*56cce598
#BESTVELA,FILE,0,28.0,FINESTEERING,2319,303929.800,02000000,10a2,17139;SOL_COMPUTED,NARROW_INT,0.025,2.800,7.9104,179.150985,-0.0586,0*7f5a4dc9
#BESTVELA,FILE,0,28.0,FINESTEERING,2319,303929.850,02000000,10a2,17139;SOL_COMPUTED,NARROW_INT,0.025,2.850,7.9770,178.838799,-0.1056,0*0c6eaef5
#BESTVELA,FILE,0,28.0,FINESTEERING,2319,303929.900,02000000,10a2,17139;SOL_COMPUTED,NARROW_INT,0.025,2.900,7.9633,178.651856,-0.1846,0*d2011042
#BESTVELA,FILE,0,28.0,FINESTEERING,2319,303929.950,02000000,10a2,17139;SOL_COMPUTED,NARROW_INT,0.025,2.950,8.0237,178.974379,-0.1022,0*06b2c17c
#BESTVELA,FILE,0,28.0,FINESTEERING,2319,303930.000,02000000,10a2,17139;SOL_COMPUTED,NARROW_INT,0.025,3.000,8.0346,178.903759,-0.0912,0*2df64179
#BESTVELA,FILE,0,28.0,FINESTEERING,2319,303930.050,02000000,10a2,17139;SOL_COMPUTED,NARROW_INT,0.025,3.050,8.0736,179.040806,-0.0652,0*87707743
#BESTVELA,FILE,0,28.0,FINESTEERING,2319,303930.100,02000000,10a2,17139;SOL_COMPUTED,NARROW_INT,0.025,3.100,8.0774,179.062496,-0.0517,0*da808ce6
#BESTVELA,FILE,0,33.5,FINESTEERING,2319,303930.150,02000000,10a2,17139;SOL_COMPUTED,NARROW_INT,0.025,3.150,8.1531,179.071175,-0.0549,0*d506d347
#BESTVELA,FILE,0,33.5,FINESTEERING,2319,303930.200,02000000,10a2,17139;SOL_COMPUTED,NARROW_INT,0.025,3.200,8.1147,178.492137,-0.0906,0*66d712ac
#BESTVELA,FILE,0,33.5,FINESTEERING,2319,303930.250,02000000,10a2,17139;SOL_COMPUTED,NARROW_INT,0.025,3.250,8.0956,179.224680,-0.0763,0*eea108ef
#BESTVELA,FILE,0,33.5,FINESTEERING,2319,303930.300,02000000,10a2,17139;SOL_COMPUTED,NARROW_INT,0.025,3.300,8.1281,179.073055,-0.0845,0*7e5b116b
#BESTVELA,FILE,0,33.5,FINESTEERING,2319,303930.350,02000000,10a2,17139;SOL_COMPUTED,NARROW_INT,0.025,3.350,8.1377,178.829667,-0.1257,0*63a9ea30
#BESTVELA,FILE,0,33.5,FINESTEERING,2319,303930.400,02000000,10a2,17139;SOL_COMPUTED,NARROW_INT,0.025,3.400,8.1091,178.887125,-0.1239,0*8eff4bb2
#BESTVELA,FILE,0,33.5,FINESTEERING,2319,303930.450,02000000,10a2,17139;SOL_COMPUTED,NARROW_INT,0.025,3.450,8.1292,178.834646,-0.0606,0*b0a46ffe
#BESTVELA,FILE,0,33.5,FINESTEERING,2319,303930.500,02000000,10a2,17139;SOL_COMPUTED,NARROW_INT,0.025,3.500,8.2027,178.923145,-0.1694,0*b1b61a54
#BESTVELA,FILE,0,33.5,FINESTEERING,2319,303930.550,02000000,10a2,17139;SOL_COMPUTED,NARROW_INT,0.025,3.550,8.2309,179.025837,-0.1254,0*4144326b
#BESTVELA,FILE,0,33.5,FINESTEERING,2319,303930.600,02000000,10a2,17139;SOL_COMPUTED,NARROW_INT,0.025,3.600,8.2326,179.066720,-0.1336,0*667e7226
#BESTVELA,FILE,0,33.5,FINESTEERING,2319,303930.650,02000000,10a2,17139;SOL_COMPUTED,NARROW_INT,0.025,3.650,8.2417,178.754977,-0.0302,0*1199dc71
#BESTVELA,FILE,0,33.5,FINESTEERING,2319,303930.700,02000000,10a2,17139;SOL_COMPUTED,NARROW_INT,0.025,3.700,8.3044,178.834346,-0.0413,0*a74c7737
#BESTVELA,FILE,0,33.5,FINESTEERING,2319,303930.750,02000000,10a2,17139;SOL_COMPUTED,NARROW_INT,0.025,3.750,8.3280,179.110050,0.0085,0*3639cba1
#BESTVELA,FILE,0,33.5,FINESTEERING,2319,303930.800,02000000,10a2,17139;SOL_COMPUTED,NARROW_INT,0.025,3.800,8.3440,178.883769,-0.1073,0*4a38c936
#BESTVELA,FILE,0,33.5,FINESTEERING,2319,303930.850,02000000,10a2,17139;SOL_COMPUTED,NARROW_INT,0.025,3.850,8.3578,178.767958,-0.1305,0*bc96e20a
#BESTVELA,FILE,0,33.5,FINESTEERING,2319,303930.900,02000000,10a2,17139;SOL_COMPUTED,NARROW_INT,0.025,3.900,8.3505,179.215040,-0.0978,0*969f8684
#BESTVELA,FILE,0,33.5,FINESTEERING,2319,303930.950,02000000,10a2,17139;SOL_COMPUTED,NARROW_INT,0.025,3.950,8.3764,179.420183,-0.0887,0*0c3c2336
#BESTVELA,FILE,0,33.5,FINESTEERING,2319,303931.000,02000000,10a2,17139;SOL_COMPUTED,NARROW_INT,0.025,4.000,8.3879,178.881285,-0.1068,0*7e5e8777
#BESTVELA,FILE,0,33.5,FINESTEERING,2319,303931.050,02000000,10a2,17139;SOL_COMPUTED,NARROW_INT,0.025,4.050,8.3706,178.973480,-0.0812,0*c62c524c
#BESTVELA,FILE,0,31.5,FINESTEERING,2319,303931.100,02000000,10a2,17139;SOL_COMPUTED,NARROW_INT,0.025,4.100,8.4434,179.061319,-0.0488,0*bcadf246
#BESTVELA,FILE,0,31.5,FINESTEERING,2319,303931.150,02000000,10a2,17139;SOL_COMPUTED,NARROW_INT,0.025,4.150,8.4300,179.296065,-0.2165,0*ef676086
#BESTVELA,FILE,0,31.5,FINESTEERING,2319,303931.200,02000000,10a2,17139;SOL_COMPUTED,NARROW_INT,0.025,1.200,8.4501,179.006381,-0.1372,0*9f57cede
#BESTVELA,FILE,0,31.5,FINESTEERING,2319,303931.250,02000000,10a2,17139;SOL_COMPUTED,NARROW_INT,0.025,1.250,8.4433,178.876644,-0.0844,0*d25580e1
#BESTVELA,FILE,0,31.5,FINESTEERING,2319,303931.300,02000000,10a2,17139;SOL_COMPUTED,NARROW_INT,0.025,1.300,8.4870,179.163449,-0.0770,0*9021014a
#BESTVELA,FILE,0,31.5,FINESTEERING,2319,303931.350,02000000,10a2,17139;SOL_COMPUTED,NARROW_INT,0.025,0.350,8.5178,179.282772,-0.0583,0*290369e3
#BESTVELA,FILE,0,31.5,FINESTEERING,2319,303931.400,02000000,10a2,17139;SOL_COMPUTED,NARROW_INT,0.025,0.400,8.5315,179.389014,-0.1132,0*133ee052
#BESTVELA,FILE,0,31.5,FINESTEERING,2319,303931.450,02000000,10a2,17139;SOL_COMPUTED,NARROW_INT,0.025,0.450,8.5717,179.229700,-0.0617,0*4eaaf943
#BESTVELA,FILE,0,31.5,FINESTEERING,2319,303931.500,02000000,10a2,17139;SOL_COMPUTED,NARROW_INT,0.025,0.500,8.6219,179.311601,-0.0910,0*bc93e0ab
#BESTVELA,FILE,0,31.5,FINESTEERING,2319,303931.550,02000000,10a2,17139;SOL_COMPUTED,NARROW_INT,0.025,0.550,8.6069,179.330834,-0.0908,0*3c0c3e1b
#BESTVELA,FILE,0,31.5,FINESTEERING,2319,303931.600,02000000,10a2,17139;SOL_COMPUTED,NARROW_INT,0.025,0.600,8.6286,179.551208,-0.1008,0*d767f52a
#BESTVELA,FILE,0,31.5,FINESTEERING,2319,303931.650,02000000,10a2,17139;SOL_COMPUTED,NARROW_INT,0.025,0.650,8.6403,179.829128,-0.0753,0*ce6a3cf7
#BESTVELA,FILE,0,31.5,FINESTEERING,2319,303931.700,02000000,10a2,17139;SOL_COMPUTED,NARROW_INT,0.025,0.700,8.6671,179.798426,-0.1319,0*82d73419
#BESTVELA,FILE,0,31.5,FINESTEERING,2319,303931.750,02000000,10a2,17139;SOL_COMPUTED,NARROW_INT,0.025,0.750,8.6574,179.283068,-0.1319,0*dc07b324
#BESTVELA,FILE,0,31.5,FINESTEERING,2319,303931.800,02000000,10a2,17139;SOL_COMPUTED,NARROW_INT,0.025,0.800,8.6709,179.705346,-0.1026,0*06a02c09
#BESTVELA,FILE,0,31.5,FINESTEERING,2319,303931.850,02000000,10a2,17139;SOL_COMPUTED,NARROW_INT,0.025,0.850,8.6658,179.842234,-0.1169,0*72f12008
#BESTVELA,FILE,0,31.5,FINESTEERING,2319,303931.900,02000000,10a2,17139;SOL_COMPUTED,NARROW_INT,0.025,0.900,8.6765,179.552641,-0.1478,0*80acd396
#BESTVELA,FILE,0,31.5,FINESTEERING,2319,303931.950,02000000,10a2,17139;SOL_COMPUTED,NARROW_INT,0.025,0.950,8.6647,179.729058,-0.1734,0*40179ab1
#BESTVELA,FILE,0,31.5,FINESTEERING,2319,303932.000,02000000,10a2,17139;SOL_COMPUTED,NARROW_INT,0.025,1.000,8.6836,179.727812,-0.1421,0*bb69e871
#BESTVELA,FILE,0,31.5,FINESTEERING,2319,303932.050,02000000,10a2,17139;SOL_COMPUTED,NARROW_INT,0.025,1.050,8.7606,179.787548,-0.0895,0*dea89200
#BESTVELA,FILE,0,28.5,FINESTEERING,2319,303932.100,02000000,10a2,17139;SOL_COMPUTED,NARROW_INT,0.025,1.100,8.7473,179.778871,-0.1325,0*484846bc
#BESTVELA,FILE,0,28.5,FINESTEERING,2319,303932.150,02000000,10a2,17139;SOL_COMPUTED,NARROW_INT,0.025,1.150,8.7640,179.574238,-0.0645,0*476c547c
#BESTVELA,FILE,0,28.5,FINESTEERING,2319,303932.200,02000000,10a2,17139;SOL_COMPUTED,NARROW_INT,0.025,1.200,8.7856,179.760713,-0.0329,0*b3c79dd1
#BESTVELA,FILE,0,28.5,FINESTEERING,2319,303932.250,02000000,10a2,17139;SOL_COMPUTED,NARROW_INT,0.025,1.250,8.7825,179.618148,-0.0601,0*ddbf8f61
#BESTVELA,FILE,0,28.5,FINESTEERING,2319,303932.300,02000000,10a2,17139;SOL_COMPUTED,NARROW_INT,0.025,1.300,8.8041,179.705305,-0.0853,0*2c41141a
#BESTVELA,FILE,0,28.5,FINESTEERING,2319,303932.350,02000000,10a2,17139;SOL_COMPUTED,NARROW_INT,0.025,1.350,8.8282,179.525474,-0.0656,0*c24bd1a6
#BESTVELA,FILE,0,28.5,FINESTEERING,2319,303932.400,02000000,10a2,17139;SOL_COMPUTED,NARROW_INT,0.025,1.400,8.8196,179.748235,-0.1116,0*54e69ec0
#BESTVELA,FILE,0,28.5,FINESTEERING,2319,303932.450,02000000,10a2,17139;SOL_COMPUTED,NARROW_INT,0.025,1.450,8.8509,179.729777,-0.0390,0*a3b1ffb5
#BESTVELA,FILE,0,28.5,FINESTEERING,2319,303932.500,02000000,10a2,17139;SOL_COMPUTED,NARROW_INT,0.025,1.500,8.8935,179.554170,-0.0639,0*f2ba5f02
#BESTVELA,FILE,0,28.5,FINESTEERING,2319,303932.550,02000000,10a2,17139;SOL_COMPUTED,NARROW_INT,0.025,1.550,8.9332,179.169793,0.0224,0*11caf7eb
#BESTVELA,FILE,0,28.5,FINESTEERING,2319,303932.600,02000000,10a2,17139;SOL_COMPUTED,NARROW_INT,0.025,1.600,8.8965,179.826697,-0.1267,0*9a0b8e9d
