#CORRIMUDATAA,FILE,0,31.0,FINESTEERING,2319,303911.950,02000000,e5fc,17139;2319,303911.950000000,-0.0006679915697900,-0.0002575084700230,-0.0046844809603339,0.0419074811161393,-0.0394207644253524,-0.0138348353908945*c49dfd8e
#CORRIMUDATAA,FILE,0,31.0,FINESTEERING,2319,303912.000,02000000,e5fc,17139;2319,303912.000000000,-0.0011158109140999,0.0006779991253784,-0.0044790404366691,0.0334728577318429,-0.0369680816215936,-0.0100524964258479*b107cd79
#CORRIMUDATAA,FILE,0,31.0,FINESTEERING,2319,303912.050,02000000,e5fc,17139;2319,303912.050000000,-0.0025139345728337,0.0002806307236340,-0.0042858758529094,0.0480915697465178,-0.0418049450131709,-0.0044399165110558*d5d4f011
#CORRIMUDATAA,FILE,0,30.0,FINESTEERING,2319,303912.100,02000000,e5fc,17139;2319,303912.100000000,-0.0031833530684850,-0.0015564813837101,-0.0038147095892547,0.0552065955542721,-0.0470397685809652,-0.0150751318139779*46a3faad
#CORRIMUDATAA,FILE,0,30.0,FINESTEERING,2319,303912.150,02000000,e5fc,17139;2319,303912.150000000,-0.0004627250718462,-0.0039140973697451,-0.0029888019319731,0.0300604631137495,-0.0380560329318641,-0.0354823930271623*a7da45e1
#CORRIMUDATAA,FILE,0,30.0,FINESTEERING,2319,303912.200,02000000,e5fc,17139;2319,303912.200000000,0.0008112871118119,-0.0026660061809120,-0.0027685532052009,0.0162281025779614,-0.0309330866896743,-0.0154462718710410*1ab1ff59
#CORRIMUDATAA,FILE,0,30.0,FINESTEERING,2319,303912.250,02000000,e5fc,17139;2319,303912.250000000,0.0034833867196469,-0.0008920789089837,-0.0024076761030749,0.0287548062239273,-0.0185422621776790,-0.0764907019154465*ba3717ff
#CORRIMUDATAA,FILE,0,30.0,FINESTEERING,2319,303912.300,02000000,e5fc,17139;2319,303912.300000000,0.0041900430532970,0.0015108596108908,-0.0020619670530953,0.0472541655845350,-0.0408642182865425,-0.0356758277341181*91c3760d
#CORRIMUDATAA,FILE,0,30.0,FINESTEERING,2319,303912.350,02000000,e5fc,17139;2319,303912.350000000,0.0035730106728737,-0.0003364367188599,-0.0017333332747173,0.0205471632834388,-0.0439997505228377,-0.0135072949285241*838d344b
#CORRIMUDATAA,FILE,0,30.0,FINESTEERING,2319,303912.400,02000000,e5fc,17139;2319,303912.400000000,0.0014644153461456,0.0016805542260366,-0.0019628522519122,-0.0117542901829665,-0.0538919592568724,0.2112012506228204*2e3112e4
#CORRIMUDATAA,FILE,0,30.0,FINESTEERING,2319,303912.450,02000000,e5fc,17139;2319,303912.450000000,-0.0019538867504192,0.0001162783000276,-0.0017693226090792,0.0216142875839988,-0.0439644474717336,0.0655019071641538*c6a242ba
#CORRIMUDATAA,FILE,0,30.0,FINESTEERING,2319,303912.500,02000000,e5fc,17139;2319,303912.500000000,-0.0040435763474046,0.0003613015098349,-0.0013617012752581,0.0314708237173361,-0.0342521518456771,-0.0069578774070500*29d3e40b
#CORRIMUDATAA,FILE,0,30.0,FINESTEERING,2319,303912.550,02000000,e5fc,17139;2319,303912.550000000,-0.0037057567345317,-0.0006419956518790,-0.0010257752515184,0.0200249144654960,-0.0270111036807349,-0.0185771758321126*13a5fd53
#CORRIMUDATAA,FILE,0,30.0,FINESTEERING,2319,303912.600,02000000,e5fc,17139;2319,303912.600000000,-0.0023560634269700,-0.0004502782634260,-0.0010226957519880,0.0049375457658185,-0.0205186442538331,-0.0274733559987695*9c2eacb2
#CORRIMUDATAA,FILE,0,30.0,FINESTEERING,2319,303912.650,02000000,e5fc,17139;2319,303912.650000000,-0.0006625532669396,-0.0006683710526178,-0.0011635776657188,0.0011935730613435,-0.0118049533812851,-0.0580127092648001*81f9e759
#CORRIMUDATAA,FILE,0,30.0,FINESTEERING,2319,303912.700,02000000,e5fc,17139;2319,303912.700000000,0.0013327401308332,-0.0006130385660807,-0.0012398915616617,0.0106380057758290,-0.0117925916921686,-0.0661787291959760*db100131
#CORRIMUDATAA,FILE,0,30.0,FINESTEERING,2319,303912.750,02000000,e5fc,17139;2319,303912.750000000,0.0029898000968388,-0.0009986073509587,-0.0011779131720495,0.0127428001675951,-0.0151048880711022,-0.0531555445855880*bd62ec34
#CORRIMUDATAA,FILE,0,30.0,FINESTEERING,2319,303912.800,02000000,e5fc,17139;2319,303912.800000000,0.0043078169248541,-0.0005434595714049,-0.0012556909303971,0.0039685902942177,-0.0209621194634658,-0.0117011559501814*292a995d
#CORRIMUDATAA,FILE,0,30.0,FINESTEERING,2319,303912.850,02000000,e5fc,17139;2319,303912.850000000,0.0041046660054479,-0.0008974294920691,-0.0013151897706077,0.0092620357314538,-0.0229980138879236,0.0199500049297861*5448067b
#CORRIMUDATAA,FILE,0,30.0,FINESTEERING,2319,303912.900,02000000,e5fc,17139;2319,303912.900000000,0.0032413582181876,-0.0011854294261223,-0.0014126810522076,0.0116107671632787,-0.0272938433454853,0.0579473161760900*d216e0cb
#CORRIMUDATAA,FILE,0,30.0,FINESTEERING,2319,303912.950,02000000,e5fc,17139;2319,303912.950000000,0.0017494239614439,-0.0011284118679828,-0.0014706340711975,0.0073122728039263,-0.0292957089128357,0.0696566164304545*9bb5dc30
#CORRIMUDATAA,FILE,0,30.0,FINESTEERING,2319,303913.000,02000000,e5fc,17139;2319,303913.000000000,0.0001755400548748,-0.0012154496643750,-0.0016844859296888,0.0072233514577178,-0.0280034703534599,0.0460089193598004*967e2aaa
#CORRIMUDATAA,FILE,0,30.0,FINESTEERING,2319,303913.050,02000000,e5fc,17139;2319,303913.050000000,-0.0012808582177058,-0.0014513019653049,-0.0017588422387726,0.0134985939613534,-0.0251153336265262,0.0603020193217963*29bd9768
#CORRIMUDATAA,FILE,0,28.5,FINESTEERING,2319,303913.100,02000000,e5fc,17139;2319,303913.100000000,-0.0022800225177997,-0.0016739958258585,-0.0018235392948465,0.0237475201324000,-0.0241274246557275,0.0255236332443307*acaa747b
#CORRIMUDATAA,FILE,0,28.5,FINESTEERING,2319,303913.150,02000000,e5fc,17139;2319,303913.150000000,-0.0027689914483702,-0.0022468401169460,-0.0017912109026592,0.0126222945453259,-0.0226434944872966,-0.0073936244727487*986ddf67
#CORRIMUDATAA,FILE,0,28.5,FINESTEERING,2319,303913.200,02000000,e5fc,17139;2319,303913.200000000,-0.0021328468195044,-0.0023899016523724,-0.0019588432792613,0.0093576984231922,-0.0113496509898198,-0.0335648163825689*fc2c7650
#CORRIMUDATAA,FILE,0,28.5,FINESTEERING,2319,303913.250,02000000,e5fc,17139;2319,303913.250000000,-0.0011477925602660,-0.0026907583654980,-0.0020490168465023,0.0168013940853227,-0.0019061252802785,-0.0574117450804646*5806a49d
#CORRIMUDATAA,FILE,0,28.5,FINESTEERING,2319,303913.300,02000000,e5fc,17139;2319,303913.300000000,0.0002615582971788,-0.0033009641254536,-0.0020313691344505,0.0167395653740327,0.0000186028730321,-0.0415442378442378*df46ae19
#CORRIMUDATAA,FILE,0,28.5,FINESTEERING,2319,303913.350,02000000,e5fc,17139;2319,303913.350000000,0.0011015244551671,-0.0034945950718112,-0.0020460530812853,0.0111850742287620,-0.0069978253222762,-0.0433777100458824*9b9bc700
#CORRIMUDATAA,FILE,0,28.5,FINESTEERING,2319,303913.400,02000000,e5fc,17139;2319,303913.400000000,0.0016611720615254,-0.0027685132397285,-0.0021979642319648,0.0040905917014319,-0.0107925127202389,-0.0077251824418086*15f719d6
#CORRIMUDATAA,FILE,0,28.5,FINESTEERING,2319,303913.450,02000000,e5fc,17139;2319,303913.450000000,0.0013422743174874,-0.0020638453043078,-0.0023438615430701,0.0174525307362680,-0.0091166962572257,0.0081312915060983*8925780c
#CORRIMUDATAA,FILE,0,28.5,FINESTEERING,2319,303913.500,02000000,e5fc,17139;2319,303913.500000000,0.0006399758390936,-0.0020154643339612,-0.0023073646945727,0.0281744617418106,-0.0123702972740283,0.0220357962723216*7031118c
#CORRIMUDATAA,FILE,0,28.5,FINESTEERING,2319,303913.550,02000000,e5fc,17139;2319,303913.550000000,-0.0004650629381042,-0.0020336806212930,-0.0023056619580519,0.0184104528431042,-0.0155914226649953,0.0330843759305486*d59c2c56
#CORRIMUDATAA,FILE,0,28.5,FINESTEERING,2319,303913.600,02000000,e5fc,17139;2319,303913.600000000,-0.0015338573806604,-0.0025213134269103,-0.0022982165535596,0.0160064531092953,-0.0160671443375534,0.0345777054998524*22a2a9af
#CORRIMUDATAA,FILE,0,28.5,FINESTEERING,2319,303913.650,02000000,e5fc,17139;2319,303913.650000000,-0.0026314546619203,-0.0011334755280460,-0.0024124014450031,0.0192676406083218,-0.0111082531303703,0.0147390492629495*33567513
#CORRIMUDATAA,FILE,0,28.5,FINESTEERING,2319,303913.700,02000000,e5fc,17139;2319,303913.700000000,-0.0029369613102630,-0.0008288329496300,-0.0021866359579419,0.0333192228344131,-0.0087074956481309,0.0023453975775761*f42d0764
#CORRIMUDATAA,FILE,0,28.5,FINESTEERING,2319,303913.750,02000000,e5fc,17139;2319,303913.750000000,-0.0027895401918056,-0.0000015477762329,-0.0020974733069441,0.0275580461201000,-0.0063285913185630,-0.0245777486023744*0a9d861f
#CORRIMUDATAA,FILE,0,28.5,FINESTEERING,2319,303913.800,02000000,e5fc,17139;2319,303913.800000000,-0.0021793164954203,0.0006613676829185,-0.0021214970290640,0.0192540156891606,-0.0076439916314789,-0.0211079151693305*0dbaca00
#CORRIMUDATAA,FILE,0,28.5,FINESTEERING,2319,303913.850,02000000,e5fc,17139;2319,303913.850000000,-0.0014910389381650,0.0007247212674604,-0.0022730245685286,0.0212562104976704,-0.0046518807298029,-0.0440415685205941*8b5558e1
#CORRIMUDATAA,FILE,0,28.5,FINESTEERING,2319,303913.900,02000000,e5fc,17139;2319,303913.900000000,-0.0001440154995038,0.0004769849568194,-0.0022358157850985,0.0279866085049479,-0.0029797516795660,-0.0529830962385878*450c37c4
#CORRIMUDATAA,FILE,0,28.5,FINESTEERING,2319,303913.950,02000000,e5fc,17139;2319,303913.950000000,0.0014061729004857,0.0007538570829947,-0.0021729287537963,0.0213601072311336,-0.0022247296534703,-0.0349117743371340*f58a898f
#CORRIMUDATAA,FILE,0,28.5,FINESTEERING,2319,303914.000,02000000,e5fc,17139;2319,303914.000000000,0.0023595976900868,0.0006453214169574,-0.0021427015693368,0.0186499409846901,-0.0067931292684697,-0.0133661348232087*a9be8923
#CORRIMUDATAA,FILE,0,28.5,FINESTEERING,2319,303914.050,02000000,e5fc,17139;2319,303914.050000000,0.0029796463340302,0.0001380024740368,-0.0022192153035601,0.0204727236038635,-0.0078915389770443,-0.0029267221237466*4a9c9af0
#CORRIMUDATAA,FILE,0,28.5,FINESTEERING,2319,303914.100,02000000,e5fc,17139;2319,303914.100000000,0.0029866084122104,-0.0002581262321544,-0.0020515187875938,0.0244089989669791,-0.0158617762248419,0.0182696584561470*0c7fe3e0
#CORRIMUDATAA,FILE,0,29.0,FINESTEERING,2319,303914.150,02000000,e5fc,17139;2319,303914.150000000,0.0022228314629328,-0.0004808924837671,-0.0020751691392368,0.0106135032336590,-0.0204887923419610,0.0419202512070720*d53315ea
#CORRIMUDATAA,FILE,0,29.0,FINESTEERING,2319,303914.200,02000000,e5fc,17139;2319,303914.200000000,0.0009959555754724,-0.0001406514968419,-0.0021159618338525,0.0112978050197420,-0.0263739213740674,0.0597464998229682*ea69d5f6
#CORRIMUDATAA,FILE,0,29.0,FINESTEERING,2319,303914.250,02000000,e5fc,17139;2319,303914.250000000,-0.0004512797415941,-0.0000377004719605,-0.0021760697839999,0.0189836277540677,-0.0248733847007476,0.0466349001113164*27f476e8
#CORRIMUDATAA,FILE,0,29.0,FINESTEERING,2319,303914.300,02000000,e5fc,17139;2319,303914.300000000,-0.0016200289487983,-0.0004443276638582,-0.0020990047736695,0.0239380718557438,-0.0265706543069788,0.0389095305704117*70fc11ef
#CORRIMUDATAA,FILE,0,29.0,FINESTEERING,2319,303914.350,02000000,e5fc,17139;2319,303914.350000000,-0.0021809028566890,-0.0007871873212221,-0.0020869774253947,0.0124738458943027,-0.0209505457871970,0.0104785518785779*fbd46252
#CORRIMUDATAA,FILE,0,29.0,FINESTEERING,2319,303914.400,02000000,e5fc,17139;2319,303914.400000000,-0.0022151855955046,-0.0000157819538254,-0.0022273694437973,0.0074601612404345,-0.0173359669221139,-0.0138289814816691*717c3833
#CORRIMUDATAA,FILE,0,29.0,FINESTEERING,2319,303914.450,02000000,e5fc,17139;2319,303914.450000000,-0.0018437963436561,0.0002191403124266,-0.0022986253635052,0.0230562849965754,-0.0206292237382764,-0.0239420782693129*5f1b9166
#CORRIMUDATAA,FILE,0,29.0,FINESTEERING,2319,303914.500,02000000,e5fc,17139;2319,303914.500000000,-0.0010934390603121,0.0000082222384681,-0.0020922047721302,0.0290874933656695,-0.0255997734665852,-0.0369970505582184*08799dcc
#CORRIMUDATAA,FILE,0,29.0,FINESTEERING,2319,303914.550,02000000,e5fc,17139;2319,303914.550000000,0.0005071684475130,0.0003343911564637,-0.0018469029463409,0.0208332013696057,-0.0198926752489068,-0.0468259403394895*686e697d
#CORRIMUDATAA,FILE,0,29.0,FINESTEERING,2319,303914.600,02000000,e5fc,17139;2319,303914.600000000,0.0021300069291803,0.0012677081260423,-0.0015268065345587,0.0118968823894538,-0.0206938440475925,-0.0300506557701191*fb4681d7
#CORRIMUDATAA,FILE,0,29.0,FINESTEERING,2319,303914.650,02000000,e5fc,17139;2319,303914.650000000,0.0034016332634251,0.0022501382155383,-0.0011946900190342,0.0252082134327745,-0.0243704628229055,-0.0128690867418243*53022ba3
#CORRIMUDATAA,FILE,0,29.0,FINESTEERING,2319,303914.700,02000000,e5fc,17139;2319,303914.700000000,0.0042226873271975,0.0025465603519768,-0.0005104223777661,0.0288185260533314,-0.0272361886642602,-0.0073178525071363*358f9be5
#CORRIMUDATAA,FILE,0,29.0,FINESTEERING,2319,303914.750,02000000,e5fc,17139;2319,303914.750000000,0.0031303486952964,0.0008434048428774,0.0000496160784683,0.0151322122846927,-0.0277300853115880,0.0188212055368291*902f8109
#CORRIMUDATAA,FILE,0,29.0,FINESTEERING,2319,303914.800,02000000,e5fc,17139;2319,303914.800000000,0.0013956398141842,0.0007945227722923,0.0002415996936804,-0.0171788553146035,-0.0319947185549549,0.0702484941655584*bce1a4aa
#CORRIMUDATAA,FILE,0,29.0,FINESTEERING,2319,303914.850,02000000,e5fc,17139;2319,303914.850000000,-0.0010638971762568,0.0011462996373777,0.0002112967039402,-0.0140488113605564,-0.0366836729420369,0.0756605712815455*8337ab39
#CORRIMUDATAA,FILE,0,29.0,FINESTEERING,2319,303914.900,02000000,e5fc,17139;2319,303914.900000000,-0.0037482832484610,0.0007123354378420,0.0002823146967895,0.0003544776733340,-0.0345043734843776,0.0729789256651023*ff64113b
#CORRIMUDATAA,FILE,0,29.0,FINESTEERING,2319,303914.950,02000000,e5fc,17139;2319,303914.950000000,-0.0050623263872360,0.0005616532164410,0.0004151813489964,-0.0004840738483092,-0.0321726119654549,0.0357409109060537*91f7496c
#CORRIMUDATAA,FILE,0,29.0,FINESTEERING,2319,303915.000,02000000,e5fc,17139;2319,303915.000000000,-0.0050410216213567,-0.0008237080331346,0.0003591295761879,-0.0097100968754134,-0.0163364657265589,-0.0481711946004462*7682d786
#CORRIMUDATAA,FILE,0,29.0,FINESTEERING,2319,303915.050,02000000,e5fc,17139;2319,303915.050000000,-0.0038594383920312,0.0000666364910082,0.0001854203428022,-0.0160297903737022,-0.0168741714166714,-0.0586212799351492*caa0fd59
#CORRIMUDATAA,FILE,0,29.0,FINESTEERING,2319,303915.100,02000000,e5fc,17139;2319,303915.100000000,-0.0019132484475741,-0.0008073149216833,0.0001028199252783,-0.0032894672875187,-0.0147238410948069,-0.0786951418796387*94caeb7f
#CORRIMUDATAA,FILE,0,29.0,FINESTEERING,2319,303915.150,02000000,e5fc,17139;2319,303915.150000000,0.0001061926704051,-0.0008701652346563,0.0003353454492683,0.0041629924268664,-0.0171839036846540,-0.0845667835909350*8bf5ad4b
#CORRIMUDATAA,FILE,0,29.0,FINESTEERING,2319,303915.200,02000000,e5fc,17139;2319,303915.200000000,0.0021337470425517,-0.0009546199467285,0.0004234358144390,-0.0070589581642191,-0.0174470188049431,-0.0574086669130348*b67a45d3
#CORRIMUDATAA,FILE,0,29.0,FINESTEERING,2319,303915.250,02000000,e5fc,17139;2319,303915.250000000,0.0037699977463099,-0.0006355394283775,0.0004572212248949,-0.0055764720034383,-0.0206655485782697,-0.0284739050979848*0bed254c
#CORRIMUDATAA,FILE,0,29.0,FINESTEERING,2319,303915.300,02000000,e5fc,17139;2319,303915.300000000,0.0040359436105280,-0.0001885659224737,0.0004549191266634,-0.0065691841563211,-0.0217954393200281,0.0070178028899889*b017332a
#CORRIMUDATAA,FILE,0,29.0,FINESTEERING,2319,303915.350,02000000,e5fc,17139;2319,303915.350000000,0.0038364202521366,0.0003573549023307,0.0004935630032975,-0.0003806798102675,-0.0288245903628907,0.0381383574175738*94ccabb1
#CORRIMUDATAA,FILE,0,29.0,FINESTEERING,2319,303915.400,02000000,e5fc,17139;2319,303915.400000000,0.0028012937902372,0.0006420779169224,0.0004252426915457,-0.0030123440733693,-0.0286072944370877,0.0523824796052348*90f7a336
#CORRIMUDATAA,FILE,0,29.0,FINESTEERING,2319,303915.450,02000000,e5fc,17139;2319,303915.450000000,0.0013735578921999,0.0006901681890763,0.0003444475060839,-0.0052871957261360,-0.0287168451471987,0.0741534959542092*fc560538
#CORRIMUDATAA,FILE,0,29.0,FINESTEERING,2319,303915.500,02000000,e5fc,17139;2319,303915.500000000,-0.0002486862446409,0.0004032695851432,0.0002550018033605,-0.0050547612972585,-0.0139929076041288,0.0529972021353116*4107992e
#CORRIMUDATAA,FILE,0,29.0,FINESTEERING,2319,303915.550,02000000,e5fc,17139;2319,303915.550000000,-0.0014903209302831,0.0000190786341328,0.0002395352529712,-0.0046959476926170,-0.0125366818799146,0.0475525159582578*75747d36
#CORRIMUDATAA,FILE,0,29.0,FINESTEERING,2319,303915.600,02000000,e5fc,17139;2319,303915.600000000,-0.0024962386874386,0.0004467415967084,0.0002952168560557,0.0007255421778149,-0.0093072884362360,0.0075286342530340*c99ad67c
#CORRIMUDATAA,FILE,0,29.0,FINESTEERING,2319,303915.650,02000000,e5fc,17139;2319,303915.650000000,-0.0025904571099046,0.0006022648714854,0.0004075522978457,0.0015851773068339,-0.0118237695067864,-0.0065333198908753*cb206d16
#CORRIMUDATAA,FILE,0,29.0,FINESTEERING,2319,303915.700,02000000,e5fc,17139;2319,303915.700000000,-0.0024570948128099,0.0007481197144607,0.0004594161083048,-0.0021970212738401,-0.0141451493158483,-0.0280546223804083*d9045637
#CORRIMUDATAA,FILE,0,29.0,FINESTEERING,2319,303915.750,02000000,e5fc,17139;2319,303915.750000000,-0.0017519057047106,0.0006390205295967,0.0004185710472277,0.0002464704986853,-0.0107135500115851,-0.0444188262687416*d8522cb6
#CORRIMUDATAA,FILE,0,29.0,FINESTEERING,2319,303915.800,02000000,e5fc,17139;2319,303915.800000000,-0.0008072990394797,0.0002441426598625,0.0004926140699440,-0.0015143415069657,-0.0026008830217752,-0.0541071641912174*5acdccc0
#CORRIMUDATAA,FILE,0,29.0,FINESTEERING,2319,303915.850,02000000,e5fc,17139;2319,303915.850000000,0.0001806533157558,0.0004414856197905,0.0004710554463756,-0.0088662211188844,-0.0044139644323707,-0.0378214166431748*8dd94735
#CORRIMUDATAA,FILE,0,29.0,FINESTEERING,2319,303915.900,02000000,e5fc,17139;2319,303915.900000000,0.0007480704999868,0.0006649993578177,0.0004171809102514,-0.0064573729012035,-0.0086227867870933,-0.0300094752982541*af407ab5
#CORRIMUDATAA,FILE,0,29.0,FINESTEERING,2319,303915.950,02000000,e5fc,17139;2319,303915.950000000,0.0011229450394057,0.0002122621562975,0.0002917342712622,-0.0042303736666470,-0.0092655986171769,-0.0103288914913841*2dcd846b
#CORRIMUDATAA,FILE,0,29.0,FINESTEERING,2319,303916.000,02000000,e5fc,17139;2319,303916.000000000,0.0009635960039787,0.0002896580154493,0.0002132453064318,-0.0043987339327153,-0.0081017969160404,0.0155354292314337*ab4b69df
#CORRIMUDATAA,FILE,0,29.0,FINESTEERING,2319,303916.050,02000000,e5fc,17139;2319,303916.050000000,0.0006937528981571,0.0002045015129031,0.0000668424872238,-0.0033432289570999,-0.0088308887606557,0.0145876920787408*f93000aa
#CORRIMUDATAA,FILE,0,29.0,FINESTEERING,2319,303916.100,02000000,e5fc,17139;2319,303916.100000000,0.0001158063083974,-0.0000791164658820,-0.0001149178520611,-0.0074246884273266,-0.0107905680272426,0.0332032067742579*026cbfc4
#CORRIMUDATAA,FILE,0,29.0,FINESTEERING,2319,303916.150,02000000,e5fc,17139;2319,303916.150000000,-0.0005667265453033,-0.0004121351025609,-0.0004275816927508,-0.0070513476894606,-0.0109278178456159,0.0239989528740599*9a427330
#CORRIMUDATAA,FILE,0,29.0,FINESTEERING,2319,303916.200,02000000,e5fc,17139;2319,303916.200000000,-0.0005787986468438,-0.0002490854830820,-0.0005950115271699,0.0046839903574205,-0.0094841863062019,0.0058845278384629*73681635
#CORRIMUDATAA,FILE,0,29.0,FINESTEERING,2319,303916.250,02000000,e5fc,17139;2319,303916.250000000,-0.0001482880820630,-0.0004182636092121,-0.0006828280211429,0.0079011425531821,-0.0075845784883115,0.0029878340647080*73e37a3e
#CORRIMUDATAA,FILE,0,29.0,FINESTEERING,2319,303916.300,02000000,e5fc,17139;2319,303916.300000000,0.0007117250276759,0.0000505008264049,-0.0007263366794770,0.0060223374588890,-0.0065977825764014,-0.0107598662435786*b468a42a
#CORRIMUDATAA,FILE,0,29.0,FINESTEERING,2319,303916.350,02000000,e5fc,17139;2319,303916.350000000,0.0014964397727894,0.0001282013550042,-0.0008827440453343,0.0057725331751327,-0.0051008925458332,-0.0206615685617590*d770f387
#CORRIMUDATAA,FILE,0,29.0,FINESTEERING,2319,303916.400,02000000,e5fc,17139;2319,303916.400000000,0.0024403717510691,0.0001268219809792,-0.0010219043133803,0.0087867942400725,-0.0079503036218507,-0.0220688669401253*f22da284
#CORRIMUDATAA,FILE,0,29.0,FINESTEERING,2319,303916.450,02000000,e5fc,17139;2319,303916.450000000,0.0028554677359051,0.0001802526051105,-0.0011261907777691,0.0103167309535865,-0.0103837432219699,-0.0058917919992355*08e38a27
#CORRIMUDATAA,FILE,0,29.0,FINESTEERING,2319,303916.500,02000000,e5fc,17139;2319,303916.500000000,0.0029906138441834,0.0003259848522978,-0.0011767809151484,0.0066677582744507,-0.0118153322171491,0.0091647452036888*752d788b
#CORRIMUDATAA,FILE,0,29.0,FINESTEERING,2319,303916.550,02000000,e5fc,17139;2319,303916.550000000,0.0024769891485019,0.0007721724685403,-0.0013602533670674,0.0067029666171535,-0.0130628051584908,0.0282183050945604*346a1ce8
#CORRIMUDATAA,FILE,0,29.0,FINESTEERING,2319,303916.600,02000000,e5fc,17139;2319,303916.600000000,0.0017985579174340,0.0005272628218271,-0.0015016156683479,0.0076228831742477,-0.0150717162660608,0.0413565906967631*1220190c
#CORRIMUDATAA,FILE,0,29.0,FINESTEERING,2319,303916.650,02000000,e5fc,17139;2319,303916.650000000,0.0009009301305704,0.0001748829369649,-0.0015617266625338,0.0126321125560576,-0.0158180660328587,0.0430348945267977*167c56e0
#CORRIMUDATAA,FILE,0,29.0,FINESTEERING,2319,303916.700,02000000,e5fc,17139;2319,303916.700000000,0.0003536685898325,-0.0000522272492850,-0.0014701639134188,0.0136574777520811,-0.0175537619612471,0.0357392048040965*958632dc
#CORRIMUDATAA,FILE,0,29.0,FINESTEERING,2319,303916.750,02000000,e5fc,17139;2319,303916.750000000,0.0003934905792407,0.0002729495830949,-0.0013798349456031,0.0114239754183480,-0.0148020652698140,0.0070681619395639*221fbdbe
#CORRIMUDATAA,FILE,0,29.0,FINESTEERING,2319,303916.800,02000000,e5fc,17139;2319,303916.800000000,0.0007816101402412,0.0011361003876361,-0.0013961367589040,0.0098747913702464,-0.0143724678885207,0.0104556523621365*362425e8
#CORRIMUDATAA,FILE,0,29.0,FINESTEERING,2319,303916.850,02000000,e5fc,17139;2319,303916.850000000,0.0011674189692020,0.0016813407479825,-0.0013997847525717,0.0187128096247709,-0.0150789148620569,-0.0152779264824543*ed7d0adf
#CORRIMUDATAA,FILE,0,29.0,FINESTEERING,2319,303916.900,02000000,e5fc,17139;2319,303916.900000000,0.0014875520474390,0.0013907942095749,-0.0013534368494275,0.0214798811148498,-0.0157106906910828,-0.0093878225645046*ff2a3d93
#CORRIMUDATAA,FILE,0,29.0,FINESTEERING,2319,303916.950,02000000,e5fc,17139;2319,303916.950000000,0.0014634999870191,0.0012566079162958,-0.0013406250276047,0.0083213686191498,-0.0171207721737372,-0.0017556437320756*581cb4af
#CORRIMUDATAA,FILE,0,29.0,FINESTEERING,2319,303917.000,02000000,e5fc,17139;2319,303917.000000000,0.0012081207217562,0.0012502785933928,-0.0014253065775200,0.0066421607092879,-0.0178326654275843,0.0168269213468862*b9efe520
#CORRIMUDATAA,FILE,0,29.0,FINESTEERING,2319,303917.050,02000000,e5fc,17139;2319,303917.050000000,0.0005886664499395,0.0011792474289693,-0.0014439593843075,0.0054513100719197,-0.0206514445088157,0.0229779399704241*a7201940
#CORRIMUDATAA,FILE,0,28.5,FINESTEERING,2319,303917.100,02000000,e5fc,17139;2319,303917.100000000,0.0000437979052002,0.0011237161625696,-0.0013779638772276,0.0179452760105940,-0.0223572574501791,0.0244831886592171*0366766a
#CORRIMUDATAA,FILE,0,28.5,FINESTEERING,2319,303917.150,02000000,e5fc,17139;2319,303917.150000000,-0.0000575631713015,0.0007709696114310,-0.0010879328436720,0.0157897169553545,-0.0253190413687224,0.0131833071745869*20cb7ae5
#CORRIMUDATAA,FILE,0,28.5,FINESTEERING,2319,303917.200,02000000,e5fc,17139;2319,303917.200000000,0.0003699368922073,0.0008897318664538,-0.0009483618160475,0.0072718234648432,-0.0247996844776241,0.0006384878070598*0e4a7859
#CORRIMUDATAA,FILE,0,28.5,FINESTEERING,2319,303917.250,02000000,e5fc,17139;2319,303917.250000000,0.0009384056602330,0.0006553712537952,-0.0008065302991740,0.0053568931021230,-0.0241113900399411,-0.0129228915974289*975315b1
#CORRIMUDATAA,FILE,0,28.5,FINESTEERING,2319,303917.300,02000000,e5fc,17139;2319,303917.300000000,0.0018112588352963,0.0003422956498354,-0.0007070069296320,0.0031616447685998,-0.0230882137255328,-0.0099663092231853*7382d665
#CORRIMUDATAA,FILE,0,28.5,FINESTEERING,2319,303917.350,02000000,e5fc,17139;2319,303917.350000000,0.0024438404041064,0.0001345705212047,-0.0004899863601972,0.0063547480924595,-0.0272411872466812,-0.0087500357297504*3b3943b7
#CORRIMUDATAA,FILE,0,28.5,FINESTEERING,2319,303917.400,02000000,e5fc,17139;2319,303917.400000000,0.0026499888727212,-0.0004101963781262,-0.0002421123005735,0.0031819351056637,-0.0261822558075885,-0.0080643791824634*8752140f
#CORRIMUDATAA,FILE,0,28.5,FINESTEERING,2319,303917.450,02000000,e5fc,17139;2319,303917.450000000,0.0024361317830808,-0.0002068866728277,-0.0000443817883304,-0.0052571077585010,-0.0297911317658978,0.0276289765355430*d0afe1c9
#CORRIMUDATAA,FILE,0,28.5,FINESTEERING,2319,303917.500,02000000,e5fc,17139;2319,303917.500000000,0.0012165285826016,0.0000152547060707,-0.0000134095568099,-0.0046207327328106,-0.0326069718197510,0.0412181745176419*7e92e77c
#CORRIMUDATAA,FILE,0,28.5,FINESTEERING,2319,303917.550,02000000,e5fc,17139;2319,303917.550000000,-0.0005143731204552,0.0000969536969617,0.0001176905894961,-0.0021490780226559,-0.0375997843539907,0.0438630864019037*5ced14c7
#CORRIMUDATAA,FILE,0,28.5,FINESTEERING,2319,303917.600,02000000,e5fc,17139;2319,303917.600000000,-0.0023435537355105,0.0004885801643095,0.0003154569766311,0.0014630090335656,-0.0382590878102693,0.0470803554592982*02e48c31
#CORRIMUDATAA,FILE,0,28.5,FINESTEERING,2319,303917.650,02000000,e5fc,17139;2319,303917.650000000,-0.0036306823281542,0.0009359831229797,0.0005801539390569,0.0020123558037989,-0.0390241120340014,0.0246028786828134*22b02d40
#CORRIMUDATAA,FILE,0,28.5,FINESTEERING,2319,303917.700,02000000,e5fc,17139;2319,303917.700000000,-0.0042530507994712,0.0008643283608796,0.0008402142181976,-0.0040897555354977,-0.0370807450120838,0.0047663474158577*6cc4d38d
#CORRIMUDATAA,FILE,0,28.5,FINESTEERING,2319,303917.750,02000000,e5fc,17139;2319,303917.750000000,-0.0040208005081508,0.0008954645080147,0.0010336068166898,-0.0070204754755044,-0.0363535895664653,-0.0271157974150230*24eec159
#CORRIMUDATAA,FILE,0,28.5,FINESTEERING,2319,303917.800,02000000,e5fc,17139;2319,303917.800000000,-0.0030065321272798,0.0010755730836790,0.0013501172030985,-0.0041628328000284,-0.0332016334731620,-0.0461395981530950*9806d07a
#CORRIMUDATAA,FILE,0,28.5,FINESTEERING,2319,303917.850,02000000,e5fc,17139;2319,303917.850000000,-0.0012863756514812,0.0011872982843931,0.0016675240462395,-0.0054097960393052,-0.0305871622909756,-0.0632410683721326*70570fd2
#CORRIMUDATAA,FILE,0,28.5,FINESTEERING,2319,303917.900,02000000,e5fc,17139;2319,303917.900000000,0.0004869874787650,0.0013548990767480,0.0020566067143055,-0.0058100767287095,-0.0277890158281102,-0.0671621817789323*b742dbb9
#CORRIMUDATAA,FILE,0,28.5,FINESTEERING,2319,303917.950,02000000,e5fc,17139;2319,303917.950000000,0.0015790900032607,0.0013567724995480,0.0023207301056246,-0.0156916838450174,-0.0376877163164300,-0.0360298585758692*952461ef
#CORRIMUDATAA,FILE,0,28.5,FINESTEERING,2319,303918.000,02000000,e5fc,17139;2319,303918.000000000,0.0019322623779552,0.0012137810638475,0.0024419991634068,-0.0228139124343066,-0.0451683974507780,-0.0125035350554412*637f6d80
#CORRIMUDATAA,FILE,0,28.5,FINESTEERING,2319,303918.050,02000000,e5fc,17139;2319,303918.050000000,0.0019867834580872,0.0011306480964962,0.0025480014377454,-0.0202898698591655,-0.0457560652234712,0.0121913487291257*86c711c0
#CORRIMUDATAA,FILE,0,28.5,FINESTEERING,2319,303918.100,02000000,e5fc,17139;2319,303918.100000000,0.0012585499408482,0.0005098020161735,0.0027407078041709,-0.0168973980759850,-0.0454271727650148,0.0238611061591778*af02687a
#CORRIMUDATAA,FILE,0,33.0,FINESTEERING,2319,303918.150,02000000,e5fc,17139;2319,303918.150000000,0.0004382834732167,0.0001805271189006,0.0028698028485680,-0.0266372937848165,-0.0464946819923754,0.0380044459554723*ff0fcbd8
#CORRIMUDATAA,FILE,0,33.0,FINESTEERING,2319,303918.200,02000000,e5fc,17139;2319,303918.200000000,-0.0005788409486820,0.0001526523765996,0.0027709748602738,-0.0318375704905654,-0.0484209418066399,0.0526451317513987*d706dbf6
#CORRIMUDATAA,FILE,0,33.0,FINESTEERING,2319,303918.250,02000000,e5fc,17139;2319,303918.250000000,-0.0014596910122055,0.0002525203945270,0.0026642231306620,-0.0262574279387087,-0.0474876854651433,0.0207715906923598*dada9403
#CORRIMUDATAA,FILE,0,33.0,FINESTEERING,2319,303918.300,02000000,e5fc,17139;2319,303918.300000000,-0.0017848036804258,0.0003196864325796,0.0026746356383732,-0.0199222054107821,-0.0435057806684810,0.0050664905874525*0fc62bb5
#CORRIMUDATAA,FILE,0,33.0,FINESTEERING,2319,303918.350,02000000,e5fc,17139;2319,303918.350000000,-0.0018054676159221,0.0005014448344109,0.0029146753007644,-0.0139566741604398,-0.0443403439614252,-0.0038095001808149*5c37a47c
#CORRIMUDATAA,FILE,0,33.0,FINESTEERING,2319,303918.400,02000000,e5fc,17139;2319,303918.400000000,-0.0012323626420827,0.0007818818934125,0.0032724355625641,-0.0174171696866909,-0.0410007909416470,-0.0288135533439503*a9e66387
#CORRIMUDATAA,FILE,0,33.0,FINESTEERING,2319,303918.450,02000000,e5fc,17139;2319,303918.450000000,-0.0006652827436462,0.0010591347066974,0.0036683332934023,-0.0221858198729447,-0.0432831134029652,-0.0294156176054413*1d442ca3
#CORRIMUDATAA,FILE,0,33.0,FINESTEERING,2319,303918.500,02000000,e5fc,17139;2319,303918.500000000,-0.0002238047769782,0.0011860337539417,0.0041059596670182,-0.0235353033836107,-0.0429565525423600,-0.0228462991490472*3f44fb40
#CORRIMUDATAA,FILE,0,33.0,FINESTEERING,2319,303918.550,02000000,e5fc,17139;2319,303918.550000000,0.0001648774813527,0.0010176693279800,0.0046491245867207,-0.0239346964571363,-0.0433144023322362,-0.0228268400521124*f214743e
#CORRIMUDATAA,FILE,0,33.0,FINESTEERING,2319,303918.600,02000000,e5fc,17139;2319,303918.600000000,0.0004159609783421,0.0009363302313512,0.0052356465201712,-0.0269036450364209,-0.0446805335405202,-0.0206583486623907*0bf0afa4
#CORRIMUDATAA,FILE,0,33.0,FINESTEERING,2319,303918.650,02000000,e5fc,17139;2319,303918.650000000,0.0005428529960463,0.0008952284333349,0.0057999208738078,-0.0341965340113665,-0.0460947169054872,0.0040943838091403*4af32a02
#CORRIMUDATAA,FILE,0,33.0,FINESTEERING,2319,303918.700,02000000,e5fc,17139;2319,303918.700000000,0.0002963686205147,0.0008843190204080,0.0061585849785769,-0.0429943008589812,-0.0463562976640066,0.0036540447198951*e359670c
#CORRIMUDATAA,FILE,0,33.0,FINESTEERING,2319,303918.750,02000000,e5fc,17139;2319,303918.750000000,0.0000649672248006,0.0006964159564095,0.0063593206073689,-0.0489803754578867,-0.0448124695658791,0.0141902327386956*29b2670d
#CORRIMUDATAA,FILE,0,33.0,FINESTEERING,2319,303918.800,02000000,e5fc,17139;2319,303918.800000000,-0.0002506871640374,0.0005218853571802,0.0064401530172500,-0.0473014023130457,-0.0446484600392339,0.0144445656932772*bb1c938d
#CORRIMUDATAA,FILE,0,33.0,FINESTEERING,2319,303918.850,02000000,e5fc,17139;2319,303918.850000000,-0.0003807745599867,0.0004617809983611,0.0066263081896071,-0.0455844872537413,-0.0459476347949744,0.0080507828869602*c83d24bb
#CORRIMUDATAA,FILE,0,33.0,FINESTEERING,2319,303918.900,02000000,e5fc,17139;2319,303918.900000000,-0.0003936707741949,0.0005879942757851,0.0069604546035301,-0.0424068982390317,-0.0483229634552006,0.0067565541051980*55e9310f
#CORRIMUDATAA,FILE,0,33.0,FINESTEERING,2319,303918.950,02000000,e5fc,17139;2319,303918.950000000,-0.0000308024070886,0.0007972932756888,0.0075186724652593,-0.0455352071414355,-0.0467621637683966,-0.0025325050715646*1a6f8a71
#CORRIMUDATAA,FILE,0,33.0,FINESTEERING,2319,303919.000,02000000,e5fc,17139;2319,303919.000000000,0.0002509313704253,0.0007934966995837,0.0081116967019554,-0.0478575084363103,-0.0464462171765329,-0.0095523201275743*3e773135
#CORRIMUDATAA,FILE,0,33.0,FINESTEERING,2319,303919.050,02000000,e5fc,17139;2319,303919.050000000,0.0005417519863848,0.0008846777123467,0.0087941183497480,-0.0507862488867671,-0.0467645330434922,-0.0128391474429354*d9fb07f8
#CORRIMUDATAA,FILE,0,31.0,FINESTEERING,2319,303919.100,02000000,e5fc,17139;2319,303919.100000000,0.0009846422677764,0.0007971132669052,0.0094377612659652,-0.0500531863292961,-0.0479141973694720,-0.0134354742569317*1c063a47
#CORRIMUDATAA,FILE,0,31.0,FINESTEERING,2319,303919.150,02000000,e5fc,17139;2319,303919.150000000,0.0011748873370905,0.0003261604677533,0.0100786166210595,-0.0559100030253575,-0.0490942150040778,-0.0118964176553369*7056e55b
#CORRIMUDATAA,FILE,0,31.0,FINESTEERING,2319,303919.200,02000000,e5fc,17139;2319,303919.200000000,0.0012557031215474,0.0002842506056241,0.0106094494690411,-0.0691003471449958,-0.0476994928177472,-0.0089204515029814*6f2792d6
#CORRIMUDATAA,FILE,0,31.0,FINESTEERING,2319,303919.250,02000000,e5fc,17139;2319,303919.250000000,0.0009387266451073,0.0009230768285024,0.0109787292275512,-0.0722912025392521,-0.0489336689012708,0.0079245819367472*3359c21e
#CORRIMUDATAA,FILE,0,31.0,FINESTEERING,2319,303919.300,02000000,e5fc,17139;2319,303919.300000000,0.0006135868513221,0.0008660425547819,0.0113441852451671,-0.0716601094666074,-0.0501950596290766,0.0196132285989774*e7336e2b
#CORRIMUDATAA,FILE,0,31.0,FINESTEERING,2319,303919.350,02000000,e5fc,17139;2319,303919.350000000,0.0001932203999181,0.0002502820892435,0.0116940024122123,-0.0703228582958575,-0.0509089603044669,0.0077025941281676*bf421255
#CORRIMUDATAA,FILE,0,31.0,FINESTEERING,2319,303919.400,02000000,e5fc,17139;2319,303919.400000000,-0.0001700421880587,-0.0001774015727736,0.0122143969570223,-0.0720501218337058,-0.0497574781936132,0.0189471975932189*6e4c6f04
#CORRIMUDATAA,FILE,0,31.0,FINESTEERING,2319,303919.450,02000000,e5fc,17139;2319,303919.450000000,-0.0004153906130982,-0.0005811949199047,0.0126139380187459,-0.0768006385116526,-0.0496547621971358,0.0115553640747746*3f110265
#CORRIMUDATAA,FILE,0,31.0,FINESTEERING,2319,303919.500,02000000,e5fc,17139;2319,303919.500000000,-0.0008110636738016,-0.0005418825318505,0.0127997600242322,-0.0834428758166147,-0.0462462506235811,0.0125132103259155*c2724129
#CORRIMUDATAA,FILE,0,31.0,FINESTEERING,2319,303919.550,02000000,e5fc,17139;2319,303919.550000000,-0.0011167197462686,-0.0008376718260285,0.0127369406200930,-0.0869865665996753,-0.0435441966886308,-0.0041026224675940*5a28ac5c
#CORRIMUDATAA,FILE,0,31.0,FINESTEERING,2319,303919.600,02000000,e5fc,17139;2319,303919.600000000,-0.0011167150022665,-0.0003583135996184,0.0125124774908266,-0.0840569471475679,-0.0456726822243153,-0.0106810537000915*6721025e
#CORRIMUDATAA,FILE,0,31.0,FINESTEERING,2319,303919.650,02000000,e5fc,17139;2319,303919.650000000,-0.0008707722805055,-0.0002319277029991,0.0124002046904282,-0.0743229386644258,-0.0423952615479042,-0.0180038552405262*59dfb686
#CORRIMUDATAA,FILE,0,31.0,FINESTEERING,2319,303919.700,02000000,e5fc,17139;2319,303919.700000000,-0.0005926741811008,-0.0002856405964840,0.0123277820666034,-0.0634352138562765,-0.0370925074346473,-0.0143617722619338*93f10553
#CORRIMUDATAA,FILE,0,31.0,FINESTEERING,2319,303919.750,02000000,e5fc,17139;2319,303919.750000000,-0.0002584854587316,-0.0005437090345956,0.0124666748976602,-0.0741614621797500,-0.0392171587220921,-0.0055918083949807*9b129f76
#CORRIMUDATAA,FILE,0,31.0,FINESTEERING,2319,303919.800,02000000,e5fc,17139;2319,303919.800000000,-0.0000889632080834,-0.0001632556126862,0.0125129966949474,-0.0760513137123818,-0.0336101584231952,-0.0063381292336827*107103b9
#CORRIMUDATAA,FILE,0,31.0,FINESTEERING,2319,303919.850,02000000,e5fc,17139;2319,303919.850000000,0.0000638808901172,0.0001421168136341,0.0127265603191044,-0.0722153522835643,-0.0301316528317550,-0.0098807234481645*ea268cf4
#CORRIMUDATAA,FILE,0,31.0,FINESTEERING,2319,303919.900,02000000,e5fc,17139;2319,303919.900000000,0.0000290372260016,0.0000938636678819,0.0129752429287326,-0.0736106289830857,-0.0285121079061933,0.0015003819499134*aee9f32d
#CORRIMUDATAA,FILE,0,31.0,FINESTEERING,2319,303919.950,02000000,e5fc,17139;2319,303919.950000000,-0.0000674457424310,0.0004044425840476,0.0132726155031939,-0.0712451832800221,-0.0266471106434588,-0.0052138349224470*dc4614e2
#CORRIMUDATAA,FILE,0,31.0,FINESTEERING,2319,303920.000,02000000,e5fc,17139;2319,303920.000000000,-0.0002015797167734,0.0008934435198013,0.0135793661621900,-0.0676722846890836,-0.0220016132576598,-0.0016324726900370*f88c8341
#CORRIMUDATAA,FILE,0,31.0,FINESTEERING,2319,303920.050,02000000,e5fc,17139;2319,303920.050000000,-0.0005739543801453,0.0008168371519198,0.0140194757552399,-0.0663724846324462,-0.0206922243500668,0.0020671878896684*87583732
#CORRIMUDATAA,FILE,0,31.0,FINESTEERING,2319,303920.100,02000000,e5fc,17139;2319,303920.100000000,-0.0010709052594543,0.0013178753537265,0.0143566985816033,-0.0728916279817542,-0.0166604929304829,0.0092662945234879*4349c453
#CORRIMUDATAA,FILE,0,33.5,FINESTEERING,2319,303920.150,02000000,e5fc,17139;2319,303920.150000000,-0.0013015790134310,0.0014070202868583,0.0145688544174692,-0.0811809627044947,-0.0134932351073422,-0.0100379436807202*85b412b5
#CORRIMUDATAA,FILE,0,33.5,FINESTEERING,2319,303920.200,02000000,e5fc,17139;2319,303920.200000000,-0.0013703725131332,0.0013182721096309,0.0146389470681540,-0.0861168639493513,-0.0131940328005630,0.0032136376399118*55203f98
#CORRIMUDATAA,FILE,0,33.5,FINESTEERING,2319,303920.250,02000000,e5fc,17139;2319,303920.250000000,-0.0013173172671520,0.0007746784861619,0.0145857801983093,-0.0851378401463773,-0.0108226807832838,-0.0018514915288384*c3ef592f
#CORRIMUDATAA,FILE,0,33.5,FINESTEERING,2319,303920.300,02000000,e5fc,17139;2319,303920.300000000,-0.0012438665740780,0.0003767088089108,0.0146301297856128,-0.0854536956662028,-0.0087527924439881,-0.0010516381737288*a91a7737
#CORRIMUDATAA,FILE,0,33.5,FINESTEERING,2319,303920.350,02000000,e5fc,17139;2319,303920.350000000,-0.0010624175796019,0.0004139139531738,0.0145614124256906,-0.0812889519603608,-0.0101235875108445,-0.0082662313146005*3808fb88
#CORRIMUDATAA,FILE,0,33.5,FINESTEERING,2319,303920.400,02000000,e5fc,17139;2319,303920.400000000,-0.0008037707950833,0.0000965009040693,0.0146156463788974,-0.0727144709884333,-0.0103023386440192,-0.0111290745539080*4624e4c6
#CORRIMUDATAA,FILE,0,33.5,FINESTEERING,2319,303920.450,02000000,e5fc,17139;2319,303920.450000000,-0.0006455700718327,0.0002700047401605,0.0146898066457312,-0.0805072329177717,-0.0061392788931642,-0.0098415694425699*3bfd885e
#CORRIMUDATAA,FILE,0,33.5,FINESTEERING,2319,303920.500,02000000,e5fc,17139;2319,303920.500000000,-0.0004487675576157,0.0012585599085569,0.0145989445508733,-0.0827047209621032,-0.0063679212499426,-0.0227414272904493*cf60494d
#CORRIMUDATAA,FILE,0,33.5,FINESTEERING,2319,303920.550,02000000,e5fc,17139;2319,303920.550000000,-0.0004096291654011,0.0021206712006955,0.0144909541744182,-0.0776238145959734,-0.0055263839402096,-0.0245926449208839*9cad0621
#CORRIMUDATAA,FILE,0,33.5,FINESTEERING,2319,303920.600,02000000,e5fc,17139;2319,303920.600000000,-0.0002256371898194,0.0020402066307906,0.0143729468832917,-0.0702232176240841,-0.0069700205473038,-0.0056313441036329*e907a731
#CORRIMUDATAA,FILE,0,33.5,FINESTEERING,2319,303920.650,02000000,e5fc,17139;2319,303920.650000000,-0.0004429549071646,0.0008481803728141,0.0143505029651099,-0.0742443213425611,-0.0063133333977690,-0.0021607003358563*a9f39201
#CORRIMUDATAA,FILE,0,33.5,FINESTEERING,2319,303920.700,02000000,e5fc,17139;2319,303920.700000000,-0.0008479892109687,0.0001241654989759,0.0142448832535028,-0.0838140664093922,-0.0081608995385834,0.0073923118135047*0e7b771b
#CORRIMUDATAA,FILE,0,33.5,FINESTEERING,2319,303920.750,02000000,e5fc,17139;2319,303920.750000000,-0.0012366469083910,0.0001123545871465,0.0141222160332944,-0.0848882228475338,-0.0077970277131275,-0.0000781731879060*3130b8ea
#CORRIMUDATAA,FILE,0,33.5,FINESTEERING,2319,303920.800,02000000,e5fc,17139;2319,303920.800000000,-0.0015719225277627,0.0006812517738095,0.0138043500121447,-0.0821482202199287,-0.0080376909626526,0.0184707559225124*dd0110d6
#CORRIMUDATAA,FILE,0,33.5,FINESTEERING,2319,303920.850,02000000,e5fc,17139;2319,303920.850000000,-0.0018509820842576,0.0006421511965296,0.0133774074039525,-0.0782833449231815,-0.0055122733902579,0.0153182175095763*3ec1b5df
#CORRIMUDATAA,FILE,0,33.5,FINESTEERING,2319,303920.900,02000000,e5fc,17139;2319,303920.900000000,-0.0015083664238953,0.0007208662323805,0.0129254903906947,-0.0726764268068268,-0.0019149722798861,-0.0190737016216780*fc269833
#CORRIMUDATAA,FILE,0,33.5,FINESTEERING,2319,303920.950,02000000,e5fc,17139;2319,303920.950000000,-0.0010211382760455,0.0010625744182892,0.0126416016716712,-0.0661808119629980,-0.0025102041001477,-0.0187112559813213*e76e07cb
#CORRIMUDATAA,FILE,0,33.5,FINESTEERING,2319,303921.000,02000000,e5fc,17139;2319,303921.000000000,-0.0005487325585407,0.0014403597923168,0.0125693747479721,-0.0587212354273698,-0.0062690792019932,-0.0082138206741618*52ef14f1
#CORRIMUDATAA,FILE,0,33.5,FINESTEERING,2319,303921.050,02000000,e5fc,17139;2319,303921.050000000,-0.0004043051541070,0.0015930121233752,0.0125965856186176,-0.0559150431640316,-0.0048682977795873,-0.0031519676443046*37dbd39a
#CORRIMUDATAA,FILE,0,31.5,FINESTEERING,2319,303921.100,02000000,e5fc,17139;2319,303921.100000000,-0.0002419900942594,0.0017960290851830,0.0126118684617703,-0.0662737241516528,-0.0047417480134639,-0.0283957636475329*9598ab01
#CORRIMUDATAA,FILE,0,31.5,FINESTEERING,2319,303921.150,02000000,e5fc,17139;2319,303921.150000000,-0.0002944066562107,0.0021050060565061,0.0125282479047329,-0.0706800807060655,-0.0031759600184637,-0.0079521317453285*ea80973a
#CORRIMUDATAA,FILE,0,31.5,FINESTEERING,2319,303921.200,02000000,e5fc,17139;2319,303921.200000000,-0.0004284545218382,0.0022344353622082,0.0124962303764260,-0.0699833276674681,-0.0051653783059598,-0.0159857882531450*1c0bdd30
#CORRIMUDATAA,FILE,0,31.5,FINESTEERING,2319,303921.250,02000000,e5fc,17139;2319,303921.250000000,-0.0007680089675116,0.0024375753958467,0.0125221180674658,-0.0635113320854606,-0.0052608033698752,-0.0049146452853708*216fabf8
#CORRIMUDATAA,FILE,0,31.5,FINESTEERING,2319,303921.300,02000000,e5fc,17139;2319,303921.300000000,-0.0011738794437973,0.0018730789571686,0.0126031109688246,-0.0612517398363891,-0.0083092196465995,0.0058386228714870*7193c388
#CORRIMUDATAA,FILE,0,31.5,FINESTEERING,2319,303921.350,02000000,e5fc,17139;2319,303921.350000000,-0.0016865169982208,0.0012067784099859,0.0126422894469829,-0.0676467252368973,-0.0087416136514597,0.0200298701539824*77d67c02
#CORRIMUDATAA,FILE,0,31.5,FINESTEERING,2319,303921.400,02000000,e5fc,17139;2319,303921.400000000,-0.0019199707582765,0.0006902359907651,0.0126259922983706,-0.0715491817222082,-0.0073734262915679,0.0124955777093969*caa09498
#CORRIMUDATAA,FILE,0,31.5,FINESTEERING,2319,303921.450,02000000,e5fc,17139;2319,303921.450000000,-0.0019750032874227,0.0005718821191784,0.0127093099867466,-0.0707922353562644,-0.0050430686949066,-0.0021483548632766*de1d496c
#CORRIMUDATAA,FILE,0,31.5,FINESTEERING,2319,303921.500,02000000,e5fc,17139;2319,303921.500000000,-0.0017294169760461,0.0007404454346680,0.0128284069842203,-0.0714777346144511,-0.0054081867139679,-0.0024245383340866*606fb472
#CORRIMUDATAA,FILE,0,31.5,FINESTEERING,2319,303921.550,02000000,e5fc,17139;2319,303921.550000000,-0.0013216226499075,0.0005449689603383,0.0129885200222099,-0.0667078329563400,-0.0034460437124403,-0.0140483239516889*a0f71af5
#CORRIMUDATAA,FILE,0,31.5,FINESTEERING,2319,303921.600,02000000,e5fc,17139;2319,303921.600000000,-0.0009559296034312,0.0005278774504208,0.0131694556078293,-0.0646491026051226,-0.0013215439663240,-0.0269136846167109*674b77c0
#CORRIMUDATAA,FILE,0,31.5,FINESTEERING,2319,303921.650,02000000,e5fc,17139;2319,303921.650000000,-0.0002419578018548,0.0005381791626075,0.0132908835206046,-0.0604140980442265,-0.0000258954008104,-0.0404704197951871*64538166
#CORRIMUDATAA,FILE,0,31.5,FINESTEERING,2319,303921.700,02000000,e5fc,17139;2319,303921.700000000,0.0003146348049113,0.0003926231573108,0.0134088574110770,-0.0618508325835072,-0.0023586605831918,-0.0330030157789319*e55cd957
#CORRIMUDATAA,FILE,0,31.5,FINESTEERING,2319,303921.750,02000000,e5fc,17139;2319,303921.750000000,0.0008565147575414,0.0002002396236005,0.0133940894060462,-0.0702493649615042,-0.0010749639782044,-0.0228237107433698*ab7e63f3
#CORRIMUDATAA,FILE,0,31.5,FINESTEERING,2319,303921.800,02000000,e5fc,17139;2319,303921.800000000,0.0009376400929936,0.0003679059990502,0.0132919037754208,-0.0759566797686287,-0.0046259804174835,0.0004370470283773*34751a01
#CORRIMUDATAA,FILE,0,31.5,FINESTEERING,2319,303921.850,02000000,e5fc,17139;2319,303921.850000000,0.0007297976627644,0.0007304257922053,0.0131713617329727,-0.0781279977641471,-0.0053956209802541,0.0141077933441336*712701fb
#CORRIMUDATAA,FILE,0,31.5,FINESTEERING,2319,303921.900,02000000,e5fc,17139;2319,303921.900000000,0.0002199977094837,0.0009971264998550,0.0130545898564145,-0.0701723480089601,-0.0079225884503937,0.0243733377234380*d0a2f1b7
#CORRIMUDATAA,FILE,0,31.5,FINESTEERING,2319,303921.950,02000000,e5fc,17139;2319,303921.950000000,-0.0005207944179386,0.0004337192486796,0.0129788557965637,-0.0678517051260185,-0.0077750406683746,0.0244221211895731*923c7d42
#CORRIMUDATAA,FILE,0,31.5,FINESTEERING,2319,303922.000,02000000,e5fc,17139;2319,303922.000000000,-0.0008626720055107,-0.0004854045949060,0.0128354042093328,-0.0688623348523138,-0.0056363669355558,0.0133446762528135*bee6ccc9
#CORRIMUDATAA,FILE,0,31.5,FINESTEERING,2319,303922.050,02000000,e5fc,17139;2319,303922.050000000,-0.0010976553502865,-0.0007406221559621,0.0127678633377922,-0.0704686051067685,-0.0046003754706549,0.0014317278501336*ec50bc8b
#CORRIMUDATAA,FILE,0,31.5,FINESTEERING,2319,303922.100,02000000,e5fc,17139;2319,303922.100000000,-0.0008535239843515,-0.0008363290192088,0.0127697645310335,-0.0667450004079071,-0.0045034910699139,-0.0072949557691297*e91ccc9c
#CORRIMUDATAA,FILE,0,31.5,FINESTEERING,2319,303922.150,02000000,e5fc,17139;2319,303922.150000000,-0.0008161190409698,-0.0008513109533719,0.0128234159801340,-0.0663163438118072,-0.0051512908241166,-0.0112353660690905*5f0242f1
#CORRIMUDATAA,FILE,0,28.5,FINESTEERING,2319,303922.200,02000000,e5fc,17139;2319,303922.200000000,-0.0005814066216701,-0.0010330606830383,0.0128191121999216,-0.0683980182406750,-0.0041809567899157,-0.0180087898131109*5902b459
#CORRIMUDATAA,FILE,0,28.5,FINESTEERING,2319,303922.250,02000000,e5fc,17139;2319,303922.250000000,-0.0004431687778854,-0.0009775840522931,0.0127968809846208,-0.0685313260589038,-0.0050704008789808,-0.0129075169181725*e00beecc
#CORRIMUDATAA,FILE,0,28.5,FINESTEERING,2319,303922.300,02000000,e5fc,17139;2319,303922.300000000,-0.0001108315020675,-0.0008949919991472,0.0127547959158980,-0.0663184981579985,-0.0035744919764570,-0.0174370582204088*a6217ff6
#CORRIMUDATAA,FILE,0,28.5,FINESTEERING,2319,303922.350,02000000,e5fc,17139;2319,303922.350000000,0.0001428919830649,-0.0005869036710770,0.0127539630461863,-0.0592511789093197,-0.0062156936512707,-0.0031429062132180*ab029f95
#CORRIMUDATAA,FILE,0,28.5,FINESTEERING,2319,303922.400,02000000,e5fc,17139;2319,303922.400000000,0.0002929059202400,-0.0010513707535387,0.0127932457010817,-0.0590537341078292,-0.0047059866588641,0.0003481817316040*2e9beea4
#CORRIMUDATAA,FILE,0,28.5,FINESTEERING,2319,303922.450,02000000,e5fc,17139;2319,303922.450000000,0.0000814870353018,-0.0011895975229292,0.0127567227924088,-0.0681538603020849,-0.0075002286057413,0.0076607929009524*51ffa34a
#CORRIMUDATAA,FILE,0,28.5,FINESTEERING,2319,303922.500,02000000,e5fc,17139;2319,303922.500000000,0.0000496542493067,-0.0011450232343845,0.0126541230467313,-0.0720453366919532,-0.0064985686329506,0.0028111207448731*0dc4e2d5
#CORRIMUDATAA,FILE,0,28.5,FINESTEERING,2319,303922.550,02000000,e5fc,17139;2319,303922.550000000,-0.0000443318388263,-0.0008862786291041,0.0126099118020653,-0.0690954491067130,-0.0073647932911668,0.0130006044472180*53265f99
#CORRIMUDATAA,FILE,0,28.5,FINESTEERING,2319,303922.600,02000000,e5fc,17139;2319,303922.600000000,-0.0004691404777059,-0.0005313662328140,0.0126474345123508,-0.0637878557079391,-0.0074106568088275,0.0095764273493965*fd5f5391
#CORRIMUDATAA,FILE,0,28.5,FINESTEERING,2319,303922.650,02000000,e5fc,17139;2319,303922.650000000,-0.0008566221402127,-0.0002111449383320,0.0126992132217864,-0.0600718072814963,-0.0053796870339518,-0.0014012622491668*230589d9
#CORRIMUDATAA,FILE,0,28.5,FINESTEERING,2319,303922.700,02000000,e5fc,17139;2319,303922.700000000,-0.0012546267737881,-0.0000372718603414,0.0127681250262099,-0.0614781082927196,-0.0041496776834560,-0.0066736374333991*5fd27224
#CORRIMUDATAA,FILE,0,28.5,FINESTEERING,2319,303922.750,02000000,e5fc,17139;2319,303922.750000000,-0.0015127459406909,0.0001357952694571,0.0127295191528546,-0.0597096381501380,-0.0040285026119979,-0.0070719444236490*867e3fb6
#CORRIMUDATAA,FILE,0,28.5,FINESTEERING,2319,303922.800,02000000,e5fc,17139;2319,303922.800000000,-0.0014891047439647,0.0000716662978957,0.0127564398764560,-0.0622447644245445,-0.0043874672102639,-0.0090407498752810*5df5f2a7
#CORRIMUDATAA,FILE,0,28.5,FINESTEERING,2319,303922.850,02000000,e5fc,17139;2319,303922.850000000,-0.0014487349429985,0.0000106680875264,0.0126820891520181,-0.0659073207181833,-0.0033412565169023,-0.0014955408271048*f9b1ccab
#CORRIMUDATAA,FILE,0,28.5,FINESTEERING,2319,303922.900,02000000,e5fc,17139;2319,303922.900000000,-0.0017041812917945,-0.0000863596840105,0.0126322747781367,-0.0690836906851455,-0.0054695396055522,0.0041523628243256*e04471a1
#CORRIMUDATAA,FILE,0,28.5,FINESTEERING,2319,303922.950,02000000,e5fc,17139;2319,303922.950000000,-0.0019880446211987,-0.0002717735681116,0.0125073318943141,-0.0707818430755564,-0.0051957675064756,0.0062695106877156*53466b89
#CORRIMUDATAA,FILE,0,28.5,FINESTEERING,2319,303923.000,02000000,e5fc,17139;2319,303923.000000000,-0.0023286243064225,-0.0003511611855429,0.0124655386744416,-0.0662317051572958,-0.0043706382381613,0.0096768231197692*95823b3c
#CORRIMUDATAA,FILE,0,28.5,FINESTEERING,2319,303923.050,02000000,e5fc,17139;2319,303923.050000000,-0.0024766477232792,-0.0003870236535038,0.0124733500530774,-0.0569223894172869,-0.0005777496793591,-0.0084695097333487*7adad7dc
#CORRIMUDATAA,FILE,0,28.5,FINESTEERING,2319,303923.100,02000000,e5fc,17139;2319,303923.100000000,-0.0023612698270114,-0.0000954964852107,0.0125984369822699,-0.0561176720522922,-0.0003482850787817,-0.0079617796968214*f75650e0
#CORRIMUDATAA,FILE,0,30.5,FINESTEERING,2319,303923.150,02000000,e5fc,17139;2319,303923.150000000,-0.0021158102525708,0.0001818603271711,0.0126518130299002,-0.0569334443119282,0.0023089274627656,-0.0298867005632799*3ddffc29
#CORRIMUDATAA,FILE,0,30.5,FINESTEERING,2319,303923.200,02000000,e5fc,17139;2319,303923.200000000,-0.0017226892955474,0.0007669006271752,0.0127067890367528,-0.0572632718914569,0.0018882995635352,-0.0302029808328872*af3cb454
#CORRIMUDATAA,FILE,0,30.5,FINESTEERING,2319,303923.250,02000000,e5fc,17139;2319,303923.250000000,-0.0010771816957899,0.0006195389894779,0.0126897588755754,-0.0616177343937755,0.0006520250113615,-0.0184684684005260*3de1d3fb
#CORRIMUDATAA,FILE,0,30.5,FINESTEERING,2319,303923.300,02000000,e5fc,17139;2319,303923.300000000,-0.0007849011170507,0.0005036083105297,0.0126150211257289,-0.0662740589396320,0.0004588323044489,-0.0112304481438546*467d888b
#CORRIMUDATAA,FILE,0,30.5,FINESTEERING,2319,303923.350,02000000,e5fc,17139;2319,303923.350000000,-0.0001726529633149,-0.0001537916243783,0.0125576099614417,-0.0633876071185328,0.0001682276547554,-0.0118935205695580*b70aa2e0
#CORRIMUDATAA,FILE,0,30.5,FINESTEERING,2319,303923.400,02000000,e5fc,17139;2319,303923.400000000,0.0001383254008230,-0.0006347009406388,0.0125742547725877,-0.0651220884949770,-0.0010063801399667,-0.0056416100777629*91530cfe
#CORRIMUDATAA,FILE,0,30.5,FINESTEERING,2319,303923.450,02000000,e5fc,17139;2319,303923.450000000,0.0004868765466741,-0.0007689584033324,0.0126518294777124,-0.0659518386366077,0.0022942991581913,-0.0066493584015720*e79a17f7
#CORRIMUDATAA,FILE,0,30.5,FINESTEERING,2319,303923.500,02000000,e5fc,17139;2319,303923.500000000,0.0002983970985273,-0.0001199256035628,0.0127066426018450,-0.0628610917876314,0.0003492424406563,-0.0031301510928080*104952f7
#CORRIMUDATAA,FILE,0,30.5,FINESTEERING,2319,303923.550,02000000,e5fc,17139;2319,303923.550000000,0.0001751899929013,0.0000052552780120,0.0127360332398751,-0.0601166228920190,0.0015750754519995,-0.0039120155579553*94a14f95
#CORRIMUDATAA,FILE,0,30.5,FINESTEERING,2319,303923.600,02000000,e5fc,17139;2319,303923.600000000,0.0000775854426078,0.0000817297681203,0.0126868436298976,-0.0603830927072868,0.0024861239648346,-0.0152460902111693*c587bef3
#CORRIMUDATAA,FILE,0,30.5,FINESTEERING,2319,303923.650,02000000,e5fc,17139;2319,303923.650000000,0.0001104562018335,0.0003406397178493,0.0125898523539483,-0.0604755190796955,0.0011229061109059,-0.0104228116205521*e565a033
#CORRIMUDATAA,FILE,0,30.5,FINESTEERING,2319,303923.700,02000000,e5fc,17139;2319,303923.700000000,0.0005593624322193,-0.0000909690393432,0.0125304109559500,-0.0620131061940022,-0.0001245128312814,-0.0062492599178217*aa5987e7
#CORRIMUDATAA,FILE,0,30.5,FINESTEERING,2319,303923.750,02000000,e5fc,17139;2319,303923.750000000,0.0006391502968635,-0.0006285606941225,0.0125316105206733,-0.0620192876698501,-0.0009957971283130,0.0089182802373818*5494d5d0
#CORRIMUDATAA,FILE,0,30.5,FINESTEERING,2319,303923.800,02000000,e5fc,17139;2319,303923.800000000,0.0007317205672833,-0.0013571624842398,0.0126073954576948,-0.0688761506829092,-0.0043591110129997,0.0158322549384308*6f12f592
#CORRIMUDATAA,FILE,0,30.5,FINESTEERING,2319,303923.850,02000000,e5fc,17139;2319,303923.850000000,0.0002017437267532,-0.0015753117006422,0.0125867547898737,-0.0699081294770167,-0.0032715799999826,0.0251429878307145*7fd4e37c
#CORRIMUDATAA,FILE,0,30.5,FINESTEERING,2319,303923.900,02000000,e5fc,17139;2319,303923.900000000,-0.0004917301857314,-0.0019882644866017,0.0125978647980878,-0.0690881038925092,-0.0035871527294125,0.0196947210271101*434fc647
#CORRIMUDATAA,FILE,0,30.5,FINESTEERING,2319,303923.950,02000000,e5fc,17139;2319,303923.950000000,-0.0012179431829319,-0.0016133355996534,0.0126339844848991,-0.0628184246049274,-0.0008016199729189,0.0003171643492936*3076c67a
#CORRIMUDATAA,FILE,0,30.5,FINESTEERING,2319,303924.000,02000000,e5fc,17139;2319,303924.000000000,-0.0015975212362396,-0.0008972776097129,0.0127289751853399,-0.0577497813970463,-0.0013570503223640,-0.0003268711227837*ec5ff014
#CORRIMUDATAA,FILE,0,30.5,FINESTEERING,2319,303924.050,02000000,e5fc,17139;2319,303924.050000000,-0.0018095603988733,-0.0011770269851368,0.0127926887774824,-0.0523545328580588,-0.0001197018143747,-0.0150306669849645*49b0a24e
#CORRIMUDATAA,FILE,0,27.0,FINESTEERING,2319,303924.100,02000000,e5fc,17139;2319,303924.100000000,-0.0019272394973878,-0.0014492064723824,0.0127836522893818,-0.0598082364422053,0.0009874871770631,-0.0097528670511188*77397994
#CORRIMUDATAA,FILE,0,27.0,FINESTEERING,2319,303924.150,02000000,e5fc,17139;2319,303924.150000000,-0.0018491199735546,-0.0015190532832737,0.0127675462665164,-0.0682118575968733,0.0019456692242103,-0.0131552752768232*295cdded
#CORRIMUDATAA,FILE,0,27.0,FINESTEERING,2319,303924.200,02000000,e5fc,17139;2319,303924.200000000,-0.0017740126353149,-0.0009424458158534,0.0126219178896900,-0.0677666872144095,0.0013288720743281,0.0008896102002624*71cd86b7
#CORRIMUDATAA,FILE,0,27.0,FINESTEERING,2319,303924.250,02000000,e5fc,17139;2319,303924.250000000,-0.0015184803989885,-0.0008368453619854,0.0125725334181139,-0.0630129227934772,0.0010821921835056,-0.0034238920552045*c915da65
#CORRIMUDATAA,FILE,0,27.0,FINESTEERING,2319,303924.300,02000000,e5fc,17139;2319,303924.300000000,-0.0013101761129200,-0.0011631473642646,0.0125282309254095,-0.0604628472617419,0.0016956699462734,0.0008241754028182*5c0e64bd
#CORRIMUDATAA,FILE,0,27.0,FINESTEERING,2319,303924.350,02000000,e5fc,17139;2319,303924.350000000,-0.0012180445667511,-0.0014100234849637,0.0125591480163821,-0.0615689099222955,0.0016915554527684,0.0027614263599354*9079b14c
#CORRIMUDATAA,FILE,0,27.0,FINESTEERING,2319,303924.400,02000000,e5fc,17139;2319,303924.400000000,-0.0010790894481339,-0.0015218183482415,0.0125777307874731,-0.0649079123725547,0.0035226267216143,-0.0097675009720418*39891638
#CORRIMUDATAA,FILE,0,27.0,FINESTEERING,2319,303924.450,02000000,e5fc,17139;2319,303924.450000000,-0.0009206335168215,-0.0013561564709515,0.0125885547316788,-0.0605540107811013,0.0035745213496672,-0.0150068387725027*d1b2aeaf
#CORRIMUDATAA,FILE,0,27.0,FINESTEERING,2319,303924.500,02000000,e5fc,17139;2319,303924.500000000,-0.0006720938559337,-0.0013015704574065,0.0126886381989663,-0.0570401164826786,0.0034110603530756,-0.0185017743451553*8063fc03
#CORRIMUDATAA,FILE,0,27.0,FINESTEERING,2319,303924.550,02000000,e5fc,17139;2319,303924.550000000,-0.0004021892244755,-0.0014789947383292,0.0127731100387853,-0.0562228358224740,0.0058247951321463,-0.0227871177535373*6be91763
#CORRIMUDATAA,FILE,0,27.0,FINESTEERING,2319,303924.600,02000000,e5fc,17139;2319,303924.600000000,-0.0000512930246367,-0.0012410154122131,0.0128028889145097,-0.0658831944889538,0.0056749404107650,-0.0145357513141155*1df52167
#CORRIMUDATAA,FILE,0,27.0,FINESTEERING,2319,303924.650,02000000,e5fc,17139;2319,303924.650000000,-0.0000845465669760,-0.0012769270648085,0.0127227567737988,-0.0672396835629495,0.0064136446650696,-0.0157478452423443*afca6679
#CORRIMUDATAA,FILE,0,27.0,FINESTEERING,2319,303924.700,02000000,e5fc,17139;2319,303924.700000000,-0.0002465323459956,-0.0010240286312844,0.0126679217255282,-0.0676103851385816,0.0054865355551019,-0.0009768213451427*3b813d42
#CORRIMUDATAA,FILE,0,27.0,FINESTEERING,2319,303924.750,02000000,e5fc,17139;2319,303924.750000000,-0.0007399341191761,-0.0010834069785760,0.0126067057213192,-0.0588188718424929,0.0024641908058803,0.0147667010570611*c2784ee6
#CORRIMUDATAA,FILE,0,27.0,FINESTEERING,2319,303924.800,02000000,e5fc,17139;2319,303924.800000000,-0.0011455082739599,-0.0012726935246415,0.0126705193441189,-0.0577891081277183,0.0047830578302736,0.0120575466566647*a2f428ae
#CORRIMUDATAA,FILE,0,27.0,FINESTEERING,2319,303924.850,02000000,e5fc,17139;2319,303924.850000000,-0.0016046174945422,-0.0010966488843422,0.0126833689973859,-0.0594853092782209,0.0058109713174153,0.0117903538189111*05c26e6c
#CORRIMUDATAA,FILE,0,27.0,FINESTEERING,2319,303924.900,02000000,e5fc,17139;2319,303924.900000000,-0.0016272768420864,-0.0012279599981591,0.0127306144956724,-0.0581805848653422,0.0061239070810846,0.0100873960083622*55a20bb8
#CORRIMUDATAA,FILE,0,27.0,FINESTEERING,2319,303924.950,02000000,e5fc,17139;2319,303924.950000000,-0.0017696862719122,-0.0009271766373741,0.0127524695214146,-0.0651808202511982,0.0083542360575754,-0.0023671196558682*3fb35a56
#CORRIMUDATAA,FILE,0,27.0,FINESTEERING,2319,303925.000,02000000,e5fc,17139;2319,303925.000000000,-0.0014818713098366,-0.0008096213653330,0.0126995108815163,-0.0659026219984309,0.0116685264325866,-0.0069948278145304*bd19e47d
#CORRIMUDATAA,FILE,0,27.0,FINESTEERING,2319,303925.050,02000000,e5fc,17139;2319,303925.050000000,-0.0017892955618809,-0.0004201937464248,0.0126467839246120,-0.0695746286981017,0.0136570793778451,-0.0003160880620746*51373cc0
#CORRIMUDATAA,FILE,0,27.0,FINESTEERING,2319,303925.100,02000000,e5fc,17139;2319,303925.100000000,-0.0019018491922891,0.0000464525853513,0.0124662456909364,-0.0595357622551805,0.0144435924635427,-0.0167054036927031*6e4257cd
#CORRIMUDATAA,FILE,0,31.5,FINESTEERING,2319,303925.150,02000000,e5fc,17139;2319,303925.150000000,-0.0018543404384261,-0.0002866459083046,0.0125419432929827,-0.0519861286107617,0.0157422742360483,-0.0213468436438167*0f0cbd4a
#CORRIMUDATAA,FILE,0,31.5,FINESTEERING,2319,303925.200,02000000,e5fc,17139;2319,303925.200000000,-0.0015774644122130,-0.0009995305990889,0.0125634156607057,-0.0571749434619779,0.0186547660812878,-0.0253373667263793*036c5cf1
#CORRIMUDATAA,FILE,0,31.5,FINESTEERING,2319,303925.250,02000000,e5fc,17139;2319,303925.250000000,-0.0012979906561150,-0.0013086978659331,0.0125920402648142,-0.0656860219490070,0.0192520657218219,-0.0136625778724040*d1905ffd
