#INSPVAXA,FILE,0,31.0,FINESTEERING,2319,303911.950,02000000,46eb,17139;INS_SOLUTION_GOOD,INS_RTKFIXED,17.60109880216,78.12299888124,524.8870,-76.2000,3.7374,-9.2061,0.0085,0.633833124,-1.075542861,290.779224033,0.0598,0.0599,0.0536,0.0199,0.0192,0.0130,0.0258,0.0254,0.2027,ab001241,0*48a896da
#INSPVAXA,FILE,0,31.0,FINESTEERING,2319,303912.000,02000000,46eb,17139;INS_SOLUTION_GOOD,INS_RTKFIXED,17.60110052658,78.12299454970,524.8867,-76.2000,3.7518,-9.1579,0.0156,0.718780793,-1.177493099,291.030991460,0.0598,0.0599,0.0536,0.0199,0.0192,0.0130,0.0258,0.0254,0.2027,ab001241,0*7ed43c78
#INSPVAXA,FILE,0,31.0,FINESTEERING,2319,303912.050,02000000,46eb,17139;INS_SOLUTION_GOOD,INS_RTKFIXED,17.60110227235,78.12299024476,524.8863,-76.2000,3.7860,-9.1002,-0.0183,0.677960096,-1.323015395,291.263893613,0.0607,0.0610,0.0539,0.0219,0.0209,0.0136,0.0261,0.0257,0.2007,ab001241,0*dcaf9ac2
#INSPVAXA,FILE,0,30.0,FINESTEERING,2319,303912.100,02000000,46eb,17139;INS_SOLUTION_GOOD,INS_RTKFIXED,17.60110403754,78.12298597057,524.8850,-76.2000,3.8235,-9.0321,-0.0383,0.503075679,-1.532798819,291.463812423,0.0607,0.0610,0.0539,0.0219,0.0209,0.0136,0.0261,0.0257,0.2007,ab001241,0*7889cebe
#INSPVAXA,FILE,0,30.0,FINESTEERING,2319,303912.150,02000000,46eb,17139;INS_SOLUTION_GOOD,INS_RTKFIXED,17.60110581029,78.12298172030,524.8818,-76.2000,3.8226,-8.9970,-0.0483,0.303827322,-1.471612084,291.620772584,0.0607,0.0610,0.0539,0.0219,0.0209,0.0136,0.0261,0.0257,0.2007,ab001241,0*74c3ee60
#INSPVAXA,FILE,0,30.0,FINESTEERING,2319,303912.200,02000000,46eb,17139;INS_SOLUTION_GOOD,INS_RTKFIXED,17.60110758463,78.12297748652,524.8780,-76.2000,3.8333,-8.9615,-0.0894,0.166668113,-1.397565673,291.771872210,0.0607,0.0610,0.0539,0.0219,0.0209,0.0136,0.0261,0.0257,0.2007,ab001241,0*8acf58b3
#INSPVAXA,FILE,0,30.0,FINESTEERING,2319,303912.250,02000000,46eb,17139;INS_SOLUTION_GOOD,INS_RTKFIXED,17.60110936648,78.12297326745,524.8710,-76.2000,3.8654,-8.9297,-0.2184,0.111892709,-1.163102026,291.903011585,0.0607,0.0610,0.0539,0.0219,0.0209,0.0136,0.0261,0.0257,0.2007,ab001241,0*840edc31
#INSPVAXA,FILE,0,30.0,FINESTEERING,2319,303912.300,02000000,46eb,17139;INS_SOLUTION_GOOD,INS_RTKFIXED,17.60111116154,78.12296907397,524.8609,-76.2000,3.8846,-8.8753,-0.1460,0.290611727,-0.900960433,292.010055688,0.0607,0.0610,0.0539,0.0219,0.0209,0.0136,0.0261,0.0257,0.2007,ab001241,0*6637c17c
#INSPVAXA,FILE,0,30.0,FINESTEERING,2319,303912.350,02000000,46eb,17139;INS_SOLUTION_GOOD,INS_RTKFIXED,17.60111295944,78.12296490298,524.8506,-76.2000,3.8719,-8.8199,-0.1706,0.253281198,-0.734143907,292.107732231,0.0607,0.0610,0.0539,0.0219,0.0209,0.0136,0.0261,0.0257,0.2007,ab001241,0*e6efb9ef
#INSPVAXA,FILE,0,30.0,FINESTEERING,2319,303912.400,02000000,46eb,17139;INS_SOLUTION_GOOD,INS_RTKFIXED,17.60111474473,78.12296075324,524.8499,-76.2000,3.8484,-8.7847,0.0649,0.308036930,-0.736549143,292.219362927,0.0607,0.0610,0.0539,0.0219,0.0209,0.0136,0.0261,0.0257,0.2007,ab001241,0*075954fe
#INSPVAXA,FILE,0,30.0,FINESTEERING,2319,303912.450,02000000,46eb,17139;INS_SOLUTION_GOOD,INS_RTKFIXED,17.60111653046,78.12295662578,524.8526,-76.2000,3.8631,-8.7351,0.1157,0.318605683,-0.883316417,292.311624292,0.0607,0.0610,0.0539,0.0219,0.0209,0.0136,0.0261,0.0257,0.2007,ab001241,0*44771805
#INSPVAXA,FILE,0,30.0,FINESTEERING,2319,303912.500,02000000,46eb,17139;INS_SOLUTION_GOOD,INS_RTKFIXED,17.60111832279,78.12295251881,524.8558,-76.2000,3.8846,-8.6934,0.0890,0.350311962,-1.138493162,292.373693966,0.0607,0.0610,0.0539,0.0219,0.0209,0.0136,0.0261,0.0257,0.2007,ab001241,0*750dc72e
#INSPVAXA,FILE,0,30.0,FINESTEERING,2319,303912.550,02000000,46eb,17139;INS_SOLUTION_GOOD,INS_RTKFIXED,17.60112011925,78.12294842837,524.8585,-76.2000,3.8863,-8.6649,0.0423,0.294651790,-1.342083468,292.427212160,0.0607,0.0610,0.0539,0.0219,0.0209,0.0136,0.0261,0.0257,0.2007,ab001241,0*317b03ff
#INSPVAXA,FILE,0,30.0,FINESTEERING,2319,303912.600,02000000,46eb,17139;INS_SOLUTION_GOOD,INS_RTKFIXED,17.60112191460,78.12294434865,524.8598,-76.2000,3.8821,-8.6474,0.0128,0.262028232,-1.447113080,292.483234786,0.0607,0.0610,0.0539,0.0219,0.0209,0.0136,0.0261,0.0257,0.2007,ab001241,0*bfb76972
#INSPVAXA,FILE,0,30.0,FINESTEERING,2319,303912.650,02000000,46eb,17139;INS_SOLUTION_GOOD,INS_RTKFIXED,17.60112370803,78.12294027523,524.8583,-76.2000,3.8808,-8.6342,-0.0508,0.227717850,-1.444007574,292.552806412,0.0607,0.0610,0.0539,0.0219,0.0209,0.0136,0.0261,0.0257,0.2007,ab001241,0*eb6c76f2
#INSPVAXA,FILE,0,30.0,FINESTEERING,2319,303912.700,02000000,46eb,17139;INS_SOLUTION_GOOD,INS_RTKFIXED,17.60112550281,78.12293620956,524.8536,-76.2000,3.8905,-8.6178,-0.1263,0.186939068,-1.312576558,292.621729730,0.0607,0.0610,0.0539,0.0219,0.0209,0.0136,0.0261,0.0257,0.2007,ab001241,0*6c3726ab
#INSPVAXA,FILE,0,30.0,FINESTEERING,2319,303912.750,02000000,46eb,17139;INS_SOLUTION_GOOD,INS_RTKFIXED,17.60112730022,78.12293215317,524.8460,-76.2000,3.8903,-8.5982,-0.1640,0.116787564,-1.116875835,292.685470558,0.0607,0.0610,0.0539,0.0219,0.0209,0.0136,0.0261,0.0257,0.2007,ab001241,0*451da3cb
#INSPVAXA,FILE,0,30.0,FINESTEERING,2319,303912.800,02000000,46eb,17139;INS_SOLUTION_GOOD,INS_RTKFIXED,17.60112909588,78.12292810629,524.8376,-76.2000,3.8883,-8.5764,-0.1496,0.094430040,-0.857704046,292.757795288,0.0607,0.0610,0.0539,0.0219,0.0209,0.0136,0.0261,0.0257,0.2007,ab001241,0*d3c86f86
#INSPVAXA,FILE,0,30.0,FINESTEERING,2319,303912.850,02000000,46eb,17139;INS_SOLUTION_GOOD,INS_RTKFIXED,17.60113089114,78.12292407076,524.8301,-76.2000,3.8890,-8.5497,-0.1207,0.037163310,-0.632374155,292.833050748,0.0607,0.0610,0.0539,0.0219,0.0209,0.0136,0.0261,0.0257,0.2007,ab001241,0*a78da38c
#INSPVAXA,FILE,0,30.0,FINESTEERING,2319,303912.900,02000000,46eb,17139;INS_SOLUTION_GOOD,INS_RTKFIXED,17.60113268661,78.12292004866,524.8253,-76.2000,3.8899,-8.5219,-0.0574,-0.044680145,-0.470752751,292.912700983,0.0607,0.0610,0.0539,0.0219,0.0209,0.0136,0.0261,0.0257,0.2007,ab001241,0*eda8eaa4
#INSPVAXA,FILE,0,30.0,FINESTEERING,2319,303912.950,02000000,46eb,17139;INS_SOLUTION_GOOD,INS_RTKFIXED,17.60113448039,78.12291604066,524.8239,-76.2000,3.8829,-8.4934,0.0206,-0.102427046,-0.406661348,292.996468718,0.0607,0.0610,0.0539,0.0219,0.0209,0.0136,0.0261,0.0257,0.2007,ab001241,0*d4ac8668
#INSPVAXA,FILE,0,30.0,FINESTEERING,2319,303913.000,02000000,46eb,17139;INS_SOLUTION_GOOD,INS_RTKFIXED,17.60113627196,78.12291204532,524.8251,-76.2000,3.8818,-8.4637,0.0583,-0.158314846,-0.423552597,293.096196124,0.0607,0.0610,0.0539,0.0219,0.0209,0.0136,0.0261,0.0257,0.2007,ab001241,0*2c559983
#INSPVAXA,FILE,0,30.0,FINESTEERING,2319,303913.050,02000000,46eb,17139;INS_SOLUTION_GOOD,INS_RTKFIXED,17.60113806200,78.12290806744,524.8290,-76.2000,3.8895,-8.4336,0.0996,-0.261958087,-0.535631736,293.196826220,0.0600,0.0604,0.0544,0.0225,0.0207,0.0141,0.0261,0.0259,0.1966,ab001241,0*eeffbeec
#INSPVAXA,FILE,0,28.5,FINESTEERING,2319,303913.100,02000000,46eb,17139;INS_SOLUTION_GOOD,INS_RTKFIXED,17.60113984909,78.12290410907,524.8340,-76.2000,3.9043,-8.4034,0.1277,-0.379184044,-0.683149634,293.299631828,0.0600,0.0604,0.0544,0.0225,0.0207,0.0141,0.0261,0.0259,0.1966,ab001241,0*900e9d29
#INSPVAXA,FILE,0,28.5,FINESTEERING,2319,303913.150,02000000,46eb,17139;INS_SOLUTION_GOOD,INS_RTKFIXED,17.60114163793,78.12290016318,524.8388,-76.2000,3.9025,-8.3805,0.1179,-0.506997138,-0.834243527,293.404116229,0.0600,0.0604,0.0544,0.0225,0.0207,0.0141,0.0261,0.0259,0.1966,ab001241,0*6c9c26e7
#INSPVAXA,FILE,0,28.5,FINESTEERING,2319,303913.200,02000000,46eb,17139;INS_SOLUTION_GOOD,INS_RTKFIXED,17.60114342837,78.12289622494,524.8422,-76.2000,3.9122,-8.3726,0.0656,-0.649302878,-0.927947500,293.520254851,0.0600,0.0604,0.0544,0.0225,0.0207,0.0141,0.0261,0.0259,0.1966,ab001241,0*ba56b749
#INSPVAXA,FILE,0,28.5,FINESTEERING,2319,303913.250,02000000,46eb,17139;INS_SOLUTION_GOOD,INS_RTKFIXED,17.60114522502,78.12289229125,524.8429,-76.2000,3.9302,-8.3586,0.0046,-0.813387460,-0.979489738,293.637597313,0.0600,0.0604,0.0544,0.0225,0.0207,0.0141,0.0261,0.0259,0.1966,ab001241,0*034ce88a
#INSPVAXA,FILE,0,28.5,FINESTEERING,2319,303913.300,02000000,46eb,17139;INS_SOLUTION_GOOD,INS_RTKFIXED,17.60114702876,78.12288836128,524.8415,-76.2000,3.9454,-8.3542,-0.0387,-1.018750285,-0.933677916,293.752067544,0.0600,0.0604,0.0544,0.0225,0.0207,0.0141,0.0261,0.0259,0.1966,ab001241,0*a3fc5dc3
#INSPVAXA,FILE,0,28.5,FINESTEERING,2319,303913.350,02000000,46eb,17139;INS_SOLUTION_GOOD,INS_RTKFIXED,17.60114883666,78.12288443661,524.8378,-76.2000,3.9490,-8.3404,-0.0677,-1.213600887,-0.846952513,293.867979259,0.0600,0.0604,0.0544,0.0225,0.0207,0.0141,0.0261,0.0259,0.1966,ab001241,0*524d7d92
#INSPVAXA,FILE,0,28.5,FINESTEERING,2319,303913.400,02000000,46eb,17139;INS_SOLUTION_GOOD,INS_RTKFIXED,17.60115064431,78.12288051783,524.8337,-76.2000,3.9522,-8.3285,-0.0744,-1.354876891,-0.744135370,293.995242442,0.0600,0.0604,0.0544,0.0225,0.0207,0.0141,0.0261,0.0259,0.1966,ab001241,0*c9e4282d
#INSPVAXA,FILE,0,28.5,FINESTEERING,2319,303913.450,02000000,46eb,17139;INS_SOLUTION_GOOD,INS_RTKFIXED,17.60115245717,78.12287660577,524.8297,-76.2000,3.9668,-8.3098,-0.0543,-1.468009657,-0.686064156,294.128973834,0.0600,0.0604,0.0544,0.0225,0.0207,0.0141,0.0261,0.0259,0.1966,ab001241,0*f0811146
#INSPVAXA,FILE,0,28.5,FINESTEERING,2319,303913.500,02000000,46eb,17139;INS_SOLUTION_GOOD,INS_RTKFIXED,17.60115427897,78.12287270397,524.8268,-76.2000,3.9876,-8.2875,-0.0234,-1.587602729,-0.661810458,294.256598647,0.0600,0.0604,0.0544,0.0225,0.0207,0.0141,0.0261,0.0259,0.1966,ab001241,0*4386e2f7
#INSPVAXA,FILE,0,28.5,FINESTEERING,2319,303913.550,02000000,46eb,17139;INS_SOLUTION_GOOD,INS_RTKFIXED,17.60115610555,78.12286881189,524.8256,-76.2000,3.9937,-8.2649,0.0157,-1.704365331,-0.711323320,294.391299688,0.0600,0.0604,0.0544,0.0225,0.0207,0.0141,0.0261,0.0259,0.1966,ab001241,0*cfe65e7e
#INSPVAXA,FILE,0,28.5,FINESTEERING,2319,303913.600,02000000,46eb,17139;INS_SOLUTION_GOOD,INS_RTKFIXED,17.60115793552,78.12286492981,524.8261,-76.2000,3.9989,-8.2480,0.0427,-1.856244129,-0.812313176,294.523531823,0.0600,0.0604,0.0544,0.0225,0.0207,0.0141,0.0261,0.0259,0.1966,ab001241,0*895d2c00
#INSPVAXA,FILE,0,28.5,FINESTEERING,2319,303913.650,02000000,46eb,17139;INS_SOLUTION_GOOD,INS_RTKFIXED,17.60115977014,78.12286105554,524.8277,-76.2000,4.0236,-8.2220,0.0450,-1.890430540,-0.979331637,294.668790199,0.0600,0.0604,0.0544,0.0225,0.0207,0.0141,0.0261,0.0259,0.1966,ab001241,0*cfb64489
#INSPVAXA,FILE,0,28.5,FINESTEERING,2319,303913.700,02000000,46eb,17139;INS_SOLUTION_GOOD,INS_RTKFIXED,17.60116161690,78.12285719144,524.8296,-76.2000,4.0486,-8.2057,0.0320,-1.927867036,-1.145093923,294.792977905,0.0600,0.0604,0.0544,0.0225,0.0207,0.0141,0.0261,0.0259,0.1966,ab001241,0*7a230cea
#INSPVAXA,FILE,0,28.5,FINESTEERING,2319,303913.750,02000000,46eb,17139;INS_SOLUTION_GOOD,INS_RTKFIXED,17.60116347396,78.12285333642,524.8303,-76.2000,4.0686,-8.1888,0.0162,-1.924415605,-1.291275335,294.916863154,0.0600,0.0604,0.0544,0.0225,0.0207,0.0141,0.0261,0.0259,0.1966,ab001241,0*574a28de
#INSPVAXA,FILE,0,28.5,FINESTEERING,2319,303913.800,02000000,46eb,17139;INS_SOLUTION_GOOD,INS_RTKFIXED,17.60116533804,78.12284948910,524.8298,-76.2000,4.0827,-8.1754,0.0008,-1.876165511,-1.401663680,295.042109556,0.0600,0.0604,0.0544,0.0225,0.0207,0.0141,0.0261,0.0259,0.1966,ab001241,0*f8d1007c
#INSPVAXA,FILE,0,28.5,FINESTEERING,2319,303913.850,02000000,46eb,17139;INS_SOLUTION_GOOD,INS_RTKFIXED,17.60116721020,78.12284564849,524.8274,-76.2000,4.1021,-8.1584,-0.0415,-1.836337495,-1.459539579,295.177220166,0.0600,0.0604,0.0544,0.0225,0.0207,0.0141,0.0261,0.0259,0.1966,ab001241,0*c37b74fd
#INSPVAXA,FILE,0,28.5,FINESTEERING,2319,303913.900,02000000,46eb,17139;INS_SOLUTION_GOOD,INS_RTKFIXED,17.60116909302,78.12284181539,524.8227,-76.2000,4.1318,-8.1416,-0.1170,-1.817939746,-1.433905512,295.298591668,0.0600,0.0604,0.0544,0.0225,0.0207,0.0141,0.0261,0.0259,0.1966,ab001241,0*50f005ed
#INSPVAXA,FILE,0,28.5,FINESTEERING,2319,303913.950,02000000,46eb,17139;INS_SOLUTION_GOOD,INS_RTKFIXED,17.60117098523,78.12283798865,524.8160,-76.2000,4.1444,-8.1314,-0.1337,-1.767855251,-1.317248253,295.420544289,0.0600,0.0604,0.0544,0.0225,0.0207,0.0141,0.0261,0.0259,0.1966,ab001241,0*f584d757
#INSPVAXA,FILE,0,28.5,FINESTEERING,2319,303914.000,02000000,46eb,17139;INS_SOLUTION_GOOD,INS_RTKFIXED,17.60117288390,78.12283416895,524.8085,-76.2000,4.1603,-8.1161,-0.1415,-1.737543975,-1.157049350,295.537467795,0.0600,0.0604,0.0544,0.0225,0.0207,0.0141,0.0261,0.0259,0.1966,ab001241,0*aff7a79e
#INSPVAXA,FILE,0,28.5,FINESTEERING,2319,303914.050,02000000,46eb,17139;INS_SOLUTION_GOOD,INS_RTKFIXED,17.60117478832,78.12283036414,524.8004,-76.2000,4.1775,-8.0974,-0.1384,-1.747102991,-0.981715217,295.659206686,0.0601,0.0603,0.0550,0.0220,0.0205,0.0144,0.0265,0.0265,0.1920,ab001241,0*22bfcc54
#INSPVAXA,FILE,0,28.5,FINESTEERING,2319,303914.100,02000000,46eb,17139;INS_SOLUTION_GOOD,INS_RTKFIXED,17.60117669544,78.12282657717,524.7927,-76.2000,4.1879,-8.0726,-0.0988,-1.774000806,-0.813904595,295.767071697,0.0601,0.0603,0.0550,0.0220,0.0205,0.0144,0.0265,0.0265,0.1920,ab001241,0*8a75ecce
#INSPVAXA,FILE,0,29.0,FINESTEERING,2319,303914.150,02000000,46eb,17139;INS_SOLUTION_GOOD,INS_RTKFIXED,17.60117860307,78.12282280054,524.7870,-76.2000,4.1845,-8.0483,-0.0525,-1.798354332,-0.701325583,295.885718002,0.0601,0.0603,0.0550,0.0220,0.0205,0.0144,0.0265,0.0265,0.1920,ab001241,0*73114bd7
#INSPVAXA,FILE,0,29.0,FINESTEERING,2319,303914.200,02000000,46eb,17139;INS_SOLUTION_GOOD,INS_RTKFIXED,17.60118050952,78.12281903655,524.7844,-76.2000,4.1843,-8.0190,0.0081,-1.799048827,-0.670403604,296.006362642,0.0601,0.0603,0.0550,0.0220,0.0205,0.0144,0.0265,0.0265,0.1920,ab001241,0*008c581e
#INSPVAXA,FILE,0,29.0,FINESTEERING,2319,303914.250,02000000,46eb,17139;INS_SOLUTION_GOOD,INS_RTKFIXED,17.60118241778,78.12281528595,524.7842,-76.2000,4.1929,-7.9856,0.0481,-1.801959232,-0.725585865,296.134219526,0.0601,0.0603,0.0550,0.0220,0.0205,0.0144,0.0265,0.0265,0.1920,ab001241,0*b283f7ca
#INSPVAXA,FILE,0,29.0,FINESTEERING,2319,303914.300,02000000,46eb,17139;INS_SOLUTION_GOOD,INS_RTKFIXED,17.60118432977,78.12281155102,524.7862,-76.2000,4.2026,-7.9527,0.0770,-1.842181053,-0.829408875,296.255610084,0.0601,0.0603,0.0550,0.0220,0.0205,0.0144,0.0265,0.0265,0.1920,ab001241,0*f12aceee
#INSPVAXA,FILE,0,29.0,FINESTEERING,2319,303914.350,02000000,46eb,17139;INS_SOLUTION_GOOD,INS_RTKFIXED,17.60118624290,78.12280782806,524.7888,-76.2000,4.2025,-7.9333,0.0763,-1.892613444,-0.953161256,296.382076172,0.0601,0.0603,0.0550,0.0220,0.0205,0.0144,0.0265,0.0265,0.1920,ab001241,0*9a3d03af
#INSPVAXA,FILE,0,29.0,FINESTEERING,2319,303914.400,02000000,46eb,17139;INS_SOLUTION_GOOD,INS_RTKFIXED,17.60118815593,78.12280411429,524.7908,-76.2000,4.2038,-7.9125,0.0645,-1.870416753,-1.080242447,296.517464438,0.0601,0.0603,0.0550,0.0220,0.0205,0.0144,0.0265,0.0265,0.1920,ab001241,0*9e3a5a3f
#INSPVAXA,FILE,0,29.0,FINESTEERING,2319,303914.450,02000000,46eb,17139;INS_SOLUTION_GOOD,INS_RTKFIXED,17.60119007390,78.12280041368,524.7918,-76.2000,4.2177,-7.8779,0.0395,-1.863385009,-1.172343419,296.651567945,0.0601,0.0603,0.0550,0.0220,0.0205,0.0144,0.0265,0.0265,0.1920,ab001241,0*4636e2ac
#INSPVAXA,FILE,0,29.0,FINESTEERING,2319,303914.500,02000000,46eb,17139;INS_SOLUTION_GOOD,INS_RTKFIXED,17.60119199831,78.12279673022,524.7911,-76.2000,4.2342,-7.8427,-0.0097,-1.871889780,-1.194540293,296.765466494,0.0601,0.0603,0.0550,0.0220,0.0205,0.0144,0.0265,0.0265,0.1920,ab001241,0*8bbcc9d1
#INSPVAXA,FILE,0,29.0,FINESTEERING,2319,303914.550,02000000,46eb,17139;INS_SOLUTION_GOOD,INS_RTKFIXED,17.60119392770,78.12279306081,524.7882,-76.2000,4.2419,-7.8147,-0.0523,-1.845645143,-1.132570165,296.865387274,0.0601,0.0603,0.0550,0.0220,0.0205,0.0144,0.0265,0.0265,0.1920,ab001241,0*efae5aae
#INSPVAXA,FILE,0,29.0,FINESTEERING,2319,303914.600,02000000,46eb,17139;INS_SOLUTION_GOOD,INS_RTKFIXED,17.60119585849,78.12278940365,524.7837,-76.2000,4.2426,-7.7881,-0.0810,-1.739514119,-0.972784670,296.942071342,0.0601,0.0603,0.0550,0.0220,0.0205,0.0144,0.0265,0.0265,0.1920,ab001241,0*6f3e25cf
#INSPVAXA,FILE,0,29.0,FINESTEERING,2319,303914.650,02000000,46eb,17139;INS_SOLUTION_GOOD,INS_RTKFIXED,17.60119779401,78.12278576158,524.7784,-76.2000,4.2588,-7.7495,-0.0896,-1.608669951,-0.760797870,296.993276205,0.0601,0.0603,0.0550,0.0220,0.0205,0.0144,0.0265,0.0265,0.1920,ab001241,0*8713b02c
#INSPVAXA,FILE,0,29.0,FINESTEERING,2319,303914.700,02000000,46eb,17139;INS_SOLUTION_GOOD,INS_RTKFIXED,17.60119973572,78.12278213693,524.7726,-76.2000,4.2709,-7.7111,-0.0666,-1.449903210,-0.516133988,297.003308214,0.0601,0.0603,0.0550,0.0220,0.0205,0.0144,0.0265,0.0265,0.1920,ab001241,0*7cf95ccf
#INSPVAXA,FILE,0,29.0,FINESTEERING,2319,303914.750,02000000,46eb,17139;INS_SOLUTION_GOOD,INS_RTKFIXED,17.60120167861,78.12277852732,524.7679,-76.2000,4.2615,-7.6844,-0.0556,-1.442768612,-0.361564792,296.985233903,0.0601,0.0603,0.0550,0.0220,0.0205,0.0144,0.0265,0.0265,0.1920,ab001241,0*5f7f9a3e
#INSPVAXA,FILE,0,29.0,FINESTEERING,2319,303914.800,02000000,46eb,17139;INS_SOLUTION_GOOD,INS_RTKFIXED,17.60120360860,78.12277492744,524.7663,-76.2000,4.2246,-7.6697,0.0256,-1.408877866,-0.330520273,296.971662053,0.0601,0.0603,0.0550,0.0220,0.0205,0.0144,0.0265,0.0265,0.1920,ab001241,0*52367a09
#INSPVAXA,FILE,0,29.0,FINESTEERING,2319,303914.850,02000000,46eb,17139;INS_SOLUTION_GOOD,INS_RTKFIXED,17.60120552498,78.12277133971,524.7684,-76.2000,4.1941,-7.6413,0.1115,-1.325638150,-0.440033635,296.962204664,0.0601,0.0603,0.0550,0.0220,0.0205,0.0144,0.0265,0.0265,0.1920,ab001241,0*9df672ef
#INSPVAXA,FILE,0,29.0,FINESTEERING,2319,303914.900,02000000,46eb,17139;INS_SOLUTION_GOOD,INS_RTKFIXED,17.60120743342,78.12276776570,524.7742,-76.2000,4.1855,-7.6086,0.1674,-1.297972188,-0.711238080,296.950641701,0.0601,0.0603,0.0550,0.0220,0.0205,0.0144,0.0265,0.0265,0.1920,ab001241,0*6b0f1b51
#INSPVAXA,FILE,0,29.0,FINESTEERING,2319,303914.950,02000000,46eb,17139;INS_SOLUTION_GOOD,INS_RTKFIXED,17.60120933472,78.12276420434,524.7820,-76.2000,4.1687,-7.5847,0.2126,-1.251717342,-1.017332654,296.930683892,0.0601,0.0603,0.0550,0.0220,0.0205,0.0144,0.0265,0.0265,0.1920,ab001241,0*6f9bc2c0
#INSPVAXA,FILE,0,29.0,FINESTEERING,2319,303915.000,02000000,46eb,17139;INS_SOLUTION_GOOD,INS_RTKFIXED,17.60121122842,78.12276064864,524.7882,-76.2000,4.1540,-7.5720,0.1092,-1.335971311,-1.295570580,296.921742554,0.0601,0.0603,0.0550,0.0220,0.0205,0.0144,0.0265,0.0265,0.1920,ab001241,0*18d440bd
#INSPVAXA,FILE,0,29.0,FINESTEERING,2319,303915.050,02000000,46eb,17139;INS_SOLUTION_GOOD,INS_RTKFIXED,17.60121311184,78.12275709369,524.7912,-76.2000,4.1357,-7.5632,0.0549,-1.322411688,-1.485487927,296.917018905,0.0601,0.0602,0.0555,0.0218,0.0204,0.0148,0.0268,0.0269,0.1878,ab001241,0*24d54283
#INSPVAXA,FILE,0,29.0,FINESTEERING,2319,303915.100,02000000,46eb,17139;INS_SOLUTION_GOOD,INS_RTKFIXED,17.60121498762,78.12275353845,524.7903,-76.2000,4.1297,-7.5454,-0.0244,-1.379215192,-1.543789287,296.911730868,0.0601,0.0602,0.0555,0.0218,0.0204,0.0148,0.0268,0.0269,0.1878,ab001241,0*2b0d0220
#INSPVAXA,FILE,0,29.0,FINESTEERING,2319,303915.150,02000000,46eb,17139;INS_SOLUTION_GOOD,INS_RTKFIXED,17.60121686195,78.12274999232,524.7853,-76.2000,4.1257,-7.5275,-0.1092,-1.429368023,-1.485942257,296.884803679,0.0601,0.0602,0.0555,0.0218,0.0204,0.0148,0.0268,0.0269,0.1878,ab001241,0*0c19560a
#INSPVAXA,FILE,0,29.0,FINESTEERING,2319,303915.200,02000000,46eb,17139;INS_SOLUTION_GOOD,INS_RTKFIXED,17.60121873082,78.12274645319,524.7773,-76.2000,4.1081,-7.5131,-0.1599,-1.477099844,-1.339666255,296.856373593,0.0601,0.0602,0.0555,0.0218,0.0204,0.0148,0.0268,0.0269,0.1878,ab001241,0*cb32536f
#INSPVAXA,FILE,0,29.0,FINESTEERING,2319,303915.250,02000000,46eb,17139;INS_SOLUTION_GOOD,INS_RTKFIXED,17.60122059332,78.12274292208,524.7677,-76.2000,4.0959,-7.4969,-0.1796,-1.512829128,-1.094279953,296.821347915,0.0601,0.0602,0.0555,0.0218,0.0204,0.0148,0.0268,0.0269,0.1878,ab001241,0*9d803cc8
#INSPVAXA,FILE,0,29.0,FINESTEERING,2319,303915.300,02000000,46eb,17139;INS_SOLUTION_GOOD,INS_RTKFIXED,17.60122244873,78.12273939857,524.7583,-76.2000,4.0802,-7.4780,-0.1662,-1.512557759,-0.864009199,296.790475678,0.0601,0.0602,0.0555,0.0218,0.0204,0.0148,0.0268,0.0269,0.1878,ab001241,0*c05cc17a
#INSPVAXA,FILE,0,29.0,FINESTEERING,2319,303915.350,02000000,46eb,17139;INS_SOLUTION_GOOD,INS_RTKFIXED,17.60122429813,78.12273588662,524.7504,-76.2000,4.0647,-7.4554,-0.0991,-1.480297247,-0.657463403,296.754612889,0.0601,0.0602,0.0555,0.0218,0.0204,0.0148,0.0268,0.0269,0.1878,ab001241,0*e982a608
#INSPVAXA,FILE,0,29.0,FINESTEERING,2319,303915.400,02000000,46eb,17139;INS_SOLUTION_GOOD,INS_RTKFIXED,17.60122614011,78.12273238552,524.7451,-76.2000,4.0470,-7.4308,-0.0468,-1.439769186,-0.520311142,296.727313386,0.0601,0.0602,0.0555,0.0218,0.0204,0.0148,0.0268,0.0269,0.1878,ab001241,0*05195abe
#INSPVAXA,FILE,0,29.0,FINESTEERING,2319,303915.450,02000000,46eb,17139;INS_SOLUTION_GOOD,INS_RTKFIXED,17.60122797357,78.12272889494,524.7434,-76.2000,4.0308,-7.4137,0.0334,-1.406450286,-0.475852016,296.708300403,0.0601,0.0602,0.0555,0.0218,0.0204,0.0148,0.0268,0.0269,0.1878,ab001241,0*3fd2dafc
#INSPVAXA,FILE,0,29.0,FINESTEERING,2319,303915.500,02000000,46eb,17139;INS_SOLUTION_GOOD,INS_RTKFIXED,17.60122980144,78.12272540885,524.7445,-76.2000,4.0197,-7.4038,0.0813,-1.377241289,-0.533607507,296.695619131,0.0601,0.0602,0.0555,0.0218,0.0204,0.0148,0.0268,0.0269,0.1878,ab001241,0*4d81befa
#INSPVAXA,FILE,0,29.0,FINESTEERING,2319,303915.550,02000000,46eb,17139;INS_SOLUTION_GOOD,INS_RTKFIXED,17.60123162381,78.12272192719,524.7482,-76.2000,4.0124,-7.3990,0.1078,-1.383434626,-0.630105817,296.682714526,0.0601,0.0602,0.0555,0.0218,0.0204,0.0148,0.0268,0.0269,0.1878,ab001241,0*844eedb1
#INSPVAXA,FILE,0,29.0,FINESTEERING,2319,303915.600,02000000,46eb,17139;INS_SOLUTION_GOOD,INS_RTKFIXED,17.60123344419,78.12271844918,524.7523,-76.2000,4.0110,-7.3876,0.1120,-1.353191051,-0.789555176,296.668059873,0.0601,0.0602,0.0555,0.0218,0.0204,0.0148,0.0268,0.0269,0.1878,ab001241,0*f2cc884c
#INSPVAXA,FILE,0,29.0,FINESTEERING,2319,303915.650,02000000,46eb,17139;INS_SOLUTION_GOOD,INS_RTKFIXED,17.60123526279,78.12271497637,524.7562,-76.2000,4.0061,-7.3753,0.1011,-1.312528028,-0.943390443,296.643416355,0.0601,0.0602,0.0555,0.0218,0.0204,0.0148,0.0268,0.0269,0.1878,ab001241,0*9aced04c
#INSPVAXA,FILE,0,29.0,FINESTEERING,2319,303915.700,02000000,46eb,17139;INS_SOLUTION_GOOD,INS_RTKFIXED,17.60123707814,78.12271150933,524.7589,-76.2000,3.9958,-7.3619,0.0617,-1.268486518,-1.075621308,296.621292310,0.0601,0.0602,0.0555,0.0218,0.0204,0.0148,0.0268,0.0269,0.1878,ab001241,0*c24f9ec5
#INSPVAXA,FILE,0,29.0,FINESTEERING,2319,303915.750,02000000,46eb,17139;INS_SOLUTION_GOOD,INS_RTKFIXED,17.60123889142,78.12270804746,524.7595,-76.2000,3.9950,-7.3540,0.0113,-1.233730514,-1.158694533,296.597808592,0.0601,0.0602,0.0555,0.0218,0.0204,0.0148,0.0268,0.0269,0.1878,ab001241,0*c47a3768
#INSPVAXA,FILE,0,29.0,FINESTEERING,2319,303915.800,02000000,46eb,17139;INS_SOLUTION_GOOD,INS_RTKFIXED,17.60124070386,78.12270458753,524.7575,-76.2000,3.9921,-7.3544,-0.0433,-1.227056592,-1.181715857,296.568284087,0.0601,0.0602,0.0555,0.0218,0.0204,0.0148,0.0268,0.0269,0.1878,ab001241,0*ab329d74
#INSPVAXA,FILE,0,29.0,FINESTEERING,2319,303915.850,02000000,46eb,17139;INS_SOLUTION_GOOD,INS_RTKFIXED,17.60124251225,78.12270112863,524.7533,-76.2000,3.9824,-7.3524,-0.0755,-1.197523502,-1.152117613,296.540836868,0.0601,0.0602,0.0555,0.0218,0.0204,0.0148,0.0268,0.0269,0.1878,ab001241,0*8e8bbec7
#INSPVAXA,FILE,0,29.0,FINESTEERING,2319,303915.900,02000000,46eb,17139;INS_SOLUTION_GOOD,INS_RTKFIXED,17.60124431667,78.12269767162,524.7476,-76.2000,3.9714,-7.3457,-0.0865,-1.150142766,-1.101183236,296.517778190,0.0601,0.0602,0.0555,0.0218,0.0204,0.0148,0.0268,0.0269,0.1878,ab001241,0*ac812ab4
#INSPVAXA,FILE,0,29.0,FINESTEERING,2319,303915.950,02000000,46eb,17139;INS_SOLUTION_GOOD,INS_RTKFIXED,17.60124611739,78.12269421767,524.7414,-76.2000,3.9630,-7.3381,-0.0972,-1.148410896,-1.040612555,296.500233149,0.0601,0.0602,0.0555,0.0218,0.0204,0.0148,0.0268,0.0269,0.1878,ab001241,0*54bedb80
#INSPVAXA,FILE,0,29.0,FINESTEERING,2319,303916.000,02000000,46eb,17139;INS_SOLUTION_GOOD,INS_RTKFIXED,17.60124791439,78.12269076629,524.7359,-76.2000,3.9587,-7.3347,-0.0851,-1.134416373,-0.981739564,296.488770217,0.0601,0.0602,0.0555,0.0218,0.0204,0.0148,0.0268,0.0269,0.1878,ab001241,0*1d4d4def
#INSPVAXA,FILE,0,29.0,FINESTEERING,2319,303916.050,02000000,46eb,17139;INS_SOLUTION_GOOD,INS_RTKFIXED,17.60124969962,78.12268732812,524.7307,-76.2000,3.9512,-7.3280,-0.0667,-1.126458228,-0.946553432,296.487384850,0.0603,0.0602,0.0560,0.0211,0.0201,0.0150,0.0270,0.0272,0.1843,ab001241,0*ef02aef1
#INSPVAXA,FILE,0,29.0,FINESTEERING,2319,303916.100,02000000,46eb,17139;INS_SOLUTION_GOOD,INS_RTKFIXED,17.60125146964,78.12268390319,524.7270,-76.2000,3.9387,-7.3227,-0.0243,-1.143408608,-0.956867797,296.501985329,0.0603,0.0602,0.0560,0.0211,0.0201,0.0150,0.0270,0.0272,0.1843,ab001241,0*9ae450a8
#INSPVAXA,FILE,0,29.0,FINESTEERING,2319,303916.150,02000000,46eb,17139;INS_SOLUTION_GOOD,INS_RTKFIXED,17.60125323460,78.12268048096,524.7245,-76.2000,3.9281,-7.3136,-0.0077,-1.160213158,-0.998645915,296.534959545,0.0603,0.0602,0.0560,0.0211,0.0201,0.0150,0.0270,0.0272,0.1843,ab001241,0*609ce1b1
#INSPVAXA,FILE,0,29.0,FINESTEERING,2319,303916.200,02000000,46eb,17139;INS_SOLUTION_GOOD,INS_RTKFIXED,17.60125499892,78.12267706333,524.7224,-76.2000,3.9300,-7.2998,-0.0070,-1.174576305,-1.033717463,296.573306489,0.0603,0.0602,0.0560,0.0211,0.0201,0.0150,0.0270,0.0272,0.1843,ab001241,0*c9c2a2c9
#INSPVAXA,FILE,0,29.0,FINESTEERING,2319,303916.250,02000000,46eb,17139;INS_SOLUTION_GOOD,INS_RTKFIXED,17.60125676479,78.12267365062,524.7207,-76.2000,3.9335,-7.2896,-0.0190,-1.205409354,-1.032919499,296.615690610,0.0603,0.0602,0.0560,0.0211,0.0201,0.0150,0.0270,0.0272,0.1843,ab001241,0*eb3fe513
#INSPVAXA,FILE,0,29.0,FINESTEERING,2319,303916.300,02000000,46eb,17139;INS_SOLUTION_GOOD,INS_RTKFIXED,17.60125853189,78.12267024228,524.7182,-76.2000,3.9351,-7.2839,-0.0171,-1.190348049,-0.962212591,296.658979824,0.0603,0.0602,0.0560,0.0211,0.0201,0.0150,0.0270,0.0272,0.1843,ab001241,0*ade846d9
#INSPVAXA,FILE,0,29.0,FINESTEERING,2319,303916.350,02000000,46eb,17139;INS_SOLUTION_GOOD,INS_RTKFIXED,17.60126030032,78.12266683763,524.7149,-76.2000,3.9383,-7.2756,-0.0440,-1.182707794,-0.851604814,296.712801431,0.0603,0.0602,0.0560,0.0211,0.0201,0.0150,0.0270,0.0272,0.1843,ab001241,0*97b6670c
#INSPVAXA,FILE,0,29.0,FINESTEERING,2319,303916.400,02000000,46eb,17139;INS_SOLUTION_GOOD,INS_RTKFIXED,17.60126207057,78.12266343816,524.7104,-76.2000,3.9436,-7.2620,-0.0567,-1.175342386,-0.699182200,296.772239750,0.0603,0.0602,0.0560,0.0211,0.0201,0.0150,0.0270,0.0272,0.1843,ab001241,0*80fdd236
#INSPVAXA,FILE,0,29.0,FINESTEERING,2319,303916.450,02000000,46eb,17139;INS_SOLUTION_GOOD,INS_RTKFIXED,17.60126384268,78.12266004490,524.7058,-76.2000,3.9496,-7.2438,-0.0613,-1.161739151,-0.530725904,296.836181802,0.0603,0.0602,0.0560,0.0211,0.0201,0.0150,0.0270,0.0272,0.1843,ab001241,0*ed21a724
#INSPVAXA,FILE,0,29.0,FINESTEERING,2319,303916.500,02000000,46eb,17139;INS_SOLUTION_GOOD,INS_RTKFIXED,17.60126561524,78.12265665825,524.7015,-76.2000,3.9477,-7.2319,-0.0545,-1.135730538,-0.354137682,296.903986870,0.0603,0.0602,0.0560,0.0211,0.0201,0.0150,0.0270,0.0272,0.1843,ab001241,0*43990716
#INSPVAXA,FILE,0,29.0,FINESTEERING,2319,303916.550,02000000,46eb,17139;INS_SOLUTION_GOOD,INS_RTKFIXED,17.60126738759,78.12265327810,524.6985,-76.2000,3.9478,-7.2148,-0.0206,-1.097395646,-0.224238855,296.984518323,0.0603,0.0602,0.0560,0.0211,0.0201,0.0150,0.0270,0.0272,0.1843,ab001241,0*c8e58835
#INSPVAXA,FILE,0,29.0,FINESTEERING,2319,303916.600,02000000,46eb,17139;INS_SOLUTION_GOOD,INS_RTKFIXED,17.60126915986,78.12264990551,524.6974,-76.2000,3.9461,-7.1980,0.0285,-1.069908489,-0.142185284,297.074141071,0.0603,0.0602,0.0560,0.0211,0.0201,0.0150,0.0270,0.0272,0.1843,ab001241,0*2a0b92a7
#INSPVAXA,FILE,0,29.0,FINESTEERING,2319,303916.650,02000000,46eb,17139;INS_SOLUTION_GOOD,INS_RTKFIXED,17.60127093358,78.12264654195,524.6984,-76.2000,3.9497,-7.1768,0.0723,-1.067346410,-0.106437104,297.163719125,0.0603,0.0602,0.0560,0.0211,0.0201,0.0150,0.0270,0.0272,0.1843,ab001241,0*ed1b7d50
#INSPVAXA,FILE,0,29.0,FINESTEERING,2319,303916.700,02000000,46eb,17139;INS_SOLUTION_GOOD,INS_RTKFIXED,17.60127270897,78.12264318868,524.7013,-76.2000,3.9520,-7.1546,0.1010,-1.071206213,-0.095311414,297.247469697,0.0603,0.0602,0.0560,0.0211,0.0201,0.0150,0.0270,0.0272,0.1843,ab001241,0*8e3c6529
#INSPVAXA,FILE,0,29.0,FINESTEERING,2319,303916.750,02000000,46eb,17139;INS_SOLUTION_GOOD,INS_RTKFIXED,17.60127448600,78.12263984389,524.7048,-76.2000,3.9551,-7.1381,0.1035,-1.042357757,-0.059358326,297.326096256,0.0603,0.0602,0.0560,0.0211,0.0201,0.0150,0.0270,0.0272,0.1843,ab001241,0*a10ee1c1
#INSPVAXA,FILE,0,29.0,FINESTEERING,2319,303916.800,02000000,46eb,17139;INS_SOLUTION_GOOD,INS_RTKFIXED,17.60127626360,78.12263650755,524.7088,-76.2000,3.9592,-7.1202,0.1104,-0.963316827,-0.004553205,297.407248163,0.0603,0.0602,0.0560,0.0211,0.0201,0.0150,0.0270,0.0272,0.1843,ab001241,0*7241ac7a
#INSPVAXA,FILE,0,29.0,FINESTEERING,2319,303916.850,02000000,46eb,17139;INS_SOLUTION_GOOD,INS_RTKFIXED,17.60127804560,78.12263318123,524.7121,-76.2000,3.9696,-7.0954,0.1007,-0.851808053,0.076020038,297.487791243,0.0603,0.0602,0.0560,0.0211,0.0201,0.0150,0.0270,0.0272,0.1843,ab001241,0*20d0e608
#INSPVAXA,FILE,0,29.0,FINESTEERING,2319,303916.900,02000000,46eb,17139;INS_SOLUTION_GOOD,INS_RTKFIXED,17.60127983264,78.12262986605,524.7151,-76.2000,3.9808,-7.0703,0.0814,-0.785890788,0.163127866,297.563327924,0.0603,0.0602,0.0560,0.0211,0.0201,0.0150,0.0270,0.0272,0.1843,ab001241,0*795d148a
#INSPVAXA,FILE,0,29.0,FINESTEERING,2319,303916.950,02000000,46eb,17139;INS_SOLUTION_GOOD,INS_RTKFIXED,17.60128162009,78.12262656001,524.7179,-76.2000,3.9764,-7.0513,0.0793,-0.712066618,0.244439279,297.642809093,0.0603,0.0602,0.0560,0.0211,0.0201,0.0150,0.0270,0.0272,0.1843,ab001241,0*4443d97e
#INSPVAXA,FILE,0,29.0,FINESTEERING,2319,303917.000,02000000,46eb,17139;INS_SOLUTION_GOOD,INS_RTKFIXED,17.60128340646,78.12262326277,524.7215,-76.2000,3.9730,-7.0323,0.1047,-0.649268351,0.304184798,297.726178180,0.0603,0.0602,0.0560,0.0211,0.0201,0.0150,0.0270,0.0272,0.1843,ab001241,0*bda0e68b
#INSPVAXA,FILE,0,29.0,FINESTEERING,2319,303917.050,02000000,46eb,17139;INS_SOLUTION_GOOD,INS_RTKFIXED,17.60128519231,78.12261997711,524.7262,-76.2000,3.9682,-7.0106,0.1329,-0.571890046,0.331217838,297.811014122,0.0603,0.0602,0.0565,0.0207,0.0200,0.0152,0.0272,0.0275,0.1821,ab001241,0*9bd963cb
#INSPVAXA,FILE,0,28.5,FINESTEERING,2319,303917.100,02000000,46eb,17139;INS_SOLUTION_GOOD,INS_RTKFIXED,17.60128698309,78.12261670308,524.7326,-76.2000,3.9755,-6.9783,0.1543,-0.516890853,0.322592964,297.885736782,0.0603,0.0602,0.0565,0.0207,0.0200,0.0152,0.0272,0.0275,0.1821,ab001241,0*96d62cb7
#INSPVAXA,FILE,0,28.5,FINESTEERING,2319,303917.150,02000000,46eb,17139;INS_SOLUTION_GOOD,INS_RTKFIXED,17.60128877513,78.12261344326,524.7396,-76.2000,3.9739,-6.9479,0.1602,-0.475723191,0.315679528,297.943842542,0.0603,0.0602,0.0565,0.0207,0.0200,0.0152,0.0272,0.0275,0.1821,ab001241,0*c9b0a4bb
#INSPVAXA,FILE,0,28.5,FINESTEERING,2319,303917.200,02000000,46eb,17139;INS_SOLUTION_GOOD,INS_RTKFIXED,17.60129056505,78.12261019533,524.7468,-76.2000,3.9677,-6.9248,0.1643,-0.419871910,0.357449194,297.995691543,0.0603,0.0602,0.0565,0.0207,0.0200,0.0152,0.0272,0.0275,0.1821,ab001241,0*d734f5ab
#INSPVAXA,FILE,0,28.5,FINESTEERING,2319,303917.250,02000000,46eb,17139;INS_SOLUTION_GOOD,INS_RTKFIXED,17.60129235207,78.12260695873,524.7534,-76.2000,3.9606,-6.9008,0.1425,-0.391048415,0.426446469,298.039321261,0.0603,0.0602,0.0565,0.0207,0.0200,0.0152,0.0272,0.0275,0.1821,ab001241,0*40277c8e
#INSPVAXA,FILE,0,28.5,FINESTEERING,2319,303917.300,02000000,46eb,17139;INS_SOLUTION_GOOD,INS_RTKFIXED,17.60129413560,78.12260373262,524.7595,-76.2000,3.9518,-6.8787,0.1305,-0.385431628,0.544941473,298.076937301,0.0603,0.0602,0.0565,0.0207,0.0200,0.0152,0.0272,0.0275,0.1821,ab001241,0*269b427f
#INSPVAXA,FILE,0,28.5,FINESTEERING,2319,303917.350,02000000,46eb,17139;INS_SOLUTION_GOOD,INS_RTKFIXED,17.60129591597,78.12260051894,524.7651,-76.2000,3.9449,-6.8507,0.1314,-0.380886489,0.704836817,298.098310536,0.0603,0.0602,0.0565,0.0207,0.0200,0.0152,0.0272,0.0275,0.1821,ab001241,0*a97185e4
#INSPVAXA,FILE,0,28.5,FINESTEERING,2319,303917.400,02000000,46eb,17139;INS_SOLUTION_GOOD,INS_RTKFIXED,17.60129769239,78.12259731693,524.7704,-76.2000,3.9338,-6.8259,0.1155,-0.401405806,0.853373814,298.108116544,0.0603,0.0602,0.0565,0.0207,0.0200,0.0152,0.0272,0.0275,0.1821,ab001241,0*74d4b721
#INSPVAXA,FILE,0,28.5,FINESTEERING,2319,303917.450,02000000,46eb,17139;INS_SOLUTION_GOOD,INS_RTKFIXED,17.60129946064,78.12259412635,524.7768,-76.2000,3.9107,-6.8023,0.1540,-0.410884457,0.978670470,298.107474344,0.0603,0.0602,0.0565,0.0207,0.0200,0.0152,0.0272,0.0275,0.1821,ab001241,0*56f3bbf4
#INSPVAXA,FILE,0,28.5,FINESTEERING,2319,303917.500,02000000,46eb,17139;INS_SOLUTION_GOOD,INS_RTKFIXED,17.60130121968,78.12259094816,524.7851,-76.2000,3.8918,-6.7708,0.2033,-0.411846818,1.011241395,298.108027855,0.0603,0.0602,0.0565,0.0207,0.0200,0.0152,0.0272,0.0275,0.1821,ab001241,0*59fe7d08
#INSPVAXA,FILE,0,28.5,FINESTEERING,2319,303917.550,02000000,46eb,17139;INS_SOLUTION_GOOD,INS_RTKFIXED,17.60130296966,78.12258778495,524.7955,-76.2000,3.8724,-6.7352,0.2486,-0.392217519,0.941490569,298.098579217,0.0603,0.0602,0.0565,0.0207,0.0200,0.0152,0.0272,0.0275,0.1821,ab001241,0*bd317c9a
#INSPVAXA,FILE,0,28.5,FINESTEERING,2319,303917.600,02000000,46eb,17139;INS_SOLUTION_GOOD,INS_RTKFIXED,17.60130471173,78.12258463819,524.8082,-76.2000,3.8552,-6.7010,0.2890,-0.359774911,0.770187765,298.077937662,0.0603,0.0602,0.0565,0.0207,0.0200,0.0152,0.0272,0.0275,0.1821,ab001241,0*ab9de4e9
#INSPVAXA,FILE,0,28.5,FINESTEERING,2319,303917.650,02000000,46eb,17139;INS_SOLUTION_GOOD,INS_RTKFIXED,17.60130644607,78.12258150830,524.8223,-76.2000,3.8376,-6.6655,0.3082,-0.304989137,0.545929850,298.039805843,0.0603,0.0602,0.0565,0.0207,0.0200,0.0152,0.0272,0.0275,0.1821,ab001241,0*79242587
#INSPVAXA,FILE,0,28.5,FINESTEERING,2319,303917.700,02000000,46eb,17139;INS_SOLUTION_GOOD,INS_RTKFIXED,17.60130817114,78.12257839312,524.8367,-76.2000,3.8146,-6.6365,0.3036,-0.255452431,0.298226211,297.988579426,0.0603,0.0602,0.0565,0.0207,0.0200,0.0152,0.0272,0.0275,0.1821,ab001241,0*e0fc8dd2
#INSPVAXA,FILE,0,28.5,FINESTEERING,2319,303917.750,02000000,46eb,17139;INS_SOLUTION_GOOD,INS_RTKFIXED,17.60130988577,78.12257529142,524.8501,-76.2000,3.7921,-6.6065,0.2621,-0.197903966,0.081853541,297.926676024,0.0603,0.0602,0.0565,0.0207,0.0200,0.0152,0.0272,0.0275,0.1821,ab001241,0*7a057c7c
#INSPVAXA,FILE,0,28.5,FINESTEERING,2319,303917.800,02000000,46eb,17139;INS_SOLUTION_GOOD,INS_RTKFIXED,17.60131159153,78.12257220273,524.8612,-76.2000,3.7753,-6.5794,0.2042,-0.139406940,-0.067013956,297.842861855,0.0603,0.0602,0.0565,0.0207,0.0200,0.0152,0.0272,0.0275,0.1821,ab001241,0*daa5459c
#INSPVAXA,FILE,0,28.5,FINESTEERING,2319,303917.850,02000000,46eb,17139;INS_SOLUTION_GOOD,INS_RTKFIXED,17.60131328888,78.12256912610,524.8692,-76.2000,3.7556,-6.5568,0.1399,-0.066465032,-0.094038177,297.741080894,0.0603,0.0602,0.0565,0.0207,0.0200,0.0152,0.0272,0.0275,0.1821,ab001241,0*eee85770
#INSPVAXA,FILE,0,28.5,FINESTEERING,2319,303917.900,02000000,46eb,17139;INS_SOLUTION_GOOD,INS_RTKFIXED,17.60131497824,78.12256606006,524.8738,-76.2000,3.7355,-6.5337,0.0802,0.016449621,-0.037384078,297.615708425,0.0603,0.0602,0.0565,0.0207,0.0200,0.0152,0.0272,0.0275,0.1821,ab001241,0*f315b171
#INSPVAXA,FILE,0,28.5,FINESTEERING,2319,303917.950,02000000,46eb,17139;INS_SOLUTION_GOOD,INS_RTKFIXED,17.60131665401,78.12256300599,524.8765,-76.2000,3.6982,-6.5064,0.0586,0.091195400,0.073663995,297.479649407,0.0603,0.0602,0.0565,0.0207,0.0200,0.0152,0.0272,0.0275,0.1821,ab001241,0*f97b9c27
#INSPVAXA,FILE,0,28.5,FINESTEERING,2319,303918.000,02000000,46eb,17139;INS_SOLUTION_GOOD,INS_RTKFIXED,17.60131831169,78.12255996546,524.8783,-76.2000,3.6553,-6.4737,0.0501,0.157140398,0.185740570,297.338484760,0.0603,0.0602,0.0565,0.0207,0.0200,0.0152,0.0272,0.0275,0.1821,ab001241,0*a09b77c8
#INSPVAXA,FILE,0,28.5,FINESTEERING,2319,303918.050,02000000,46eb,17139;INS_SOLUTION_GOOD,INS_RTKFIXED,17.60131994565,78.12255694405,524.8805,-76.2000,3.6187,-6.4415,0.0735,0.218629295,0.292212751,297.190544714,0.0604,0.0602,0.0568,0.0203,0.0199,0.0153,0.0274,0.0279,0.1806,ab001241,0*8193ce69
#INSPVAXA,FILE,0,28.5,FINESTEERING,2319,303918.100,02000000,46eb,17139;INS_SOLUTION_GOOD,INS_RTKFIXED,17.60132155799,78.12255394047,524.8837,-76.2000,3.5811,-6.4083,0.0956,0.234033362,0.349110683,297.030500311,0.0604,0.0602,0.0568,0.0203,0.0199,0.0153,0.0274,0.0279,0.1806,ab001241,0*9d4634b4
#INSPVAXA,FILE,0,33.0,FINESTEERING,2319,303918.150,02000000,46eb,17139;INS_SOLUTION_GOOD,INS_RTKFIXED,17.60132315056,78.12255095097,524.8886,-76.2000,3.5307,-6.3782,0.1409,0.238235232,0.351054818,296.866782547,0.0604,0.0602,0.0568,0.0203,0.0199,0.0153,0.0274,0.0279,0.1806,ab001241,0*6b163797
#INSPVAXA,FILE,0,33.0,FINESTEERING,2319,303918.200,02000000,46eb,17139;INS_SOLUTION_GOOD,INS_RTKFIXED,17.60132472062,78.12254797537,524.8961,-76.2000,3.4817,-6.3508,0.1910,0.243156135,0.300497321,296.711282818,0.0604,0.0602,0.0568,0.0203,0.0199,0.0153,0.0274,0.0279,0.1806,ab001241,0*3cb60a66
#INSPVAXA,FILE,0,33.0,FINESTEERING,2319,303918.250,02000000,46eb,17139;INS_SOLUTION_GOOD,INS_RTKFIXED,17.60132627010,78.12254501411,524.9048,-76.2000,3.4382,-6.3188,0.2065,0.261117601,0.207199208,296.560750180,0.0604,0.0602,0.0568,0.0203,0.0199,0.0153,0.0274,0.0279,0.1806,ab001241,0*4bd0527c
#INSPVAXA,FILE,0,33.0,FINESTEERING,2319,303918.300,02000000,46eb,17139;INS_SOLUTION_GOOD,INS_RTKFIXED,17.60132780229,78.12254206695,524.9139,-76.2000,3.4039,-6.2868,0.2027,0.286077947,0.103188167,296.405903935,0.0604,0.0602,0.0568,0.0203,0.0199,0.0153,0.0274,0.0279,0.1806,ab001241,0*a3a44da0
#INSPVAXA,FILE,0,33.0,FINESTEERING,2319,303918.350,02000000,46eb,17139;INS_SOLUTION_GOOD,INS_RTKFIXED,17.60132931978,78.12253913546,524.9229,-76.2000,3.3715,-6.2530,0.1901,0.314761223,0.003814311,296.232159422,0.0604,0.0602,0.0568,0.0203,0.0199,0.0153,0.0274,0.0279,0.1806,ab001241,0*87ff618a
#INSPVAXA,FILE,0,33.0,FINESTEERING,2319,303918.400,02000000,46eb,17139;INS_SOLUTION_GOOD,INS_RTKFIXED,17.60133082198,78.12253621757,524.9306,-76.2000,3.3353,-6.2237,0.1591,0.367897602,-0.056239410,296.037017353,0.0604,0.0602,0.0568,0.0203,0.0199,0.0153,0.0274,0.0279,0.1806,ab001241,0*4576b1be
#INSPVAXA,FILE,0,33.0,FINESTEERING,2319,303918.450,02000000,46eb,17139;INS_SOLUTION_GOOD,INS_RTKFIXED,17.60133230658,78.12253331351,524.9368,-76.2000,3.2963,-6.1946,0.1284,0.430789133,-0.076519285,295.818174856,0.0604,0.0602,0.0568,0.0203,0.0199,0.0153,0.0274,0.0279,0.1806,ab001241,0*07370c2f
#INSPVAXA,FILE,0,33.0,FINESTEERING,2319,303918.500,02000000,46eb,17139;INS_SOLUTION_GOOD,INS_RTKFIXED,17.60133377323,78.12253042263,524.9419,-76.2000,3.2558,-6.1656,0.1098,0.499440415,-0.079134105,295.574534035,0.0604,0.0602,0.0568,0.0203,0.0199,0.0153,0.0274,0.0279,0.1806,ab001241,0*aaf24dbb
#INSPVAXA,FILE,0,33.0,FINESTEERING,2319,303918.550,02000000,46eb,17139;INS_SOLUTION_GOOD,INS_RTKFIXED,17.60133522164,78.12252754537,524.9458,-76.2000,3.2141,-6.1375,0.0859,0.555164394,-0.058599813,295.295713312,0.0604,0.0602,0.0568,0.0203,0.0199,0.0153,0.0274,0.0279,0.1806,ab001241,0*e6a15550
#INSPVAXA,FILE,0,33.0,FINESTEERING,2319,303918.600,02000000,46eb,17139;INS_SOLUTION_GOOD,INS_RTKFIXED,17.60133665056,78.12252468175,524.9488,-76.2000,3.1669,-6.1061,0.0693,0.607741512,-0.028505679,294.985464908,0.0604,0.0602,0.0568,0.0203,0.0199,0.0153,0.0274,0.0279,0.1806,ab001241,0*4293770e
#INSPVAXA,FILE,0,33.0,FINESTEERING,2319,303918.650,02000000,46eb,17139;INS_SOLUTION_GOOD,INS_RTKFIXED,17.60133805701,78.12252183137,524.9518,-76.2000,3.1148,-6.0816,0.0753,0.654646759,0.007481379,294.642592393,0.0604,0.0602,0.0568,0.0203,0.0199,0.0153,0.0274,0.0279,0.1806,ab001241,0*719e2f0c
#INSPVAXA,FILE,0,33.0,FINESTEERING,2319,303918.700,02000000,46eb,17139;INS_SOLUTION_GOOD,INS_RTKFIXED,17.60133943763,78.12251899253,524.9549,-76.2000,3.0532,-6.0569,0.0895,0.708607638,0.025096008,294.286179166,0.0604,0.0602,0.0568,0.0203,0.0199,0.0153,0.0274,0.0279,0.1806,ab001241,0*c13fd682
#INSPVAXA,FILE,0,33.0,FINESTEERING,2319,303918.750,02000000,46eb,17139;INS_SOLUTION_GOOD,INS_RTKFIXED,17.60134079010,78.12251616365,524.9587,-76.2000,2.9888,-6.0364,0.1011,0.745508939,0.026309092,293.919549939,0.0604,0.0602,0.0568,0.0203,0.0199,0.0153,0.0274,0.0279,0.1806,ab001241,0*0a06d350
#INSPVAXA,FILE,0,33.0,FINESTEERING,2319,303918.800,02000000,46eb,17139;INS_SOLUTION_GOOD,INS_RTKFIXED,17.60134211488,78.12251334500,524.9633,-76.2000,2.9281,-6.0128,0.1168,0.766332098,0.008400093,293.549016052,0.0604,0.0602,0.0568,0.0203,0.0199,0.0153,0.0274,0.0279,0.1806,ab001241,0*470c0d6e
#INSPVAXA,FILE,0,33.0,FINESTEERING,2319,303918.850,02000000,46eb,17139;INS_SOLUTION_GOOD,INS_RTKFIXED,17.60134341244,78.12251053751,524.9684,-76.2000,2.8685,-5.9868,0.1228,0.797725373,-0.010448526,293.164482606,0.0604,0.0602,0.0568,0.0203,0.0199,0.0153,0.0274,0.0279,0.1806,ab001241,0*957c9d87
#INSPVAXA,FILE,0,33.0,FINESTEERING,2319,303918.900,02000000,46eb,17139;INS_SOLUTION_GOOD,INS_RTKFIXED,17.60134468380,78.12250774289,524.9739,-76.2000,2.8114,-5.9587,0.1255,0.830539761,-0.017599307,292.757179737,0.0604,0.0602,0.0568,0.0203,0.0199,0.0153,0.0274,0.0279,0.1806,ab001241,0*7082917e
#INSPVAXA,FILE,0,33.0,FINESTEERING,2319,303918.950,02000000,46eb,17139;INS_SOLUTION_GOOD,INS_RTKFIXED,17.60134592832,78.12250496042,524.9792,-76.2000,2.7491,-5.9329,0.1272,0.884576897,-0.010135254,292.315051279,0.0604,0.0602,0.0568,0.0203,0.0199,0.0153,0.0274,0.0279,0.1806,ab001241,0*f04329d0
#INSPVAXA,FILE,0,33.0,FINESTEERING,2319,303919.000,02000000,46eb,17139;INS_SOLUTION_GOOD,INS_RTKFIXED,17.60134714481,78.12250218981,524.9843,-76.2000,2.6869,-5.9074,0.1119,0.931636122,0.021462560,291.837564058,0.0604,0.0602,0.0568,0.0203,0.0199,0.0153,0.0274,0.0279,0.1806,ab001241,0*7b481ee5
#INSPVAXA,FILE,0,33.0,FINESTEERING,2319,303919.050,02000000,46eb,17139;INS_SOLUTION_GOOD,INS_RTKFIXED,17.60134832143,78.12249943236,524.9888,-76.2000,2.6203,-5.8828,0.0962,0.981056168,0.068839408,291.321269472,0.0613,0.0612,0.0570,0.0201,0.0202,0.0153,0.0274,0.0280,0.1790,ab001241,0*9dd68c94
#INSPVAXA,FILE,0,31.0,FINESTEERING,2319,303919.100,02000000,46eb,17139;INS_SOLUTION_GOOD,INS_RTKFIXED,17.60134945932,78.12249668649,524.9927,-76.2000,2.5561,-5.8547,0.0858,1.015744993,0.141429209,290.768395988,0.0613,0.0612,0.0570,0.0201,0.0202,0.0153,0.0274,0.0280,0.1790,ab001241,0*f5d7a284
#INSPVAXA,FILE,0,31.0,FINESTEERING,2319,303919.150,02000000,46eb,17139;INS_SOLUTION_GOOD,INS_RTKFIXED,17.60135056610,78.12249395290,524.9961,-76.2000,2.4823,-5.8288,0.0796,1.025111655,0.218609860,290.181488457,0.0613,0.0612,0.0570,0.0201,0.0202,0.0153,0.0274,0.0280,0.1790,ab001241,0*16e0c530
#INSPVAXA,FILE,0,31.0,FINESTEERING,2319,303919.200,02000000,46eb,17139;INS_SOLUTION_GOOD,INS_RTKFIXED,17.60135163674,78.12249122958,524.9991,-76.2000,2.3950,-5.8094,0.0736,1.055030793,0.305822761,289.565786517,0.0613,0.0612,0.0570,0.0201,0.0202,0.0153,0.0274,0.0280,0.1790,ab001241,0*a1d2cdc8
#INSPVAXA,FILE,0,31.0,FINESTEERING,2319,303919.250,02000000,46eb,17139;INS_SOLUTION_GOOD,INS_RTKFIXED,17.60135266938,78.12248851640,525.0024,-76.2000,2.3099,-5.7858,0.0804,1.102455474,0.365377712,288.932254615,0.0613,0.0612,0.0570,0.0201,0.0202,0.0153,0.0274,0.0280,0.1790,ab001241,0*9dcf6075
#INSPVAXA,FILE,0,31.0,FINESTEERING,2319,303919.300,02000000,46eb,17139;INS_SOLUTION_GOOD,INS_RTKFIXED,17.60135366434,78.12248581472,525.0067,-76.2000,2.2256,-5.7608,0.1116,1.143376825,0.397544274,288.275634928,0.0613,0.0612,0.0570,0.0201,0.0202,0.0153,0.0274,0.0280,0.1790,ab001241,0*8923c93f
#INSPVAXA,FILE,0,31.0,FINESTEERING,2319,303919.350,02000000,46eb,17139;INS_SOLUTION_GOOD,INS_RTKFIXED,17.60135462182,78.12248312546,525.0115,-76.2000,2.1444,-5.7328,0.1141,1.139984954,0.424624050,287.598788538,0.0613,0.0612,0.0570,0.0201,0.0202,0.0153,0.0274,0.0280,0.1790,ab001241,0*91445ac4
#INSPVAXA,FILE,0,31.0,FINESTEERING,2319,303919.400,02000000,46eb,17139;INS_SOLUTION_GOOD,INS_RTKFIXED,17.60135554169,78.12248044858,525.0173,-76.2000,2.0593,-5.7070,0.1311,1.112867281,0.415845079,286.888533330,0.0613,0.0612,0.0570,0.0201,0.0202,0.0153,0.0274,0.0280,0.1790,ab001241,0*c6260e43
#INSPVAXA,FILE,0,31.0,FINESTEERING,2319,303919.450,02000000,46eb,17139;INS_SOLUTION_GOOD,INS_RTKFIXED,17.60135642237,78.12247778372,525.0236,-76.2000,1.9673,-5.6819,0.1501,1.072889460,0.398222875,286.160273153,0.0613,0.0612,0.0570,0.0201,0.0202,0.0153,0.0274,0.0280,0.1790,ab001241,0*bc4561ad
#INSPVAXA,FILE,0,31.0,FINESTEERING,2319,303919.500,02000000,46eb,17139;INS_SOLUTION_GOOD,INS_RTKFIXED,17.60135726135,78.12247512926,525.0307,-76.2000,1.8738,-5.6610,0.1603,1.035266666,0.356516957,285.425556378,0.0613,0.0612,0.0570,0.0201,0.0202,0.0153,0.0274,0.0280,0.1790,ab001241,0*49de29ff
#INSPVAXA,FILE,0,31.0,FINESTEERING,2319,303919.550,02000000,46eb,17139;INS_SOLUTION_GOOD,INS_RTKFIXED,17.60135805742,78.12247248413,525.0377,-76.2000,1.7763,-5.6424,0.1461,0.975293343,0.305879675,284.700129356,0.0613,0.0612,0.0570,0.0201,0.0202,0.0153,0.0274,0.0280,0.1790,ab001241,0*ae5d5cab
#INSPVAXA,FILE,0,31.0,FINESTEERING,2319,303919.600,02000000,46eb,17139;INS_SOLUTION_GOOD,INS_RTKFIXED,17.60135881127,78.12246984950,525.0443,-76.2000,1.6857,-5.6168,0.1447,0.965828715,0.255504691,283.986443418,0.0613,0.0612,0.0570,0.0201,0.0202,0.0153,0.0274,0.0280,0.1790,ab001241,0*4bf21ebd
#INSPVAXA,FILE,0,31.0,FINESTEERING,2319,303919.650,02000000,46eb,17139;INS_SOLUTION_GOOD,INS_RTKFIXED,17.60135952735,78.12246722574,525.0501,-76.2000,1.6049,-5.5964,0.1202,0.957741204,0.233866885,283.280967915,0.0613,0.0612,0.0570,0.0201,0.0202,0.0153,0.0274,0.0280,0.1790,ab001241,0*0a70550c
#INSPVAXA,FILE,0,31.0,FINESTEERING,2319,303919.700,02000000,46eb,17139;INS_SOLUTION_GOOD,INS_RTKFIXED,17.60136021081,78.12246461239,525.0552,-76.2000,1.5365,-5.5736,0.1009,0.912972351,0.208416754,282.572233862,0.0613,0.0612,0.0570,0.0201,0.0202,0.0153,0.0274,0.0280,0.1790,ab001241,0*c13b423d
#INSPVAXA,FILE,0,31.0,FINESTEERING,2319,303919.750,02000000,46eb,17139;INS_SOLUTION_GOOD,INS_RTKFIXED,17.60136085848,78.12246200949,525.0599,-76.2000,1.4501,-5.5509,0.1133,0.893466821,0.208237369,281.858948134,0.0613,0.0612,0.0570,0.0201,0.0202,0.0153,0.0274,0.0280,0.1790,ab001241,0*b8ec8bf2
#INSPVAXA,FILE,0,31.0,FINESTEERING,2319,303919.800,02000000,46eb,17139;INS_SOLUTION_GOOD,INS_RTKFIXED,17.60136146936,78.12245941500,525.0644,-76.2000,1.3698,-5.5342,0.1012,0.893398728,0.218542600,281.139812130,0.0613,0.0612,0.0570,0.0201,0.0202,0.0153,0.0274,0.0280,0.1790,ab001241,0*f6debea9
#INSPVAXA,FILE,0,31.0,FINESTEERING,2319,303919.850,02000000,46eb,17139;INS_SOLUTION_GOOD,INS_RTKFIXED,17.60136204527,78.12245682801,525.0686,-76.2000,1.2940,-5.5190,0.0907,0.896860122,0.237912642,280.407277029,0.0613,0.0612,0.0570,0.0201,0.0202,0.0153,0.0274,0.0280,0.1790,ab001241,0*e49edcf6
#INSPVAXA,FILE,0,31.0,FINESTEERING,2319,303919.900,02000000,46eb,17139;INS_SOLUTION_GOOD,INS_RTKFIXED,17.60136258619,78.12245424809,525.0727,-76.2000,1.2145,-5.5034,0.0965,0.899975701,0.249433196,279.659510174,0.0613,0.0612,0.0570,0.0201,0.0202,0.0153,0.0274,0.0280,0.1790,ab001241,0*dabd5b57
#INSPVAXA,FILE,0,31.0,FINESTEERING,2319,303919.950,02000000,46eb,17139;INS_SOLUTION_GOOD,INS_RTKFIXED,17.60136309311,78.12245167505,525.0767,-76.2000,1.1400,-5.4895,0.0902,0.926687054,0.255877810,278.893175604,0.0613,0.0612,0.0570,0.0201,0.0202,0.0153,0.0274,0.0280,0.1790,ab001241,0*3b043d9d
#INSPVAXA,FILE,0,31.0,FINESTEERING,2319,303920.000,02000000,46eb,17139;INS_SOLUTION_GOOD,INS_RTKFIXED,17.60136356793,78.12244910730,525.0807,-76.2000,1.0728,-5.4772,0.0953,0.982627965,0.251256784,278.109371364,0.0613,0.0612,0.0570,0.0201,0.0202,0.0153,0.0274,0.0280,0.1790,ab001241,0*7abe6230
#INSPVAXA,FILE,0,31.0,FINESTEERING,2319,303920.050,02000000,46eb,17139;INS_SOLUTION_GOOD,INS_RTKFIXED,17.60136399256,78.12244655705,525.0847,-76.2000,1.0009,-5.4664,0.0917,1.031208566,0.225652078,277.297344028,0.0645,0.0644,0.0572,0.0200,0.0211,0.0151,0.0270,0.0278,0.1768,ab001241,0*a1048a57
#INSPVAXA,FILE,0,31.0,FINESTEERING,2319,303920.100,02000000,46eb,17139;INS_SOLUTION_GOOD,INS_RTKFIXED,17.60136436586,78.12244402224,525.0892,-76.2000,0.9221,-5.4616,0.1058,1.106177369,0.169157337,276.467600338,0.0645,0.0644,0.0572,0.0200,0.0211,0.0151,0.0270,0.0278,0.1768,ab001241,0*445cdf14
#INSPVAXA,FILE,0,33.5,FINESTEERING,2319,303920.150,02000000,46eb,17139;INS_SOLUTION_GOOD,INS_RTKFIXED,17.60136470235,78.12244148950,525.0933,-76.2000,0.8356,-5.4544,0.0960,1.188995542,0.104637971,275.629861172,0.0645,0.0644,0.0572,0.0200,0.0211,0.0151,0.0270,0.0278,0.1768,ab001241,0*4e5346d3
#INSPVAXA,FILE,0,33.5,FINESTEERING,2319,303920.200,02000000,46eb,17139;INS_SOLUTION_GOOD,INS_RTKFIXED,17.60136499971,78.12243895920,525.0976,-76.2000,0.7474,-5.4493,0.1023,1.253846668,0.047093985,274.790250730,0.0645,0.0644,0.0572,0.0200,0.0211,0.0151,0.0270,0.0278,0.1768,ab001241,0*0e912a13
#INSPVAXA,FILE,0,33.5,FINESTEERING,2319,303920.250,02000000,46eb,17139;INS_SOLUTION_GOOD,INS_RTKFIXED,17.60136525823,78.12243643063,525.1020,-76.2000,0.6615,-5.4452,0.1026,1.286853432,-0.005746710,273.954721673,0.0645,0.0644,0.0572,0.0200,0.0211,0.0151,0.0270,0.0278,0.1768,ab001241,0*fdf57d05
#INSPVAXA,FILE,0,33.5,FINESTEERING,2319,303920.300,02000000,46eb,17139;INS_SOLUTION_GOOD,INS_RTKFIXED,17.60136547811,78.12243390370,525.1064,-76.2000,0.5747,-5.4423,0.0985,1.301146270,-0.054085704,273.115441994,0.0645,0.0644,0.0572,0.0200,0.0211,0.0151,0.0270,0.0278,0.1768,ab001241,0*3aef8e4f
#INSPVAXA,FILE,0,33.5,FINESTEERING,2319,303920.350,02000000,46eb,17139;INS_SOLUTION_GOOD,INS_RTKFIXED,17.60136566056,78.12243137935,525.1105,-76.2000,0.4952,-5.4333,0.0939,1.329900963,-0.091680970,272.282254524,0.0645,0.0644,0.0572,0.0200,0.0211,0.0151,0.0270,0.0278,0.1768,ab001241,0*8afd389d
#INSPVAXA,FILE,0,33.5,FINESTEERING,2319,303920.400,02000000,46eb,17139;INS_SOLUTION_GOOD,INS_RTKFIXED,17.60136580962,78.12242885846,525.1142,-76.2000,0.4207,-5.4255,0.0777,1.323293487,-0.109236187,271.443083860,0.0645,0.0644,0.0572,0.0200,0.0211,0.0151,0.0270,0.0278,0.1768,ab001241,0*589b8dc0
#INSPVAXA,FILE,0,33.5,FINESTEERING,2319,303920.450,02000000,46eb,17139;INS_SOLUTION_GOOD,INS_RTKFIXED,17.60136592274,78.12242633979,525.1174,-76.2000,0.3345,-5.4217,0.0706,1.354924363,-0.128886575,270.601579478,0.0645,0.0644,0.0572,0.0200,0.0211,0.0151,0.0270,0.0278,0.1768,ab001241,0*654a9d55
#INSPVAXA,FILE,0,33.5,FINESTEERING,2319,303920.500,02000000,46eb,17139;INS_SOLUTION_GOOD,INS_RTKFIXED,17.60136599824,78.12242382382,525.1197,-76.2000,0.2506,-5.4155,0.0512,1.451098639,-0.128487997,269.767907506,0.0645,0.0644,0.0572,0.0200,0.0211,0.0151,0.0270,0.0278,0.1768,ab001241,0*451ec38a
#INSPVAXA,FILE,0,33.5,FINESTEERING,2319,303920.550,02000000,46eb,17139;INS_SOLUTION_GOOD,INS_RTKFIXED,17.60136603802,78.12242131059,525.1209,-76.2000,0.1741,-5.4071,0.0297,1.592578395,-0.125110238,268.941680502,0.0645,0.0644,0.0572,0.0200,0.0211,0.0151,0.0270,0.0278,0.1768,ab001241,0*9545ace4
#INSPVAXA,FILE,0,33.5,FINESTEERING,2319,303920.600,02000000,46eb,17139;INS_SOLUTION_GOOD,INS_RTKFIXED,17.60136604564,78.12241880113,525.1218,-76.2000,0.1059,-5.3973,0.0250,1.690158942,-0.116890087,268.120463486,0.0645,0.0644,0.0572,0.0200,0.0211,0.0151,0.0270,0.0278,0.1768,ab001241,0*7111ea4c
#INSPVAXA,FILE,0,33.5,FINESTEERING,2319,303920.650,02000000,46eb,17139;INS_SOLUTION_GOOD,INS_RTKFIXED,17.60136602034,78.12241629591,525.1226,-76.2000,0.0249,-5.3869,0.0288,1.715246073,-0.125450261,267.299101053,0.0645,0.0644,0.0572,0.0200,0.0211,0.0151,0.0270,0.0278,0.1768,ab001241,0*4a185b0a
#INSPVAXA,FILE,0,33.5,FINESTEERING,2319,303920.700,02000000,46eb,17139;INS_SOLUTION_GOOD,INS_RTKFIXED,17.60136595804,78.12241379665,525.1238,-76.2000,-0.0615,-5.3746,0.0404,1.708681271,-0.153148773,266.485587791,0.0645,0.0644,0.0572,0.0200,0.0211,0.0151,0.0270,0.0278,0.1768,ab001241,0*fa9d932a
#INSPVAXA,FILE,0,33.5,FINESTEERING,2319,303920.750,02000000,46eb,17139;INS_SOLUTION_GOOD,INS_RTKFIXED,17.60136585779,78.12241130336,525.1252,-76.2000,-0.1454,-5.3581,0.0480,1.736113874,-0.213758563,265.678678602,0.0645,0.0644,0.0572,0.0200,0.0211,0.0151,0.0270,0.0278,0.1768,ab001241,0*55da0e76
#INSPVAXA,FILE,0,33.5,FINESTEERING,2319,303920.800,02000000,46eb,17139;INS_SOLUTION_GOOD,INS_RTKFIXED,17.60136572070,78.12240881650,525.1276,-76.2000,-0.2253,-5.3436,0.0728,1.783116171,-0.283909081,264.895145438,0.0645,0.0644,0.0572,0.0200,0.0211,0.0151,0.0270,0.0278,0.1768,ab001241,0*e585c944
#INSPVAXA,FILE,0,33.5,FINESTEERING,2319,303920.850,02000000,46eb,17139;INS_SOLUTION_GOOD,INS_RTKFIXED,17.60136554863,78.12240633566,525.1309,-76.2000,-0.3034,-5.3311,0.0800,1.820564045,-0.369369597,264.135786560,0.0645,0.0644,0.0572,0.0200,0.0211,0.0151,0.0270,0.0278,0.1768,ab001241,0*c4da8829
#INSPVAXA,FILE,0,33.5,FINESTEERING,2319,303920.900,02000000,46eb,17139;INS_SOLUTION_GOOD,INS_RTKFIXED,17.60136534345,78.12240385956,525.1336,-76.2000,-0.3739,-5.3218,0.0544,1.868386312,-0.419546761,263.403306269,0.0645,0.0644,0.0572,0.0200,0.0211,0.0151,0.0270,0.0278,0.1768,ab001241,0*f6556d61
#INSPVAXA,FILE,0,33.5,FINESTEERING,2319,303920.950,02000000,46eb,17139;INS_SOLUTION_GOOD,INS_RTKFIXED,17.60136510817,78.12240138842,525.1354,-76.2000,-0.4390,-5.3094,0.0391,1.944134246,-0.439302590,262.682251124,0.0645,0.0644,0.0572,0.0200,0.0211,0.0151,0.0270,0.0278,0.1768,ab001241,0*ef84a881
#INSPVAXA,FILE,0,33.5,FINESTEERING,2319,303921.000,02000000,46eb,17139;INS_SOLUTION_GOOD,INS_RTKFIXED,17.60136484634,78.12239892354,525.1369,-76.2000,-0.4956,-5.2947,0.0410,2.038988641,-0.440289346,261.963601127,0.0645,0.0644,0.0572,0.0200,0.0211,0.0151,0.0270,0.0278,0.1768,ab001241,0*a554cea6
#INSPVAXA,FILE,0,33.5,FINESTEERING,2319,303921.050,02000000,46eb,17139;INS_SOLUTION_GOOD,INS_RTKFIXED,17.60136454850,78.12239648119,525.1382,-76.2000,-0.5540,-5.2816,0.0363,2.133119782,-0.436987696,261.239531548,0.0669,0.0671,0.0572,0.0208,0.0227,0.0150,0.0269,0.0277,0.1744,ab000241,0*e5a9f717
#INSPVAXA,FILE,0,31.5,FINESTEERING,2319,303921.100,02000000,46eb,17139;INS_SOLUTION_GOOD,INS_RTKFIXED,17.60136421433,78.12239406027,525.1385,-76.2000,-0.6242,-5.2635,0.0091,2.258643763,-0.417773798,260.518046504,0.0669,0.0671,0.0572,0.0208,0.0227,0.0150,0.0269,0.0277,0.1744,ab000241,0*6cd60ec9
#INSPVAXA,FILE,0,31.5,FINESTEERING,2319,303921.150,02000000,46eb,17139;INS_SOLUTION_GOOD,INS_RTKFIXED,17.60136384890,78.12239164644,525.1385,-76.2000,-0.6952,-5.2459,0.0021,2.376473087,-0.409161047,259.800421020,0.0669,0.0671,0.0572,0.0208,0.0227,0.0150,0.0269,0.0277,0.1744,ab000241,0*49cc9076
#INSPVAXA,FILE,0,31.5,FINESTEERING,2319,303921.200,02000000,46eb,17139;INS_SOLUTION_GOOD,INS_RTKFIXED,17.60136345238,78.12238924089,525.1378,-76.2000,-0.7625,-5.2274,-0.0107,2.517046377,-0.411758771,259.082939026,0.0669,0.0671,0.0572,0.0208,0.0227,0.0150,0.0269,0.0277,0.1744,ab000241,0*5d5d3b64
#INSPVAXA,FILE,0,31.5,FINESTEERING,2319,303921.250,02000000,46eb,17139;INS_SOLUTION_GOOD,INS_RTKFIXED,17.60136302781,78.12238684345,525.1369,-76.2000,-0.8220,-5.2082,-0.0031,2.660756437,-0.429750556,258.361745722,0.0669,0.0671,0.0572,0.0208,0.0227,0.0150,0.0269,0.0277,0.1744,ab000241,0*52e6fe92
#INSPVAXA,FILE,0,31.5,FINESTEERING,2319,303921.300,02000000,46eb,17139;INS_SOLUTION_GOOD,INS_RTKFIXED,17.60136257696,78.12238445567,525.1365,-76.2000,-0.8816,-5.1862,0.0051,2.758700981,-0.467100556,257.634667157,0.0669,0.0671,0.0572,0.0208,0.0227,0.0150,0.0269,0.0277,0.1744,ab000241,0*152ba494
#INSPVAXA,FILE,0,31.5,FINESTEERING,2319,303921.350,02000000,46eb,17139;INS_SOLUTION_GOOD,INS_RTKFIXED,17.60136209788,78.12238207844,525.1371,-76.2000,-0.9484,-5.1609,0.0316,2.819273434,-0.539120785,256.906575353,0.0669,0.0671,0.0572,0.0208,0.0227,0.0150,0.0269,0.0277,0.1744,ab000241,0*ae4278a5
#INSPVAXA,FILE,0,31.5,FINESTEERING,2319,303921.400,02000000,46eb,17139;INS_SOLUTION_GOOD,INS_RTKFIXED,17.60136158847,78.12237971205,525.1385,-76.2000,-1.0177,-5.1365,0.0455,2.857158475,-0.619011204,256.176963453,0.0669,0.0671,0.0572,0.0208,0.0227,0.0150,0.0269,0.0277,0.1744,ab000241,0*b6416361
#INSPVAXA,FILE,0,31.5,FINESTEERING,2319,303921.450,02000000,46eb,17139;INS_SOLUTION_GOOD,INS_RTKFIXED,17.60136104861,78.12237735606,525.1402,-76.2000,-1.0872,-5.1128,0.0387,2.896517220,-0.691177295,255.440484842,0.0669,0.0671,0.0572,0.0208,0.0227,0.0150,0.0269,0.0277,0.1744,ab000241,0*72b823cb
#INSPVAXA,FILE,0,31.5,FINESTEERING,2319,303921.500,02000000,46eb,17139;INS_SOLUTION_GOOD,INS_RTKFIXED,17.60136047807,78.12237501104,525.1419,-76.2000,-1.1560,-5.0893,0.0399,2.948121279,-0.745470536,254.698304861,0.0669,0.0671,0.0572,0.0208,0.0227,0.0150,0.0269,0.0277,0.1744,ab000241,0*a944053b
#INSPVAXA,FILE,0,31.5,FINESTEERING,2319,303921.550,02000000,46eb,17139;INS_SOLUTION_GOOD,INS_RTKFIXED,17.60135987866,78.12237267622,525.1431,-76.2000,-1.2184,-5.0686,0.0264,2.988014931,-0.771042306,253.947299255,0.0669,0.0671,0.0572,0.0208,0.0227,0.0150,0.0269,0.0277,0.1744,ab000241,0*4496901c
#INSPVAXA,FILE,0,31.5,FINESTEERING,2319,303921.600,02000000,46eb,17139;INS_SOLUTION_GOOD,INS_RTKFIXED,17.60135925075,78.12237035094,525.1433,-76.2000,-1.2821,-5.0469,-0.0047,3.029170161,-0.775570926,253.187423596,0.0669,0.0671,0.0572,0.0208,0.0227,0.0150,0.0269,0.0277,0.1744,ab000241,0*cdaebd79
#INSPVAXA,FILE,0,31.5,FINESTEERING,2319,303921.650,02000000,46eb,17139;INS_SOLUTION_GOOD,INS_RTKFIXED,17.60135859568,78.12236803463,525.1416,-76.2000,-1.3413,-5.0269,-0.0443,3.067943069,-0.734632605,252.423069083,0.0669,0.0671,0.0572,0.0208,0.0227,0.0150,0.0269,0.0277,0.1744,ab000241,0*1fbd6ddb
#INSPVAXA,FILE,0,31.5,FINESTEERING,2319,303921.700,02000000,46eb,17139;INS_SOLUTION_GOOD,INS_RTKFIXED,17.60135791357,78.12236572843,525.1385,-76.2000,-1.4036,-5.0026,-0.0697,3.092682002,-0.658694423,251.655401375,0.0669,0.0671,0.0572,0.0208,0.0227,0.0150,0.0269,0.0277,0.1744,ab000241,0*53003fbb
#INSPVAXA,FILE,0,31.5,FINESTEERING,2319,303921.750,02000000,46eb,17139;INS_SOLUTION_GOOD,INS_RTKFIXED,17.60135720138,78.12236343327,525.1343,-76.2000,-1.4746,-4.9759,-0.0840,3.113474057,-0.563267760,250.892926591,0.0669,0.0671,0.0572,0.0208,0.0227,0.0150,0.0269,0.0277,0.1744,ab000241,0*b4cb42a9
#INSPVAXA,FILE,0,31.5,FINESTEERING,2319,303921.800,02000000,46eb,17139;INS_SOLUTION_GOOD,INS_RTKFIXED,17.60135645781,78.12236115145,525.1302,-76.2000,-1.5465,-4.9439,-0.0727,3.140417088,-0.470122196,250.137411861,0.0669,0.0671,0.0572,0.0208,0.0227,0.0150,0.0269,0.0277,0.1744,ab000241,0*1986aa31
#INSPVAXA,FILE,0,31.5,FINESTEERING,2319,303921.850,02000000,46eb,17139;INS_SOLUTION_GOOD,INS_RTKFIXED,17.60135568234,78.12235888409,525.1269,-76.2000,-1.6187,-4.9108,-0.0455,3.205679058,-0.400055163,249.387132633,0.0669,0.0671,0.0572,0.0208,0.0227,0.0150,0.0269,0.0277,0.1744,ab000241,0*d84d7cef
#INSPVAXA,FILE,0,31.5,FINESTEERING,2319,303921.900,02000000,46eb,17139;INS_SOLUTION_GOOD,INS_RTKFIXED,17.60135487874,78.12235663187,525.1250,-76.2000,-1.6789,-4.8785,-0.0158,3.257151538,-0.351425490,248.641687666,0.0669,0.0671,0.0572,0.0208,0.0227,0.0150,0.0269,0.0277,0.1744,ab000241,0*6caa81b2
#INSPVAXA,FILE,0,31.5,FINESTEERING,2319,303921.950,02000000,46eb,17139;INS_SOLUTION_GOOD,INS_RTKFIXED,17.60135404846,78.12235439431,525.1244,-76.2000,-1.7396,-4.8458,0.0134,3.272873840,-0.354206887,247.898029359,0.0669,0.0671,0.0572,0.0208,0.0227,0.0150,0.0269,0.0277,0.1744,ab000241,0*a9bcd3aa
#INSPVAXA,FILE,0,31.5,FINESTEERING,2319,303922.000,02000000,46eb,17139;INS_SOLUTION_GOOD,INS_RTKFIXED,17.60135319076,78.12235217154,525.1249,-76.2000,-1.8015,-4.8141,0.0207,3.228776623,-0.366527724,247.162107965,0.0669,0.0671,0.0572,0.0208,0.0227,0.0150,0.0269,0.0277,0.1744,ab000241,0*e8ecc4ec
