#BESTVELA,FILE,0,22.5,FINESTEERING,2317,469412.400,02000800,10a2,17139;SOL_COMPUTED,INS_PPP_CONVERGING,0.000,12.000,0.0052,107.302479,-0.0004,0*99f22bd9
#BESTVELA,FILE,0,24.0,FINESTEERING,2317,469412.500,02000800,10a2,17139;SOL_COMPUTED,INS_PPP_CONVERGING,0.000,12.000,0.0063,113.250997,0.0009,0*1655d29b
#BESTVELA,FILE,0,24.0,FINESTEERING,2317,469412.800,02000800,10a2,17139;SOL_COMPUTED,INS_PPP_CONVERGING,0.000,12.000,0.0066,99.354894,0.0006,0*6b688b15
#BESTVELA,FILE,0,24.0,FINESTEERING,2317,469413.000,02000800,10a2,17139;SOL_COMPUTED,INS_PPP_CONVERGING,0.000,12.000,0.0065,95.794800,0.0005,0*c987cdf6
#BESTVELA,FILE,0,24.0,FINESTEERING,2317,469413.100,02000800,10a2,17139;SOL_COMPUTED,INS_PPP_CONVERGING,0.000,13.000,0.0055,108.985608,0.0002,0*c5f80882
#BESTVELA,FILE,0,24.0,FINESTEERING,2317,469413.200,02000800,10a2,17139;SOL_COMPUTED,INS_PPP_CONVERGING,0.000,13.000,0.0061,99.727835,0.0011,0*e66d5e44
#BESTVELA,FILE,0,24.0,FINESTEERING,2317,469413.300,02000800,10a2,17139;SOL_COMPUTED,INS_PPP_CONVERGING,0.000,13.000,0.0080,56.543522,0.0018,0*cc552bde
#BESTVELA,FILE,0,24.0,FINESTEERING,2317,469413.350,02000800,10a2,17139;SOL_COMPUTED,INS_PPP_CONVERGING,0.000,13.000,0.0103,40.423825,0.0019,0*e84f9e89
#BESTVELA,FILE,0,24.0,FINESTEERING,2317,469413.450,02000800,10a2,17139;SOL_COMPUTED,INS_PPP_CONVERGING,0.000,13.000,0.0140,28.509667,0.0011,0*6b614ade
#BESTVELA,FILE,0,24.0,FINESTEERING,2317,469413.500,02000800,10a2,17139;SOL_COMPUTED,INS_PPP_CONVERGING,0.000,13.000,0.0170,24.056043,0.0011,0*02340b02
#BESTVELA,FILE,0,24.0,FINESTEERING,2317,469413.550,02000800,10a2,17139;SOL_COMPUTED,INS_PPP_CONVERGING,0.000,13.000,0.0230,17.609229,-0.0007,0*af287a8d
#BESTVELA,FILE,0,24.0,FINESTEERING,2317,469413.600,02000800,10a2,17139;SOL_COMPUTED,INS_PPP_CONVERGING,0.000,13.000,0.0335,12.821153,-0.0038,0*51cfe386
#BESTVELA,FILE,0,24.0,FINESTEERING,2317,469413.650,02000800,10a2,17139;SOL_COMPUTED,INS_PPP_CONVERGING,0.000,13.000,0.0431,11.540913,-0.0025,0*af7532fb
#BESTVELA,FILE,0,24.0,FINESTEERING,2317,469413.750,02000800,10a2,17139;SOL_COMPUTED,INS_PPP_CONVERGING,0.000,13.000,0.0656,8.290751,-0.0021,0*61dc6482
#BESTVELA,FILE,0,24.0,FINESTEERING,2317,469413.800,02000800,10a2,17139;SOL_COMPUTED,INS_PPP_CONVERGING,0.000,13.000,0.0775,6.307403,-0.0035,0*e6b367cd
#BESTVELA,FILE,0,24.0,FINESTEERING,2317,469413.850,02000800,10a2,17139;SOL_COMPUTED,INS_PPP_CONVERGING,0.000,13.000,0.0874,5.831834,-0.0025,0*b788fe0a
#BESTVELA,FILE,0,24.0,FINESTEERING,2317,469413.900,02000800,10a2,17139;SOL_COMPUTED,INS_PPP_CONVERGING,0.000,13.000,0.0957,6.210485,-0.0009,0*e07900e8
#BESTVELA,FILE,0,24.0,FINESTEERING,2317,469413.950,02000800,10a2,17139;SOL_COMPUTED,INS_PPP_CONVERGING,0.000,13.000,0.1101,5.668791,-0.0017,0*b4b53b75
#BESTVELA,FILE,0,24.0,FINESTEERING,2317,469414.000,02000800,10a2,17139;SOL_COMPUTED,INS_PPP_CONVERGING,0.000,13.000,0.1277,5.197633,-0.0042,0*8f3a3b63
#BESTVELA,FILE,0,24.0,FINESTEERING,2317,469414.050,02000800,10a2,17139;SOL_COMPUTED,INS_PPP_CONVERGING,0.000,14.000,0.1404,4.877118,-0.0042,0*b386fbb3
#BESTVELA,FILE,0,22.5,FINESTEERING,2317,469414.250,02000800,10a2,17139;SOL_COMPUTED,INS_PPP_CONVERGING,0.000,14.000,0.2083,4.604627,-0.0031,0*b9af67d9
#BESTVELA,FILE,0,22.5,FINESTEERING,2317,469414.300,02000800,10a2,17139;SOL_COMPUTED,INS_PPP_CONVERGING,0.000,14.000,0.2300,4.386928,-0.0035,0*440ec0d0
#BESTVELA,FILE,0,22.5,FINESTEERING,2317,469414.400,02000800,10a2,17139;SOL_COMPUTED,INS_PPP_CONVERGING,0.000,14.000,0.2682,3.848919,-0.0008,0*9e8b929d
#BESTVELA,FILE,0,22.5,FINESTEERING,2317,469414.500,02000800,10a2,17139;SOL_COMPUTED,INS_PPP_CONVERGING,0.000,14.000,0.3114,3.794166,-0.0016,0*6d4037be
#BESTVELA,FILE,0,22.5,FINESTEERING,2317,469414.550,02000800,10a2,17139;SOL_COMPUTED,INS_PPP_CONVERGING,0.000,14.000,0.3333,3.767966,-0.0018,0*f36335cd
#BESTVELA,FILE,0,22.5,FINESTEERING,2317,469414.600,02000800,10a2,17139;SOL_COMPUTED,INS_PPP_CONVERGING,0.000,14.000,0.3626,3.642978,-0.0040,0*1f20c650
#BESTVELA,FILE,0,22.5,FINESTEERING,2317,469414.650,02000800,10a2,17139;SOL_COMPUTED,INS_PPP_CONVERGING,0.000,14.000,0.3859,3.623929,-0.0038,0*7971ccc0
#BESTVELA,FILE,0,22.5,FINESTEERING,2317,469414.750,02000800,10a2,17139;SOL_COMPUTED,INS_PPP_CONVERGING,0.000,14.000,0.4330,3.391819,-0.0037,0*01dfa2cb
#BESTVELA,FILE,0,22.5,FINESTEERING,2317,469414.900,02000800,10a2,17139;SOL_COMPUTED,INS_PPP_CONVERGING,0.000,14.000,0.5241,3.264184,-0.0109,0*d2fe6579
#BESTVELA,FILE,0,22.5,FINESTEERING,2317,469414.950,02000800,10a2,17139;SOL_COMPUTED,INS_PPP_CONVERGING,0.000,14.000,0.5549,3.218982,-0.0117,0*561b34c1
#BESTVELA,FILE,0,22.5,FINESTEERING,2317,469415.000,02000800,10a2,17139;SOL_COMPUTED,INS_PPP_CONVERGING,0.000,14.000,0.5864,3.208206,-0.0125,0*ee185d10
#BESTVELA,FILE,0,22.5,FINESTEERING,2317,469415.050,02000800,10a2,17139;SOL_COMPUTED,INS_PPP_CONVERGING,0.000,15.000,0.6237,3.385958,-0.0104,0*bec8b1eb
#BESTVELA,FILE,0,22.5,FINESTEERING,2317,469415.100,02000800,10a2,17139;SOL_COMPUTED,INS_PPP_CONVERGING,0.000,15.000,0.6627,3.295972,-0.0112,0*71382426
#BESTVELA,FILE,0,22.5,FINESTEERING,2317,469415.150,02000800,10a2,17139;SOL_COMPUTED,INS_PPP_CONVERGING,0.000,15.000,0.7026,3.068794,-0.0094,0*53b325ad
#BESTVELA,FILE,0,22.5,FINESTEERING,2317,469415.200,02000800,10a2,17139;SOL_COMPUTED,INS_PPP_CONVERGING,0.000,15.000,0.7381,3.007244,-0.0054,0*96489466
#BESTVELA,FILE,0,22.5,FINESTEERING,2317,469415.250,02000800,10a2,17139;SOL_COMPUTED,INS_PPP_CONVERGING,0.000,15.000,0.7761,3.016513,-0.0019,0*bb0425bb
#BESTVELA,FILE,0,22.5,FINESTEERING,2317,469415.300,02000800,10a2,17139;SOL_COMPUTED,INS_PPP_CONVERGING,0.000,15.000,0.8155,3.129722,0.0006,0*d531e43d
#BESTVELA,FILE,0,22.5,FINESTEERING,2317,469415.900,02000800,10a2,17139;SOL_COMPUTED,INS_PPP_CONVERGING,0.000,15.000,1.3009,2.671131,-0.0104,0*e40a2d6b
#BESTVELA,FILE,0,22.5,FINESTEERING,2317,469415.950,02000800,10a2,17139;SOL_COMPUTED,INS_PPP_CONVERGING,0.000,15.000,1.3413,2.628024,-0.0056,0*1e6c9c78
#BESTVELA,FILE,0,22.5,FINESTEERING,2317,469416.000,02000800,10a2,17139;SOL_COMPUTED,INS_PPP_CONVERGING,0.000,15.000,1.3854,2.594481,-0.0052,0*0ddc36ab
#BESTVELA,FILE,0,22.5,FINESTEERING,2317,469416.050,02000800,10a2,17139;SOL_COMPUTED,INS_PPP_CONVERGING,0.000,16.000,1.4380,2.704545,-0.0089,0*a465efb6
#BESTVELA,FILE,0,22.5,FINESTEERING,2317,469416.100,02000800,10a2,17139;SOL_COMPUTED,INS_PPP_CONVERGING,0.000,16.000,1.4902,2.511525,-0.0103,0*d571dca5
#BESTVELA,FILE,0,23.0,FINESTEERING,2317,469416.150,02000800,10a2,17139;SOL_COMPUTED,INS_PPP_CONVERGING,0.000,16.000,1.5453,2.153406,-0.0031,0*fcc5bd65
#BESTVELA,FILE,0,23.0,FINESTEERING,2317,469416.200,02000800,10a2,17139;SOL_COMPUTED,INS_PPP_CONVERGING,0.000,16.000,1.5988,2.000069,-0.0004,0*bce9faa8
#BESTVELA,FILE,0,23.0,FINESTEERING,2317,469416.250,02000800,10a2,17139;SOL_COMPUTED,INS_PPP_CONVERGING,0.000,16.000,1.6529,2.063146,0.0013,0*e326a96c
#BESTVELA,FILE,0,23.0,FINESTEERING,2317,469416.300,02000800,10a2,17139;SOL_COMPUTED,INS_PPP_CONVERGING,0.000,16.000,1.7021,1.958542,0.0046,0*f4889daf
#BESTVELA,FILE,0,23.0,FINESTEERING,2317,469416.350,02000800,10a2,17139;SOL_COMPUTED,INS_PPP_CONVERGING,0.000,16.000,1.7549,1.702299,0.0043,0*b6f3b885
#BESTVELA,FILE,0,23.0,FINESTEERING,2317,469416.400,02000800,10a2,17139;SOL_COMPUTED,INS_PPP_CONVERGING,0.000,16.000,1.8004,1.628682,0.0068,0*5e1bf23c
#BESTVELA,FILE,0,23.0,FINESTEERING,2317,469416.450,02000800,10a2,17139;SOL_COMPUTED,INS_PPP_CONVERGING,0.000,16.000,1.8434,1.748864,0.0100,0*52412b6d
#BESTVELA,FILE,0,23.0,FINESTEERING,2317,469416.500,02000800,10a2,17139;SOL_COMPUTED,INS_PPP_CONVERGING,0.000,16.000,1.8929,1.689850,0.0081,0*8ee785f8
#BESTVELA,FILE,0,23.0,FINESTEERING,2317,469416.550,02000800,10a2,17139;SOL_COMPUTED,INS_PPP_CONVERGING,0.000,16.000,1.9425,1.461681,0.0042,0*3d4c1343
#BESTVELA,FILE,0,23.0,FINESTEERING,2317,469416.600,02000800,10a2,17139;SOL_COMPUTED,INS_PPP_CONVERGING,0.000,16.000,1.9896,1.464011,0.0079,0*aefceaf8
#BESTVELA,FILE,0,23.0,FINESTEERING,2317,469416.650,02000800,10a2,17139;SOL_COMPUTED,INS_PPP_CONVERGING,0.000,16.000,2.0341,1.738565,0.0120,0*1800359d
#BESTVELA,FILE,0,23.0,FINESTEERING,2317,469416.700,02000800,10a2,17139;SOL_COMPUTED,INS_PPP_CONVERGING,0.000,16.000,2.0724,1.750176,0.0099,0*df22c6fc
#BESTVELA,FILE,0,23.0,FINESTEERING,2317,469416.750,02000800,10a2,17139;SOL_COMPUTED,INS_PPP_CONVERGING,0.000,16.000,2.1037,1.546600,0.0131,0*aeb1ad63
#BESTVELA,FILE,0,23.0,FINESTEERING,2317,469416.800,02000000,10a2,17139;SOL_COMPUTED,INS_PPP_CONVERGING,0.000,16.000,2.1294,1.435022,0.0136,0*092574bd
#BESTVELA,FILE,0,23.0,FINESTEERING,2317,469416.850,02000000,10a2,17139;SOL_COMPUTED,INS_PPP_CONVERGING,0.000,16.000,2.1536,1.266300,0.0135,0*21c328db
#BESTVELA,FILE,0,23.0,FINESTEERING,2317,469416.900,02000000,10a2,17139;SOL_COMPUTED,INS_PPP_CONVERGING,0.000,16.000,2.1805,0.975702,0.0118,0*58e48898
#BESTVELA,FILE,0,23.0,FINESTEERING,2317,469416.950,02000000,10a2,17139;SOL_COMPUTED,INS_PPP_CONVERGING,0.000,16.000,2.1954,1.053626,0.0209,0*ef8711be
#BESTVELA,FILE,0,23.0,FINESTEERING,2317,469417.000,02000000,10a2,17139;SOL_COMPUTED,INS_PPP_CONVERGING,0.000,16.000,2.2034,1.060095,0.0253,0*b00060de
#BESTVELA,FILE,0,23.0,FINESTEERING,2317,469417.050,02000000,10a2,17139;SOL_COMPUTED,INS_PPP_CONVERGING,0.000,17.000,2.1936,0.811758,0.0284,0*a7db475b
#BESTVELA,FILE,0,23.0,FINEBACKUPSTEERING,2317,469417.100,02000000,10a2,17139;SOL_COMPUTED,INS_PPP_CONVERGING,0.000,17.000,2.1848,0.648268,0.0246,0*1db46861
#BESTVELA,FILE,0,16.5,FINEBACKUPSTEERING,2317,469417.150,02000000,10a2,17139;SOL_COMPUTED,INS_PPP_CONVERGING,0.000,17.000,2.1924,0.796818,0.0209,0*2d2195de
#BESTVELA,FILE,0,16.5,FINEBACKUPSTEERING,2317,469417.200,02000000,10a2,17139;SOL_COMPUTED,INS_PPP_CONVERGING,0.000,17.000,2.2062,0.698639,0.0175,0*118fbe56
#BESTVELA,FILE,0,16.5,FINEBACKUPSTEERING,2317,469417.250,02000000,10a2,17139;SOL_COMPUTED,INS_PPP_CONVERGING,0.000,17.000,2.2156,0.367889,0.0174,0*11573330
#BESTVELA,FILE,0,16.5,FINEBACKUPSTEERING,2317,469417.300,02000000,10a2,17139;SOL_COMPUTED,INS_PPP_CONVERGING,0.000,17.000,2.2280,0.210969,0.0084,0*4ded207e
#BESTVELA,FILE,0,16.5,FINEBACKUPSTEERING,2317,469417.350,02000000,10a2,17139;SOL_COMPUTED,INS_PPP_CONVERGING,0.000,17.000,2.2348,0.507656,-0.0029,0*e951791d
#BESTVELA,FILE,0,16.5,FINEBACKUPSTEERING,2317,469417.400,02000000,10a2,17139;SOL_COMPUTED,INS_PPP_CONVERGING,0.000,17.000,2.2493,0.693585,-0.0084,0*a78e449d
#BESTVELA,FILE,0,16.5,FINEBACKUPSTEERING,2317,469417.450,02000000,10a2,17139;SOL_COMPUTED,INS_PPP_CONVERGING,0.000,17.000,2.2682,0.604107,-0.0119,0*7b32ac96
#BESTVELA,FILE,0,16.5,FINEBACKUPSTEERING,2317,469417.500,02000000,10a2,17139;SOL_COMPUTED,INS_PPP_CONVERGING,0.000,17.000,2.2736,0.678093,-0.0034,0*0b05c6b5
#BESTVELA,FILE,0,16.5,FINEBACKUPSTEERING,2317,469417.550,02000000,10a2,17139;SOL_COMPUTED,INS_PPP_CONVERGING,0.000,17.000,2.2760,0.829010,0.0098,0*d34bd122
#BESTVELA,FILE,0,16.5,FINEBACKUPSTEERING,2317,469417.600,02000000,10a2,17139;SOL_COMPUTED,INS_PPP_CONVERGING,0.000,17.000,2.2817,0.802090,0.0192,0*1a97c427
#BESTVELA,FILE,0,16.5,FINEBACKUPSTEERING,2317,469417.650,02000000,10a2,17139;SOL_COMPUTED,INS_PPP_CONVERGING,0.000,17.000,2.2811,0.626891,0.0219,0*7c127691
#BESTVELA,FILE,0,16.5,FINEBACKUPSTEERING,2317,469417.700,02000000,10a2,17139;SOL_COMPUTED,INS_PPP_CONVERGING,0.000,17.000,2.2808,0.560474,0.0223,0*c0c9d8a2
#BESTVELA,FILE,0,16.5,FINEBACKUPSTEERING,2317,469417.750,02000000,10a2,17139;SOL_COMPUTED,INS_PPP_CONVERGING,0.000,17.000,2.2818,1.049407,0.0068,0*1cfd72ca
#BESTVELA,FILE,0,16.5,FINEBACKUPSTEERING,2317,469417.800,02000000,10a2,17139;SOL_COMPUTED,INS_PPP_CONVERGING,0.000,17.000,2.2888,1.146720,-0.0084,0*a257ed9d
#BESTVELA,FILE,0,16.5,FINEBACKUPSTEERING,2317,469417.850,02000000,10a2,17139;SOL_COMPUTED,INS_PPP_CONVERGING,0.000,17.000,2.3095,0.790747,-0.0131,0*f6c8eac0
#BESTVELA,FILE,0,16.5,FINEBACKUPSTEERING,2317,469417.900,02000000,10a2,17139;SOL_COMPUTED,INS_PPP_CONVERGING,0.000,17.000,2.3307,0.852274,-0.0029,0*4406bbfe
#BESTVELA,FILE,0,16.5,FINEBACKUPSTEERING,2317,469417.950,02000000,10a2,17139;SOL_COMPUTED,INS_PPP_CONVERGING,0.000,17.000,2.3559,0.858824,0.0059,0*4badc6e9
#BESTVELA,FILE,0,16.5,FINEBACKUPSTEERING,2317,469418.000,02000000,10a2,17139;SOL_COMPUTED,INS_PPP_CONVERGING,0.000,17.000,2.3800,0.334203,0.0076,0*d419f8a4
#BESTVELA,FILE,0,16.5,FINEBACKUPSTEERING,2317,469418.050,02000000,10a2,17139;SOL_COMPUTED,INS_PPP_CONVERGING,0.000,18.000,2.3933,359.906072,0.0320,0*59bde693
#BESTVELA,FILE,0,12.0,FINEBACKUPSTEERING,2317,469418.100,02000000,10a2,17139;SOL_COMPUTED,INS_PPP_CONVERGING,0.000,18.000,2.4188,0.038061,0.0555,0*a8b30260
#BESTVELA,FILE,0,12.0,FINEBACKUPSTEERING,2317,469418.150,02000000,10a2,17139;SOL_COMPUTED,INS_PPP_CONVERGING,0.000,18.000,2.4409,359.985415,0.1086,0*17deb0f3
#BESTVELA,FILE,0,12.0,FINEBACKUPSTEERING,2317,469418.200,02000000,10a2,17139;SOL_COMPUTED,INS_PPP_CONVERGING,0.000,18.000,2.4656,0.339186,0.1167,0*d9237b21
#BESTVELA,FILE,0,12.0,FINEBACKUPSTEERING,2317,469418.250,02000000,10a2,17139;SOL_COMPUTED,INS_PPP_CONVERGING,0.000,18.000,2.4776,0.749682,0.0797,0*52f891c3
#BESTVELA,FILE,0,12.0,FINEBACKUPSTEERING,2317,469418.300,02000000,10a2,17139;SOL_COMPUTED,INS_PPP_CONVERGING,0.000,18.000,2.4803,0.568094,0.0323,0*52c4afeb
#BESTVELA,FILE,0,12.0,FINEBACKUPSTEERING,2317,469418.350,02000000,10a2,17139;SOL_COMPUTED,INS_PPP_CONVERGING,0.000,18.000,2.4728,0.093924,0.0063,0*da0a871c
#BESTVELA,FILE,0,12.0,FINEBACKUPSTEERING,2317,469418.400,02000000,10a2,17139;SOL_COMPUTED,INS_PPP_CONVERGING,0.000,18.000,2.4823,0.067148,-0.0133,0*44c90b47
#BESTVELA,FILE,0,12.0,FINEBACKUPSTEERING,2317,469418.450,02000000,10a2,17139;SOL_COMPUTED,INS_PPP_CONVERGING,0.000,18.000,2.4998,0.331797,-0.0293,0*95dafad8
#BESTVELA,FILE,0,12.0,FINEBACKUPSTEERING,2317,469418.500,02000000,10a2,17139;SOL_COMPUTED,INS_PPP_CONVERGING,0.000,18.000,2.5192,0.017473,-0.0313,0*2c38070c
#BESTVELA,FILE,0,12.0,FINEBACKUPSTEERING,2317,469418.550,02000000,10a2,17139;SOL_COMPUTED,INS_PPP_CONVERGING,0.000,18.000,2.5433,359.536643,-0.0200,0*a0ba425a
#BESTVELA,FILE,0,12.0,FINEBACKUPSTEERING,2317,469418.600,02000000,10a2,17139;SOL_COMPUTED,INS_PPP_CONVERGING,0.000,18.000,2.5676,359.718685,-0.0019,0*681a0066
#BESTVELA,FILE,0,12.0,FINEBACKUPSTEERING,2317,469418.650,02000000,10a2,17139;SOL_COMPUTED,INS_PPP_CONVERGING,0.000,18.000,2.5906,0.174123,0.0028,0*e52d664b
#BESTVELA,FILE,0,12.0,FINEBACKUPSTEERING,2317,469418.700,02000000,10a2,17139;SOL_COMPUTED,INS_PPP_CONVERGING,0.000,18.000,2.6216,0.252319,0.0094,0*0a74a90f
#BESTVELA,FILE,0,12.0,FINEBACKUPSTEERING,2317,469418.750,02000000,10a2,17139;SOL_COMPUTED,INS_PPP_CONVERGING,0.000,18.000,2.6584,0.362593,0.0239,0*250a61af
#BESTVELA,FILE,0,12.0,FINEBACKUPSTEERING,2317,469418.800,02000000,10a2,17139;SOL_COMPUTED,INS_PPP_CONVERGING,0.000,18.000,2.7046,0.508622,0.0316,0*0226ed4e
#BESTVELA,FILE,0,12.0,FINEBACKUPSTEERING,2317,469418.850,02000000,10a2,17139;SOL_COMPUTED,INS_PPP_CONVERGING,0.000,18.000,2.7488,0.028399,0.0238,0*0b9ad0c9
#BESTVELA,FILE,0,12.0,FINEBACKUPSTEERING,2317,469418.900,02000000,10a2,17139;SOL_COMPUTED,INS_PPP_CONVERGING,0.000,18.000,2.7924,359.759199,0.0398,0*3e36e86c
#BESTVELA,FILE,0,12.0,FINEBACKUPSTEERING,2317,469418.950,02000000,10a2,17139;SOL_COMPUTED,INS_PPP_CONVERGING,0.000,18.000,2.8419,359.685839,0.0433,0*c2cb90ec
#BESTVELA,FILE,0,12.0,FINEBACKUPSTEERING,2317,469419.000,02000000,10a2,17139;SOL_COMPUTED,INS_PPP_CONVERGING,0.000,18.000,2.8873,359.366763,0.0339,0*26ee0387
#BESTVELA,FILE,0,12.0,FINEBACKUPSTEERING,2317,469419.050,02000000,10a2,17139;SOL_COMPUTED,INS_PPP_CONVERGING,0.000,19.000,2.9214,359.419960,0.0310,0*f1e83f18
#BESTVELA,FILE,0,12.0,FINEBACKUPSTEERING,2317,469419.100,02000000,10a2,17139;SOL_COMPUTED,INS_PPP_CONVERGING,0.000,19.000,2.9525,359.440316,0.0048,0*db7a414d
#BESTVELA,FILE,0,17.5,FINEBACKUPSTEERING,2317,469419.150,02000000,10a2,17139;SOL_COMPUTED,INS_PPP_CONVERGING,0.000,19.000,2.9787,359.724108,-0.0068,0*5f00f614
#BESTVELA,FILE,0,17.5,FINEBACKUPSTEERING,2317,469419.200,02000000,10a2,17139;SOL_COMPUTED,INS_PPP_CONVERGING,0.000,19.000,3.0180,0.105679,-0.0016,0*d08dcdd4
#BESTVELA,FILE,0,17.5,FINEBACKUPSTEERING,2317,469419.250,02000000,10a2,17139;SOL_COMPUTED,INS_PPP_CONVERGING,0.000,19.000,3.0638,359.945365,0.0099,0*d09f794c
#BESTVELA,FILE,0,17.5,FINEBACKUPSTEERING,2317,469419.300,02000000,10a2,17139;SOL_COMPUTED,INS_PPP_CONVERGING,0.000,19.000,3.1128,359.533793,0.0222,0*c54242dd
#BESTVELA,FILE,0,17.5,FINEBACKUPSTEERING,2317,469419.350,02000000,10a2,17139;SOL_COMPUTED,INS_PPP_CONVERGING,0.000,19.000,3.1709,359.287056,0.0236,0*853ea09e
#BESTVELA,FILE,0,17.5,FINEBACKUPSTEERING,2317,469419.400,02000000,10a2,17139;SOL_COMPUTED,INS_PPP_CONVERGING,0.000,19.000,3.2200,359.143620,0.0406,0*96063a47
#BESTVELA,FILE,0,17.5,FINEBACKUPSTEERING,2317,469419.450,02000000,10a2,17139;SOL_COMPUTED,INS_PPP_CONVERGING,0.000,19.000,3.2709,358.882302,0.0314,0*5336e568
#BESTVELA,FILE,0,17.5,FINEBACKUPSTEERING,2317,469419.500,02000000,10a2,17139;SOL_COMPUTED,INS_PPP_CONVERGING,0.000,19.000,3.3197,358.798599,0.0463,0*be4d9069
#BESTVELA,FILE,0,17.5,FINEBACKUPSTEERING,2317,469419.550,02000000,10a2,17139;SOL_COMPUTED,INS_PPP_CONVERGING,0.000,19.000,3.3675,359.038481,0.0531,0*46764ebc
#BESTVELA,FILE,0,17.5,FINEBACKUPSTEERING,2317,469419.600,02000000,10a2,17139;SOL_COMPUTED,INS_PPP_CONVERGING,0.000,19.000,3.4169,359.190484,0.0598,0*137ab3de
#BESTVELA,FILE,0,17.5,FINEBACKUPSTEERING,2317,469419.650,02000000,10a2,17139;SOL_COMPUTED,INS_PPP_CONVERGING,0.000,19.000,3.4650,359.004022,0.0603,0*c46f7012
#BESTVELA,FILE,0,17.5,FINEBACKUPSTEERING,2317,469419.700,02000000,10a2,17139;SOL_COMPUTED,INS_PPP_CONVERGING,0.000,19.000,3.5165,358.863325,0.0418,0*589d05e6
#BESTVELA,FILE,0,17.5,FINEBACKUPSTEERING,2317,469419.750,02000000,10a2,17139;SOL_COMPUTED,INS_PPP_CONVERGING,0.000,19.000,3.5498,358.935275,0.0312,0*50a3f0f2
#BESTVELA,FILE,0,17.5,FINEBACKUPSTEERING,2317,469419.800,02000000,10a2,17139;SOL_COMPUTED,INS_PPP_CONVERGING,0.000,19.000,3.5784,359.121079,0.0293,0*5ee2c18b
#BESTVELA,FILE,0,17.5,FINEBACKUPSTEERING,2317,469419.850,02000000,10a2,17139;SOL_COMPUTED,INS_PPP_CONVERGING,0.000,19.000,3.6063,358.905027,0.0248,0*05ebf314
#BESTVELA,FILE,0,17.5,FINEBACKUPSTEERING,2317,469419.900,02000000,10a2,17139;SOL_COMPUTED,INS_PPP_CONVERGING,0.000,19.000,3.6376,358.900987,0.0285,0*80e22e7e
#BESTVELA,FILE,0,17.5,FINEBACKUPSTEERING,2317,469419.950,02000000,10a2,17139;SOL_COMPUTED,INS_PPP_CONVERGING,0.000,19.000,3.6819,358.839930,0.0403,0*2a73b323
#BESTVELA,FILE,0,17.5,FINEBACKUPSTEERING,2317,469420.000,02000000,10a2,17139;SOL_COMPUTED,INS_PPP_CONVERGING,0.000,19.000,3.7281,358.751003,0.0471,0*57009820
#BESTVELA,FILE,0,17.5,FINEBACKUPSTEERING,2317,469420.050,02000000,10a2,17139;SOL_COMPUTED,INS_PPP_CONVERGING,0.000,20.000,3.7593,358.464666,0.0324,0*a689a8b4
#BESTVELA,FILE,0,17.5,FINEBACKUPSTEERING,2317,469420.100,02000000,10a2,17139;SOL_COMPUTED,INS_PPP_CONVERGING,0.000,20.000,3.7842,358.335777,0.0248,0*7f03c7bf
#BESTVELA,FILE,0,17.5,FINEBACKUPSTEERING,2317,469420.150,02000000,10a2,17139;SOL_COMPUTED,INS_PPP_CONVERGING,0.000,20.000,3.8186,358.321881,0.0319,0*65dd0c69
#BESTVELA,FILE,0,21.0,FINEBACKUPSTEERING,2317,469420.200,02000000,10a2,17139;SOL_COMPUTED,INS_PPP_CONVERGING,0.000,20.000,3.8444,358.403980,0.0314,0*d2f8e20c
#BESTVELA,FILE,0,21.0,FINEBACKUPSTEERING,2317,469420.250,02000000,10a2,17139;SOL_COMPUTED,INS_PPP_CONVERGING,0.000,20.000,3.8730,358.511016,0.0399,0*9ea15a03
#BESTVELA,FILE,0,21.0,FINEBACKUPSTEERING,2317,469420.300,02000000,10a2,17139;SOL_COMPUTED,INS_PPP_CONVERGING,0.000,20.000,3.9044,358.314715,0.0422,0*9ed3e6b3
#BESTVELA,FILE,0,21.0,FINEBACKUPSTEERING,2317,469420.350,02000000,10a2,17139;SOL_COMPUTED,INS_PPP_CONVERGING,0.000,20.000,3.9267,358.190606,0.0371,0*646bfa2c
#BESTVELA,FILE,0,21.0,FINEBACKUPSTEERING,2317,469420.400,02000000,10a2,17139;SOL_COMPUTED,INS_PPP_CONVERGING,0.000,20.000,3.9475,358.500562,0.0222,0*07a2512c
#BESTVELA,FILE,0,21.0,FINEBACKUPSTEERING,2317,469420.450,02000000,10a2,17139;SOL_COMPUTED,INS_PPP_CONVERGING,0.000,20.000,3.9646,358.670670,0.0231,0*fb5f921d
#BESTVELA,FILE,0,21.0,FINEBACKUPSTEERING,2317,469420.500,02000000,10a2,17139;SOL_COMPUTED,INS_PPP_CONVERGING,0.000,20.000,3.9865,358.485138,0.0087,0*9745d623
#BESTVELA,FILE,0,21.0,FINEBACKUPSTEERING,2317,469420.550,02000000,10a2,17139;SOL_COMPUTED,INS_PPP_CONVERGING,0.000,20.000,4.0007,358.447607,0.0150,0*391d0039
#BESTVELA,FILE,0,21.0,FINEBACKUPSTEERING,2317,469420.600,02000000,10a2,17139;SOL_COMPUTED,INS_PPP_CONVERGING,0.000,20.000,4.0185,358.474070,0.0037,0*82d8b671
#BESTVELA,FILE,0,21.0,FINEBACKUPSTEERING,2317,469420.650,02000000,10a2,17139;SOL_COMPUTED,INS_PPP_CONVERGING,0.000,20.000,4.0431,358.325441,0.0219,0*c9d2b16d
#BESTVELA,FILE,0,21.0,FINEBACKUPSTEERING,2317,469420.700,02000000,10a2,17139;SOL_COMPUTED,INS_PPP_CONVERGING,0.000,20.000,4.0820,358.073135,0.0259,0*0a2fc0ae
#BESTVELA,FILE,0,21.0,FINEBACKUPSTEERING,2317,469420.750,02000000,10a2,17139;SOL_COMPUTED,INS_PPP_CONVERGING,0.000,20.000,4.0951,358.071738,0.0303,0*394bab18
#BESTVELA,FILE,0,21.0,FINEBACKUPSTEERING,2317,469420.800,02000000,10a2,17139;SOL_COMPUTED,INS_PPP_CONVERGING,0.000,20.000,4.1221,358.063321,0.0385,0*eb13bd65
#BESTVELA,FILE,0,21.0,FINEBACKUPSTEERING,2317,469420.850,02000000,10a2,17139;SOL_COMPUTED,INS_PPP_CONVERGING,0.000,20.000,4.1417,358.150671,0.0538,0*27033437
#BESTVELA,FILE,0,21.0,FINEBACKUPSTEERING,2317,469420.900,02000000,10a2,17139;SOL_COMPUTED,INS_PPP_CONVERGING,0.000,20.000,4.1645,357.855023,0.0429,0*9f4681e8
#BESTVELA,FILE,0,21.0,FINEBACKUPSTEERING,2317,469420.950,02000000,10a2,17139;SOL_COMPUTED,INS_PPP_CONVERGING,0.000,20.000,4.1823,357.776691,0.0374,0*94b83217
#BESTVELA,FILE,0,21.0,FINEBACKUPSTEERING,2317,469421.000,02000000,10a2,17139;SOL_COMPUTED,INS_PPP_CONVERGING,0.000,20.000,4.1983,357.802938,0.0342,0*aab55547
#BESTVELA,FILE,0,21.0,FINEBACKUPSTEERING,2317,469421.050,02000000,10a2,17139;SOL_COMPUTED,INS_PPP_CONVERGING,0.000,11.000,4.2160,357.844007,0.0353,0*32a654ef
#BESTVELA,FILE,0,21.0,FINEBACKUPSTEERING,2317,469421.100,02000000,10a2,17139;SOL_COMPUTED,INS_PPP_CONVERGING,0.000,11.000,4.2316,357.906754,0.0528,0*35257b51
#BESTVELA,FILE,0,21.0,FINEBACKUPSTEERING,2317,469421.150,02000000,10a2,17139;SOL_COMPUTED,INS_PPP_CONVERGING,0.000,11.000,4.2481,358.082843,0.0647,0*d0f3b577
#BESTVELA,FILE,0,21.0,FINEBACKUPSTEERING,2317,469421.200,02000000,10a2,17139;SOL_COMPUTED,INS_PPP_CONVERGING,0.000,11.000,4.2529,358.250358,0.0822,0*d72997bc
#BESTVELA,FILE,0,21.0,FINEBACKUPSTEERING,2317,469421.250,02000000,10a2,17139;SOL_COMPUTED,INS_PPP_CONVERGING,0.000,11.000,4.2470,358.043122,0.0905,0*5a1e2bf1
#BESTVELA,FILE,0,21.0,FINEBACKUPSTEERING,2317,469421.300,02000000,10a2,17139;SOL_COMPUTED,INS_PPP_CONVERGING,0.000,11.000,4.2285,357.659676,0.0984,0*24d7fba9
#BESTVELA,FILE,0,21.0,FINEBACKUPSTEERING,2317,469421.350,02000000,10a2,17139;SOL_COMPUTED,INS_PPP_CONVERGING,0.000,11.000,4.2429,357.574084,0.0797,0*8c62b881
#BESTVELA,FILE,0,21.0,FINEBACKUPSTEERING,2317,469421.400,02000000,10a2,17139;SOL_COMPUTED,INS_PPP_CONVERGING,0.000,11.000,4.2460,357.546302,0.0454,0*7e58f0cc
#BESTVELA,FILE,0,21.0,FINEBACKUPSTEERING,2317,469421.450,02000000,10a2,17139;SOL_COMPUTED,INS_PPP_CONVERGING,0.000,11.000,4.2030,357.338746,0.0374,0*05e3d3f2
#BESTVELA,FILE,0,21.0,FINEBACKUPSTEERING,2317,469421.500,02000000,10a2,17139;SOL_COMPUTED,INS_PPP_CONVERGING,0.000,11.000,4.1773,357.428628,0.0359,0*8c3d0ae3
#BESTVELA,FILE,0,21.0,FINEBACKUPSTEERING,2317,469421.550,02000000,10a2,17139;SOL_COMPUTED,INS_PPP_CONVERGING,0.000,11.000,4.1664,357.447026,0.0112,0*9192d95a
#BESTVELA,FILE,0,21.0,FINEBACKUPSTEERING,2317,469421.600,02000000,10a2,17139;SOL_COMPUTED,INS_PPP_CONVERGING,0.000,11.000,4.1464,357.400985,0.0166,0*93303384
#BESTVELA,FILE,0,21.0,FINEBACKUPSTEERING,2317,469421.650,02000000,10a2,17139;SOL_COMPUTED,INS_PPP_CONVERGING,0.000,11.000,4.1266,357.672999,0.0262,0*8390f828
#BESTVELA,FILE,0,21.0,FINEBACKUPSTEERING,2317,469421.700,02000000,10a2,17139;SOL_COMPUTED,INS_PPP_CONVERGING,0.000,11.000,4.1204,357.674697,0.0321,0*2099292b
#BESTVELA,FILE,0,21.0,FINEBACKUPSTEERING,2317,469421.750,02000000,10a2,17139;SOL_COMPUTED,INS_PPP_CONVERGING,0.000,11.000,4.1135,357.778707,0.0445,0*8c97fed2
#BESTVELA,FILE,0,21.0,FINEBACKUPSTEERING,2317,469421.800,02000000,10a2,17139;SOL_COMPUTED,INS_PPP_CONVERGING,0.000,11.000,4.1128,357.644244,0.0406,0*60283d02
#BESTVELA,FILE,0,21.0,FINEBACKUPSTEERING,2317,469421.850,02000000,10a2,17139;SOL_COMPUTED,INS_PPP_CONVERGING,0.000,11.000,4.0941,357.640780,0.0477,0*c1314d2d
#BESTVELA,FILE,0,21.0,FINEBACKUPSTEERING,2317,469421.900,02000000,10a2,17139;SOL_COMPUTED,INS_PPP_CONVERGING,0.000,11.000,4.0866,357.342166,0.0305,0*9bc8d7d8
#BESTVELA,FILE,0,21.0,FINEBACKUPSTEERING,2317,469421.950,02000000,10a2,17139;SOL_COMPUTED,INS_PPP_CONVERGING,0.000,11.000,4.0664,357.151019,0.0222,0*e42dd5fc
#BESTVELA,FILE,0,21.0,FINEBACKUPSTEERING,2317,469422.000,02000000,10a2,17139;SOL_COMPUTED,INS_PPP_CONVERGING,0.000,11.000,4.0493,356.923726,0.0224,0*bb683c7d
#BESTVELA,FILE,0,21.0,FINEBACKUPSTEERING,2317,469422.050,02000000,10a2,17139;SOL_COMPUTED,INS_PPP_CONVERGING,0.000,12.000,4.0413,356.853456,0.0434,0*51f9cdaf
#BESTVELA,FILE,0,16.0,FINEBACKUPSTEERING,2317,469422.100,02000000,10a2,17139;SOL_COMPUTED,INS_PPP_CONVERGING,0.000,12.000,4.0261,357.395968,0.0538,0*814a8d77
#BESTVELA,FILE,0,16.0,FINEBACKUPSTEERING,2317,469422.150,02000000,10a2,17139;SOL_COMPUTED,INS_PPP_CONVERGING,0.000,12.000,4.0420,357.442100,0.0765,0*6979a131
#BESTVELA,FILE,0,16.0,FINEBACKUPSTEERING,2317,469422.200,02000000,10a2,17139;SOL_COMPUTED,INS_PPP_CONVERGING,0.000,12.000,4.0304,357.194214,0.0694,0*59cfe235
#BESTVELA,FILE,0,16.0,FINEBACKUPSTEERING,2317,469422.250,02000000,10a2,17139;SOL_COMPUTED,INS_PPP_CONVERGING,0.000,12.000,4.0174,357.352401,0.0798,0*20546abe
#BESTVELA,FILE,0,16.0,FINEBACKUPSTEERING,2317,469422.300,02000000,10a2,17139;SOL_COMPUTED,INS_PPP_CONVERGING,0.000,12.000,4.0054,357.473611,0.0537,0*48da14e1
#BESTVELA,FILE,0,16.0,FINEBACKUPSTEERING,2317,469422.350,02000000,10a2,17139;SOL_COMPUTED,INS_PPP_CONVERGING,0.000,12.000,3.9830,357.529917,0.0443,0*531155f0
#BESTVELA,FILE,0,16.0,FINEBACKUPSTEERING,2317,469422.400,02000000,10a2,17139;SOL_COMPUTED,INS_PPP_CONVERGING,0.000,12.000,3.9753,357.334013,0.0135,0*d622ab87
#BESTVELA,FILE,0,16.0,FINEBACKUPSTEERING,2317,469422.450,02000000,10a2,17139;SOL_COMPUTED,INS_PPP_CONVERGING,0.000,12.000,3.9591,357.288425,-0.0025,0*64c90346
#BESTVELA,FILE,0,16.0,FINEBACKUPSTEERING,2317,469422.500,02000000,10a2,17139;SOL_COMPUTED,INS_PPP_CONVERGING,0.000,12.000,3.9540,356.984502,-0.0034,0*2d7eb0c2
#BESTVELA,FILE,0,16.0,FINEBACKUPSTEERING,2317,469422.550,02000000,10a2,17139;SOL_COMPUTED,INS_PPP_CONVERGING,0.000,12.000,3.9320,356.854406,0.0183,0*d7c4beab
#BESTVELA,FILE,0,16.0,FINEBACKUPSTEERING,2317,469422.600,02000000,10a2,17139;SOL_COMPUTED,INS_PPP_CONVERGING,0.000,12.000,3.8981,356.881142,0.0388,0*cbd2057b
#BESTVELA,FILE,0,16.0,FINEBACKUPSTEERING,2317,469422.650,02000000,10a2,17139;SOL_COMPUTED,INS_PPP_CONVERGING,0.000,12.000,3.8685,356.555444,0.0498,0*94e5f558
#BESTVELA,FILE,0,16.0,FINEBACKUPSTEERING,2317,469422.700,02000000,10a2,17139;SOL_COMPUTED,INS_PPP_CONVERGING,0.000,12.000,3.8352,356.646551,0.0382,0*57969251
#BESTVELA,FILE,0,16.0,FINEBACKUPSTEERING,2317,469422.750,02000000,10a2,17139;SOL_COMPUTED,INS_PPP_CONVERGING,0.000,12.000,3.8231,356.812735,0.0197,0*8a1345d3
#BESTVELA,FILE,0,16.0,FINEBACKUPSTEERING,2317,469422.800,02000000,10a2,17139;SOL_COMPUTED,INS_PPP_CONVERGING,0.000,12.000,3.7985,356.863119,-0.0112,0*0cb9204a
#BESTVELA,FILE,0,16.0,FINEBACKUPSTEERING,2317,469422.850,02000000,10a2,17139;SOL_COMPUTED,INS_PPP_CONVERGING,0.000,12.000,3.7643,356.942379,-0.0126,0*b81f4404
#BESTVELA,FILE,0,16.0,FINEBACKUPSTEERING,2317,469422.900,02000000,10a2,17139;SOL_COMPUTED,INS_PPP_CONVERGING,0.000,12.000,3.7556,357.011049,0.0046,0*5c761f06
#BESTVELA,FILE,0,16.0,FINEBACKUPSTEERING,2317,469422.950,02000000,10a2,17139;SOL_COMPUTED,INS_PPP_CONVERGING,0.000,12.000,3.7602,356.862042,0.0259,0*fda967b6
#BESTVELA,FILE,0,16.0,FINEBACKUPSTEERING,2317,469423.000,02000000,10a2,17139;SOL_COMPUTED,INS_PPP_CONVERGING,0.000,12.000,3.7547,356.928465,0.0360,0*e0f302c1
#BESTVELA,FILE,0,16.0,FINEBACKUPSTEERING,2317,469423.050,02000000,10a2,17139;SOL_COMPUTED,INS_PPP_CONVERGING,0.000,13.000,3.7440,357.115849,0.0491,0*13a660ca
#BESTVELA,FILE,0,16.0,FINEBACKUPSTEERING,2317,469423.100,02000000,10a2,17139;SOL_COMPUTED,INS_PPP_CONVERGING,0.000,13.000,3.7236,357.102329,0.0549,0*9c0afadf
#BESTVELA,FILE,0,21.5,FINEBACKUPSTEERING,2317,469423.150,02000000,10a2,17139;SOL_COMPUTED,INS_PPP_CONVERGING,0.000,13.000,3.7002,356.527529,0.0440,0*aeb06785
#BESTVELA,FILE,0,21.5,FINEBACKUPSTEERING,2317,469423.200,02000000,10a2,17139;SOL_COMPUTED,INS_PPP_CONVERGING,0.000,13.000,3.6608,356.509119,0.0410,0*30dfe485
#BESTVELA,FILE,0,21.5,FINEBACKUPSTEERING,2317,469423.250,02000000,10a2,17139;SOL_COMPUTED,INS_PPP_CONVERGING,0.000,13.000,3.6294,356.542958,0.0232,0*07fe4657
#BESTVELA,FILE,0,21.5,FINEBACKUPSTEERING,2317,469423.300,02000000,10a2,17139;SOL_COMPUTED,INS_PPP_CONVERGING,0.000,13.000,3.6128,356.023428,-0.0023,0*edce8215
#BESTVELA,FILE,0,21.5,FINEBACKUPSTEERING,2317,469423.350,02000000,10a2,17139;SOL_COMPUTED,INS_PPP_CONVERGING,0.000,13.000,3.5966,355.988844,-0.0120,0*ba2a58c4
#BESTVELA,FILE,0,21.5,FINEBACKUPSTEERING,2317,469423.400,02000000,10a2,17139;SOL_COMPUTED,INS_PPP_CONVERGING,0.000,13.000,3.5873,356.076562,-0.0157,0*cc38d518
#BESTVELA,FILE,0,21.5,FINEBACKUPSTEERING,2317,469423.450,02000000,10a2,17139;SOL_COMPUTED,INS_PPP_CONVERGING,0.000,13.000,3.5775,356.353729,-0.0108,0*0053507d
#BESTVELA,FILE,0,21.5,FINEBACKUPSTEERING,2317,469423.500,02000000,10a2,17139;SOL_COMPUTED,INS_PPP_CONVERGING,0.000,13.000,3.5872,356.536526,-0.0005,0*4ed6c17e
#BESTVELA,FILE,0,21.5,FINEBACKUPSTEERING,2317,469423.550,02000000,10a2,17139;SOL_COMPUTED,INS_PPP_CONVERGING,0.000,13.000,3.6149,356.330005,0.0052,0*a29ff85a
#BESTVELA,FILE,0,21.5,FINEBACKUPSTEERING,2317,469423.600,02000000,10a2,17139;SOL_COMPUTED,INS_PPP_CONVERGING,0.000,13.000,3.6433,356.015099,-0.0029,0*9fd61bf0
#BESTVELA,FILE,0,21.5,FINEBACKUPSTEERING,2317,469423.650,02000000,10a2,17139;SOL_COMPUTED,INS_PPP_CONVERGING,0.000,13.000,3.6498,355.575820,0.0115,0*84e1fcd0
#BESTVELA,FILE,0,21.5,FINEBACKUPSTEERING,2317,469423.700,02000000,10a2,17139;SOL_COMPUTED,INS_PPP_CONVERGING,0.000,13.000,3.6472,355.859326,0.0394,0*8245b8af
#BESTVELA,FILE,0,21.5,FINEBACKUPSTEERING,2317,469423.750,02000000,10a2,17139;SOL_COMPUTED,INS_PPP_CONVERGING,0.000,13.000,3.6540,356.152554,0.0358,0*a836d07f
#BESTVELA,FILE,0,21.5,FINEBACKUPSTEERING,2317,469423.800,02000000,10a2,17139;SOL_COMPUTED,INS_PPP_CONVERGING,0.000,13.000,3.6662,356.305287,0.0349,0*ea5b12d6
#BESTVELA,FILE,0,21.5,FINEBACKUPSTEERING,2317,469423.850,02000000,10a2,17139;SOL_COMPUTED,INS_PPP_CONVERGING,0.000,13.000,3.6850,356.347573,0.0379,0*70f85cc9
#BESTVELA,FILE,0,21.5,FINEBACKUPSTEERING,2317,469423.900,02000000,10a2,17139;SOL_COMPUTED,INS_PPP_CONVERGING,0.000,13.000,3.6918,356.721625,0.0312,0*2baa99f4
#BESTVELA,FILE,0,21.5,FINEBACKUPSTEERING,2317,469423.950,02000000,10a2,17139;SOL_COMPUTED,INS_PPP_CONVERGING,0.000,13.000,3.6999,356.616773,0.0292,0*8540aec7
#BESTVELA,FILE,0,21.5,FINEBACKUPSTEERING,2317,469424.000,02000000,10a2,17139;SOL_COMPUTED,INS_PPP_CONVERGING,0.000,13.000,3.6940,356.689482,0.0239,0*73831b9c
#BESTVELA,FILE,0,21.5,FINEBACKUPSTEERING,2317,469424.050,02000000,10a2,17139;SOL_COMPUTED,INS_PPP_CONVERGING,0.000,14.000,3.6935,357.016347,0.0221,0*0e30f88a
#BESTVELA,FILE,0,20.0,FINEBACKUPSTEERING,2317,469424.100,02000000,10a2,17139;SOL_COMPUTED,INS_PPP_CONVERGING,0.000,14.000,3.7161,357.052861,0.0071,0*ea4b8d5b
#BESTVELA,FILE,0,20.0,FINEBACKUPSTEERING,2317,469424.150,02000000,10a2,17139;SOL_COMPUTED,INS_PPP_CONVERGING,0.000,14.000,3.7312,357.526765,0.0109,0*75901885
#BESTVELA,FILE,0,20.0,FINEBACKUPSTEERING,2317,469424.200,02000000,10a2,17139;SOL_COMPUTED,INS_PPP_CONVERGING,0.000,14.000,3.7546,357.652547,-0.0139,0*4b062dab
#BESTVELA,FILE,0,20.0,FINEBACKUPSTEERING,2317,469424.250,02000000,10a2,17139;SOL_COMPUTED,INS_PPP_CONVERGING,0.000,14.000,3.7702,357.605572,-0.0119,0*10d17018
#BESTVELA,FILE,0,20.0,FINEBACKUPSTEERING,2317,469424.300,02000000,10a2,17139;SOL_COMPUTED,INS_PPP_CONVERGING,0.000,14.000,3.7605,357.546111,-0.0166,0*f0888559
#BESTVELA,FILE,0,20.0,FINEBACKUPSTEERING,2317,469424.350,02000000,10a2,17139;SOL_COMPUTED,INS_PPP_CONVERGING,0.000,14.000,3.7750,358.141127,0.0141,0*1242f3db
#BESTVELA,FILE,0,20.0,FINEBACKUPSTEERING,2317,469424.400,02000000,10a2,17139;SOL_COMPUTED,INS_PPP_CONVERGING,0.000,14.000,3.8160,358.749716,0.0145,0*04f5d942
#BESTVELA,FILE,0,20.0,FINEBACKUPSTEERING,2317,469424.450,02000000,10a2,17139;SOL_COMPUTED,INS_PPP_CONVERGING,0.000,14.000,3.8375,358.965795,0.0239,0*48f496d5
#BESTVELA,FILE,0,20.0,FINEBACKUPSTEERING,2317,469424.500,02000000,10a2,17139;SOL_COMPUTED,INS_PPP_CONVERGING,0.000,14.000,3.8507,359.546123,0.0168,0*43aa593f
#BESTVELA,FILE,0,20.0,FINEBACKUPSTEERING,2317,469424.550,02000000,10a2,17139;SOL_COMPUTED,INS_PPP_CONVERGING,0.000,14.000,3.8627,359.779313,0.0155,0*a89ed72d
#BESTVELA,FILE,0,20.0,FINEBACKUPSTEERING,2317,469424.600,02000000,10a2,17139;SOL_COMPUTED,INS_PPP_CONVERGING,0.000,14.000,3.8651,359.849291,0.0350,0*cf0f1f76
#BESTVELA,FILE,0,20.0,FINEBACKUPSTEERING,2317,469424.650,02000000,10a2,17139;SOL_COMPUTED,INS_PPP_CONVERGING,0.000,14.000,3.8783,359.427088,0.0439,0*633be2d8
#BESTVELA,FILE,0,20.0,FINEBACKUPSTEERING,2317,469424.700,02000000,10a2,17139;SOL_COMPUTED,INS_PPP_CONVERGING,0.000,14.000,3.8919,359.414599,0.0382,0*b6e55d1b
#BESTVELA,FILE,0,20.0,FINEBACKUPSTEERING,2317,469424.750,02000000,10a2,17139;SOL_COMPUTED,INS_PPP_CONVERGING,0.000,14.000,3.9077,359.385880,0.0323,0*071c6a65
#BESTVELA,FILE,0,20.0,FINEBACKUPSTEERING,2317,469424.800,02000000,10a2,17139;SOL_COMPUTED,INS_PPP_CONVERGING,0.000,14.000,3.9175,359.678846,0.0432,0*14c12019
#BESTVELA,FILE,0,20.0,FINEBACKUPSTEERING,2317,469424.850,02000000,10a2,17139;SOL_COMPUTED,INS_PPP_CONVERGING,0.000,14.000,3.9331,359.968911,0.0397,0*8252b898
#BESTVELA,FILE,0,20.0,FINEBACKUPSTEERING,2317,469424.900,02000000,10a2,17139;SOL_COMPUTED,INS_PPP_CONVERGING,0.000,14.000,3.9442,0.221275,0.0358,0*c24b5cd8
#BESTVELA,FILE,0,20.0,FINEBACKUPSTEERING,2317,469424.950,02000000,10a2,17139;SOL_COMPUTED,INS_PPP_CONVERGING,0.000,14.000,3.9574,0.147486,0.0327,0*77b55dd9
#BESTVELA,FILE,0,20.0,FINEBACKUPSTEERING,2317,469425.000,02000000,10a2,17139;SOL_COMPUTED,INS_PPP_CONVERGING,0.000,14.000,3.9526,0.315611,0.0201,0*0681a921
#BESTVELA,FILE,0,20.0,FINEBACKUPSTEERING,2317,469425.050,02000000,10a2,17139;SOL_COMPUTED,INS_PPP_CONVERGING,0.000,15.000,3.9376,0.304009,-0.0149,0*4bc08d99
#BESTVELA,FILE,0,20.0,FINESTEERING,2317,469425.100,02000000,10a2,17139;SOL_COMPUTED,INS_PPP_CONVERGING,0.000,15.000,3.9346,0.529872,-0.0136,0*e7c43abd
#BESTVELA,FILE,0,21.0,FINESTEERING,2317,469425.150,02000000,10a2,17139;SOL_COMPUTED,INS_PPP_CONVERGING,0.000,15.000,3.9513,0.473541,-0.0012,0*3fdb2451
#BESTVELA,FILE,0,21.0,FINESTEERING,2317,469425.200,02000000,10a2,17139;SOL_COMPUTED,INS_PPP_CONVERGING,0.000,15.000,3.9772,0.506216,0.0166,0*698a2ecc
#BESTVELA,FILE,0,21.0,FINESTEERING,2317,469425.250,02000000,10a2,17139;SOL_COMPUTED,INS_PPP_CONVERGING,0.000,15.000,4.0066,0.301485,0.0188,0*89ecec87
#BESTVELA,FILE,0,21.0,FINESTEERING,2317,469425.300,02000000,10a2,17139;SOL_COMPUTED,INS_PPP_CONVERGING,0.000,15.000,4.0107,0.900962,0.0150,0*2caedb1f
#BESTVELA,FILE,0,21.0,FINESTEERING,2317,469425.350,02000000,10a2,17139;SOL_COMPUTED,INS_PPP_CONVERGING,0.000,15.000,4.0117,0.970666,0.0052,0*39ed27b9
#BESTVELA,FILE,0,21.0,FINESTEERING,2317,469425.400,02000000,10a2,17139;SOL_COMPUTED,INS_PPP_CONVERGING,0.000,15.000,4.0106,1.416262,0.0055,0*992cd3f8
#BESTVELA,FILE,0,21.0,FINESTEERING,2317,469425.450,02000000,10a2,17139;SOL_COMPUTED,INS_PPP_CONVERGING,0.000,15.000,4.0356,1.842950,0.0224,0*0daf13ac
#BESTVELA,FILE,0,21.0,FINESTEERING,2317,469425.500,02000000,10a2,17139;SOL_COMPUTED,INS_PPP_CONVERGING,0.000,15.000,4.0704,1.751499,0.0276,0*6963a68f
#BESTVELA,FILE,0,21.0,FINESTEERING,2317,469425.550,02000000,10a2,17139;SOL_COMPUTED,INS_PPP_CONVERGING,0.000,15.000,4.0962,1.800548,0.0175,0*048949a6
#BESTVELA,FILE,0,21.0,FINESTEERING,2317,469425.600,02000000,10a2,17139;SOL_COMPUTED,INS_PPP_CONVERGING,0.000,15.000,4.1146,1.910396,0.0303,0*4adb2b01
#BESTVELA,FILE,0,21.0,FINESTEERING,2317,469425.650,02000000,10a2,17139;SOL_COMPUTED,INS_PPP_CONVERGING,0.000,15.000,4.1560,1.442696,0.0382,0*1b666132
#BESTVELA,FILE,0,21.0,FINESTEERING,2317,469425.700,02000000,10a2,17139;SOL_COMPUTED,INS_PPP_CONVERGING,0.000,15.000,4.1824,0.967559,0.0042,0*139eac15
#BESTVELA,FILE,0,21.0,FINESTEERING,2317,469425.750,02000000,10a2,17139;SOL_COMPUTED,INS_PPP_CONVERGING,0.000,15.000,4.1431,1.067331,-0.0008,0*b19ea207
#BESTVELA,FILE,0,21.0,FINESTEERING,2317,469425.800,02000000,10a2,17139;SOL_COMPUTED,INS_PPP_CONVERGING,0.000,15.000,4.1443,1.131279,0.0258,0*e8067aaa
#BESTVELA,FILE,0,21.0,FINESTEERING,2317,469425.850,02000000,10a2,17139;SOL_COMPUTED,INS_PPP_CONVERGING,0.000,15.000,4.1757,0.910446,-0.0228,0*b6e3e71b
#BESTVELA,FILE,0,21.0,FINESTEERING,2317,469425.900,02000000,10a2,17139;SOL_COMPUTED,INS_PPP_CONVERGING,0.000,15.000,4.1693,1.687857,0.0114,0*f2cbf9b9
#BESTVELA,FILE,0,21.0,FINESTEERING,2317,469425.950,02000000,10a2,17139;SOL_COMPUTED,INS_PPP_CONVERGING,0.000,15.000,4.1772,1.749668,0.0437,0*7be64fa8
#BESTVELA,FILE,0,21.0,FINESTEERING,2317,469426.000,02000000,10a2,17139;SOL_COMPUTED,INS_PPP_CONVERGING,0.000,15.000,4.2079,1.862700,0.0666,0*b74325a1
#BESTVELA,FILE,0,21.0,FINESTEERING,2317,469426.050,02000000,10a2,17139;SOL_COMPUTED,INS_PPP_CONVERGING,0.000,16.000,4.2272,1.979599,0.0542,0*af5d2177
#BESTVELA,FILE,0,19.0,FINESTEERING,2317,469426.100,02000000,10a2,17139;SOL_COMPUTED,INS_PPP_CONVERGING,0.000,16.000,4.2203,1.987678,0.0213,0*09911e79
#BESTVELA,FILE,0,19.0,FINESTEERING,2317,469426.150,02000000,10a2,17139;SOL_COMPUTED,INS_PPP_CONVERGING,0.000,16.000,4.2271,1.778199,0.0356,0*2d61bde3
#BESTVELA,FILE,0,19.0,FINESTEERING,2317,469426.200,02000000,10a2,17139;SOL_COMPUTED,INS_PPP_CONVERGING,0.000,16.000,4.2532,1.347466,0.0160,0*4cd81a7f
#BESTVELA,FILE,0,19.0,FINESTEERING,2317,469426.250,02000000,10a2,17139;SOL_COMPUTED,INS_PPP_CONVERGING,0.000,16.000,4.2730,0.754869,-0.0286,0*377c419e
#BESTVELA,FILE,0,19.0,FINESTEERING,2317,469426.300,02000000,10a2,17139;SOL_COMPUTED,INS_PPP_CONVERGING,0.000,16.000,4.2808,0.320334,-0.0210,0*3f796563
#BESTVELA,FILE,0,19.0,FINESTEERING,2317,469426.350,02000000,10a2,17139;SOL_COMPUTED,INS_PPP_CONVERGING,0.000,16.000,4.2960,0.160139,-0.0074,0*7086bac7
#BESTVELA,FILE,0,19.0,FINESTEERING,2317,469426.400,02000000,10a2,17139;SOL_COMPUTED,INS_PPP_CONVERGING,0.000,16.000,4.3064,359.876114,0.0076,0*3e828bd5
#BESTVELA,FILE,0,19.0,FINESTEERING,2317,469426.450,02000000,10a2,17139;SOL_COMPUTED,INS_PPP_CONVERGING,0.000,16.000,4.3236,359.777942,0.0178,0*975ee12b
#BESTVELA,FILE,0,19.0,FINESTEERING,2317,469426.500,02000000,10a2,17139;SOL_COMPUTED,INS_PPP_CONVERGING,0.000,16.000,4.3500,359.719122,0.0379,0*f0fde9b0
#BESTVELA,FILE,0,19.0,FINESTEERING,2317,469426.550,02000000,10a2,17139;SOL_COMPUTED,INS_PPP_CONVERGING,0.000,16.000,4.3783,359.809605,0.0373,0*faac8943
#BESTVELA,FILE,0,19.0,FINESTEERING,2317,469426.600,02000000,10a2,17139;SOL_COMPUTED,INS_PPP_CONVERGING,0.000,16.000,4.4012,0.033955,0.0499,0*a50ac65a
#BESTVELA,FILE,0,19.0,FINESTEERING,2317,469426.650,02000000,10a2,17139;SOL_COMPUTED,INS_PPP_CONVERGING,0.000,16.000,4.4201,0.220215,0.0475,0*7740b0cf
#BESTVELA,FILE,0,19.0,FINESTEERING,2317,469426.700,02000000,10a2,17139;SOL_COMPUTED,INS_PPP_CONVERGING,0.000,16.000,4.4285,0.292958,0.0512,0*04da6c00
#BESTVELA,FILE,0,19.0,FINESTEERING,2317,469426.750,02000000,10a2,17139;SOL_COMPUTED,INS_PPP_CONVERGING,0.000,16.000,4.4375,0.140038,0.0473,0*1de373aa
#BESTVELA,FILE,0,19.0,FINESTEERING,2317,469426.800,02000000,10a2,17139;SOL_COMPUTED,INS_PPP_CONVERGING,0.000,16.000,4.4593,0.052725,0.0451,0*1fbd2d27
#BESTVELA,FILE,0,19.0,FINESTEERING,2317,469426.850,02000000,10a2,17139;SOL_COMPUTED,INS_PPP_CONVERGING,0.000,16.000,4.4851,359.793634,0.0221,0*b548ef96
#BESTVELA,FILE,0,19.0,FINESTEERING,2317,469426.900,02000000,10a2,17139;SOL_COMPUTED,INS_PPP_CONVERGING,0.000,16.000,4.4993,359.396787,0.0177,0*d6ce1b68
#BESTVELA,FILE,0,19.0,FINESTEERING,2317,469426.950,02000000,10a2,17139;SOL_COMPUTED,INS_PPP_CONVERGING,0.000,16.000,4.5114,359.117992,0.0381,0*06a5e8fe
#BESTVELA,FILE,0,19.0,FINESTEERING,2317,469427.000,02000000,10a2,17139;SOL_COMPUTED,INS_PPP_CONVERGING,0.000,16.000,4.5425,358.624299,0.0416,0*1cb68461
#BESTVELA,FILE,0,19.0,FINESTEERING,2317,469427.050,02000000,10a2,17139;SOL_COMPUTED,INS_PPP_CONVERGING,0.000,17.000,4.5671,358.179479,0.0111,0*5e424cb0
#BESTVELA,FILE,0,17.5,FINESTEERING,2317,469427.100,02000000,10a2,17139;SOL_COMPUTED,INS_PPP_CONVERGING,0.000,17.000,4.5757,358.132758,-0.0091,0*f46f61ec
#BESTVELA,FILE,0,17.5,FINESTEERING,2317,469427.150,02000000,10a2,17139;SOL_COMPUTED,INS_PPP_CONVERGING,0.000,17.000,4.5754,358.412287,-0.0084,0*955c42c3
#BESTVELA,FILE,0,17.5,FINESTEERING,2317,469427.200,02000000,10a2,17139;SOL_COMPUTED,INS_PPP_CONVERGING,0.000,17.000,4.5828,358.666093,-0.0037,0*e099e362
#BESTVELA,FILE,0,17.5,FINESTEERING,2317,469427.250,02000000,10a2,17139;SOL_COMPUTED,INS_PPP_CONVERGING,0.000,17.000,4.5865,358.852779,0.0154,0*acfa67b2
#BESTVELA,FILE,0,17.5,FINESTEERING,2317,469427.300,02000000,10a2,17139;SOL_COMPUTED,INS_PPP_CONVERGING,0.000,17.000,4.6048,359.121105,0.0355,0*b5f743a8
#BESTVELA,FILE,0,17.5,FINESTEERING,2317,469427.350,02000000,10a2,17139;SOL_COMPUTED,INS_PPP_CONVERGING,0.000,17.000,4.6393,359.041037,0.0173,0*d3595667
#BESTVELA,FILE,0,17.5,FINESTEERING,2317,469427.400,02000000,10a2,17139;SOL_COMPUTED,INS_PPP_CONVERGING,0.000,17.000,4.6445,358.924400,0.0289,0*18bf6ee7
#BESTVELA,FILE,0,17.5,FINESTEERING,2317,469427.450,02000000,10a2,17139;SOL_COMPUTED,INS_PPP_CONVERGING,0.000,17.000,4.6648,358.560732,0.0144,0*019db630
#BESTVELA,FILE,0,17.5,FINESTEERING,2317,469427.500,02000000,10a2,17139;SOL_COMPUTED,INS_PPP_CONVERGING,0.000,17.000,4.6822,358.259673,0.0014,0*b81c82c0
#BESTVELA,FILE,0,17.5,FINESTEERING,2317,469427.550,02000000,10a2,17139;SOL_COMPUTED,INS_PPP_CONVERGING,0.000,17.000,4.6798,358.069160,-0.0117,0*b0a892ef
#BESTVELA,FILE,0,17.5,FINESTEERING,2317,469427.600,02000000,10a2,17139;SOL_COMPUTED,INS_PPP_CONVERGING,0.000,17.000,4.6687,357.819289,-0.0094,0*23cc9e68
#BESTVELA,FILE,0,17.5,FINESTEERING,2317,469427.650,02000000,10a2,17139;SOL_COMPUTED,INS_PPP_CONVERGING,0.000,17.000,4.6952,357.773415,-0.0162,0*1ca230d1
#BESTVELA,FILE,0,17.5,FINESTEERING,2317,469427.700,02000000,10a2,17139;SOL_COMPUTED,INS_PPP_CONVERGING,0.000,17.000,4.6928,358.382734,0.0068,0*9a38921e
#BESTVELA,FILE,0,17.5,FINESTEERING,2317,469427.750,02000000,10a2,17139;SOL_COMPUTED,INS_PPP_CONVERGING,0.000,17.000,4.7221,358.542721,0.0381,0*7fcd9b0e
#BESTVELA,FILE,0,17.5,FINESTEERING,2317,469427.800,02000000,10a2,17139;SOL_COMPUTED,INS_PPP_CONVERGING,0.000,17.000,4.7452,358.780575,0.0108,0*08c2ea93
#BESTVELA,FILE,0,17.5,FINESTEERING,2317,469427.850,02000000,10a2,17139;SOL_COMPUTED,INS_PPP_CONVERGING,0.000,17.000,4.7419,359.051332,0.0274,0*3db31264
#BESTVELA,FILE,0,17.5,FINESTEERING,2317,469427.900,02000000,10a2,17139;SOL_COMPUTED,INS_PPP_CONVERGING,0.000,17.000,4.7431,358.971547,0.0168,0*b942afba
#BESTVELA,FILE,0,17.5,FINESTEERING,2317,469427.950,02000000,10a2,17139;SOL_COMPUTED,INS_PPP_CONVERGING,0.000,17.000,4.7426,358.722670,0.0171,0*87f85f65
#BESTVELA,FILE,0,17.5,FINESTEERING,2317,469428.000,02000000,10a2,17139;SOL_COMPUTED,INS_PPP_CONVERGING,0.000,17.000,4.7439,358.644204,0.0087,0*3b45925b
#BESTVELA,FILE,0,17.5,FINESTEERING,2317,469428.050,02000000,10a2,17139;SOL_COMPUTED,INS_PPP_CONVERGING,0.000,18.000,4.7573,358.796879,0.0154,0*dc611928
#BESTVELA,FILE,0,17.5,FINESTEERING,2317,469428.100,02000000,10a2,17139;SOL_COMPUTED,INS_PPP_CONVERGING,0.000,18.000,4.7609,358.427854,0.0018,0*d2f211e2
#BESTVELA,FILE,0,17.5,FINESTEERING,2317,469428.150,02000000,10a2,17139;SOL_COMPUTED,INS_PPP_CONVERGING,0.000,18.000,4.7602,358.297893,0.0055,0*a1020321
#BESTVELA,FILE,0,17.5,FINESTEERING,2317,469428.200,02000000,10a2,17139;SOL_COMPUTED,INS_PPP_CONVERGING,0.000,18.000,4.7466,358.845362,0.0119,0*af81b387
#BESTVELA,FILE,0,17.5,FINESTEERING,2317,469428.250,02000000,10a2,17139;SOL_COMPUTED,INS_PPP_CONVERGING,0.000,18.000,4.7443,359.455286,0.0039,0*2b5da328
#BESTVELA,FILE,0,17.5,FINESTEERING,2317,469428.300,02000000,10a2,17139;SOL_COMPUTED,INS_PPP_CONVERGING,0.000,18.000,4.7202,0.122040,-0.0020,0*f7d4a850
#BESTVELA,FILE,0,17.5,FINESTEERING,2317,469428.350,02000000,10a2,17139;SOL_COMPUTED,INS_PPP_CONVERGING,0.000,18.000,4.7188,0.840520,0.0058,0*c21b6dc1
#BESTVELA,FILE,0,17.5,FINESTEERING,2317,469428.400,02000000,10a2,17139;SOL_COMPUTED,INS_PPP_CONVERGING,0.000,18.000,4.7164,1.385158,0.0073,0*f47ddfdb
#BESTVELA,FILE,0,17.5,FINESTEERING,2317,469428.450,02000000,10a2,17139;SOL_COMPUTED,INS_PPP_CONVERGING,0.000,18.000,4.7006,1.681911,0.0114,0*6ff8f2d6
#BESTVELA,FILE,0,18.5,FINESTEERING,2317,469428.500,02000000,10a2,17139;SOL_COMPUTED,INS_PPP_CONVERGING,0.000,18.000,4.6898,1.778524,-0.0036,0*3cc15f28
#BESTVELA,FILE,0,18.5,FINESTEERING,2317,469428.550,02000000,10a2,17139;SOL_COMPUTED,INS_PPP_CONVERGING,0.000,18.000,4.6857,2.043925,-0.0183,0*4476281a
#BESTVELA,FILE,0,18.5,FINESTEERING,2317,469428.600,02000000,10a2,17139;SOL_COMPUTED,INS_PPP_CONVERGING,0.000,18.000,4.6717,2.100630,-0.0423,0*d9766096
#BESTVELA,FILE,0,18.5,FINESTEERING,2317,469428.650,02000000,10a2,17139;SOL_COMPUTED,INS_PPP_CONVERGING,0.000,18.000,4.6649,2.505377,-0.0442,0*d42b36c6
#BESTVELA,FILE,0,18.5,FINESTEERING,2317,469428.700,02000000,10a2,17139;SOL_COMPUTED,INS_PPP_CONVERGING,0.000,18.000,4.6553,3.059801,-0.0388,0*8edd9480
#BESTVELA,FILE,0,18.5,FINESTEERING,2317,469428.750,02000000,10a2,17139;SOL_COMPUTED,INS_PPP_CONVERGING,0.000,18.000,4.6488,3.957727,-0.0360,0*15036d6b
#BESTVELA,FILE,0,18.5,FINESTEERING,2317,469428.800,02000000,10a2,17139;SOL_COMPUTED,INS_PPP_CONVERGING,0.000,18.000,4.6376,4.985792,-0.0204,0*7bde8572
#BESTVELA,FILE,0,18.5,FINESTEERING,2317,469428.850,02000000,10a2,17139;SOL_COMPUTED,INS_PPP_CONVERGING,0.000,18.000,4.6305,5.973796,-0.0147,0*4952244a
#BESTVELA,FILE,0,18.5,FINESTEERING,2317,469428.900,02000000,10a2,17139;SOL_COMPUTED,INS_PPP_CONVERGING,0.000,18.000,4.6258,6.905361,-0.0055,0*58be30f5
#BESTVELA,FILE,0,18.5,FINESTEERING,2317,469428.950,02000000,10a2,17139;SOL_COMPUTED,INS_PPP_CONVERGING,0.000,18.000,4.6118,7.729935,0.0138,0*71f828a3
#BESTVELA,FILE,0,18.5,FINESTEERING,2317,469429.000,02000000,10a2,17139;SOL_COMPUTED,INS_PPP_CONVERGING,0.000,18.000,4.6120,8.389879,0.0039,0*c0e6066e
#BESTVELA,FILE,0,18.5,FINESTEERING,2317,469429.050,02000000,10a2,17139;SOL_COMPUTED,INS_PPP_CONVERGING,0.000,9.000,4.6129,8.983059,0.0122,0*0f02e098
#BESTVELA,FILE,0,15.5,FINESTEERING,2317,469429.100,02000000,10a2,17139;SOL_COMPUTED,INS_PPP_CONVERGING,0.000,9.000,4.6107,9.543576,0.0178,0*36d685df
#BESTVELA,FILE,0,15.5,FINESTEERING,2317,469429.150,02000000,10a2,17139;SOL_COMPUTED,INS_PPP_CONVERGING,0.000,9.000,4.6113,9.864430,0.0157,0*2a230aee
#BESTVELA,FILE,0,15.5,FINESTEERING,2317,469429.200,02000000,10a2,17139;SOL_COMPUTED,INS_PPP_CONVERGING,0.000,9.000,4.6075,10.445658,0.0083,0*5e922be1
#BESTVELA,FILE,0,15.5,FINESTEERING,2317,469429.250,02000000,10a2,17139;SOL_COMPUTED,INS_PPP_CONVERGING,0.000,9.000,4.5967,11.326881,0.0197,0*86b0ba00
#BESTVELA,FILE,0,15.5,FINESTEERING,2317,469429.300,02000000,10a2,17139;SOL_COMPUTED,INS_PPP_CONVERGING,0.000,9.000,4.6058,12.482563,0.0208,0*7bceeaf2
#BESTVELA,FILE,0,15.5,FINESTEERING,2317,469429.350,02000000,10a2,17139;SOL_COMPUTED,INS_PPP_CONVERGING,0.000,9.000,4.5982,14.110841,0.0153,0*e8525e0e
#BESTVELA,FILE,0,15.5,FINESTEERING,2317,469429.400,02000000,10a2,17139;SOL_COMPUTED,INS_PPP_CONVERGING,0.000,9.000,4.5786,15.556193,0.0082,0*7bf7e43b
#BESTVELA,FILE,0,15.5,FINESTEERING,2317,469429.450,02000000,10a2,17139;SOL_COMPUTED,INS_PPP_CONVERGING,0.000,9.000,4.5614,16.603833,0.0018,0*98b997a0
#BESTVELA,FILE,0,15.5,FINESTEERING,2317,469429.500,02000000,10a2,17139;SOL_COMPUTED,INS_PPP_CONVERGING,0.000,9.000,4.5490,17.276714,-0.0071,0*4d62396b
#BESTVELA,FILE,0,15.5,FINESTEERING,2317,469429.550,02000000,10a2,17139;SOL_COMPUTED,INS_PPP_CONVERGING,0.000,9.000,4.5211,18.399993,-0.0121,0*7729b586
#BESTVELA,FILE,0,15.5,FINESTEERING,2317,469429.600,02000000,10a2,17139;SOL_COMPUTED,INS_PPP_CONVERGING,0.000,9.000,4.5128,19.345075,-0.0167,0*d702d9d1
#BESTVELA,FILE,0,15.5,FINESTEERING,2317,469429.650,02000000,10a2,17139;SOL_COMPUTED,INS_PPP_CONVERGING,0.000,9.000,4.4876,20.339789,-0.0280,0*d5408ab3
#BESTVELA,FILE,0,15.5,FINESTEERING,2317,469429.700,02000000,10a2,17139;SOL_COMPUTED,INS_PPP_CONVERGING,0.000,9.000,4.4554,21.737383,-0.0303,0*05837a3b
#BESTVELA,FILE,0,15.5,FINESTEERING,2317,469429.750,02000000,10a2,17139;SOL_COMPUTED,INS_PPP_CONVERGING,0.000,9.000,4.4240,23.231107,-0.0373,0*777d837f
#BESTVELA,FILE,0,15.5,FINESTEERING,2317,469429.800,02000000,10a2,17139;SOL_COMPUTED,INS_PPP_CONVERGING,0.000,9.000,4.4126,24.323980,-0.0255,0*c9373404
#BESTVELA,FILE,0,15.5,FINESTEERING,2317,469429.850,02000000,10a2,17139;SOL_COMPUTED,INS_PPP_CONVERGING,0.000,9.000,4.4010,25.670770,-0.0411,0*0532ab27
#BESTVELA,FILE,0,15.5,FINESTEERING,2317,469429.900,02000000,10a2,17139;SOL_COMPUTED,INS_PPP_CONVERGING,0.000,9.000,4.3963,27.469772,-0.0737,0*3c0b8687
#BESTVELA,FILE,0,15.5,FINESTEERING,2317,469429.950,02000000,10a2,17139;SOL_COMPUTED,INS_PPP_CONVERGING,0.000,9.000,4.3702,28.683818,-0.0022,0*99fa08d3
#BESTVELA,FILE,0,15.5,FINESTEERING,2317,469430.000,02000000,10a2,17139;SOL_COMPUTED,INS_PPP_CONVERGING,0.000,9.000,4.3976,29.654437,0.0026,0*a4a92b11
#BESTVELA,FILE,0,15.5,FINESTEERING,2317,469430.050,02000000,10a2,17139;SOL_COMPUTED,INS_PPP_CONVERGING,0.000,10.000,4.4166,30.727013,0.0041,0*254fc4e7
#BESTVELA,FILE,0,15.5,FINESTEERING,2317,469430.100,02000000,10a2,17139;SOL_COMPUTED,INS_PPP_CONVERGING,0.000,10.000,4.3931,33.046732,0.0498,0*09adf156
#BESTVELA,FILE,0,12.5,FINESTEERING,2317,469430.150,02000000,10a2,17139;SOL_COMPUTED,INS_PPP_CONVERGING,0.000,10.000,4.3969,35.096913,0.0561,0*436b322d
#BESTVELA,FILE,0,12.5,FINESTEERING,2317,469430.200,02000000,10a2,17139;SOL_COMPUTED,INS_PPP_CONVERGING,0.000,10.000,4.4094,36.857818,0.0844,0*5c531870
#BESTVELA,FILE,0,12.5,FINESTEERING,2317,469430.250,02000000,10a2,17139;SOL_COMPUTED,INS_PPP_CONVERGING,0.000,10.000,4.3958,39.266588,0.0921,0*5663bf75
#BESTVELA,FILE,0,12.5,FINESTEERING,2317,469430.300,02000000,10a2,17139;SOL_COMPUTED,INS_PPP_CONVERGING,0.000,10.000,4.3772,40.527561,0.0644,0*578dad47
#BESTVELA,FILE,0,12.5,FINESTEERING,2317,469430.350,02000000,10a2,17139;SOL_COMPUTED,INS_PPP_CONVERGING,0.000,10.000,4.3642,41.950336,0.0434,0*b7708865
#BESTVELA,FILE,0,12.5,FINESTEERING,2317,469430.400,02000000,10a2,17139;SOL_COMPUTED,INS_PPP_CONVERGING,0.000,10.000,4.3352,42.816970,0.0357,0*d8a7b8db
#BESTVELA,FILE,0,12.5,FINESTEERING,2317,469430.450,02000000,10a2,17139;SOL_COMPUTED,INS_PPP_CONVERGING,0.000,10.000,4.3236,44.263537,0.0338,0*7b39a8ee
#BESTVELA,FILE,0,12.5,FINESTEERING,2317,469430.500,02000000,10a2,17139;SOL_COMPUTED,INS_PPP_CONVERGING,0.000,10.000,4.3136,45.692770,0.0266,0*d33ad6f7
#BESTVELA,FILE,0,12.5,FINESTEERING,2317,469430.550,02000000,10a2,17139;SOL_COMPUTED,INS_PPP_CONVERGING,0.000,10.000,4.3005,46.946855,0.0461,0*ebad8527
#BESTVELA,FILE,0,12.5,FINESTEERING,2317,469430.600,02000000,10a2,17139;SOL_COMPUTED,INS_PPP_CONVERGING,0.000,10.000,4.3054,48.385001,0.0553,0*81d5b683
#BESTVELA,FILE,0,12.5,FINESTEERING,2317,469430.650,02000000,10a2,17139;SOL_COMPUTED,INS_PPP_CONVERGING,0.000,10.000,4.3013,49.728642,0.0216,0*a874909f
#BESTVELA,FILE,0,12.5,FINESTEERING,2317,469430.700,02000000,10a2,17139;SOL_COMPUTED,INS_PPP_CONVERGING,0.000,10.000,4.2767,51.247030,0.0490,0*b1942338
#BESTVELA,FILE,0,12.5,FINESTEERING,2317,469430.750,02000000,10a2,17139;SOL_COMPUTED,INS_PPP_CONVERGING,0.000,10.000,4.2703,52.957096,0.0316,0*480a0519
#BESTVELA,FILE,0,12.5,FINESTEERING,2317,469430.800,02000000,10a2,17139;SOL_COMPUTED,INS_PPP_CONVERGING,0.000,10.000,4.2644,54.329195,0.0039,0*d888d5bc
#BESTVELA,FILE,0,12.5,FINESTEERING,2317,469430.850,02000000,10a2,17139;SOL_COMPUTED,INS_PPP_CONVERGING,0.000,10.000,4.2504,56.128792,0.0214,0*4a524689
#BESTVELA,FILE,0,12.5,FINESTEERING,2317,469430.900,02000000,10a2,17139;SOL_COMPUTED,INS_PPP_CONVERGING,0.000,10.000,4.2522,57.286515,-0.0149,0*b4326fa5
#BESTVELA,FILE,0,12.5,FINESTEERING,2317,469430.950,02000000,10a2,17139;SOL_COMPUTED,INS_PPP_CONVERGING,0.000,10.000,4.2299,58.645944,0.0010,0*70715bf0
#BESTVELA,FILE,0,12.5,FINESTEERING,2317,469431.000,02000000,10a2,17139;SOL_COMPUTED,INS_PPP_CONVERGING,0.000,10.000,4.2304,60.249912,0.0117,0*d29cbb57
#BESTVELA,FILE,0,12.5,FINESTEERING,2317,469431.050,02000000,10a2,17139;SOL_COMPUTED,INS_PPP_CONVERGING,0.000,11.000,4.2295,61.777438,-0.0088,0*f1b392e6
#BESTVELA,FILE,0,12.5,FINESTEERING,2317,469431.100,02000000,10a2,17139;SOL_COMPUTED,INS_PPP_CONVERGING,0.000,11.000,4.2192,63.392939,-0.0019,0*e52c1cc3
#BESTVELA,FILE,0,12.5,FINESTEERING,2317,469431.150,02000000,10a2,17139;SOL_COMPUTED,INS_PPP_CONVERGING,0.000,11.000,4.2093,65.127291,0.0106,0*693df2b2
#BESTVELA,FILE,0,17.5,FINESTEERING,2317,469431.200,02000000,10a2,17139;SOL_COMPUTED,INS_PPP_CONVERGING,0.000,11.000,4.1959,66.668774,0.0025,0*f9eb0622
#BESTVELA,FILE,0,17.5,FINESTEERING,2317,469431.250,02000000,10a2,17139;SOL_COMPUTED,INS_PPP_CONVERGING,0.000,11.000,4.1737,68.149665,-0.0041,0*f5e5ce37
#BESTVELA,FILE,0,17.5,FINESTEERING,2317,469431.300,02000000,10a2,17139;SOL_COMPUTED,INS_PPP_CONVERGING,0.000,11.000,4.1367,69.610794,0.0065,0*4c7cb0d5
#BESTVELA,FILE,0,17.5,FINESTEERING,2317,469431.350,02000000,10a2,17139;SOL_COMPUTED,INS_PPP_CONVERGING,0.000,11.000,4.1229,70.527238,0.0017,0*fd3ab7fe
#BESTVELA,FILE,0,17.5,FINESTEERING,2317,469431.400,02000000,10a2,17139;SOL_COMPUTED,INS_PPP_CONVERGING,0.000,11.000,4.1254,71.168352,0.0007,0*e755f0fe
#BESTVELA,FILE,0,17.5,FINESTEERING,2317,469431.450,02000000,10a2,17139;SOL_COMPUTED,INS_PPP_CONVERGING,0.000,11.000,4.1150,72.054630,-0.0039,0*923aae9a
#BESTVELA,FILE,0,17.5,FINESTEERING,2317,469431.500,02000000,10a2,17139;SOL_COMPUTED,INS_PPP_CONVERGING,0.000,11.000,4.1129,73.030476,0.0071,0*6a83f981
#BESTVELA,FILE,0,17.5,FINESTEERING,2317,469431.550,02000000,10a2,17139;SOL_COMPUTED,INS_PPP_CONVERGING,0.000,11.000,4.0971,74.078926,-0.0035,0*153bf56d
#BESTVELA,FILE,0,17.5,FINESTEERING,2317,469431.600,02000000,10a2,17139;SOL_COMPUTED,INS_PPP_CONVERGING,0.000,11.000,4.0791,75.023293,0.0009,0*a32fa98f
#BESTVELA,FILE,0,17.5,FINESTEERING,2317,469431.650,02000000,10a2,17139;SOL_COMPUTED,INS_PPP_CONVERGING,0.000,11.000,4.0579,75.680202,-0.0135,0*c7d365fa
#BESTVELA,FILE,0,17.5,FINESTEERING,2317,469431.700,02000000,10a2,17139;SOL_COMPUTED,INS_PPP_CONVERGING,0.000,11.000,4.0239,76.520271,-0.0143,0*746a4b08
#BESTVELA,FILE,0,17.5,FINESTEERING,2317,469431.750,02000000,10a2,17139;SOL_COMPUTED,INS_PPP_CONVERGING,0.000,11.000,3.9966,77.499668,-0.0052,0*3434d2e1
#BESTVELA,FILE,0,17.5,FINESTEERING,2317,469431.800,02000000,10a2,17139;SOL_COMPUTED,INS_PPP_CONVERGING,0.000,11.000,3.9682,78.512434,-0.0086,0*06506b48
#BESTVELA,FILE,0,17.5,FINESTEERING,2317,469431.850,02000000,10a2,17139;SOL_COMPUTED,INS_PPP_CONVERGING,0.000,11.000,3.9205,79.383049,-0.0019,0*a7557ec5
#BESTVELA,FILE,0,17.5,FINESTEERING,2317,469431.900,02000000,10a2,17139;SOL_COMPUTED,INS_PPP_CONVERGING,0.000,11.000,3.8940,80.027287,-0.0206,0*da99e7ab
#BESTVELA,FILE,0,17.5,FINESTEERING,2317,469431.950,02000000,10a2,17139;SOL_COMPUTED,INS_PPP_CONVERGING,0.000,11.000,3.8927,80.617395,-0.0533,0*14c05e23
#BESTVELA,FILE,0,17.5,FINESTEERING,2317,469432.000,02000000,10a2,17139;SOL_COMPUTED,INS_PPP_CONVERGING,0.000,11.000,3.8888,81.055722,-0.0809,0*ae2a8b8e
#BESTVELA,FILE,0,17.5,FINESTEERING,2317,469432.050,02000000,10a2,17139;SOL_COMPUTED,INS_PPP_CONVERGING,0.000,12.000,3.8967,81.647633,-0.0915,0*543cea82
#BESTVELA,FILE,0,16.0,FINESTEERING,2317,469432.100,02000000,10a2,17139;SOL_COMPUTED,INS_PPP_CONVERGING,0.000,12.000,3.9298,82.122336,-0.1020,0*acee6d57
#BESTVELA,FILE,0,16.0,FINESTEERING,2317,469432.150,02000000,10a2,17139;SOL_COMPUTED,INS_PPP_CONVERGING,0.000,12.000,3.9357,82.623503,-0.0507,0*dbe87ce9
#BESTVELA,FILE,0,16.0,FINESTEERING,2317,469432.200,02000000,10a2,17139;SOL_COMPUTED,INS_PPP_CONVERGING,0.000,12.000,3.9495,82.965852,-0.0126,0*956d2c00
#BESTVELA,FILE,0,16.0,FINESTEERING,2317,469432.250,02000000,10a2,17139;SOL_COMPUTED,INS_PPP_CONVERGING,0.000,12.000,3.9690,83.144665,0.0133,0*27e7d6cb
#BESTVELA,FILE,0,16.0,FINESTEERING,2317,469432.300,02000000,10a2,17139;SOL_COMPUTED,INS_PPP_CONVERGING,0.000,12.000,3.9744,83.072747,0.0154,0*fd2988c3
#BESTVELA,FILE,0,16.0,FINESTEERING,2317,469432.350,02000000,10a2,17139;SOL_COMPUTED,INS_PPP_CONVERGING,0.000,12.000,3.9908,83.182527,-0.0153,0*8c815657
#BESTVELA,FILE,0,16.0,FINESTEERING,2317,469432.400,02000000,10a2,17139;SOL_COMPUTED,INS_PPP_CONVERGING,0.000,12.000,3.9982,83.453442,-0.0772,0*4f2648fd
#BESTVELA,FILE,0,16.0,FINESTEERING,2317,469432.450,02000000,10a2,17139;SOL_COMPUTED,INS_PPP_CONVERGING,0.000,12.000,4.0138,83.246546,-0.1006,0*4affb86a
#BESTVELA,FILE,0,16.0,FINESTEERING,2317,469432.500,02000000,10a2,17139;SOL_COMPUTED,INS_PPP_CONVERGING,0.000,12.000,4.0372,83.255613,-0.0676,0*3b515dc4
#BESTVELA,FILE,0,16.0,FINESTEERING,2317,469432.550,02000000,10a2,17139;SOL_COMPUTED,INS_PPP_CONVERGING,0.000,12.000,4.0604,83.442084,-0.0699,0*6c6b0efb
#BESTVELA,FILE,0,16.0,FINESTEERING,2317,469432.600,02000000,10a2,17139;SOL_COMPUTED,INS_PPP_CONVERGING,0.000,12.000,4.0866,84.013637,-0.0687,0*f309d3fe
#BESTVELA,FILE,0,16.0,FINESTEERING,2317,469432.650,02000000,10a2,17139;SOL_COMPUTED,INS_PPP_CONVERGING,0.000,12.000,4.1293,84.267426,-0.0665,0*3d39625b
#BESTVELA,FILE,0,16.0,FINESTEERING,2317,469432.700,02000000,10a2,17139;SOL_COMPUTED,INS_PPP_CONVERGING,0.000,12.000,4.1787,84.401121,-0.0629,0*d1c28d3b
#BESTVELA,FILE,0,16.0,FINESTEERING,2317,469432.750,02000000,10a2,17139;SOL_COMPUTED,INS_PPP_CONVERGING,0.000,12.000,4.2186,84.147282,-0.0596,0*896b8585
#BESTVELA,FILE,0,16.0,FINESTEERING,2317,469432.800,02000000,10a2,17139;SOL_COMPUTED,INS_PPP_CONVERGING,0.000,12.000,4.2582,84.143945,-0.0358,0*c49dd711
#BESTVELA,FILE,0,16.0,FINESTEERING,2317,469432.850,02000000,10a2,17139;SOL_COMPUTED,INS_PPP_CONVERGING,0.000,12.000,4.2977,83.932590,-0.0180,0*ddabe427
#BESTVELA,FILE,0,16.0,FINESTEERING,2317,469432.900,02000000,10a2,17139;SOL_COMPUTED,INS_PPP_CONVERGING,0.000,12.000,4.3331,83.639695,-0.0184,0*58bb49d1
#BESTVELA,FILE,0,16.0,FINESTEERING,2317,469432.950,02000000,10a2,17139;SOL_COMPUTED,INS_PPP_CONVERGING,0.000,12.000,4.3558,83.666439,-0.0156,0*4686d913
#BESTVELA,FILE,0,16.0,FINESTEERING,2317,469433.000,02000000,10a2,17139;SOL_COMPUTED,INS_PPP_CONVERGING,0.000,12.000,4.3864,83.678653,-0.0323,0*94964026
#BESTVELA,FILE,0,16.0,FINESTEERING,2317,469433.050,02000000,10a2,17139;SOL_COMPUTED,INS_PPP_CONVERGING,0.000,13.000,4.4221,83.310237,-0.0626,0*7dd7eb5f
#BESTVELA,FILE,0,16.0,FINESTEERING,2317,469433.100,02000000,10a2,17139;SOL_COMPUTED,INS_PPP_CONVERGING,0.000,13.000,4.4462,83.207322,-0.0646,0*9e33f454
#BESTVELA,FILE,0,17.0,FINESTEERING,2317,469433.150,02000000,10a2,17139;SOL_COMPUTED,INS_PPP_CONVERGING,0.000,13.000,4.4694,83.103077,-0.0504,0*adba8ec1
#BESTVELA,FILE,0,17.0,FINESTEERING,2317,469433.200,02000000,10a2,17139;SOL_COMPUTED,INS_PPP_CONVERGING,0.000,13.000,4.5061,82.921359,-0.0404,0*fea6538b
#BESTVELA,FILE,0,17.0,FINESTEERING,2317,469433.250,02000000,10a2,17139;SOL_COMPUTED,INS_PPP_CONVERGING,0.000,13.000,4.5443,82.768672,-0.0495,0*b19b22eb
#BESTVELA,FILE,0,17.0,FINESTEERING,2317,469433.300,02000000,10a2,17139;SOL_COMPUTED,INS_PPP_CONVERGING,0.000,13.000,4.5896,82.402807,-0.0574,0*7d06abb6
#BESTVELA,FILE,0,17.0,FINESTEERING,2317,469433.350,02000000,10a2,17139;SOL_COMPUTED,INS_PPP_CONVERGING,0.000,13.000,4.6203,82.195321,-0.0578,0*4766dee5
