#BESTPOSA,FILE,0,24.0,FINESTEERING,2317,469412.600,02000800,cdba,17139;SOL_COMPUTED,INS_PPP_CONVERGING,17.60150120727,78.12665109154,527.3446,-76.2000,WGS84,0.3294,0.3774,0.4500,"TSTR",12.000,0.000,34,33,33,33,10,00,7f,30*14089ad9
#BESTPOSA,FILE,0,24.0,FINESTEERING,2317,469412.800,02000800,cdba,17139;SOL_COMPUTED,INS_PPP_CONVERGING,17.60150120690,78.12665109297,527.3447,-76.2000,WGS84,0.3294,0.3774,0.4500,"TSTR",12.000,0.000,34,33,33,33,10,00,7f,30*5bf97e90
#BESTPOSA,FILE,0,24.0,FINESTEERING,2317,469412.900,02000800,cdba,17139;SOL_COMPUTED,INS_PPP_CONVERGING,17.60150120691,78.12665109452,527.3447,-76.2000,WGS84,0.3294,0.3774,0.4500,"TSTR",12.000,0.000,34,33,33,33,10,00,7f,30*51a605df
#BESTPOSA,FILE,0,24.0,FINESTEERING,2317,469413.000,02000800,cdba,17139;SOL_COMPUTED,INS_PPP_CONVERGING,17.60150120654,78.12665109602,527.3448,-76.2000,WGS84,0.3294,0.3774,0.4500,"TSTR",12.000,0.000,34,33,33,33,10,00,7f,30*cb14f886
#BESTPOSA,FILE,0,24.0,FINESTEERING,2317,469413.050,02000800,cdba,17139;SOL_COMPUTED,INS_PPP_CONVERGING,17.60150120657,78.12665109596,527.3448,-76.2000,WGS84,0.3260,0.3733,0.4445,"TSTR",13.000,0.000,34,33,33,33,10,00,7f,30*b950b64d
#BESTPOSA,FILE,0,24.0,FINESTEERING,2317,469413.100,02000800,cdba,17139;SOL_COMPUTED,INS_PPP_CONVERGING,17.60150120659,78.12665109557,527.3448,-76.2000,WGS84,0.3260,0.3733,0.4445,"TSTR",13.000,0.000,34,33,33,33,10,00,7f,30*c9048c26
#BESTPOSA,FILE,0,24.0,FINESTEERING,2317,469413.150,02000800,cdba,17139;SOL_COMPUTED,INS_PPP_CONVERGING,17.60150120698,78.12665109552,527.3448,-76.2000,WGS84,0.3260,0.3733,0.4445,"TSTR",13.000,0.000,34,33,33,33,10,00,7f,30*f399fc6c
#BESTPOSA,FILE,0,24.0,FINESTEERING,2317,469413.200,02000800,cdba,17139;SOL_COMPUTED,INS_PPP_CONVERGING,17.60150120740,78.12665109527,527.3448,-76.2000,WGS84,0.3260,0.3733,0.4445,"TSTR",13.000,0.000,34,33,33,33,10,00,7f,30*fdd25968
#BESTPOSA,FILE,0,24.0,FINESTEERING,2317,469413.250,02000800,cdba,17139;SOL_COMPUTED,INS_PPP_CONVERGING,17.60150120833,78.12665109525,527.3448,-76.2000,WGS84,0.3260,0.3733,0.4445,"TSTR",13.000,0.000,34,33,33,33,10,00,7f,30*932f5f28
#BESTPOSA,FILE,0,24.0,FINESTEERING,2317,469413.300,02000800,cdba,17139;SOL_COMPUTED,INS_PPP_CONVERGING,17.60150121084,78.12665109556,527.3448,-76.2000,WGS84,0.3260,0.3733,0.4445,"TSTR",13.000,0.000,34,33,33,33,10,00,7f,30*75d6854e
#BESTPOSA,FILE,0,24.0,FINESTEERING,2317,469413.350,02000800,cdba,17139;SOL_COMPUTED,INS_PPP_CONVERGING,17.60150121502,78.12665109591,527.3448,-76.2000,WGS84,0.3260,0.3733,0.4445,"TSTR",13.000,0.000,34,33,33,33,10,00,7f,30*b9f7ba72
#BESTPOSA,FILE,0,24.0,FINESTEERING,2317,469413.400,02000800,cdba,17139;SOL_COMPUTED,INS_PPP_CONVERGING,17.60150122046,78.12665109638,527.3448,-76.2000,WGS84,0.3260,0.3733,0.4445,"TSTR",13.000,0.000,34,33,33,33,10,00,7f,30*f4ef77c5
#BESTPOSA,FILE,0,24.0,FINESTEERING,2317,469413.450,02000800,cdba,17139;SOL_COMPUTED,INS_PPP_CONVERGING,17.60150122651,78.12665109673,527.3448,-76.2000,WGS84,0.3260,0.3733,0.4445,"TSTR",13.000,0.000,34,33,33,33,10,00,7f,30*94db14f0
#BESTPOSA,FILE,0,24.0,FINESTEERING,2317,469413.550,02000800,cdba,17139;SOL_COMPUTED,INS_PPP_CONVERGING,17.60150124371,78.12665109812,527.3448,-76.2000,WGS84,0.3260,0.3733,0.4445,"TSTR",13.000,0.000,34,33,33,33,10,00,7f,30*89e83f32
#BESTPOSA,FILE,0,24.0,FINESTEERING,2317,469413.600,02000800,cdba,17139;SOL_COMPUTED,INS_PPP_CONVERGING,17.60150125694,78.12665109894,527.3446,-76.2000,WGS84,0.3260,0.3733,0.4445,"TSTR",13.000,0.000,34,33,33,33,10,00,7f,30*4ba79d09
#BESTPOSA,FILE,0,24.0,FINESTEERING,2317,469413.650,02000800,cdba,17139;SOL_COMPUTED,INS_PPP_CONVERGING,17.60150127430,78.12665110037,527.3444,-76.2000,WGS84,0.3260,0.3733,0.4445,"TSTR",13.000,0.000,34,33,33,33,10,00,7f,30*05d44fb1
#BESTPOSA,FILE,0,24.0,FINESTEERING,2317,469413.700,02000800,cdba,17139;SOL_COMPUTED,INS_PPP_CONVERGING,17.60150129714,78.12665110200,527.3442,-76.2000,WGS84,0.3260,0.3733,0.4445,"TSTR",13.000,0.000,34,33,33,33,10,00,7f,30*2f3d0f62
#BESTPOSA,FILE,0,24.0,FINESTEERING,2317,469413.750,02000800,cdba,17139;SOL_COMPUTED,INS_PPP_CONVERGING,17.60150132511,78.12665110423,527.3440,-76.2000,WGS84,0.3260,0.3733,0.4445,"TSTR",13.000,0.000,34,33,33,33,10,00,7f,30*68e0f64b
#BESTPOSA,FILE,0,24.0,FINESTEERING,2317,469413.800,02000800,cdba,17139;SOL_COMPUTED,INS_PPP_CONVERGING,17.60150135755,78.12665110638,527.3439,-76.2000,WGS84,0.3260,0.3733,0.4445,"TSTR",13.000,0.000,34,33,33,33,10,00,7f,30*c45377ee
#BESTPOSA,FILE,0,24.0,FINESTEERING,2317,469413.850,02000800,cdba,17139;SOL_COMPUTED,INS_PPP_CONVERGING,17.60150139392,78.12665110831,527.3437,-76.2000,WGS84,0.3260,0.3733,0.4445,"TSTR",13.000,0.000,34,33,33,33,10,00,7f,30*7c47cdea
#BESTPOSA,FILE,0,24.0,FINESTEERING,2317,469413.900,02000800,cdba,17139;SOL_COMPUTED,INS_PPP_CONVERGING,17.60150143528,78.12665111058,527.3436,-76.2000,WGS84,0.3260,0.3733,0.4445,"TSTR",13.000,0.000,34,33,33,33,10,00,7f,30*efe9a532
#BESTPOSA,FILE,0,24.0,FINESTEERING,2317,469413.950,02000800,cdba,17139;SOL_COMPUTED,INS_PPP_CONVERGING,17.60150148290,78.12665111348,527.3435,-76.2000,WGS84,0.3260,0.3733,0.4445,"TSTR",13.000,0.000,34,33,33,33,10,00,7f,30*430ce6aa
#BESTPOSA,FILE,0,24.0,FINESTEERING,2317,469414.000,02000800,cdba,17139;SOL_COMPUTED,INS_PPP_CONVERGING,17.60150153663,78.12665111703,527.3433,-76.2000,WGS84,0.3260,0.3733,0.4445,"TSTR",13.000,0.000,34,33,33,33,10,00,7f,30*7fd197ab
#BESTPOSA,FILE,0,22.5,FINESTEERING,2317,469414.150,02000800,cdba,17139;SOL_COMPUTED,INS_PPP_CONVERGING,17.60150172667,78.12665107745,527.3346,-76.2000,WGS84,0.3165,0.3686,0.4437,"TSTR",14.000,0.000,34,33,33,33,10,00,7f,30*deef9a15
#BESTPOSA,FILE,0,22.5,FINESTEERING,2317,469414.200,02000800,cdba,17139;SOL_COMPUTED,INS_PPP_CONVERGING,17.60150180216,78.12665105649,527.3304,-76.2000,WGS84,0.3165,0.3686,0.4437,"TSTR",14.000,0.000,34,33,33,33,10,00,7f,30*a6e86886
#BESTPOSA,FILE,0,22.5,FINESTEERING,2317,469414.300,02000800,cdba,17139;SOL_COMPUTED,INS_PPP_CONVERGING,17.60150198084,78.12665102425,527.3232,-76.2000,WGS84,0.3165,0.3686,0.4437,"TSTR",14.000,0.000,34,33,33,33,10,00,7f,30*fc2befef
#BESTPOSA,FILE,0,22.5,FINESTEERING,2317,469414.500,02000800,cdba,17139;SOL_COMPUTED,INS_PPP_CONVERGING,17.60150244588,78.12665095626,527.3081,-76.2000,WGS84,0.3165,0.3686,0.4437,"TSTR",14.000,0.000,34,33,33,33,10,00,7f,30*7adfaf61
#BESTPOSA,FILE,0,22.5,FINESTEERING,2317,469414.550,02000800,cdba,17139;SOL_COMPUTED,INS_PPP_CONVERGING,17.60150258724,78.12665093812,527.3040,-76.2000,WGS84,0.3165,0.3686,0.4437,"TSTR",14.000,0.000,34,33,33,33,10,00,7f,30*2fb0c9ba
#BESTPOSA,FILE,0,22.5,FINESTEERING,2317,469414.600,02000800,cdba,17139;SOL_COMPUTED,INS_PPP_CONVERGING,17.60150274063,78.12665092563,527.3005,-76.2000,WGS84,0.3165,0.3686,0.4437,"TSTR",14.000,0.000,34,33,33,33,10,00,7f,30*49503dab
#BESTPOSA,FILE,0,22.5,FINESTEERING,2317,469414.700,02000800,cdba,17139;SOL_COMPUTED,INS_PPP_CONVERGING,17.60150307534,78.12665089496,527.2924,-76.2000,WGS84,0.3165,0.3686,0.4437,"TSTR",14.000,0.000,34,33,33,33,10,00,7f,30*c1a0cd79
#BESTPOSA,FILE,0,22.5,FINESTEERING,2317,469414.750,02000800,cdba,17139;SOL_COMPUTED,INS_PPP_CONVERGING,17.60150326037,78.12665088143,527.2885,-76.2000,WGS84,0.3165,0.3686,0.4437,"TSTR",14.000,0.000,34,33,33,33,10,00,7f,30*b8a71bcb
#BESTPOSA,FILE,0,22.5,FINESTEERING,2317,469414.800,02000800,cdba,17139;SOL_COMPUTED,INS_PPP_CONVERGING,17.60150345698,78.12665086842,527.2847,-76.2000,WGS84,0.3165,0.3686,0.4437,"TSTR",14.000,0.000,34,33,33,33,10,00,7f,30*6dab4f6a
#BESTPOSA,FILE,0,22.5,FINESTEERING,2317,469414.850,02000800,cdba,17139;SOL_COMPUTED,INS_PPP_CONVERGING,17.60150366594,78.12665085607,527.2807,-76.2000,WGS84,0.3165,0.3686,0.4437,"TSTR",14.000,0.000,34,33,33,33,10,00,7f,30*1062feda
#BESTPOSA,FILE,0,22.5,FINESTEERING,2317,469415.650,02000800,cdba,17139;SOL_COMPUTED,INS_PPP_CONVERGING,17.60150920945,78.12665076972,527.2282,-76.2000,WGS84,0.3088,0.3642,0.4411,"TSTR",15.000,0.000,34,33,33,33,10,00,7f,30*c8473e9d
#BESTPOSA,FILE,0,22.5,FINESTEERING,2317,469415.750,02000800,cdba,17139;SOL_COMPUTED,INS_PPP_CONVERGING,17.60151021345,78.12665076400,527.2215,-76.2000,WGS84,0.3088,0.3642,0.4411,"TSTR",15.000,0.000,34,33,33,33,10,00,7f,30*24aeba54
#BESTPOSA,FILE,0,22.5,FINESTEERING,2317,469415.800,02000800,cdba,17139;SOL_COMPUTED,INS_PPP_CONVERGING,17.60151074449,78.12665076735,527.2184,-76.2000,WGS84,0.3088,0.3642,0.4411,"TSTR",15.000,0.000,34,33,33,33,10,00,7f,30*8a92ec96
#BESTPOSA,FILE,0,22.5,FINESTEERING,2317,469415.850,02000800,cdba,17139;SOL_COMPUTED,INS_PPP_CONVERGING,17.60151129655,78.12665076875,527.2150,-76.2000,WGS84,0.3088,0.3642,0.4411,"TSTR",15.000,0.000,34,33,33,33,10,00,7f,30*5ebaef28
#BESTPOSA,FILE,0,22.5,FINESTEERING,2317,469415.900,02000800,cdba,17139;SOL_COMPUTED,INS_PPP_CONVERGING,17.60151186853,78.12665077291,527.2117,-76.2000,WGS84,0.3088,0.3642,0.4411,"TSTR",15.000,0.000,34,33,33,33,10,00,7f,30*33853d8f
#BESTPOSA,FILE,0,22.5,FINESTEERING,2317,469415.950,02000800,cdba,17139;SOL_COMPUTED,INS_PPP_CONVERGING,17.60151245952,78.12665077744,527.2085,-76.2000,WGS84,0.3088,0.3642,0.4411,"TSTR",15.000,0.000,34,33,33,33,10,00,7f,30*b206a101
#BESTPOSA,FILE,0,22.5,FINESTEERING,2317,469416.000,02000800,cdba,17139;SOL_COMPUTED,INS_PPP_CONVERGING,17.60151307270,78.12665078238,527.2054,-76.2000,WGS84,0.3088,0.3642,0.4411,"TSTR",15.000,0.000,34,33,33,33,10,00,7f,30*c188fadc
#BESTPOSA,FILE,0,22.5,FINESTEERING,2317,469416.050,02000800,cdba,17139;SOL_COMPUTED,INS_PPP_CONVERGING,17.60151370509,78.12665078290,527.2019,-76.2000,WGS84,0.3026,0.3610,0.4368,"TSTR",16.000,0.000,34,31,31,31,10,00,7f,30*a6b300d2
#BESTPOSA,FILE,0,22.5,FINESTEERING,2317,469416.100,02000800,cdba,17139;SOL_COMPUTED,INS_PPP_CONVERGING,17.60151436497,78.12665078399,527.1993,-76.2000,WGS84,0.3026,0.3610,0.4368,"TSTR",16.000,0.000,34,31,31,31,10,00,7f,30*79f0b9f7
#BESTPOSA,FILE,0,23.0,FINESTEERING,2317,469416.150,02000800,cdba,17139;SOL_COMPUTED,INS_PPP_CONVERGING,17.60151504831,78.12665077886,527.1966,-76.2000,WGS84,0.3026,0.3610,0.4368,"TSTR",16.000,0.000,34,31,31,31,10,00,7f,30*18a33674
#BESTPOSA,FILE,0,23.0,FINESTEERING,2317,469416.200,02000800,cdba,17139;SOL_COMPUTED,INS_PPP_CONVERGING,17.60151575606,78.12665077308,527.1941,-76.2000,WGS84,0.3026,0.3610,0.4368,"TSTR",16.000,0.000,34,31,31,31,10,00,7f,30*7fac5fcd
#BESTPOSA,FILE,0,23.0,FINESTEERING,2317,469416.250,02000800,cdba,17139;SOL_COMPUTED,INS_PPP_CONVERGING,17.60151648818,78.12665076627,527.1915,-76.2000,WGS84,0.3026,0.3610,0.4368,"TSTR",16.000,0.000,34,31,31,31,10,00,7f,30*45600bd3
#BESTPOSA,FILE,0,23.0,FINESTEERING,2317,469416.300,02000800,cdba,17139;SOL_COMPUTED,INS_PPP_CONVERGING,17.60151724351,78.12665076464,527.1895,-76.2000,WGS84,0.3026,0.3610,0.4368,"TSTR",16.000,0.000,34,31,31,31,10,00,7f,30*d34a2371
#BESTPOSA,FILE,0,23.0,FINESTEERING,2317,469416.350,02000800,cdba,17139;SOL_COMPUTED,INS_PPP_CONVERGING,17.60151802091,78.12665075566,527.1871,-76.2000,WGS84,0.3026,0.3610,0.4368,"TSTR",16.000,0.000,34,31,31,31,10,00,7f,30*30262c64
#BESTPOSA,FILE,0,23.0,FINESTEERING,2317,469416.400,02000800,cdba,17139;SOL_COMPUTED,INS_PPP_CONVERGING,17.60151881984,78.12665075145,527.1853,-76.2000,WGS84,0.3026,0.3610,0.4368,"TSTR",16.000,0.000,34,31,31,31,10,00,7f,30*f70e49e7
#BESTPOSA,FILE,0,23.0,FINESTEERING,2317,469416.450,02000800,cdba,17139;SOL_COMPUTED,INS_PPP_CONVERGING,17.60151963875,78.12665074650,527.1833,-76.2000,WGS84,0.3026,0.3610,0.4368,"TSTR",16.000,0.000,34,31,31,31,10,00,7f,30*ae003c26
#BESTPOSA,FILE,0,23.0,FINESTEERING,2317,469416.500,02000800,cdba,17139;SOL_COMPUTED,INS_PPP_CONVERGING,17.60152048006,78.12665073949,527.1810,-76.2000,WGS84,0.3026,0.3610,0.4368,"TSTR",16.000,0.000,34,31,31,31,10,00,7f,30*a54fc425
#BESTPOSA,FILE,0,23.0,FINESTEERING,2317,469416.550,02000800,cdba,17139;SOL_COMPUTED,INS_PPP_CONVERGING,17.60152134407,78.12665073573,527.1791,-76.2000,WGS84,0.3026,0.3610,0.4368,"TSTR",16.000,0.000,34,31,31,31,10,00,7f,30*8731b720
#BESTPOSA,FILE,0,23.0,FINESTEERING,2317,469416.600,02000800,cdba,17139;SOL_COMPUTED,INS_PPP_CONVERGING,17.60152222980,78.12665073024,527.1770,-76.2000,WGS84,0.3026,0.3610,0.4368,"TSTR",16.000,0.000,34,31,31,31,10,00,7f,30*2a70cab7
#BESTPOSA,FILE,0,23.0,FINESTEERING,2317,469416.650,02000800,cdba,17139;SOL_COMPUTED,INS_PPP_CONVERGING,17.60152313667,78.12665072584,527.1747,-76.2000,WGS84,0.3026,0.3610,0.4368,"TSTR",16.000,0.000,34,31,31,31,10,00,7f,30*87194320
#BESTPOSA,FILE,0,23.0,FINESTEERING,2317,469416.700,02000800,cdba,17139;SOL_COMPUTED,INS_PPP_CONVERGING,17.60152406195,78.12665072580,527.1728,-76.2000,WGS84,0.3026,0.3610,0.4368,"TSTR",16.000,0.000,34,31,31,31,10,00,7f,30*d6074650
#BESTPOSA,FILE,0,23.0,FINESTEERING,2317,469416.750,02000800,cdba,17139;SOL_COMPUTED,INS_PPP_CONVERGING,17.60152500265,78.12665072662,527.1711,-76.2000,WGS84,0.3026,0.3610,0.4368,"TSTR",16.000,0.000,34,31,31,31,10,00,7f,30*bfe34fb9
#BESTPOSA,FILE,0,23.0,FINESTEERING,2317,469416.800,02000000,cdba,17139;SOL_COMPUTED,INS_PPP_CONVERGING,17.60152595420,78.12665072388,527.1693,-76.2000,WGS84,0.3026,0.3610,0.4368,"TSTR",16.000,0.000,34,31,31,31,10,00,7f,30*0407e9d6
#BESTPOSA,FILE,0,23.0,FINESTEERING,2317,469416.850,02000000,cdba,17139;SOL_COMPUTED,INS_PPP_CONVERGING,17.60152691666,78.12665071504,527.1673,-76.2000,WGS84,0.3026,0.3610,0.4368,"TSTR",16.000,0.000,34,31,31,31,10,00,7f,30*cfa9749c
#BESTPOSA,FILE,0,23.0,FINESTEERING,2317,469416.900,02000000,cdba,17139;SOL_COMPUTED,INS_PPP_CONVERGING,17.60152789177,78.12665070356,527.1654,-76.2000,WGS84,0.3026,0.3610,0.4368,"TSTR",16.000,0.000,34,31,31,31,10,00,7f,30*2f41ae18
#BESTPOSA,FILE,0,23.0,FINESTEERING,2317,469416.950,02000000,cdba,17139;SOL_COMPUTED,INS_PPP_CONVERGING,17.60152887576,78.12665069388,527.1639,-76.2000,WGS84,0.3026,0.3610,0.4368,"TSTR",16.000,0.000,34,31,31,31,10,00,7f,30*1445c561
#BESTPOSA,FILE,0,23.0,FINESTEERING,2317,469417.000,02000000,cdba,17139;SOL_COMPUTED,INS_PPP_CONVERGING,17.60152986636,78.12665068486,527.1627,-76.2000,WGS84,0.3026,0.3610,0.4368,"TSTR",16.000,0.000,34,31,31,31,10,00,7f,30*83aa9133
#BESTPOSA,FILE,0,23.0,FINESTEERING,2317,469417.050,02000000,cdba,17139;SOL_COMPUTED,INS_PPP_CONVERGING,17.60153084775,78.12665066685,527.1618,-76.2000,WGS84,0.2972,0.3602,0.4304,"TSTR",17.000,0.000,32,28,28,28,10,00,7f,30*4b8990f6
#BESTPOSA,FILE,0,23.0,FINEBACKUPSTEERING,2317,469417.100,02000000,cdba,17139;SOL_COMPUTED,INS_PPP_CONVERGING,17.60153183233,78.12665063324,527.1608,-76.2000,WGS84,0.2972,0.3602,0.4304,"TSTR",17.000,0.000,32,28,28,28,10,00,7f,30*bbd3e2e6
#BESTPOSA,FILE,0,16.5,FINEBACKUPSTEERING,2317,469417.150,02000000,cdba,17139;SOL_COMPUTED,INS_PPP_CONVERGING,17.60153281864,78.12665059776,527.1595,-76.2000,WGS84,0.2972,0.3602,0.4304,"TSTR",17.000,0.000,32,28,28,28,10,00,7f,30*0ee90491
#BESTPOSA,FILE,0,16.5,FINEBACKUPSTEERING,2317,469417.200,02000000,cdba,17139;SOL_COMPUTED,INS_PPP_CONVERGING,17.60153381156,78.12665056603,527.1582,-76.2000,WGS84,0.2972,0.3602,0.4304,"TSTR",17.000,0.000,32,28,28,28,10,00,7f,30*8aad0bda
#BESTPOSA,FILE,0,16.5,FINEBACKUPSTEERING,2317,469417.250,02000000,cdba,17139;SOL_COMPUTED,INS_PPP_CONVERGING,17.60153481079,78.12665053168,527.1571,-76.2000,WGS84,0.2972,0.3602,0.4304,"TSTR",17.000,0.000,32,28,28,28,10,00,7f,30*3db1dede
#BESTPOSA,FILE,0,16.5,FINEBACKUPSTEERING,2317,469417.300,02000000,cdba,17139;SOL_COMPUTED,INS_PPP_CONVERGING,17.60153581471,78.12665048714,527.1553,-76.2000,WGS84,0.2972,0.3602,0.4304,"TSTR",17.000,0.000,32,28,28,28,10,00,7f,30*97af877d
#BESTPOSA,FILE,0,16.5,FINEBACKUPSTEERING,2317,469417.350,02000000,cdba,17139;SOL_COMPUTED,INS_PPP_CONVERGING,17.60153682074,78.12665045586,527.1534,-76.2000,WGS84,0.2972,0.3602,0.4304,"TSTR",17.000,0.000,32,28,28,28,10,00,7f,30*a5bc20b8
#BESTPOSA,FILE,0,16.5,FINEBACKUPSTEERING,2317,469417.400,02000000,cdba,17139;SOL_COMPUTED,INS_PPP_CONVERGING,17.60153783264,78.12665042490,527.1510,-76.2000,WGS84,0.2972,0.3602,0.4304,"TSTR",17.000,0.000,32,28,28,28,10,00,7f,30*5158a145
#BESTPOSA,FILE,0,16.5,FINEBACKUPSTEERING,2317,469417.450,02000000,cdba,17139;SOL_COMPUTED,INS_PPP_CONVERGING,17.60153885265,78.12665038890,527.1481,-76.2000,WGS84,0.2972,0.3602,0.4304,"TSTR",17.000,0.000,32,28,28,28,10,00,7f,30*5198f52e
#BESTPOSA,FILE,0,16.5,FINEBACKUPSTEERING,2317,469417.500,02000000,cdba,17139;SOL_COMPUTED,INS_PPP_CONVERGING,17.60153987700,78.12665036320,527.1458,-76.2000,WGS84,0.2972,0.3602,0.4304,"TSTR",17.000,0.000,32,28,28,28,10,00,7f,30*f670c047
#BESTPOSA,FILE,0,16.5,FINEBACKUPSTEERING,2317,469417.550,02000000,cdba,17139;SOL_COMPUTED,INS_PPP_CONVERGING,17.60154090425,78.12665033697,527.1439,-76.2000,WGS84,0.2972,0.3602,0.4304,"TSTR",17.000,0.000,32,28,28,28,10,00,7f,30*b9274e2e
#BESTPOSA,FILE,0,16.5,FINEBACKUPSTEERING,2317,469417.600,02000000,cdba,17139;SOL_COMPUTED,INS_PPP_CONVERGING,17.60154193375,78.12665030649,527.1421,-76.2000,WGS84,0.2972,0.3602,0.4304,"TSTR",17.000,0.000,32,28,28,28,10,00,7f,30*29360f0b
#BESTPOSA,FILE,0,16.5,FINEBACKUPSTEERING,2317,469417.650,02000000,cdba,17139;SOL_COMPUTED,INS_PPP_CONVERGING,17.60154296161,78.12665028120,527.1411,-76.2000,WGS84,0.2972,0.3602,0.4304,"TSTR",17.000,0.000,32,28,28,28,10,00,7f,30*6835459e
#BESTPOSA,FILE,0,16.5,FINEBACKUPSTEERING,2317,469417.700,02000000,cdba,17139;SOL_COMPUTED,INS_PPP_CONVERGING,17.60154398864,78.12665025230,527.1399,-76.2000,WGS84,0.2972,0.3602,0.4304,"TSTR",17.000,0.000,32,28,28,28,10,00,7f,30*3bf5be10
#BESTPOSA,FILE,0,16.5,FINEBACKUPSTEERING,2317,469417.750,02000000,cdba,17139;SOL_COMPUTED,INS_PPP_CONVERGING,17.60154501355,78.12665022824,527.1382,-76.2000,WGS84,0.2972,0.3602,0.4304,"TSTR",17.000,0.000,32,28,28,28,10,00,7f,30*783a54f2
#BESTPOSA,FILE,0,16.5,FINEBACKUPSTEERING,2317,469417.800,02000000,cdba,17139;SOL_COMPUTED,INS_PPP_CONVERGING,17.60154604124,78.12665021311,527.1362,-76.2000,WGS84,0.2972,0.3602,0.4304,"TSTR",17.000,0.000,32,28,28,28,10,00,7f,30*e811a200
#BESTPOSA,FILE,0,16.5,FINEBACKUPSTEERING,2317,469417.850,02000000,cdba,17139;SOL_COMPUTED,INS_PPP_CONVERGING,17.60154707852,78.12665018872,527.1333,-76.2000,WGS84,0.2972,0.3602,0.4304,"TSTR",17.000,0.000,32,28,28,28,10,00,7f,30*6b8ead2a
#BESTPOSA,FILE,0,16.5,FINEBACKUPSTEERING,2317,469417.900,02000000,cdba,17139;SOL_COMPUTED,INS_PPP_CONVERGING,17.60154812522,78.12665016813,527.1308,-76.2000,WGS84,0.2972,0.3602,0.4304,"TSTR",17.000,0.000,32,28,28,28,10,00,7f,30*dac9d7c7
#BESTPOSA,FILE,0,16.5,FINEBACKUPSTEERING,2317,469417.950,02000000,cdba,17139;SOL_COMPUTED,INS_PPP_CONVERGING,17.60154918276,78.12665014371,527.1284,-76.2000,WGS84,0.2972,0.3602,0.4304,"TSTR",17.000,0.000,32,28,28,28,10,00,7f,30*a896bc9e
#BESTPOSA,FILE,0,16.5,FINEBACKUPSTEERING,2317,469418.000,02000000,cdba,17139;SOL_COMPUTED,INS_PPP_CONVERGING,17.60155025246,78.12665011306,527.1265,-76.2000,WGS84,0.2972,0.3602,0.4304,"TSTR",17.000,0.000,32,28,28,28,10,00,7f,30*ef83bf74
#BESTPOSA,FILE,0,16.5,FINEBACKUPSTEERING,2317,469418.050,02000000,cdba,17139;SOL_COMPUTED,INS_PPP_CONVERGING,17.60155132483,78.12665007130,527.1255,-76.2000,WGS84,0.2923,0.3621,0.4219,"TSTR",18.000,0.000,30,28,28,28,10,00,7f,30*500e4521
#BESTPOSA,FILE,0,12.0,FINEBACKUPSTEERING,2317,469418.100,02000000,cdba,17139;SOL_COMPUTED,INS_PPP_CONVERGING,17.60155241451,78.12665002259,527.1255,-76.2000,WGS84,0.2923,0.3621,0.4219,"TSTR",18.000,0.000,30,28,28,28,10,00,7f,30*819d5d2f
#BESTPOSA,FILE,0,12.0,FINEBACKUPSTEERING,2317,469418.150,02000000,cdba,17139;SOL_COMPUTED,INS_PPP_CONVERGING,17.60155351634,78.12664997565,527.1276,-76.2000,WGS84,0.2923,0.3621,0.4219,"TSTR",18.000,0.000,30,28,28,28,10,00,7f,30*dbec908a
#BESTPOSA,FILE,0,12.0,FINEBACKUPSTEERING,2317,469418.200,02000000,cdba,17139;SOL_COMPUTED,INS_PPP_CONVERGING,17.60155462698,78.12664993447,527.1314,-76.2000,WGS84,0.2923,0.3621,0.4219,"TSTR",18.000,0.000,30,28,28,28,10,00,7f,30*580d558f
#BESTPOSA,FILE,0,12.0,FINEBACKUPSTEERING,2317,469418.250,02000000,cdba,17139;SOL_COMPUTED,INS_PPP_CONVERGING,17.60155574204,78.12664990343,527.1342,-76.2000,WGS84,0.2923,0.3621,0.4219,"TSTR",18.000,0.000,30,28,28,28,10,00,7f,30*9fdf3edc
#BESTPOSA,FILE,0,12.0,FINEBACKUPSTEERING,2317,469418.300,02000000,cdba,17139;SOL_COMPUTED,INS_PPP_CONVERGING,17.60155685556,78.12664987172,527.1349,-76.2000,WGS84,0.2923,0.3621,0.4219,"TSTR",18.000,0.000,30,28,28,28,10,00,7f,30*b248eb7b
#BESTPOSA,FILE,0,12.0,FINEBACKUPSTEERING,2317,469418.350,02000000,cdba,17139;SOL_COMPUTED,INS_PPP_CONVERGING,17.60155796693,78.12664983123,527.1339,-76.2000,WGS84,0.2923,0.3621,0.4219,"TSTR",18.000,0.000,30,28,28,28,10,00,7f,30*afb5c567
#BESTPOSA,FILE,0,12.0,FINEBACKUPSTEERING,2317,469418.400,02000000,cdba,17139;SOL_COMPUTED,INS_PPP_CONVERGING,17.60155908252,78.12664978872,527.1316,-76.2000,WGS84,0.2923,0.3621,0.4219,"TSTR",18.000,0.000,30,28,28,28,10,00,7f,30*e91491c4
#BESTPOSA,FILE,0,12.0,FINEBACKUPSTEERING,2317,469418.450,02000000,cdba,17139;SOL_COMPUTED,INS_PPP_CONVERGING,17.60156020498,78.12664975450,527.1287,-76.2000,WGS84,0.2923,0.3621,0.4219,"TSTR",18.000,0.000,30,28,28,28,10,00,7f,30*f0c19d33
#BESTPOSA,FILE,0,12.0,FINEBACKUPSTEERING,2317,469418.500,02000000,cdba,17139;SOL_COMPUTED,INS_PPP_CONVERGING,17.60156133594,78.12664970913,527.1250,-76.2000,WGS84,0.2923,0.3621,0.4219,"TSTR",18.000,0.000,30,28,28,28,10,00,7f,30*8a962759
#BESTPOSA,FILE,0,12.0,FINEBACKUPSTEERING,2317,469418.550,02000000,cdba,17139;SOL_COMPUTED,INS_PPP_CONVERGING,17.60156247775,78.12664965978,527.1218,-76.2000,WGS84,0.2923,0.3621,0.4219,"TSTR",18.000,0.000,30,28,28,28,10,00,7f,30*1b8b14b5
#BESTPOSA,FILE,0,12.0,FINEBACKUPSTEERING,2317,469418.600,02000000,cdba,17139;SOL_COMPUTED,INS_PPP_CONVERGING,17.60156363085,78.12664961163,527.1194,-76.2000,WGS84,0.2923,0.3621,0.4219,"TSTR",18.000,0.000,30,28,28,28,10,00,7f,30*50bbb23d
#BESTPOSA,FILE,0,12.0,FINEBACKUPSTEERING,2317,469418.650,02000000,cdba,17139;SOL_COMPUTED,INS_PPP_CONVERGING,17.60156479267,78.12664957231,527.1176,-76.2000,WGS84,0.2923,0.3621,0.4219,"TSTR",18.000,0.000,30,28,28,28,10,00,7f,30*f7263b9f
#BESTPOSA,FILE,0,12.0,FINEBACKUPSTEERING,2317,469418.700,02000000,cdba,17139;SOL_COMPUTED,INS_PPP_CONVERGING,17.60156596741,78.12664953476,527.1160,-76.2000,WGS84,0.2923,0.3621,0.4219,"TSTR",18.000,0.000,30,28,28,28,10,00,7f,30*d35445fb
#BESTPOSA,FILE,0,12.0,FINEBACKUPSTEERING,2317,469418.750,02000000,cdba,17139;SOL_COMPUTED,INS_PPP_CONVERGING,17.60156715889,78.12664950434,527.1151,-76.2000,WGS84,0.2923,0.3621,0.4219,"TSTR",18.000,0.000,30,28,28,28,10,00,7f,30*f52f1046
#BESTPOSA,FILE,0,12.0,FINEBACKUPSTEERING,2317,469418.800,02000000,cdba,17139;SOL_COMPUTED,INS_PPP_CONVERGING,17.60156836837,78.12664947368,527.1146,-76.2000,WGS84,0.2923,0.3621,0.4219,"TSTR",18.000,0.000,30,28,28,28,10,00,7f,30*20416522
#BESTPOSA,FILE,0,12.0,FINEBACKUPSTEERING,2317,469418.850,02000000,cdba,17139;SOL_COMPUTED,INS_PPP_CONVERGING,17.60156959735,78.12664943765,527.1140,-76.2000,WGS84,0.2923,0.3621,0.4219,"TSTR",18.000,0.000,30,28,28,28,10,00,7f,30*3dbe9240
#BESTPOSA,FILE,0,12.0,FINEBACKUPSTEERING,2317,469418.900,02000000,cdba,17139;SOL_COMPUTED,INS_PPP_CONVERGING,17.60157084848,78.12664939420,527.1138,-76.2000,WGS84,0.2923,0.3621,0.4219,"TSTR",18.000,0.000,30,28,28,28,10,00,7f,30*770fe4c4
#BESTPOSA,FILE,0,12.0,FINEBACKUPSTEERING,2317,469418.950,02000000,cdba,17139;SOL_COMPUTED,INS_PPP_CONVERGING,17.60157212202,78.12664935171,527.1142,-76.2000,WGS84,0.2923,0.3621,0.4219,"TSTR",18.000,0.000,30,28,28,28,10,00,7f,30*33b8a74c
#BESTPOSA,FILE,0,12.0,FINEBACKUPSTEERING,2317,469419.000,02000000,cdba,17139;SOL_COMPUTED,INS_PPP_CONVERGING,17.60157341659,78.12664929467,527.1139,-76.2000,WGS84,0.2923,0.3621,0.4219,"TSTR",18.000,0.000,30,28,28,28,10,00,7f,30*135c040a
#BESTPOSA,FILE,0,12.0,FINEBACKUPSTEERING,2317,469419.050,02000000,cdba,17139;SOL_COMPUTED,INS_PPP_CONVERGING,17.60157471962,78.12664923710,527.1137,-76.2000,WGS84,0.2881,0.3638,0.4137,"TSTR",19.000,0.000,29,27,27,25,10,00,7f,30*5252bc39
#BESTPOSA,FILE,0,12.0,FINEBACKUPSTEERING,2317,469419.100,02000000,cdba,17139;SOL_COMPUTED,INS_PPP_CONVERGING,17.60157604260,78.12664917063,527.1125,-76.2000,WGS84,0.2881,0.3638,0.4137,"TSTR",19.000,0.000,29,27,27,25,10,00,7f,30*b1985ef8
#BESTPOSA,FILE,0,17.5,FINEBACKUPSTEERING,2317,469419.150,02000000,cdba,17139;SOL_COMPUTED,INS_PPP_CONVERGING,17.60157737924,78.12664910413,527.1102,-76.2000,WGS84,0.2881,0.3638,0.4137,"TSTR",19.000,0.000,29,27,27,25,10,00,7f,30*967c5cad
#BESTPOSA,FILE,0,17.5,FINEBACKUPSTEERING,2317,469419.200,02000000,cdba,17139;SOL_COMPUTED,INS_PPP_CONVERGING,17.60157873408,78.12664905659,527.1081,-76.2000,WGS84,0.2881,0.3638,0.4137,"TSTR",19.000,0.000,29,27,27,25,10,00,7f,30*9a52a0a7
#BESTPOSA,FILE,0,17.5,FINEBACKUPSTEERING,2317,469419.250,02000000,cdba,17139;SOL_COMPUTED,INS_PPP_CONVERGING,17.60158010775,78.12664900472,527.1061,-76.2000,WGS84,0.2881,0.3638,0.4137,"TSTR",19.000,0.000,29,27,27,25,10,00,7f,30*6583fc92
#BESTPOSA,FILE,0,17.5,FINEBACKUPSTEERING,2317,469419.300,02000000,cdba,17139;SOL_COMPUTED,INS_PPP_CONVERGING,17.60158150248,78.12664893891,527.1046,-76.2000,WGS84,0.2881,0.3638,0.4137,"TSTR",19.000,0.000,29,27,27,25,10,00,7f,30*df7c7cbf
#BESTPOSA,FILE,0,17.5,FINEBACKUPSTEERING,2317,469419.350,02000000,cdba,17139;SOL_COMPUTED,INS_PPP_CONVERGING,17.60158292357,78.12664887037,527.1037,-76.2000,WGS84,0.2881,0.3638,0.4137,"TSTR",19.000,0.000,29,27,27,25,10,00,7f,30*6cc9868a
#BESTPOSA,FILE,0,17.5,FINEBACKUPSTEERING,2317,469419.400,02000000,cdba,17139;SOL_COMPUTED,INS_PPP_CONVERGING,17.60158436745,78.12664880214,527.1035,-76.2000,WGS84,0.2881,0.3638,0.4137,"TSTR",19.000,0.000,29,27,27,25,10,00,7f,30*2ac9585a
#BESTPOSA,FILE,0,17.5,FINEBACKUPSTEERING,2317,469419.450,02000000,cdba,17139;SOL_COMPUTED,INS_PPP_CONVERGING,17.60158583233,78.12664871950,527.1029,-76.2000,WGS84,0.2881,0.3638,0.4137,"TSTR",19.000,0.000,29,27,27,25,10,00,7f,30*2ca7de26
#BESTPOSA,FILE,0,17.5,FINEBACKUPSTEERING,2317,469419.500,02000000,cdba,17139;SOL_COMPUTED,INS_PPP_CONVERGING,17.60158731956,78.12664863634,527.1030,-76.2000,WGS84,0.2881,0.3638,0.4137,"TSTR",19.000,0.000,29,27,27,25,10,00,7f,30*5e107438
#BESTPOSA,FILE,0,17.5,FINEBACKUPSTEERING,2317,469419.550,02000000,cdba,17139;SOL_COMPUTED,INS_PPP_CONVERGING,17.60158882893,78.12664856403,527.1039,-76.2000,WGS84,0.2881,0.3638,0.4137,"TSTR",19.000,0.000,29,27,27,25,10,00,7f,30*0d8ea7cb
#BESTPOSA,FILE,0,17.5,FINEBACKUPSTEERING,2317,469419.600,02000000,cdba,17139;SOL_COMPUTED,INS_PPP_CONVERGING,17.60159036080,78.12664848809,527.1048,-76.2000,WGS84,0.2881,0.3638,0.4137,"TSTR",19.000,0.000,29,27,27,25,10,00,7f,30*d925d549
#BESTPOSA,FILE,0,17.5,FINEBACKUPSTEERING,2317,469419.650,02000000,cdba,17139;SOL_COMPUTED,INS_PPP_CONVERGING,17.60159191498,78.12664841244,527.1060,-76.2000,WGS84,0.2881,0.3638,0.4137,"TSTR",19.000,0.000,29,27,27,25,10,00,7f,30*e36ebbfc
#BESTPOSA,FILE,0,17.5,FINEBACKUPSTEERING,2317,469419.700,02000000,cdba,17139;SOL_COMPUTED,INS_PPP_CONVERGING,17.60159349090,78.12664833535,527.1069,-76.2000,WGS84,0.2881,0.3638,0.4137,"TSTR",19.000,0.000,29,27,27,25,10,00,7f,30*9e90d3f3
#BESTPOSA,FILE,0,17.5,FINEBACKUPSTEERING,2317,469419.750,02000000,cdba,17139;SOL_COMPUTED,INS_PPP_CONVERGING,17.60159508360,78.12664825810,527.1071,-76.2000,WGS84,0.2881,0.3638,0.4137,"TSTR",19.000,0.000,29,27,27,25,10,00,7f,30*80e43065
#BESTPOSA,FILE,0,17.5,FINEBACKUPSTEERING,2317,469419.800,02000000,cdba,17139;SOL_COMPUTED,INS_PPP_CONVERGING,17.60159669043,78.12664818440,527.1067,-76.2000,WGS84,0.2881,0.3638,0.4137,"TSTR",19.000,0.000,29,27,27,25,10,00,7f,30*68f48174
#BESTPOSA,FILE,0,17.5,FINEBACKUPSTEERING,2317,469419.850,02000000,cdba,17139;SOL_COMPUTED,INS_PPP_CONVERGING,17.60159831108,78.12664810604,527.1063,-76.2000,WGS84,0.2881,0.3638,0.4137,"TSTR",19.000,0.000,29,27,27,25,10,00,7f,30*a5eacf81
#BESTPOSA,FILE,0,17.5,FINEBACKUPSTEERING,2317,469419.900,02000000,cdba,17139;SOL_COMPUTED,INS_PPP_CONVERGING,17.60159994730,78.12664802922,527.1058,-76.2000,WGS84,0.2881,0.3638,0.4137,"TSTR",19.000,0.000,29,27,27,25,10,00,7f,30*f6b034c1
#BESTPOSA,FILE,0,17.5,FINEBACKUPSTEERING,2317,469419.950,02000000,cdba,17139;SOL_COMPUTED,INS_PPP_CONVERGING,17.60160160499,78.12664795027,527.1055,-76.2000,WGS84,0.2881,0.3638,0.4137,"TSTR",19.000,0.000,29,27,27,25,10,00,7f,30*1066f7d7
#BESTPOSA,FILE,0,17.5,FINEBACKUPSTEERING,2317,469420.000,02000000,cdba,17139;SOL_COMPUTED,INS_PPP_CONVERGING,17.60160328283,78.12664787186,527.1058,-76.2000,WGS84,0.2881,0.3638,0.4137,"TSTR",19.000,0.000,29,27,27,25,10,00,7f,30*f9deabbf
#BESTPOSA,FILE,0,17.5,FINEBACKUPSTEERING,2317,469420.050,02000000,cdba,17139;SOL_COMPUTED,INS_PPP_CONVERGING,17.60160496865,78.12664777064,527.1055,-76.2000,WGS84,0.2843,0.3646,0.4066,"TSTR",20.000,0.000,28,27,27,27,10,00,7f,30*b92ea7d9
#BESTPOSA,FILE,0,17.5,FINEBACKUPSTEERING,2317,469420.100,02000000,cdba,17139;SOL_COMPUTED,INS_PPP_CONVERGING,17.60160667508,78.12664765643,527.1046,-76.2000,WGS84,0.2843,0.3646,0.4066,"TSTR",20.000,0.000,28,27,27,27,10,00,7f,30*2f54f0eb
#BESTPOSA,FILE,0,17.5,FINEBACKUPSTEERING,2317,469420.150,02000000,cdba,17139;SOL_COMPUTED,INS_PPP_CONVERGING,17.60160839619,78.12664755074,527.1043,-76.2000,WGS84,0.2843,0.3646,0.4066,"TSTR",20.000,0.000,28,27,27,27,10,00,7f,30*6a33485a
#BESTPOSA,FILE,0,21.0,FINEBACKUPSTEERING,2317,469420.200,02000000,cdba,17139;SOL_COMPUTED,INS_PPP_CONVERGING,17.60161012942,78.12664744089,527.1040,-76.2000,WGS84,0.2843,0.3646,0.4066,"TSTR",20.000,0.000,28,27,27,27,10,00,7f,30*3d5ebd59
#BESTPOSA,FILE,0,21.0,FINEBACKUPSTEERING,2317,469420.250,02000000,cdba,17139;SOL_COMPUTED,INS_PPP_CONVERGING,17.60161187602,78.12664733253,527.1038,-76.2000,WGS84,0.2843,0.3646,0.4066,"TSTR",20.000,0.000,28,27,27,27,10,00,7f,30*28f8b1cd
#BESTPOSA,FILE,0,21.0,FINEBACKUPSTEERING,2317,469420.300,02000000,cdba,17139;SOL_COMPUTED,INS_PPP_CONVERGING,17.60161363458,78.12664722995,527.1043,-76.2000,WGS84,0.2843,0.3646,0.4066,"TSTR",20.000,0.000,28,27,27,27,10,00,7f,30*38a5d9e2
#BESTPOSA,FILE,0,21.0,FINEBACKUPSTEERING,2317,469420.350,02000000,cdba,17139;SOL_COMPUTED,INS_PPP_CONVERGING,17.60161540343,78.12664711884,527.1046,-76.2000,WGS84,0.2843,0.3646,0.4066,"TSTR",20.000,0.000,28,27,27,27,10,00,7f,30*048220a5
#BESTPOSA,FILE,0,21.0,FINEBACKUPSTEERING,2317,469420.400,02000000,cdba,17139;SOL_COMPUTED,INS_PPP_CONVERGING,17.60161717995,78.12664701184,527.1042,-76.2000,WGS84,0.2843,0.3646,0.4066,"TSTR",20.000,0.000,28,27,27,27,10,00,7f,30*95dd5795
#BESTPOSA,FILE,0,21.0,FINEBACKUPSTEERING,2317,469420.450,02000000,cdba,17139;SOL_COMPUTED,INS_PPP_CONVERGING,17.60161896460,78.12664691809,527.1039,-76.2000,WGS84,0.2843,0.3646,0.4066,"TSTR",20.000,0.000,28,27,27,27,10,00,7f,30*c1ccc0b5
#BESTPOSA,FILE,0,21.0,FINEBACKUPSTEERING,2317,469420.500,02000000,cdba,17139;SOL_COMPUTED,INS_PPP_CONVERGING,17.60162075680,78.12664681796,527.1031,-76.2000,WGS84,0.2843,0.3646,0.4066,"TSTR",20.000,0.000,28,27,27,27,10,00,7f,30*53aa6e0e
#BESTPOSA,FILE,0,21.0,FINEBACKUPSTEERING,2317,469420.550,02000000,cdba,17139;SOL_COMPUTED,INS_PPP_CONVERGING,17.60162255712,78.12664671224,527.1026,-76.2000,WGS84,0.2843,0.3646,0.4066,"TSTR",20.000,0.000,28,27,27,27,10,00,7f,30*c238e073
#BESTPOSA,FILE,0,21.0,FINEBACKUPSTEERING,2317,469420.600,02000000,cdba,17139;SOL_COMPUTED,INS_PPP_CONVERGING,17.60162436767,78.12664661502,527.1017,-76.2000,WGS84,0.2843,0.3646,0.4066,"TSTR",20.000,0.000,28,27,27,27,10,00,7f,30*1fc93267
#BESTPOSA,FILE,0,21.0,FINEBACKUPSTEERING,2317,469420.650,02000000,cdba,17139;SOL_COMPUTED,INS_PPP_CONVERGING,17.60162619084,78.12664650795,527.1009,-76.2000,WGS84,0.2843,0.3646,0.4066,"TSTR",20.000,0.000,28,27,27,27,10,00,7f,30*e7058e48
#BESTPOSA,FILE,0,21.0,FINEBACKUPSTEERING,2317,469420.700,02000000,cdba,17139;SOL_COMPUTED,INS_PPP_CONVERGING,17.60162802887,78.12664639093,527.1004,-76.2000,WGS84,0.2843,0.3646,0.4066,"TSTR",20.000,0.000,28,27,27,27,10,00,7f,30*aa796528
#BESTPOSA,FILE,0,21.0,FINEBACKUPSTEERING,2317,469420.750,02000000,cdba,17139;SOL_COMPUTED,INS_PPP_CONVERGING,17.60162987501,78.12664628233,527.1008,-76.2000,WGS84,0.2843,0.3646,0.4066,"TSTR",20.000,0.000,28,27,27,27,10,00,7f,30*f136a035
#BESTPOSA,FILE,0,21.0,FINEBACKUPSTEERING,2317,469420.800,02000000,cdba,17139;SOL_COMPUTED,INS_PPP_CONVERGING,17.60163173239,78.12664616402,527.1011,-76.2000,WGS84,0.2843,0.3646,0.4066,"TSTR",20.000,0.000,28,27,27,27,10,00,7f,30*1077e595
#BESTPOSA,FILE,0,21.0,FINEBACKUPSTEERING,2317,469420.850,02000000,cdba,17139;SOL_COMPUTED,INS_PPP_CONVERGING,17.60163359680,78.12664605249,527.1021,-76.2000,WGS84,0.2843,0.3646,0.4066,"TSTR",20.000,0.000,28,27,27,27,10,00,7f,30*869c49c5
#BESTPOSA,FILE,0,21.0,FINEBACKUPSTEERING,2317,469420.900,02000000,cdba,17139;SOL_COMPUTED,INS_PPP_CONVERGING,17.60163546851,78.12664593524,527.1031,-76.2000,WGS84,0.2843,0.3646,0.4066,"TSTR",20.000,0.000,28,27,27,27,10,00,7f,30*8c91bf88
#BESTPOSA,FILE,0,21.0,FINEBACKUPSTEERING,2317,469420.950,02000000,cdba,17139;SOL_COMPUTED,INS_PPP_CONVERGING,17.60163734851,78.12664581499,527.1037,-76.2000,WGS84,0.2843,0.3646,0.4066,"TSTR",20.000,0.000,28,27,27,27,10,00,7f,30*ad88cca9
#BESTPOSA,FILE,0,21.0,FINEBACKUPSTEERING,2317,469421.000,02000000,cdba,17139;SOL_COMPUTED,INS_PPP_CONVERGING,17.60163923677,78.12664569342,527.1042,-76.2000,WGS84,0.2843,0.3646,0.4066,"TSTR",20.000,0.000,28,27,27,27,10,00,7f,30*8c447f20
#BESTPOSA,FILE,0,21.0,FINEBACKUPSTEERING,2317,469421.050,02000000,cdba,17139;SOL_COMPUTED,INS_PPP_CONVERGING,17.60164113002,78.12664557234,527.1046,-76.2000,WGS84,0.2800,0.3647,0.4008,"TSTR",11.000,0.000,26,25,25,25,10,00,7f,30*351022d4
#BESTPOSA,FILE,0,21.0,FINEBACKUPSTEERING,2317,469421.100,02000000,cdba,17139;SOL_COMPUTED,INS_PPP_CONVERGING,17.60164303770,78.12664545170,527.1061,-76.2000,WGS84,0.2800,0.3647,0.4008,"TSTR",11.000,0.000,26,25,25,25,10,00,7f,30*324058f8
#BESTPOSA,FILE,0,21.0,FINEBACKUPSTEERING,2317,469421.150,02000000,cdba,17139;SOL_COMPUTED,INS_PPP_CONVERGING,17.60164495494,78.12664533384,527.1079,-76.2000,WGS84,0.2800,0.3647,0.4008,"TSTR",11.000,0.000,26,25,25,25,10,00,7f,30*b1442c5f
#BESTPOSA,FILE,0,21.0,FINEBACKUPSTEERING,2317,469421.200,02000000,cdba,17139;SOL_COMPUTED,INS_PPP_CONVERGING,17.60164687513,78.12664523036,527.1108,-76.2000,WGS84,0.2800,0.3647,0.4008,"TSTR",11.000,0.000,26,25,25,25,10,00,7f,30*2dfb50fb
#BESTPOSA,FILE,0,21.0,FINEBACKUPSTEERING,2317,469421.250,02000000,cdba,17139;SOL_COMPUTED,INS_PPP_CONVERGING,17.60164879397,78.12664511723,527.1142,-76.2000,WGS84,0.2800,0.3647,0.4008,"TSTR",11.000,0.000,26,25,25,25,10,00,7f,30*14b53c4a
#BESTPOSA,FILE,0,21.0,FINEBACKUPSTEERING,2317,469421.300,02000000,cdba,17139;SOL_COMPUTED,INS_PPP_CONVERGING,17.60165071095,78.12664498881,527.1179,-76.2000,WGS84,0.2800,0.3647,0.4008,"TSTR",11.000,0.000,26,25,25,25,10,00,7f,30*c79b0085
#BESTPOSA,FILE,0,21.0,FINEBACKUPSTEERING,2317,469421.350,02000000,cdba,17139;SOL_COMPUTED,INS_PPP_CONVERGING,17.60165262725,78.12664486103,527.1210,-76.2000,WGS84,0.2800,0.3647,0.4008,"TSTR",11.000,0.000,26,25,25,25,10,00,7f,30*7ee52961
#BESTPOSA,FILE,0,21.0,FINEBACKUPSTEERING,2317,469421.400,02000000,cdba,17139;SOL_COMPUTED,INS_PPP_CONVERGING,17.60165452988,78.12664473467,527.1234,-76.2000,WGS84,0.2800,0.3647,0.4008,"TSTR",11.000,0.000,26,25,25,25,10,00,7f,30*a512c785
#BESTPOSA,FILE,0,21.0,FINEBACKUPSTEERING,2317,469421.450,02000000,cdba,17139;SOL_COMPUTED,INS_PPP_CONVERGING,17.60165642061,78.12664460084,527.1250,-76.2000,WGS84,0.2800,0.3647,0.4008,"TSTR",11.000,0.000,26,25,25,25,10,00,7f,30*494e4250
#BESTPOSA,FILE,0,21.0,FINEBACKUPSTEERING,2317,469421.500,02000000,cdba,17139;SOL_COMPUTED,INS_PPP_CONVERGING,17.60165830264,78.12664447316,527.1262,-76.2000,WGS84,0.2800,0.3647,0.4008,"TSTR",11.000,0.000,26,25,25,25,10,00,7f,30*d45dcf7c
#BESTPOSA,FILE,0,21.0,FINEBACKUPSTEERING,2317,469421.550,02000000,cdba,17139;SOL_COMPUTED,INS_PPP_CONVERGING,17.60166017112,78.12664434686,527.1267,-76.2000,WGS84,0.2800,0.3647,0.4008,"TSTR",11.000,0.000,26,25,25,25,10,00,7f,30*afb4e4b0
#BESTPOSA,FILE,0,21.0,FINEBACKUPSTEERING,2317,469421.600,02000000,cdba,17139;SOL_COMPUTED,INS_PPP_CONVERGING,17.60166202983,78.12664421957,527.1272,-76.2000,WGS84,0.2800,0.3647,0.4008,"TSTR",11.000,0.000,26,25,25,25,10,00,7f,30*636756a5
#BESTPOSA,FILE,0,21.0,FINEBACKUPSTEERING,2317,469421.650,02000000,cdba,17139;SOL_COMPUTED,INS_PPP_CONVERGING,17.60166388423,78.12664409960,527.1280,-76.2000,WGS84,0.2800,0.3647,0.4008,"TSTR",11.000,0.000,26,25,25,25,10,00,7f,30*c60625fe
#BESTPOSA,FILE,0,21.0,FINEBACKUPSTEERING,2317,469421.700,02000000,cdba,17139;SOL_COMPUTED,INS_PPP_CONVERGING,17.60166573832,78.12664398254,527.1291,-76.2000,WGS84,0.2800,0.3647,0.4008,"TSTR",11.000,0.000,26,25,25,25,10,00,7f,30*ca6223e3
#BESTPOSA,FILE,0,21.0,FINEBACKUPSTEERING,2317,469421.750,02000000,cdba,17139;SOL_COMPUTED,INS_PPP_CONVERGING,17.60166759181,78.12664386721,527.1307,-76.2000,WGS84,0.2800,0.3647,0.4008,"TSTR",11.000,0.000,26,25,25,25,10,00,7f,30*73e34b90
#BESTPOSA,FILE,0,21.0,FINEBACKUPSTEERING,2317,469421.800,02000000,cdba,17139;SOL_COMPUTED,INS_PPP_CONVERGING,17.60166944872,78.12664374800,527.1323,-76.2000,WGS84,0.2800,0.3647,0.4008,"TSTR",11.000,0.000,26,25,25,25,10,00,7f,30*45aac919
#BESTPOSA,FILE,0,21.0,FINEBACKUPSTEERING,2317,469421.850,02000000,cdba,17139;SOL_COMPUTED,INS_PPP_CONVERGING,17.60167130511,78.12664363125,527.1340,-76.2000,WGS84,0.2800,0.3647,0.4008,"TSTR",11.000,0.000,26,25,25,25,10,00,7f,30*0bec400e
#BESTPOSA,FILE,0,21.0,FINEBACKUPSTEERING,2317,469421.900,02000000,cdba,17139;SOL_COMPUTED,INS_PPP_CONVERGING,17.60167316106,78.12664349756,527.1345,-76.2000,WGS84,0.2800,0.3647,0.4008,"TSTR",11.000,0.000,26,25,25,25,10,00,7f,30*92fcb320
#BESTPOSA,FILE,0,21.0,FINEBACKUPSTEERING,2317,469421.950,02000000,cdba,17139;SOL_COMPUTED,INS_PPP_CONVERGING,17.60167500644,78.12664336138,527.1348,-76.2000,WGS84,0.2800,0.3647,0.4008,"TSTR",11.000,0.000,26,25,25,25,10,00,7f,30*a6fc8689
#BESTPOSA,FILE,0,21.0,FINEBACKUPSTEERING,2317,469422.000,02000000,cdba,17139;SOL_COMPUTED,INS_PPP_CONVERGING,17.60167684514,78.12664321869,527.1348,-76.2000,WGS84,0.2800,0.3647,0.4008,"TSTR",11.000,0.000,26,25,25,25,10,00,7f,30*6f7b9c91
#BESTPOSA,FILE,0,21.0,FINEBACKUPSTEERING,2317,469422.050,02000000,cdba,17139;SOL_COMPUTED,INS_PPP_CONVERGING,17.60167867795,78.12664307189,527.1350,-76.2000,WGS84,0.2757,0.3645,0.3954,"TSTR",12.000,0.000,27,25,25,25,10,00,7f,30*d8b009bd
#BESTPOSA,FILE,0,16.0,FINEBACKUPSTEERING,2317,469422.100,02000000,cdba,17139;SOL_COMPUTED,INS_PPP_CONVERGING,17.60168050811,78.12664293634,527.1354,-76.2000,WGS84,0.2757,0.3645,0.3954,"TSTR",12.000,0.000,27,25,25,25,10,00,7f,30*20843ded
#BESTPOSA,FILE,0,16.0,FINEBACKUPSTEERING,2317,469422.150,02000000,cdba,17139;SOL_COMPUTED,INS_PPP_CONVERGING,17.60168234332,78.12664281093,527.1368,-76.2000,WGS84,0.2757,0.3645,0.3954,"TSTR",12.000,0.000,27,25,25,25,10,00,7f,30*a95dee90
#BESTPOSA,FILE,0,16.0,FINEBACKUPSTEERING,2317,469422.200,02000000,cdba,17139;SOL_COMPUTED,INS_PPP_CONVERGING,17.60168416947,78.12664267269,527.1385,-76.2000,WGS84,0.2757,0.3645,0.3954,"TSTR",12.000,0.000,27,25,25,25,10,00,7f,30*405b1b98
#BESTPOSA,FILE,0,16.0,FINEBACKUPSTEERING,2317,469422.250,02000000,cdba,17139;SOL_COMPUTED,INS_PPP_CONVERGING,17.60168599216,78.12664254381,527.1404,-76.2000,WGS84,0.2757,0.3645,0.3954,"TSTR",12.000,0.000,27,25,25,25,10,00,7f,30*07d4b12c
#BESTPOSA,FILE,0,16.0,FINEBACKUPSTEERING,2317,469422.300,02000000,cdba,17139;SOL_COMPUTED,INS_PPP_CONVERGING,17.60168780238,78.12664242343,527.1425,-76.2000,WGS84,0.2757,0.3645,0.3954,"TSTR",12.000,0.000,27,25,25,25,10,00,7f,30*2558853a
#BESTPOSA,FILE,0,16.0,FINEBACKUPSTEERING,2317,469422.350,02000000,cdba,17139;SOL_COMPUTED,INS_PPP_CONVERGING,17.60168960412,78.12664230119,527.1438,-76.2000,WGS84,0.2757,0.3645,0.3954,"TSTR",12.000,0.000,27,25,25,25,10,00,7f,30*0387d288
#BESTPOSA,FILE,0,16.0,FINEBACKUPSTEERING,2317,469422.400,02000000,cdba,17139;SOL_COMPUTED,INS_PPP_CONVERGING,17.60169140242,78.12664217204,527.1438,-76.2000,WGS84,0.2757,0.3645,0.3954,"TSTR",12.000,0.000,27,25,25,25,10,00,7f,30*664409fb
#BESTPOSA,FILE,0,16.0,FINEBACKUPSTEERING,2317,469422.450,02000000,cdba,17139;SOL_COMPUTED,INS_PPP_CONVERGING,17.60169319417,78.12664205051,527.1429,-76.2000,WGS84,0.2757,0.3645,0.3954,"TSTR",12.000,0.000,27,25,25,25,10,00,7f,30*399f468f
#BESTPOSA,FILE,0,16.0,FINEBACKUPSTEERING,2317,469422.500,02000000,cdba,17139;SOL_COMPUTED,INS_PPP_CONVERGING,17.60169498214,78.12664191393,527.1411,-76.2000,WGS84,0.2757,0.3645,0.3954,"TSTR",12.000,0.000,27,25,25,25,10,00,7f,30*ed7274e0
#BESTPOSA,FILE,0,16.0,FINEBACKUPSTEERING,2317,469422.550,02000000,cdba,17139;SOL_COMPUTED,INS_PPP_CONVERGING,17.60169676122,78.12664176913,527.1399,-76.2000,WGS84,0.2757,0.3645,0.3954,"TSTR",12.000,0.000,27,25,25,25,10,00,7f,30*f560bd89
#BESTPOSA,FILE,0,16.0,FINEBACKUPSTEERING,2317,469422.600,02000000,cdba,17139;SOL_COMPUTED,INS_PPP_CONVERGING,17.60169852817,78.12664163300,527.1401,-76.2000,WGS84,0.2757,0.3645,0.3954,"TSTR",12.000,0.000,27,25,25,25,10,00,7f,30*418c12d5
#BESTPOSA,FILE,0,16.0,FINEBACKUPSTEERING,2317,469422.650,02000000,cdba,17139;SOL_COMPUTED,INS_PPP_CONVERGING,17.60170028242,78.12664149006,527.1410,-76.2000,WGS84,0.2757,0.3645,0.3954,"TSTR",12.000,0.000,27,25,25,25,10,00,7f,30*51ae68ee
#BESTPOSA,FILE,0,16.0,FINEBACKUPSTEERING,2317,469422.700,02000000,cdba,17139;SOL_COMPUTED,INS_PPP_CONVERGING,17.60170201975,78.12664134412,527.1414,-76.2000,WGS84,0.2757,0.3645,0.3954,"TSTR",12.000,0.000,27,25,25,25,10,00,7f,30*e3b9e7c9
#BESTPOSA,FILE,0,16.0,FINEBACKUPSTEERING,2317,469422.750,02000000,cdba,17139;SOL_COMPUTED,INS_PPP_CONVERGING,17.60170374681,78.12664120968,527.1413,-76.2000,WGS84,0.2757,0.3645,0.3954,"TSTR",12.000,0.000,27,25,25,25,10,00,7f,30*888be2e1
#BESTPOSA,FILE,0,16.0,FINEBACKUPSTEERING,2317,469422.800,02000000,cdba,17139;SOL_COMPUTED,INS_PPP_CONVERGING,17.60170545809,78.12664107593,527.1395,-76.2000,WGS84,0.2757,0.3645,0.3954,"TSTR",12.000,0.000,27,25,25,25,10,00,7f,30*97fdedbf
#BESTPOSA,FILE,0,16.0,FINEBACKUPSTEERING,2317,469422.850,02000000,cdba,17139;SOL_COMPUTED,INS_PPP_CONVERGING,17.60170715241,78.12664094425,527.1375,-76.2000,WGS84,0.2757,0.3645,0.3954,"TSTR",12.000,0.000,27,25,25,25,10,00,7f,30*80ccac65
#BESTPOSA,FILE,0,16.0,FINEBACKUPSTEERING,2317,469422.900,02000000,cdba,17139;SOL_COMPUTED,INS_PPP_CONVERGING,17.60170884416,78.12664081814,527.1359,-76.2000,WGS84,0.2757,0.3645,0.3954,"TSTR",12.000,0.000,27,25,25,25,10,00,7f,30*d023051f
#BESTPOSA,FILE,0,16.0,FINEBACKUPSTEERING,2317,469422.950,02000000,cdba,17139;SOL_COMPUTED,INS_PPP_CONVERGING,17.60171053816,78.12664069082,527.1355,-76.2000,WGS84,0.2757,0.3645,0.3954,"TSTR",12.000,0.000,27,25,25,25,10,00,7f,30*21fb5f9a
#BESTPOSA,FILE,0,16.0,FINEBACKUPSTEERING,2317,469423.000,02000000,cdba,17139;SOL_COMPUTED,INS_PPP_CONVERGING,17.60171223396,78.12664055830,527.1355,-76.2000,WGS84,0.2757,0.3645,0.3954,"TSTR",12.000,0.000,27,25,25,25,10,00,7f,30*86d8b7c8
#BESTPOSA,FILE,0,16.0,FINEBACKUPSTEERING,2317,469423.050,02000000,cdba,17139;SOL_COMPUTED,INS_PPP_CONVERGING,17.60171392635,78.12664043522,527.1366,-76.2000,WGS84,0.2715,0.3627,0.3915,"TSTR",13.000,0.000,28,26,26,25,10,00,7f,30*3959dbe1
#BESTPOSA,FILE,0,16.0,FINEBACKUPSTEERING,2317,469423.100,02000000,cdba,17139;SOL_COMPUTED,INS_PPP_CONVERGING,17.60171561609,78.12664031366,527.1383,-76.2000,WGS84,0.2715,0.3627,0.3915,"TSTR",13.000,0.000,28,26,26,25,10,00,7f,30*ef69dc02
#BESTPOSA,FILE,0,21.5,FINEBACKUPSTEERING,2317,469423.150,02000000,cdba,17139;SOL_COMPUTED,INS_PPP_CONVERGING,17.60171729189,78.12664017678,527.1400,-76.2000,WGS84,0.2715,0.3627,0.3915,"TSTR",13.000,0.000,28,26,26,25,10,00,7f,30*30446099
#BESTPOSA,FILE,0,21.5,FINEBACKUPSTEERING,2317,469423.200,02000000,cdba,17139;SOL_COMPUTED,INS_PPP_CONVERGING,17.60171895198,78.12664003402,527.1413,-76.2000,WGS84,0.2715,0.3627,0.3915,"TSTR",13.000,0.000,28,26,26,25,10,00,7f,30*f2c7c6b5
#BESTPOSA,FILE,0,21.5,FINEBACKUPSTEERING,2317,469423.250,02000000,cdba,17139;SOL_COMPUTED,INS_PPP_CONVERGING,17.60172059965,78.12663989706,527.1420,-76.2000,WGS84,0.2715,0.3627,0.3915,"TSTR",13.000,0.000,28,26,26,25,10,00,7f,30*e440d875
#BESTPOSA,FILE,0,21.5,FINEBACKUPSTEERING,2317,469423.300,02000000,cdba,17139;SOL_COMPUTED,INS_PPP_CONVERGING,17.60172223638,78.12663974680,527.1415,-76.2000,WGS84,0.2715,0.3627,0.3915,"TSTR",13.000,0.000,28,26,26,25,10,00,7f,30*fc516319
#BESTPOSA,FILE,0,21.5,FINEBACKUPSTEERING,2317,469423.350,02000000,cdba,17139;SOL_COMPUTED,INS_PPP_CONVERGING,17.60172386342,78.12663959610,527.1404,-76.2000,WGS84,0.2715,0.3627,0.3915,"TSTR",13.000,0.000,28,26,26,25,10,00,7f,30*e7b28acb
#BESTPOSA,FILE,0,21.5,FINEBACKUPSTEERING,2317,469423.400,02000000,cdba,17139;SOL_COMPUTED,INS_PPP_CONVERGING,17.60172548630,78.12663944752,527.1390,-76.2000,WGS84,0.2715,0.3627,0.3915,"TSTR",13.000,0.000,28,26,26,25,10,00,7f,30*b5879f18
#BESTPOSA,FILE,0,21.5,FINEBACKUPSTEERING,2317,469423.450,02000000,cdba,17139;SOL_COMPUTED,INS_PPP_CONVERGING,17.60172710471,78.12663930412,527.1376,-76.2000,WGS84,0.2715,0.3627,0.3915,"TSTR",13.000,0.000,28,26,26,25,10,00,7f,30*d232a209
#BESTPOSA,FILE,0,21.5,FINEBACKUPSTEERING,2317,469423.500,02000000,cdba,17139;SOL_COMPUTED,INS_PPP_CONVERGING,17.60172872319,78.12663916879,527.1369,-76.2000,WGS84,0.2715,0.3627,0.3915,"TSTR",13.000,0.000,28,26,26,25,10,00,7f,30*2e4d59e5
#BESTPOSA,FILE,0,21.5,FINEBACKUPSTEERING,2317,469423.550,02000000,cdba,17139;SOL_COMPUTED,INS_PPP_CONVERGING,17.60173035454,78.12663902871,527.1363,-76.2000,WGS84,0.2715,0.3627,0.3915,"TSTR",13.000,0.000,28,26,26,25,10,00,7f,30*46d8071f
#BESTPOSA,FILE,0,21.5,FINEBACKUPSTEERING,2317,469423.600,02000000,cdba,17139;SOL_COMPUTED,INS_PPP_CONVERGING,17.60173200020,78.12663887962,527.1355,-76.2000,WGS84,0.2715,0.3627,0.3915,"TSTR",13.000,0.000,28,26,26,25,10,00,7f,30*085f9053
#BESTPOSA,FILE,0,21.5,FINEBACKUPSTEERING,2317,469423.650,02000000,cdba,17139;SOL_COMPUTED,INS_PPP_CONVERGING,17.60173365437,78.12663871379,527.1350,-76.2000,WGS84,0.2715,0.3627,0.3915,"TSTR",13.000,0.000,28,26,26,25,10,00,7f,30*51862c23
#BESTPOSA,FILE,0,21.5,FINEBACKUPSTEERING,2317,469423.700,02000000,cdba,17139;SOL_COMPUTED,INS_PPP_CONVERGING,17.60173531189,78.12663855267,527.1355,-76.2000,WGS84,0.2715,0.3627,0.3915,"TSTR",13.000,0.000,28,26,26,25,10,00,7f,30*fd5d7271
#BESTPOSA,FILE,0,21.5,FINEBACKUPSTEERING,2317,469423.750,02000000,cdba,17139;SOL_COMPUTED,INS_PPP_CONVERGING,17.60173696895,78.12663840333,527.1365,-76.2000,WGS84,0.2715,0.3627,0.3915,"TSTR",13.000,0.000,28,26,26,25,10,00,7f,30*8abf0f6e
#BESTPOSA,FILE,0,21.5,FINEBACKUPSTEERING,2317,469423.800,02000000,cdba,17139;SOL_COMPUTED,INS_PPP_CONVERGING,17.60173862650,78.12663825819,527.1376,-76.2000,WGS84,0.2715,0.3627,0.3915,"TSTR",13.000,0.000,28,26,26,25,10,00,7f,30*af4ad68b
#BESTPOSA,FILE,0,21.5,FINEBACKUPSTEERING,2317,469423.850,02000000,cdba,17139;SOL_COMPUTED,INS_PPP_CONVERGING,17.60174028951,78.12663811766,527.1389,-76.2000,WGS84,0.2715,0.3627,0.3915,"TSTR",13.000,0.000,28,26,26,25,10,00,7f,30*1fd1a9c6
#BESTPOSA,FILE,0,21.5,FINEBACKUPSTEERING,2317,469423.900,02000000,cdba,17139;SOL_COMPUTED,INS_PPP_CONVERGING,17.60174195913,78.12663798301,527.1400,-76.2000,WGS84,0.2715,0.3627,0.3915,"TSTR",13.000,0.000,28,26,26,25,10,00,7f,30*31a14c74
#BESTPOSA,FILE,0,21.5,FINEBACKUPSTEERING,2317,469423.950,02000000,cdba,17139;SOL_COMPUTED,INS_PPP_CONVERGING,17.60174363456,78.12663784347,527.1408,-76.2000,WGS84,0.2715,0.3627,0.3915,"TSTR",13.000,0.000,28,26,26,25,10,00,7f,30*418ae19c
#BESTPOSA,FILE,0,21.5,FINEBACKUPSTEERING,2317,469424.000,02000000,cdba,17139;SOL_COMPUTED,INS_PPP_CONVERGING,17.60174530609,78.12663771216,527.1417,-76.2000,WGS84,0.2715,0.3627,0.3915,"TSTR",13.000,0.000,28,26,26,25,10,00,7f,30*74edf2f7
#BESTPOSA,FILE,0,21.5,FINEBACKUPSTEERING,2317,469424.050,02000000,cdba,17139;SOL_COMPUTED,INS_PPP_CONVERGING,17.60174697762,78.12663759288,527.1426,-76.2000,WGS84,0.2675,0.3591,0.3889,"TSTR",14.000,0.000,29,27,27,27,10,00,7f,30*5a7ce16b
#BESTPOSA,FILE,0,20.0,FINEBACKUPSTEERING,2317,469424.100,02000000,cdba,17139;SOL_COMPUTED,INS_PPP_CONVERGING,17.60174865228,78.12663748429,527.1428,-76.2000,WGS84,0.2675,0.3591,0.3889,"TSTR",14.000,0.000,29,27,27,27,10,00,7f,30*9042a423
#BESTPOSA,FILE,0,20.0,FINEBACKUPSTEERING,2317,469424.150,02000000,cdba,17139;SOL_COMPUTED,INS_PPP_CONVERGING,17.60175032969,78.12663739403,527.1433,-76.2000,WGS84,0.2675,0.3591,0.3889,"TSTR",14.000,0.000,29,27,27,27,10,00,7f,30*80a0d2bb
#BESTPOSA,FILE,0,20.0,FINEBACKUPSTEERING,2317,469424.200,02000000,cdba,17139;SOL_COMPUTED,INS_PPP_CONVERGING,17.60175201776,78.12663730786,527.1432,-76.2000,WGS84,0.2675,0.3591,0.3889,"TSTR",14.000,0.000,29,27,27,27,10,00,7f,30*438346a9
#BESTPOSA,FILE,0,20.0,FINEBACKUPSTEERING,2317,469424.250,02000000,cdba,17139;SOL_COMPUTED,INS_PPP_CONVERGING,17.60175371224,78.12663721914,527.1427,-76.2000,WGS84,0.2675,0.3591,0.3889,"TSTR",14.000,0.000,29,27,27,27,10,00,7f,30*2ade7a7f
#BESTPOSA,FILE,0,20.0,FINEBACKUPSTEERING,2317,469424.300,02000000,cdba,17139;SOL_COMPUTED,INS_PPP_CONVERGING,17.60175540642,78.12663713131,527.1420,-76.2000,WGS84,0.2675,0.3591,0.3889,"TSTR",14.000,0.000,29,27,27,27,10,00,7f,30*42e54f8e
#BESTPOSA,FILE,0,20.0,FINEBACKUPSTEERING,2317,469424.350,02000000,cdba,17139;SOL_COMPUTED,INS_PPP_CONVERGING,17.60175711101,78.12663705417,527.1418,-76.2000,WGS84,0.2675,0.3591,0.3889,"TSTR",14.000,0.000,29,27,27,27,10,00,7f,30*c7a449e2
#BESTPOSA,FILE,0,20.0,FINEBACKUPSTEERING,2317,469424.400,02000000,cdba,17139;SOL_COMPUTED,INS_PPP_CONVERGING,17.60175882547,78.12663699615,527.1423,-76.2000,WGS84,0.2675,0.3591,0.3889,"TSTR",14.000,0.000,29,27,27,27,10,00,7f,30*8b1003ea
#BESTPOSA,FILE,0,20.0,FINEBACKUPSTEERING,2317,469424.450,02000000,cdba,17139;SOL_COMPUTED,INS_PPP_CONVERGING,17.60176055027,78.12663694811,527.1431,-76.2000,WGS84,0.2675,0.3591,0.3889,"TSTR",14.000,0.000,29,27,27,27,10,00,7f,30*1968cf29
#BESTPOSA,FILE,0,20.0,FINEBACKUPSTEERING,2317,469424.500,02000000,cdba,17139;SOL_COMPUTED,INS_PPP_CONVERGING,17.60176228239,78.12663692094,527.1439,-76.2000,WGS84,0.2675,0.3591,0.3889,"TSTR",14.000,0.000,29,27,27,27,10,00,7f,30*102c4bbb
#BESTPOSA,FILE,0,20.0,FINEBACKUPSTEERING,2317,469424.550,02000000,cdba,17139;SOL_COMPUTED,INS_PPP_CONVERGING,17.60176402327,78.12663689693,527.1442,-76.2000,WGS84,0.2675,0.3591,0.3889,"TSTR",14.000,0.000,29,27,27,27,10,00,7f,30*f3aae495
#BESTPOSA,FILE,0,20.0,FINEBACKUPSTEERING,2317,469424.600,02000000,cdba,17139;SOL_COMPUTED,INS_PPP_CONVERGING,17.60176576574,78.12663687910,527.1449,-76.2000,WGS84,0.2675,0.3591,0.3889,"TSTR",14.000,0.000,29,27,27,27,10,00,7f,30*ee81abe3
#BESTPOSA,FILE,0,20.0,FINEBACKUPSTEERING,2317,469424.650,02000000,cdba,17139;SOL_COMPUTED,INS_PPP_CONVERGING,17.60176751084,78.12663685110,527.1466,-76.2000,WGS84,0.2675,0.3591,0.3889,"TSTR",14.000,0.000,29,27,27,27,10,00,7f,30*75caa63f
#BESTPOSA,FILE,0,20.0,FINEBACKUPSTEERING,2317,469424.700,02000000,cdba,17139;SOL_COMPUTED,INS_PPP_CONVERGING,17.60176925993,78.12663681807,527.1481,-76.2000,WGS84,0.2675,0.3591,0.3889,"TSTR",14.000,0.000,29,27,27,27,10,00,7f,30*c0624e58
#BESTPOSA,FILE,0,20.0,FINEBACKUPSTEERING,2317,469424.750,02000000,cdba,17139;SOL_COMPUTED,INS_PPP_CONVERGING,17.60177101472,78.12663678469,527.1493,-76.2000,WGS84,0.2675,0.3591,0.3889,"TSTR",14.000,0.000,29,27,27,27,10,00,7f,30*67f85d61
#BESTPOSA,FILE,0,20.0,FINEBACKUPSTEERING,2317,469424.800,02000000,cdba,17139;SOL_COMPUTED,INS_PPP_CONVERGING,17.60177277648,78.12663676010,527.1511,-76.2000,WGS84,0.2675,0.3591,0.3889,"TSTR",14.000,0.000,29,27,27,27,10,00,7f,30*92c35178
#BESTPOSA,FILE,0,20.0,FINEBACKUPSTEERING,2317,469424.850,02000000,cdba,17139;SOL_COMPUTED,INS_PPP_CONVERGING,17.60177454818,78.12663674120,527.1523,-76.2000,WGS84,0.2675,0.3591,0.3889,"TSTR",14.000,0.000,29,27,27,27,10,00,7f,30*4801b423
#BESTPOSA,FILE,0,20.0,FINEBACKUPSTEERING,2317,469424.900,02000000,cdba,17139;SOL_COMPUTED,INS_PPP_CONVERGING,17.60177632214,78.12663673522,527.1536,-76.2000,WGS84,0.2675,0.3591,0.3889,"TSTR",14.000,0.000,29,27,27,27,10,00,7f,30*2b313eeb
#BESTPOSA,FILE,0,20.0,FINEBACKUPSTEERING,2317,469424.950,02000000,cdba,17139;SOL_COMPUTED,INS_PPP_CONVERGING,17.60177810167,78.12663673033,527.1548,-76.2000,WGS84,0.2675,0.3591,0.3889,"TSTR",14.000,0.000,29,27,27,27,10,00,7f,30*71775ff2
#BESTPOSA,FILE,0,20.0,FINEBACKUPSTEERING,2317,469425.000,02000000,cdba,17139;SOL_COMPUTED,INS_PPP_CONVERGING,17.60177987623,78.12663672799,527.1557,-76.2000,WGS84,0.2675,0.3591,0.3889,"TSTR",14.000,0.000,29,27,27,27,10,00,7f,30*f13645ea
#BESTPOSA,FILE,0,20.0,FINEBACKUPSTEERING,2317,469425.050,02000000,cdba,17139;SOL_COMPUTED,INS_PPP_CONVERGING,17.60178164796,78.12663672835,527.1552,-76.2000,WGS84,0.2637,0.3545,0.3870,"TSTR",15.000,0.000,29,26,26,26,10,00,7f,30*28a280ba
#BESTPOSA,FILE,0,20.0,FINESTEERING,2317,469425.100,02000000,cdba,17139;SOL_COMPUTED,INS_PPP_CONVERGING,17.60178342634,78.12663674354,527.1539,-76.2000,WGS84,0.2637,0.3545,0.3870,"TSTR",15.000,0.000,29,26,26,26,10,00,7f,30*eacce74b
#BESTPOSA,FILE,0,21.0,FINESTEERING,2317,469425.150,02000000,cdba,17139;SOL_COMPUTED,INS_PPP_CONVERGING,17.60178521697,78.12663675471,527.1525,-76.2000,WGS84,0.2637,0.3545,0.3870,"TSTR",15.000,0.000,29,26,26,26,10,00,7f,30*7a5ad403
#BESTPOSA,FILE,0,21.0,FINESTEERING,2317,469425.200,02000000,cdba,17139;SOL_COMPUTED,INS_PPP_CONVERGING,17.60178701649,78.12663676878,527.1515,-76.2000,WGS84,0.2637,0.3545,0.3870,"TSTR",15.000,0.000,29,26,26,26,10,00,7f,30*ad07e6e6
#BESTPOSA,FILE,0,21.0,FINESTEERING,2317,469425.250,02000000,cdba,17139;SOL_COMPUTED,INS_PPP_CONVERGING,17.60178882701,78.12663677522,527.1514,-76.2000,WGS84,0.2637,0.3545,0.3870,"TSTR",15.000,0.000,29,26,26,26,10,00,7f,30*509517fe
#BESTPOSA,FILE,0,21.0,FINESTEERING,2317,469425.300,02000000,cdba,17139;SOL_COMPUTED,INS_PPP_CONVERGING,17.60179063933,78.12663679750,527.1515,-76.2000,WGS84,0.2637,0.3545,0.3870,"TSTR",15.000,0.000,29,26,26,26,10,00,7f,30*e8a20015
#BESTPOSA,FILE,0,21.0,FINESTEERING,2317,469425.350,02000000,cdba,17139;SOL_COMPUTED,INS_PPP_CONVERGING,17.60179245324,78.12663682279,527.1512,-76.2000,WGS84,0.2637,0.3545,0.3870,"TSTR",15.000,0.000,29,26,26,26,10,00,7f,30*10d63f59
#BESTPOSA,FILE,0,21.0,FINESTEERING,2317,469425.400,02000000,cdba,17139;SOL_COMPUTED,INS_PPP_CONVERGING,17.60179426774,78.12663686003,527.1509,-76.2000,WGS84,0.2637,0.3545,0.3870,"TSTR",15.000,0.000,29,26,26,26,10,00,7f,30*4671fcef
#BESTPOSA,FILE,0,21.0,FINESTEERING,2317,469425.450,02000000,cdba,17139;SOL_COMPUTED,INS_PPP_CONVERGING,17.60179609241,78.12663691325,527.1507,-76.2000,WGS84,0.2637,0.3545,0.3870,"TSTR",15.000,0.000,29,26,26,26,10,00,7f,30*20c35f13
#BESTPOSA,FILE,0,21.0,FINESTEERING,2317,469425.500,02000000,cdba,17139;SOL_COMPUTED,INS_PPP_CONVERGING,17.60179793082,78.12663696824,527.1512,-76.2000,WGS84,0.2637,0.3545,0.3870,"TSTR",15.000,0.000,29,26,26,26,10,00,7f,30*8e5e77d1
#BESTPOSA,FILE,0,21.0,FINESTEERING,2317,469425.550,02000000,cdba,17139;SOL_COMPUTED,INS_PPP_CONVERGING,17.60179977805,78.12663702613,527.1517,-76.2000,WGS84,0.2637,0.3545,0.3870,"TSTR",15.000,0.000,29,26,26,26,10,00,7f,30*4a870f90
#BESTPOSA,FILE,0,21.0,FINESTEERING,2317,469425.600,02000000,cdba,17139;SOL_COMPUTED,INS_PPP_CONVERGING,17.60180163342,78.12663708633,527.1523,-76.2000,WGS84,0.2637,0.3545,0.3870,"TSTR",15.000,0.000,29,26,26,26,10,00,7f,30*0b23948f
#BESTPOSA,FILE,0,21.0,FINESTEERING,2317,469425.650,02000000,cdba,17139;SOL_COMPUTED,INS_PPP_CONVERGING,17.60180350442,78.12663713093,527.1531,-76.2000,WGS84,0.2637,0.3545,0.3870,"TSTR",15.000,0.000,29,26,26,26,10,00,7f,30*4d7c32a1
#BESTPOSA,FILE,0,21.0,FINESTEERING,2317,469425.700,02000000,cdba,17139;SOL_COMPUTED,INS_PPP_CONVERGING,17.60180538227,78.12663716157,527.1540,-76.2000,WGS84,0.2637,0.3545,0.3870,"TSTR",15.000,0.000,29,26,26,26,10,00,7f,30*78fbe08c
#BESTPOSA,FILE,0,21.0,FINESTEERING,2317,469425.750,02000000,cdba,17139;SOL_COMPUTED,INS_PPP_CONVERGING,17.60180725429,78.12663719422,527.1548,-76.2000,WGS84,0.2637,0.3545,0.3870,"TSTR",15.000,0.000,29,26,26,26,10,00,7f,30*a4dd9fb2
#BESTPOSA,FILE,0,21.0,FINESTEERING,2317,469425.800,02000000,cdba,17139;SOL_COMPUTED,INS_PPP_CONVERGING,17.60180914181,78.12663722399,527.1543,-76.2000,WGS84,0.2637,0.3545,0.3870,"TSTR",15.000,0.000,29,26,26,26,10,00,7f,30*5d53abce
#BESTPOSA,FILE,0,21.0,FINESTEERING,2317,469425.850,02000000,cdba,17139;SOL_COMPUTED,INS_PPP_CONVERGING,17.60181102767,78.12663724961,527.1533,-76.2000,WGS84,0.2637,0.3545,0.3870,"TSTR",15.000,0.000,29,26,26,26,10,00,7f,30*158f0343
#BESTPOSA,FILE,0,21.0,FINESTEERING,2317,469425.900,02000000,cdba,17139;SOL_COMPUTED,INS_PPP_CONVERGING,17.60181290761,78.12663729894,527.1531,-76.2000,WGS84,0.2637,0.3545,0.3870,"TSTR",15.000,0.000,29,26,26,26,10,00,7f,30*6f794251
#BESTPOSA,FILE,0,21.0,FINESTEERING,2317,469425.950,02000000,cdba,17139;SOL_COMPUTED,INS_PPP_CONVERGING,17.60181479665,78.12663735468,527.1541,-76.2000,WGS84,0.2637,0.3545,0.3870,"TSTR",15.000,0.000,29,26,26,26,10,00,7f,30*c5050677
#BESTPOSA,FILE,0,21.0,FINESTEERING,2317,469426.000,02000000,cdba,17139;SOL_COMPUTED,INS_PPP_CONVERGING,17.60181670378,78.12663741196,527.1562,-76.2000,WGS84,0.2637,0.3545,0.3870,"TSTR",15.000,0.000,29,26,26,26,10,00,7f,30*dcff2917
#BESTPOSA,FILE,0,21.0,FINESTEERING,2317,469426.050,02000000,cdba,17139;SOL_COMPUTED,INS_PPP_CONVERGING,17.60181861580,78.12663747234,527.1586,-76.2000,WGS84,0.2606,0.3491,0.3851,"TSTR",16.000,0.000,31,27,27,26,10,00,7f,30*75854fd3
#BESTPOSA,FILE,0,19.0,FINESTEERING,2317,469426.100,02000000,cdba,17139;SOL_COMPUTED,INS_PPP_CONVERGING,17.60182053016,78.12663752660,527.1596,-76.2000,WGS84,0.2606,0.3491,0.3851,"TSTR",16.000,0.000,31,27,27,26,10,00,7f,30*23f99fbb
#BESTPOSA,FILE,0,19.0,FINESTEERING,2317,469426.150,02000000,cdba,17139;SOL_COMPUTED,INS_PPP_CONVERGING,17.60182244798,78.12663757614,527.1606,-76.2000,WGS84,0.2606,0.3491,0.3851,"TSTR",16.000,0.000,31,27,27,26,10,00,7f,30*4c3c8e72
#BESTPOSA,FILE,0,19.0,FINESTEERING,2317,469426.200,02000000,cdba,17139;SOL_COMPUTED,INS_PPP_CONVERGING,17.60182437328,78.12663760934,527.1607,-76.2000,WGS84,0.2606,0.3491,0.3851,"TSTR",16.000,0.000,31,27,27,26,10,00,7f,30*2e21be58
#BESTPOSA,FILE,0,19.0,FINESTEERING,2317,469426.250,02000000,cdba,17139;SOL_COMPUTED,INS_PPP_CONVERGING,17.60182630100,78.12663762729,527.1598,-76.2000,WGS84,0.2606,0.3491,0.3851,"TSTR",16.000,0.000,31,27,27,26,10,00,7f,30*8f6d8a3b
#BESTPOSA,FILE,0,19.0,FINESTEERING,2317,469426.300,02000000,cdba,17139;SOL_COMPUTED,INS_PPP_CONVERGING,17.60182823641,78.12663762579,527.1583,-76.2000,WGS84,0.2606,0.3491,0.3851,"TSTR",16.000,0.000,31,27,27,26,10,00,7f,30*22507d79
#BESTPOSA,FILE,0,19.0,FINESTEERING,2317,469426.350,02000000,cdba,17139;SOL_COMPUTED,INS_PPP_CONVERGING,17.60183018089,78.12663761799,527.1572,-76.2000,WGS84,0.2606,0.3491,0.3851,"TSTR",16.000,0.000,31,27,27,26,10,00,7f,30*b6a9c534
#BESTPOSA,FILE,0,19.0,FINESTEERING,2317,469426.400,02000000,cdba,17139;SOL_COMPUTED,INS_PPP_CONVERGING,17.60183213158,78.12663759913,527.1567,-76.2000,WGS84,0.2606,0.3491,0.3851,"TSTR",16.000,0.000,31,27,27,26,10,00,7f,30*aad8e4aa
#BESTPOSA,FILE,0,19.0,FINESTEERING,2317,469426.450,02000000,cdba,17139;SOL_COMPUTED,INS_PPP_CONVERGING,17.60183408845,78.12663757841,527.1569,-76.2000,WGS84,0.2606,0.3491,0.3851,"TSTR",16.000,0.000,31,27,27,26,10,00,7f,30*9bcf9344
#BESTPOSA,FILE,0,19.0,FINESTEERING,2317,469426.500,02000000,cdba,17139;SOL_COMPUTED,INS_PPP_CONVERGING,17.60183605722,78.12663755464,527.1578,-76.2000,WGS84,0.2606,0.3491,0.3851,"TSTR",16.000,0.000,31,27,27,26,10,00,7f,30*272d82a6
#BESTPOSA,FILE,0,19.0,FINESTEERING,2317,469426.550,02000000,cdba,17139;SOL_COMPUTED,INS_PPP_CONVERGING,17.60183803784,78.12663753179,527.1592,-76.2000,WGS84,0.2606,0.3491,0.3851,"TSTR",16.000,0.000,31,27,27,26,10,00,7f,30*29a63725
#BESTPOSA,FILE,0,19.0,FINESTEERING,2317,469426.600,02000000,cdba,17139;SOL_COMPUTED,INS_PPP_CONVERGING,17.60184002756,78.12663751864,527.1609,-76.2000,WGS84,0.2606,0.3491,0.3851,"TSTR",16.000,0.000,31,27,27,26,10,00,7f,30*94fa2b97
#BESTPOSA,FILE,0,19.0,FINESTEERING,2317,469426.650,02000000,cdba,17139;SOL_COMPUTED,INS_PPP_CONVERGING,17.60184202363,78.12663751396,527.1629,-76.2000,WGS84,0.2606,0.3491,0.3851,"TSTR",16.000,0.000,31,27,27,26,10,00,7f,30*0a590fff
#BESTPOSA,FILE,0,19.0,FINESTEERING,2317,469426.700,02000000,cdba,17139;SOL_COMPUTED,INS_PPP_CONVERGING,17.60184402411,78.12663751097,527.1652,-76.2000,WGS84,0.2606,0.3491,0.3851,"TSTR",16.000,0.000,31,27,27,26,10,00,7f,30*3f40ed01
