#CORRIMUDATAA,FILE,0,24.0,FINESTEERING,2317,469412.350,02000800,e5fc,17139;2317,469412.350000000,0.0000006917003909,-0.0000041904230093,0.0000125809302369,-0.0004590830049815,-0.0002481345213068,0.0002093758357713*3b296987
#CORRIMUDATAA,FILE,0,24.0,FINESTEERING,2317,469412.400,02000800,e5fc,17139;2317,469412.400000000,0.0000105601856079,-0.0000122812137846,-0.0000055603894365,-0.0001314417653541,-0.0001899817491521,0.0001291363955985*5cc0e6ea
#CORRIMUDATAA,FILE,0,24.0,FINESTEERING,2317,469412.450,02000800,e5fc,17139;2317,469412.450000000,-0.0000078324530442,0.0000098760769692,-0.0000091407661576,0.0005610036661963,-0.0002040718933731,0.0000763447877915*149cf925
#CORRIMUDATAA,FILE,0,24.0,FINESTEERING,2317,469412.500,02000800,e5fc,17139;2317,469412.500000000,-0.0000074345024014,-0.0000043209652549,-0.0000011721052068,0.0007117779636600,0.0001722448982961,0.0000176721904688*a01716b3
#CORRIMUDATAA,FILE,0,24.0,FINESTEERING,2317,469412.600,02000800,e5fc,17139;2317,469412.600000000,0.0000029470450622,0.0000087265576452,0.0000053137085195,-0.0000877307270752,0.0001448624153994,-0.0000754418319091*a0af4147
#CORRIMUDATAA,FILE,0,24.0,FINESTEERING,2317,469412.850,02000800,e5fc,17139;2317,469412.850000000,0.0000054236442358,0.0000205320310299,-0.0000004805020532,0.0002173949357874,0.0005240705445881,-0.0009056416974738*6225d0be
#CORRIMUDATAA,FILE,0,24.0,FINESTEERING,2317,469413.050,02000800,e5fc,17139;2317,469413.050000000,0.0000097196603393,0.0000184652871227,0.0000036612993471,0.0005216903291495,0.0001164730170099,-0.0001603870379995*a7c3c94b
#CORRIMUDATAA,FILE,0,24.0,FINESTEERING,2317,469413.250,02000800,e5fc,17139;2317,469413.250000000,0.0000245544458230,-0.0000042092273317,-0.0000026466961522,0.0000285135249861,0.0024493041810693,-0.0004361406444731*33f53318
#CORRIMUDATAA,FILE,0,24.0,FINESTEERING,2317,469413.300,02000800,e5fc,17139;2317,469413.300000000,0.0000145990164295,0.0000100696344420,-0.0000060876957686,0.0001845634756499,0.0029212379167446,0.0003572000007917*adc3ac68
#CORRIMUDATAA,FILE,0,24.0,FINESTEERING,2317,469413.450,02000800,e5fc,17139;2317,469413.450000000,0.0000050722673206,0.0000008930494746,0.0000006156168396,0.0002560081195830,0.0026296497351032,-0.0000823936544223*c0195605
#CORRIMUDATAA,FILE,0,24.0,FINESTEERING,2317,469413.850,02000800,e5fc,17139;2317,469413.850000000,0.0000784988628665,-0.0000026212564904,0.0000069022152279,-0.0002612855832211,0.0101875376774875,0.0012464086586771*cf0d49d3
#CORRIMUDATAA,FILE,0,22.5,FINESTEERING,2317,469414.100,02000800,e5fc,17139;2317,469414.100000000,0.0000863979962735,0.0000031459962227,0.0000241720397175,0.0000419602551492,0.0159353234896298,-0.0015595205234914*c62615ea
#CORRIMUDATAA,FILE,0,22.5,FINESTEERING,2317,469414.200,02000800,e5fc,17139;2317,469414.200000000,0.0001476361399243,-0.0000005433076313,0.0000401514453586,0.0000967816968723,0.0186334563102879,0.0012450695512729*1b948c4d
#CORRIMUDATAA,FILE,0,22.5,FINESTEERING,2317,469414.250,02000800,e5fc,17139;2317,469414.250000000,0.0001079630438149,0.0000265783908590,0.0000399347492121,-0.0000001509700540,0.0151200600795541,0.0004853459604860*9e44751f
#CORRIMUDATAA,FILE,0,22.5,FINESTEERING,2317,469414.350,02000800,e5fc,17139;2317,469414.350000000,0.0001529549394023,-0.0000224863940038,0.0000679831834172,-0.0001025265384657,0.0215324884212023,0.0010315191269634*a6b9d93e
#CORRIMUDATAA,FILE,0,22.5,FINESTEERING,2317,469414.400,02000800,e5fc,17139;2317,469414.400000000,0.0000788068057201,-0.0000425945140291,0.0000560546001888,-0.0003155097018845,0.0181427896103227,0.0015666085352453*51fb6026
#CORRIMUDATAA,FILE,0,22.5,FINESTEERING,2317,469414.500,02000800,e5fc,17139;2317,469414.500000000,0.0000972600759066,-0.0000532232447634,0.0000615936642733,0.0000434018574715,0.0221030171519549,0.0003240450338525*c3ffa3ea
#CORRIMUDATAA,FILE,0,22.5,FINESTEERING,2317,469414.700,02000800,e5fc,17139;2317,469414.700000000,0.0001700360542251,-0.0000384057517234,0.0001251941093910,0.0005235893172622,0.0261301130833620,0.0002063698441928*0bfd6d75
#CORRIMUDATAA,FILE,0,22.5,FINESTEERING,2317,469414.750,02000800,e5fc,17139;2317,469414.750000000,0.0001494044305655,-0.0000689188400812,0.0001414251746882,0.0004390339456715,0.0252438760901495,0.0003586579482460*f7102ab5
#CORRIMUDATAA,FILE,0,22.5,FINESTEERING,2317,469414.850,02000800,e5fc,17139;2317,469414.850000000,0.0001644911807587,-0.0000715809805140,0.0001697563819759,-0.0000517906666302,0.0286174099478436,-0.0015071529668790*53c4f901
#CORRIMUDATAA,FILE,0,22.5,FINESTEERING,2317,469414.900,02000800,e5fc,17139;2317,469414.900000000,0.0002440658216658,-0.0000590416626911,0.0001891272555537,-0.0000680621827353,0.0334801691864235,-0.0031334043126163*09e1206e
#CORRIMUDATAA,FILE,0,22.5,FINESTEERING,2317,469415.000,02000800,e5fc,17139;2317,469415.000000000,0.0003156611612801,-0.0000672460257599,0.0002063432898142,-0.0007322967530807,0.0346269606557215,-0.0011528975033387*a9e1ea01
#CORRIMUDATAA,FILE,0,22.5,FINESTEERING,2317,469415.100,02000800,e5fc,17139;2317,469415.100000000,0.0003600676949732,-0.0000284604514465,0.0002378398753956,0.0002726656292613,0.0404469016402289,0.0007596926523112*6cab9a16
#CORRIMUDATAA,FILE,0,22.5,FINESTEERING,2317,469415.200,02000800,e5fc,17139;2317,469415.200000000,0.0002336710306636,-0.0000393449810741,0.0002738027199123,-0.0011461612084320,0.0362404409999937,0.0032783315735377*038c557c
#CORRIMUDATAA,FILE,0,22.5,FINESTEERING,2317,469415.300,02000800,e5fc,17139;2317,469415.300000000,0.0001297974706826,-0.0000564801816699,0.0003045555323957,0.0007751678512856,0.0368152161806187,0.0029739381495761*ff214638
#CORRIMUDATAA,FILE,0,22.5,FINESTEERING,2317,469415.350,02000800,e5fc,17139;2317,469415.350000000,0.0000965215374560,-0.0000377802743084,0.0003018482228873,0.0011581540273233,0.0306836188465150,0.0023970895568089*ba56a637
#CORRIMUDATAA,FILE,0,22.5,FINESTEERING,2317,469415.400,02000800,e5fc,17139;2317,469415.400000000,0.0000886700868231,0.0000001585139562,0.0003497411493136,-0.0010863631402530,0.0369356498187545,-0.0009714463747066*20d85308
#CORRIMUDATAA,FILE,0,22.5,FINESTEERING,2317,469415.450,02000800,e5fc,17139;2317,469415.450000000,0.0001295639558946,-0.0000154210727878,0.0003763627368082,-0.0031364031865823,0.0424381908982011,-0.0032014540694748*a471645a
#CORRIMUDATAA,FILE,0,22.5,FINESTEERING,2317,469415.500,02000800,e5fc,17139;2317,469415.500000000,0.0001191800377697,-0.0000678370130825,0.0003210607773188,-0.0015294466050530,0.0326133492360824,0.0025883542239629*5c856156
#CORRIMUDATAA,FILE,0,22.5,FINESTEERING,2317,469415.550,02000800,e5fc,17139;2317,469415.550000000,0.0000601117088025,-0.0001296989478364,0.0004394982269832,-0.0006009355199058,0.0410190981680495,0.0021744675795484*d6a76d6b
#CORRIMUDATAA,FILE,0,22.5,FINESTEERING,2317,469415.600,02000800,e5fc,17139;2317,469415.600000000,0.0000270694904417,-0.0002090435755095,0.0004960023450404,0.0017008914091406,0.0393440821174882,0.0001063650145157*14797dc5
#CORRIMUDATAA,FILE,0,22.5,FINESTEERING,2317,469415.650,02000800,e5fc,17139;2317,469415.650000000,0.0000952954254195,-0.0002525418532668,0.0005136281851465,-0.0008259805392794,0.0365537767058521,-0.0006620204345116*5889e888
#CORRIMUDATAA,FILE,0,22.5,FINESTEERING,2317,469415.700,02000800,e5fc,17139;2317,469415.700000000,0.0001451464031712,-0.0002286177847881,0.0005568159951726,-0.0017798938263364,0.0432975536129627,-0.0044097105338305*9cc92ef7
#CORRIMUDATAA,FILE,0,22.5,FINESTEERING,2317,469415.750,02000800,e5fc,17139;2317,469415.750000000,0.0002625753384360,-0.0002273014703712,0.0005991794612061,-0.0001539858272435,0.0490889258196938,-0.0040383928852520*6ffe25c2
#CORRIMUDATAA,FILE,0,22.5,FINESTEERING,2317,469415.800,02000800,e5fc,17139;2317,469415.800000000,0.0002755377716572,-0.0001086404493418,0.0005000901572113,-0.0010824211447892,0.0400861530886318,-0.0008478703628937*fdff743d
#CORRIMUDATAA,FILE,0,22.5,FINESTEERING,2317,469415.850,02000800,e5fc,17139;2317,469415.850000000,0.0002946134269122,-0.0000769141709923,0.0005607122908533,-0.0017811739595079,0.0454312422939599,0.0001694381237388*9aac08c8
#CORRIMUDATAA,FILE,0,22.5,FINESTEERING,2317,469415.900,02000800,e5fc,17139;2317,469415.900000000,0.0003317716462436,0.0000266257144426,0.0005773562834587,-0.0007705161811647,0.0463156687982779,0.0008256225259213*d49df7b2
#CORRIMUDATAA,FILE,0,22.5,FINESTEERING,2317,469415.950,02000800,e5fc,17139;2317,469415.950000000,0.0003475995501841,0.0000120844053091,0.0006197598869577,0.0027124917195615,0.0452577342990770,0.0047606974685576*6af03888
#CORRIMUDATAA,FILE,0,22.5,FINESTEERING,2317,469416.000,02000800,e5fc,17139;2317,469416.000000000,0.0003252480780377,-0.0000684057757653,0.0006569610110438,-0.0013926206335051,0.0467306104439117,0.0005666024642273*8dbc0c2a
#CORRIMUDATAA,FILE,0,22.5,FINESTEERING,2317,469416.050,02000800,e5fc,17139;2317,469416.050000000,0.0003882139849060,0.0001045657759310,0.0007772624917554,-0.0011876229731796,0.0540558656330875,-0.0023583675056755*6a113854
#CORRIMUDATAA,FILE,0,22.5,FINESTEERING,2317,469416.100,02000800,e5fc,17139;2317,469416.100000000,0.0002947492729175,0.0000976035163592,0.0006750777396909,-0.0012474549378503,0.0452536438151424,-0.0025872236993965*9ca224bd
#CORRIMUDATAA,FILE,0,23.0,FINESTEERING,2317,469416.150,02000800,e5fc,17139;2317,469416.150000000,0.0002584029054537,-0.0000812310806287,0.0007461718660735,-0.0025027038070218,0.0495493109209546,0.0049486141327015*fc0672c3
#CORRIMUDATAA,FILE,0,23.0,FINESTEERING,2317,469416.200,02000800,e5fc,17139;2317,469416.200000000,0.0001035721086387,-0.0001699257464852,0.0007281352048392,-0.0028495176781369,0.0492420923851075,0.0045767002842949*b823a067
#CORRIMUDATAA,FILE,0,23.0,FINESTEERING,2317,469416.250,02000800,e5fc,17139;2317,469416.250000000,-0.0000371896595887,-0.0001280741371055,0.0008404256702457,-0.0015146937839277,0.0560039234665116,0.0028520236838833*643a78fb
#CORRIMUDATAA,FILE,0,23.0,FINESTEERING,2317,469416.300,02000800,e5fc,17139;2317,469416.300000000,-0.0000757611310876,-0.0001078740822233,0.0007342878374104,-0.0009285964750559,0.0452199553517892,0.0012931520690677*b78f2b05
#CORRIMUDATAA,FILE,0,23.0,FINESTEERING,2317,469416.350,02000800,e5fc,17139;2317,469416.350000000,-0.0000139871092506,-0.0002277268898777,0.0009013798130830,-0.0025109079040325,0.0567941444970510,0.0021543451509301*87844596
#CORRIMUDATAA,FILE,0,23.0,FINESTEERING,2317,469416.400,02000800,e5fc,17139;2317,469416.400000000,0.0000448701717327,-0.0002594518442500,0.0007268776309787,-0.0026038980664771,0.0451363548370763,0.0026525534554653*482f0132
#CORRIMUDATAA,FILE,0,23.0,FINESTEERING,2317,469416.450,02000800,e5fc,17139;2317,469416.450000000,0.0001415379266108,-0.0002173624602243,0.0008240081087667,-0.0009845167461446,0.0482239210279146,0.0014888501044426*1ea9690c
#CORRIMUDATAA,FILE,0,23.0,FINESTEERING,2317,469416.500,02000800,e5fc,17139;2317,469416.500000000,0.0002164163922313,-0.0001637173644064,0.0009626944907595,0.0006974505685431,0.0537699206423754,0.0002747435205355*214e1e76
#CORRIMUDATAA,FILE,0,23.0,FINESTEERING,2317,469416.550,02000800,e5fc,17139;2317,469416.550000000,0.0001492046299271,-0.0002504037525571,0.0008460185253544,-0.0022011768277211,0.0432999459554807,-0.0026926859842696*33ddfb71
#CORRIMUDATAA,FILE,0,23.0,FINESTEERING,2317,469416.600,02000800,e5fc,17139;2317,469416.600000000,0.0000691478211332,-0.0002507971710803,0.0009886643050008,-0.0039921442463493,0.0453022611099640,-0.0004672546594638*f39a2448
#CORRIMUDATAA,FILE,0,23.0,FINESTEERING,2317,469416.650,02000800,e5fc,17139;2317,469416.650000000,-0.0001267018833133,-0.0000595631593947,0.0010888228064641,0.0001159283881183,0.0448500477448978,0.0033077207754426*3800ce1c
#CORRIMUDATAA,FILE,0,23.0,FINESTEERING,2317,469416.700,02000800,e5fc,17139;2317,469416.700000000,-0.0002668720943710,0.0000972215312247,0.0009691077766855,-0.0000218257062105,0.0363611316200692,-0.0000065829799728*a8018ec4
#CORRIMUDATAA,FILE,0,23.0,FINESTEERING,2317,469416.750,02000800,e5fc,17139;2317,469416.750000000,-0.0002976914156126,0.0000655421761349,0.0008225801808114,-0.0033155149285211,0.0280665824186666,0.0013753696049211*135ef5e0
#CORRIMUDATAA,FILE,0,23.0,FINESTEERING,2317,469416.800,02000000,e5fc,17139;2317,469416.800000000,-0.0002464810259444,0.0001334205067882,0.0008721150882472,-0.0062041234562703,0.0287351231321099,0.0015839364418208*235a4bba
#CORRIMUDATAA,FILE,0,23.0,FINESTEERING,2317,469416.850,02000000,e5fc,17139;2317,469416.850000000,-0.0001299215935453,0.0000752815312896,0.0009955896481700,-0.0014871635215921,0.0319954201987557,0.0009292125066454*8fd679f9
#CORRIMUDATAA,FILE,0,23.0,FINESTEERING,2317,469416.900,02000000,e5fc,17139;2317,469416.900000000,-0.0000494819595344,-0.0003073080948039,0.0009939517374842,-0.0002013047663516,0.0269064486624996,-0.0002738584996136*9fba80a4
#CORRIMUDATAA,FILE,0,23.0,FINESTEERING,2317,469416.950,02000000,e5fc,17139;2317,469416.950000000,-0.0000540844395678,-0.0003044417898490,0.0010447449080836,-0.0032285142920419,0.0200413375652558,0.0068954173215477*cb51b299
#CORRIMUDATAA,FILE,0,23.0,FINESTEERING,2317,469417.000,02000000,e5fc,17139;2317,469417.000000000,-0.0000650392966708,-0.0001788185638480,0.0010322380093423,-0.0005254338858337,0.0120797950814258,0.0062063470186936*bbd614d5
#CORRIMUDATAA,FILE,0,23.0,FINESTEERING,2317,469417.050,02000000,e5fc,17139;2317,469417.050000000,0.0000629873442131,-0.0002086967275971,0.0008420635402319,-0.0036589024911405,0.0017539039530977,0.0027051553021657*8bf18c8d
#CORRIMUDATAA,FILE,0,23.0,FINEBACKUPSTEERING,2317,469417.100,02000000,e5fc,17139;2317,469417.100000000,0.0005262856508343,-0.0002366732296684,0.0006985986279324,-0.0074018301344142,0.0016246322800232,-0.0015696801192423*faf59fff
#CORRIMUDATAA,FILE,0,16.5,FINEBACKUPSTEERING,2317,469417.150,02000000,e5fc,17139;2317,469417.150000000,0.0008770826786163,-0.0000927426163981,0.0005951754990436,-0.0018154407276365,0.0067453331388108,-0.0039291153748095*0d5dd454
#CORRIMUDATAA,FILE,0,16.5,FINEBACKUPSTEERING,2317,469417.200,02000000,e5fc,17139;2317,469417.200000000,0.0006332677453515,-0.0000471948180573,0.0005266212896146,0.0025015481494833,0.0059667502055542,-0.0028691859933095*e95937f7
#CORRIMUDATAA,FILE,0,16.5,FINEBACKUPSTEERING,2317,469417.250,02000000,e5fc,17139;2317,469417.250000000,0.0002577635000103,-0.0003506244796712,0.0004174258155808,-0.0005010974409483,0.0024489948740388,-0.0000858527916867*a3ac4e05
#CORRIMUDATAA,FILE,0,16.5,FINEBACKUPSTEERING,2317,469417.300,02000000,e5fc,17139;2317,469417.300000000,0.0000549184639127,-0.0006903849842951,0.0004697808905551,-0.0038987234804332,0.0046263649573493,-0.0044688225368067*7dea922e
#CORRIMUDATAA,FILE,0,16.5,FINEBACKUPSTEERING,2317,469417.350,02000000,e5fc,17139;2317,469417.350000000,0.0000535004513865,-0.0002602169841733,0.0003607223359774,-0.0036924991057455,0.0086288233676444,-0.0107883714994543*d5eb5e1e
#CORRIMUDATAA,FILE,0,16.5,FINEBACKUPSTEERING,2317,469417.400,02000000,e5fc,17139;2317,469417.400000000,0.0001360544854313,0.0000782045360081,0.0003460471035109,0.0030000910185689,0.0137326415145530,-0.0080448330207970*8a49c5bc
#CORRIMUDATAA,FILE,0,16.5,FINEBACKUPSTEERING,2317,469417.450,02000000,e5fc,17139;2317,469417.450000000,0.0000671009439008,-0.0000547754528233,0.0003179636998014,0.0039973228397446,0.0141932491221577,-0.0052099012627825*fde99b95
#CORRIMUDATAA,FILE,0,16.5,FINEBACKUPSTEERING,2317,469417.500,02000000,e5fc,17139;2317,469417.500000000,-0.0000296438448318,0.0000340777196399,0.0002225083303010,-0.0015227023025838,0.0078595837364512,0.0044313012332704*dde792ba
#CORRIMUDATAA,FILE,0,16.5,FINEBACKUPSTEERING,2317,469417.550,02000000,e5fc,17139;2317,469417.550000000,-0.0001127938658445,0.0002716653158201,0.0002461314126807,-0.0015153541348497,0.0037045532025133,0.0109570460298575*085b9c3b
#CORRIMUDATAA,FILE,0,16.5,FINEBACKUPSTEERING,2317,469417.600,02000000,e5fc,17139;2317,469417.600000000,-0.0001749148818795,0.0003974131327946,0.0003170504778383,0.0013687258295159,0.0014215444075383,0.0082935409342738*7f203bd8
#CORRIMUDATAA,FILE,0,16.5,FINEBACKUPSTEERING,2317,469417.650,02000000,e5fc,17139;2317,469417.650000000,-0.0001059581575740,0.0001576258006149,0.0003189961780481,0.0017731477774802,-0.0003544507653843,0.0064845472353219*ce36f027
#CORRIMUDATAA,FILE,0,16.5,FINEBACKUPSTEERING,2317,469417.700,02000000,e5fc,17139;2317,469417.700000000,-0.0000415890736684,0.0001759457805961,0.0003327248313718,-0.0052025621103682,0.0030967379457600,0.0000925686578719*e52dd6c1
#CORRIMUDATAA,FILE,0,16.5,FINEBACKUPSTEERING,2317,469417.750,02000000,e5fc,17139;2317,469417.750000000,0.0003477076685278,0.0007519569720814,0.0002609285685405,-0.0022457912168645,0.0110391182064061,-0.0113203867669489*3bcfd2aa
#CORRIMUDATAA,FILE,0,16.5,FINEBACKUPSTEERING,2317,469417.800,02000000,e5fc,17139;2317,469417.800000000,0.0006572026021993,0.0008337903073927,0.0001587093168595,0.0071148493109279,0.0162632016688569,-0.0132382229326856*bade107b
#CORRIMUDATAA,FILE,0,16.5,FINEBACKUPSTEERING,2317,469417.850,02000000,e5fc,17139;2317,469417.850000000,0.0008852636945164,0.0005079023760689,0.0001626027812148,0.0026130800712675,0.0213980533536712,-0.0086460617064339*59c2e888
#CORRIMUDATAA,FILE,0,16.5,FINEBACKUPSTEERING,2317,469417.900,02000000,e5fc,17139;2317,469417.900000000,0.0008978571312642,0.0006717660594833,0.0001601591531803,-0.0077794205970199,0.0201374998774226,0.0026656853549753*f852fe99
#CORRIMUDATAA,FILE,0,16.5,FINEBACKUPSTEERING,2317,469417.950,02000000,e5fc,17139;2317,469417.950000000,0.0008452710337422,0.0009845247363043,0.0002188728270776,-0.0006709818618415,0.0208081887230143,0.0112001362012367*da45c8f8
#CORRIMUDATAA,FILE,0,16.5,FINEBACKUPSTEERING,2317,469418.000,02000000,e5fc,17139;2317,469418.000000000,0.0004706190489628,0.0003086701495236,0.0003157822682305,0.0040797000867969,0.0164941026568298,0.0051286726295374*0e37f138
#CORRIMUDATAA,FILE,0,16.5,FINEBACKUPSTEERING,2317,469418.050,02000000,e5fc,17139;2317,469418.050000000,0.0000812613009690,-0.0002441711811891,0.0003240861520144,-0.0071674573844466,0.0078220299442092,0.0162045402793729*7c215007
#CORRIMUDATAA,FILE,0,12.0,FINEBACKUPSTEERING,2317,469418.100,02000000,e5fc,17139;2317,469418.100000000,-0.0003338876751680,0.0000331304055491,0.0002652731966485,-0.0088426261521701,0.0060702363933102,0.0237896878944913*eeaf68b4
#CORRIMUDATAA,FILE,0,12.0,FINEBACKUPSTEERING,2317,469418.150,02000000,e5fc,17139;2317,469418.150000000,-0.0012141712243699,-0.0000005109612868,0.0001694306814874,0.0040792061348565,-0.0022688788756059,0.0446498880805991*eeedd422
#CORRIMUDATAA,FILE,0,12.0,FINEBACKUPSTEERING,2317,469418.200,02000000,e5fc,17139;2317,469418.200000000,-0.0018731091229935,-0.0000099639414734,0.0001550822357676,0.0037228866860320,0.0059620087919562,0.0264299241452070*d3f2949e
#CORRIMUDATAA,FILE,0,12.0,FINEBACKUPSTEERING,2317,469418.250,02000000,e5fc,17139;2317,469418.250000000,-0.0018984715843461,0.0005975540375676,0.0001570018590002,0.0015168310684055,0.0200703504627361,-0.0269418328697351*4d920045
#CORRIMUDATAA,FILE,0,12.0,FINEBACKUPSTEERING,2317,469418.300,02000000,e5fc,17139;2317,469418.300000000,-0.0010498374862499,0.0008114466632971,0.0001634222461582,0.0030084735717677,0.0281255917713785,-0.0449322765317596*63626574
#CORRIMUDATAA,FILE,0,12.0,FINEBACKUPSTEERING,2317,469418.350,02000000,e5fc,17139;2317,469418.350000000,-0.0000947302518651,0.0003735228750645,0.0001371009220298,-0.0055652314396949,0.0251388692392605,-0.0301497717542828*39bdf1e8
#CORRIMUDATAA,FILE,0,12.0,FINEBACKUPSTEERING,2317,469418.400,02000000,e5fc,17139;2317,469418.400000000,0.0006170683659109,0.0003145136113525,0.0000975268941793,-0.0067679202645171,0.0235949579321416,-0.0244719704479097*6fa505ad
#CORRIMUDATAA,FILE,0,12.0,FINEBACKUPSTEERING,2317,469418.450,02000000,e5fc,17139;2317,469418.450000000,0.0008644338533876,0.0004574871460562,0.0001872086961585,0.0053964298232075,0.0204354185458785,-0.0144746699636370*8c45bf19
#CORRIMUDATAA,FILE,0,12.0,FINEBACKUPSTEERING,2317,469418.500,02000000,e5fc,17139;2317,469418.500000000,0.0010817775410729,0.0003283598116112,0.0003884713568286,0.0066048515248720,0.0206651977242968,-0.0076206734025439*20fac0f4
#CORRIMUDATAA,FILE,0,12.0,FINEBACKUPSTEERING,2317,469418.550,02000000,e5fc,17139;2317,469418.550000000,0.0008663978609148,-0.0001604309869474,0.0003299980744788,-0.0084448024289389,0.0178390140762768,0.0091040210300316*2ea57e35
#CORRIMUDATAA,FILE,0,12.0,FINEBACKUPSTEERING,2317,469418.600,02000000,e5fc,17139;2317,469418.600000000,0.0006454898603528,-0.0000256910259598,0.0001896833934406,-0.0100678692170006,0.0184990828919460,0.0150199154309328*5e9179cc
#CORRIMUDATAA,FILE,0,12.0,FINEBACKUPSTEERING,2317,469418.650,02000000,e5fc,17139;2317,469418.650000000,0.0006772029294915,0.0005733432368652,0.0001860185918611,0.0041269119835123,0.0246487306830166,0.0089787636370129*77ae22df
#CORRIMUDATAA,FILE,0,12.0,FINEBACKUPSTEERING,2317,469418.700,02000000,e5fc,17139;2317,469418.700000000,0.0007701955440714,0.0005368945629726,0.0003117431343996,0.0108066211696402,0.0325709662077441,0.0054944007022144*1b137b91
#CORRIMUDATAA,FILE,0,12.0,FINEBACKUPSTEERING,2317,469418.750,02000000,e5fc,17139;2317,469418.750000000,0.0006714030905980,0.0004393177214264,0.0003304374049437,0.0025843670415159,0.0307468201545150,0.0107515030668381*2070f028
#CORRIMUDATAA,FILE,0,12.0,FINEBACKUPSTEERING,2317,469418.800,02000000,e5fc,17139;2317,469418.800000000,0.0007302503095302,0.0010347734895487,0.0004076710914015,-0.0004894498775782,0.0405421644467622,0.0116518809507994*19905b5f
#CORRIMUDATAA,FILE,0,12.0,FINEBACKUPSTEERING,2317,469418.850,02000000,e5fc,17139;2317,469418.850000000,0.0005379875335213,0.0007502848457346,0.0002470629808487,-0.0061478966631302,0.0400261244520650,-0.0032264082651463*623bda05
#CORRIMUDATAA,FILE,0,12.0,FINEBACKUPSTEERING,2317,469418.900,02000000,e5fc,17139;2317,469418.900000000,0.0002575265727148,0.0004300498310971,0.0000762012879575,-0.0093845946668106,0.0383193507422298,0.0090184362499667*81640d95
#CORRIMUDATAA,FILE,0,12.0,FINEBACKUPSTEERING,2317,469418.950,02000000,e5fc,17139;2317,469418.950000000,-0.0000775185169529,0.0002589571411389,0.0000801012072640,-0.0015548599524814,0.0339471749893975,0.0069132301465756*11a13f36
#CORRIMUDATAA,FILE,0,12.0,FINEBACKUPSTEERING,2317,469419.000,02000000,e5fc,17139;2317,469419.000000000,-0.0004610048114053,-0.0000677653868091,0.0002696383199762,0.0013256001437600,0.0421383121224015,-0.0042918931715958*805decc5
#CORRIMUDATAA,FILE,0,12.0,FINEBACKUPSTEERING,2317,469419.050,02000000,e5fc,17139;2317,469419.050000000,-0.0003450597386385,-0.0001726954041941,0.0002856807143303,-0.0018840014069653,0.0361853205603361,-0.0039544823059554*611d5df4
#CORRIMUDATAA,FILE,0,12.0,FINEBACKUPSTEERING,2317,469419.100,02000000,e5fc,17139;2317,469419.100000000,-0.0000076720888189,-0.0000251988576565,0.0002816482121683,0.0002327210895391,0.0436915044267816,-0.0199281100276849*5b966240
#CORRIMUDATAA,FILE,0,17.5,FINEBACKUPSTEERING,2317,469419.150,02000000,e5fc,17139;2317,469419.150000000,0.0005062839311032,0.0001329956858351,0.0002660654206360,0.0011686705643748,0.0495015902435870,-0.0195708250612945*24af2609
#CORRIMUDATAA,FILE,0,17.5,FINEBACKUPSTEERING,2317,469419.200,02000000,e5fc,17139;2317,469419.200000000,0.0006329546668502,0.0006032149830478,0.0003020927343172,0.0053027736413390,0.0366877675733366,-0.0036072467604551*5268a751
#CORRIMUDATAA,FILE,0,17.5,FINEBACKUPSTEERING,2317,469419.250,02000000,e5fc,17139;2317,469419.250000000,0.0007514663345439,0.0008777645843274,0.0004430030420473,0.0014155325871294,0.0396645607451270,0.0072394986026107*a46788ca
#CORRIMUDATAA,FILE,0,17.5,FINEBACKUPSTEERING,2317,469419.300,02000000,e5fc,17139;2317,469419.300000000,0.0005950333282121,0.0005258508750470,0.0003736972611594,-0.0069746016925499,0.0461077764081197,0.0165710301684349*94e1ea4e
#CORRIMUDATAA,FILE,0,17.5,FINEBACKUPSTEERING,2317,469419.350,02000000,e5fc,17139;2317,469419.350000000,0.0001835379092833,0.0001205231878586,0.0002399547177590,-0.0062496959463861,0.0449093441105326,0.0054563179260765*05b0fae6
#CORRIMUDATAA,FILE,0,17.5,FINEBACKUPSTEERING,2317,469419.400,02000000,e5fc,17139;2317,469419.400000000,-0.0001050751816809,-0.0000608291274102,0.0002677665335847,-0.0056010855992051,0.0402594140282609,0.0115704292902921*269f294e
#CORRIMUDATAA,FILE,0,17.5,FINEBACKUPSTEERING,2317,469419.450,02000000,e5fc,17139;2317,469419.450000000,-0.0001402156170399,-0.0002011974466846,0.0003638726367473,-0.0041335449944853,0.0511307328020436,-0.0013377920286729*55c4f73c
#CORRIMUDATAA,FILE,0,17.5,FINEBACKUPSTEERING,2317,469419.500,02000000,e5fc,17139;2317,469419.500000000,-0.0002757146438514,-0.0006076952169676,0.0003332728001514,0.0003190920683057,0.0454399135320964,0.0128044990097730*c728f142
#CORRIMUDATAA,FILE,0,17.5,FINEBACKUPSTEERING,2317,469419.550,02000000,e5fc,17139;2317,469419.550000000,-0.0003516258521235,-0.0003351173711868,0.0002794551816290,-0.0016723665293961,0.0419499230357898,0.0099192767715610*a7014b4a
#CORRIMUDATAA,FILE,0,17.5,FINEBACKUPSTEERING,2317,469419.600,02000000,e5fc,17139;2317,469419.600000000,-0.0005284140194759,0.0000294782460726,0.0003109657651514,0.0038927377721635,0.0505523117615032,0.0051490517066516*5222edd5
#CORRIMUDATAA,FILE,0,17.5,FINEBACKUPSTEERING,2317,469419.650,02000000,e5fc,17139;2317,469419.650000000,-0.0006106720864046,-0.0001808731764869,0.0003259263598520,0.0025300683250840,0.0451070249457588,0.0048618850635331*f901e604
#CORRIMUDATAA,FILE,0,17.5,FINEBACKUPSTEERING,2317,469419.700,02000000,e5fc,17139;2317,469419.700000000,-0.0006512788240271,-0.0001886961535934,0.0002952804058148,-0.0093447472479195,0.0470261387967867,-0.0117022064389443*ee991c17
#CORRIMUDATAA,FILE,0,17.5,FINEBACKUPSTEERING,2317,469419.750,02000000,e5fc,17139;2317,469419.750000000,-0.0006003166571114,0.0000391305601485,0.0002108590067738,-0.0077784835960008,0.0427256194482735,-0.0145759369217567*e0798816
#CORRIMUDATAA,FILE,0,17.5,FINEBACKUPSTEERING,2317,469419.800,02000000,e5fc,17139;2317,469419.800000000,-0.0003357298452141,0.0002620107087827,0.0002690265774640,0.0062042685870694,0.0379543898559650,-0.0108237084568694*e6f7a8c8
#CORRIMUDATAA,FILE,0,17.5,FINEBACKUPSTEERING,2317,469419.850,02000000,e5fc,17139;2317,469419.850000000,-0.0001471233958116,-0.0001210439846156,0.0004264897716284,0.0093942219581540,0.0362711153934011,0.0025619960946570*a6fe2235
#CORRIMUDATAA,FILE,0,17.5,FINEBACKUPSTEERING,2317,469419.900,02000000,e5fc,17139;2317,469419.900000000,-0.0000385451277170,-0.0001689662972042,0.0004917812829014,-0.0089257911902053,0.0388844470404227,-0.0017251652882688*7b307484
#CORRIMUDATAA,FILE,0,17.5,FINEBACKUPSTEERING,2317,469419.950,02000000,e5fc,17139;2317,469419.950000000,-0.0001272795783974,0.0001170368047743,0.0003665608295456,-0.0093638458667126,0.0389782601373357,0.0061496303911343*320fb3c0
#CORRIMUDATAA,FILE,0,17.5,FINEBACKUPSTEERING,2317,469420.000,02000000,e5fc,17139;2317,469420.000000000,-0.0003027285478880,0.0000725158772736,0.0002686628374670,-0.0016485953021063,0.0344534161141271,0.0070944346454109*0d61523e
#CORRIMUDATAA,FILE,0,17.5,FINEBACKUPSTEERING,2317,469420.050,02000000,e5fc,17139;2317,469420.050000000,-0.0002582304323348,-0.0004043821257728,0.0002753420020566,0.0004336151359220,0.0391734338226851,-0.0045281501427470*ca9c58eb
#CORRIMUDATAA,FILE,0,17.5,FINEBACKUPSTEERING,2317,469420.100,02000000,e5fc,17139;2317,469420.100000000,0.0000530337965706,-0.0007076745261480,0.0002117279253531,-0.0076195097206915,0.0415394863582227,-0.0121013600315866*c4f87ffd
#CORRIMUDATAA,FILE,0,17.5,FINEBACKUPSTEERING,2317,469420.150,02000000,e5fc,17139;2317,469420.150000000,0.0001620549801275,-0.0005745023030033,0.0002254065391369,0.0003794020550088,0.0295741385362440,0.0034511468212970*c54cf175
#CORRIMUDATAA,FILE,0,21.0,FINEBACKUPSTEERING,2317,469420.200,02000000,e5fc,17139;2317,469420.200000000,0.0002006438561982,-0.0007280973341945,0.0003278365194772,0.0004638406136402,0.0282262146254955,0.0053823766889505*0af15afd
#CORRIMUDATAA,FILE,0,21.0,FINEBACKUPSTEERING,2317,469420.250,02000000,e5fc,17139;2317,469420.250000000,0.0001415803366055,-0.0004494557780900,0.0004578262835568,0.0049804635096494,0.0261802110578873,0.0050487133738204*06d37dbb
#CORRIMUDATAA,FILE,0,21.0,FINEBACKUPSTEERING,2317,469420.300,02000000,e5fc,17139;2317,469420.300000000,0.0000031003829521,-0.0004467184590240,0.0004286807213761,-0.0007693449639639,0.0199618601700262,0.0059273641838451*935258ac
#CORRIMUDATAA,FILE,0,21.0,FINEBACKUPSTEERING,2317,469420.350,02000000,e5fc,17139;2317,469420.350000000,-0.0001544964726601,-0.0006216541841869,0.0004121699485697,-0.0089554783906834,0.0215366101262524,-0.0024120187845414*8352ace7
#CORRIMUDATAA,FILE,0,21.0,FINEBACKUPSTEERING,2317,469420.400,02000000,e5fc,17139;2317,469420.400000000,0.0000289968612483,-0.0001140862422387,0.0003733449676196,-0.0039201236011057,0.0263486104531353,-0.0139572400751696*cba15634
#CORRIMUDATAA,FILE,0,21.0,FINEBACKUPSTEERING,2317,469420.450,02000000,e5fc,17139;2317,469420.450000000,0.0001677339380389,0.0002134916236410,0.0003531155752900,0.0092781463370379,0.0203989740978586,-0.0040395694628169*51b96939
#CORRIMUDATAA,FILE,0,21.0,FINEBACKUPSTEERING,2317,469420.500,02000000,e5fc,17139;2317,469420.500000000,0.0004531248657900,0.0001021103533425,0.0005030584092791,0.0008546391536192,0.0255731514822496,-0.0070060346358950*4f41b8db
#CORRIMUDATAA,FILE,0,21.0,FINEBACKUPSTEERING,2317,469420.550,02000000,e5fc,17139;2317,469420.550000000,0.0006707379113262,0.0001949751607794,0.0003406239942284,-0.0097110435174009,0.0271496873847457,0.0063296408842447*16dbc702
#CORRIMUDATAA,FILE,0,21.0,FINEBACKUPSTEERING,2317,469420.600,02000000,e5fc,17139;2317,469420.600000000,0.0006948237613658,0.0002960448942136,0.0001549560853953,-0.0020987110669132,0.0231077105746740,-0.0113635829225076*d05fcd59
#CORRIMUDATAA,FILE,0,21.0,FINEBACKUPSTEERING,2317,469420.650,02000000,e5fc,17139;2317,469420.650000000,0.0007244872420481,0.0000544866638923,0.0002856565048092,0.0044778173487902,0.0207046925957991,0.0074010189194175*a7a6ae96
#CORRIMUDATAA,FILE,0,21.0,FINEBACKUPSTEERING,2317,469420.700,02000000,e5fc,17139;2317,469420.700000000,0.0004677254031158,-0.0003106696537079,0.0004211475678973,-0.0029810641042392,0.0211027017277222,0.0110396593786981*c9b64f69
#CORRIMUDATAA,FILE,0,21.0,FINEBACKUPSTEERING,2317,469420.750,02000000,e5fc,17139;2317,469420.750000000,0.0000642082937422,-0.0003505309855478,0.0003679129178788,-0.0072290806005453,0.0150407354025424,0.0078056062813235*7fb8c7e1
#CORRIMUDATAA,FILE,0,21.0,FINEBACKUPSTEERING,2317,469420.800,02000000,e5fc,17139;2317,469420.800000000,-0.0000143428356315,-0.0002137883837141,0.0004733380599833,-0.0016622508546433,0.0183055094335540,0.0057197117758925*2b57c449
#CORRIMUDATAA,FILE,0,21.0,FINEBACKUPSTEERING,2317,469420.850,02000000,e5fc,17139;2317,469420.850000000,-0.0000931820167135,-0.0001880126977888,0.0004620692847496,0.0025067912132113,0.0165771600434385,0.0101378398389935*e1c6ed0c
#CORRIMUDATAA,FILE,0,21.0,FINEBACKUPSTEERING,2317,469420.900,02000000,e5fc,17139;2317,469420.900000000,-0.0000192676878411,-0.0003337856261748,0.0004298542643201,-0.0016718496604479,0.0195099755814922,-0.0011966933076872*847c82fc
#CORRIMUDATAA,FILE,0,21.0,FINEBACKUPSTEERING,2317,469420.950,02000000,e5fc,17139;2317,469420.950000000,0.0000351941812563,-0.0004560103645317,0.0003496368558758,-0.0107729169875487,0.0218991518752491,-0.0080775779753876*24252ce1
#CORRIMUDATAA,FILE,0,21.0,FINEBACKUPSTEERING,2317,469421.000,02000000,e5fc,17139;2317,469421.000000000,0.0001287106563609,-0.0003463392754470,0.0002752075310113,-0.0020414964930481,0.0216123282386021,-0.0044056995034674*ae08c97b
#CORRIMUDATAA,FILE,0,21.0,FINEBACKUPSTEERING,2317,469421.050,02000000,e5fc,17139;2317,469421.050000000,0.0001361938768354,-0.0003394509002067,0.0003073546915092,0.0046910131742833,0.0175204844917895,-0.0024462541399068*792c8ede
#CORRIMUDATAA,FILE,0,21.0,FINEBACKUPSTEERING,2317,469421.100,02000000,e5fc,17139;2317,469421.100000000,-0.0000165520379607,-0.0004492561472413,0.0004789528984226,0.0043975432323421,0.0144422052534749,0.0130944355773926*13ac642c
#CORRIMUDATAA,FILE,0,21.0,FINEBACKUPSTEERING,2317,469421.150,02000000,e5fc,17139;2317,469421.150000000,-0.0003561289717995,-0.0000908740287098,0.0005624783903687,-0.0028698818181290,0.0093829855198194,0.0095125020754472*8d38f3c2
#CORRIMUDATAA,FILE,0,21.0,FINEBACKUPSTEERING,2317,469421.200,02000000,e5fc,17139;2317,469421.200000000,-0.0005034666315523,0.0004283181417590,0.0004572729821668,0.0006870372363013,-0.0010304116612768,0.0142987218196315*ffaff932
#CORRIMUDATAA,FILE,0,21.0,FINEBACKUPSTEERING,2317,469421.250,02000000,e5fc,17139;2317,469421.250000000,-0.0009250113140913,0.0003080064800334,0.0005245844762913,0.0016235707852992,-0.0122888187516393,0.0155377968009514*601e0e80
#CORRIMUDATAA,FILE,0,21.0,FINEBACKUPSTEERING,2317,469421.300,02000000,e5fc,17139;2317,469421.300000000,-0.0015980737496452,-0.0001860695588874,0.0004768393827980,-0.0103833566030746,-0.0245784228657936,0.0086087186553718*0341ceeb
#CORRIMUDATAA,FILE,0,21.0,FINEBACKUPSTEERING,2317,469421.350,02000000,e5fc,17139;2317,469421.350000000,-0.0015346268396266,-0.0002872413037960,0.0003558427588381,-0.0090344136205478,-0.0071504023531473,-0.0179378280607887*967d2d1b
#CORRIMUDATAA,FILE,0,21.0,FINEBACKUPSTEERING,2317,469421.400,02000000,e5fc,17139;2317,469421.400000000,-0.0009856038588347,-0.0002014138909310,0.0004974293741540,0.0031887517273542,0.0000640759025668,-0.0195858385691240*4ea7e492
#CORRIMUDATAA,FILE,0,21.0,FINEBACKUPSTEERING,2317,469421.450,02000000,e5fc,17139;2317,469421.450000000,-0.0007818336721738,-0.0007533734826306,0.0005603415810840,0.0025755439967186,-0.0136804962325555,-0.0104675381062382*de423762
#CORRIMUDATAA,FILE,0,21.0,FINEBACKUPSTEERING,2317,469421.500,02000000,e5fc,17139;2317,469421.500000000,-0.0003315476760032,-0.0004952897913514,0.0005385756330231,-0.0075104088432649,-0.0140140641220188,-0.0104830063212468*9779f2d2
#CORRIMUDATAA,FILE,0,21.0,FINEBACKUPSTEERING,2317,469421.550,02000000,e5fc,17139;2317,469421.550000000,0.0003465412190303,-0.0001119682248226,0.0003598873619555,-0.0016938479044436,-0.0104499957692658,-0.0180370847447504*b19ebac4
#CORRIMUDATAA,FILE,0,21.0,FINEBACKUPSTEERING,2317,469421.600,02000000,e5fc,17139;2317,469421.600000000,0.0006377074706887,-0.0002163249141761,0.0003958809271801,0.0017221102478448,-0.0093210314260931,0.0032716102385706*048993ba
#CORRIMUDATAA,FILE,0,21.0,FINEBACKUPSTEERING,2317,469421.650,02000000,e5fc,17139;2317,469421.650000000,0.0006041545993358,-0.0000022595544452,0.0004788109162139,-0.0008383585126947,-0.0122098103687663,0.0054186771536920*9b60e689
#CORRIMUDATAA,FILE,0,21.0,FINEBACKUPSTEERING,2317,469421.700,02000000,e5fc,17139;2317,469421.700000000,0.0004769074795046,0.0004971183122461,0.0004858592135513,0.0024674459891749,-0.0107039539172213,0.0058974536653929*a8c21b9b
#CORRIMUDATAA,FILE,0,21.0,FINEBACKUPSTEERING,2317,469421.750,02000000,e5fc,17139;2317,469421.750000000,0.0001590088766769,0.0004079939054585,0.0005158005088062,-0.0006595297102300,-0.0088885094957480,0.0128573914171237*2a2c4f4a
#CORRIMUDATAA,FILE,0,21.0,FINEBACKUPSTEERING,2317,469421.800,02000000,e5fc,17139;2317,469421.800000000,-0.0003199985562503,0.0004078785114390,0.0004342908270125,-0.0003913094809552,-0.0081420933931287,0.0013138498179365*86cc28a3
#CORRIMUDATAA,FILE,0,21.0,FINEBACKUPSTEERING,2317,469421.850,02000000,e5fc,17139;2317,469421.850000000,-0.0007161048078114,0.0002096932304814,0.0003721964033265,-0.0055410783091360,-0.0070111405804161,0.0004380697305440*172097be
#CORRIMUDATAA,FILE,0,21.0,FINEBACKUPSTEERING,2317,469421.900,02000000,e5fc,17139;2317,469421.900000000,-0.0008558422173603,0.0001333483287183,0.0003889430650190,-0.0061917670319430,-0.0094950098244578,-0.0157733348187663*c7fe8922
#CORRIMUDATAA,FILE,0,21.0,FINEBACKUPSTEERING,2317,469421.950,02000000,e5fc,17139;2317,469421.950000000,-0.0005226230386796,-0.0003105996040685,0.0003029636922232,-0.0043957468275157,-0.0081266359166002,-0.0055778572716629*4a2f9ff4
#CORRIMUDATAA,FILE,0,21.0,FINEBACKUPSTEERING,2317,469422.000,02000000,e5fc,17139;2317,469422.000000000,-0.0003135766419566,-0.0006212032068843,0.0003173204627203,-0.0023962409726035,-0.0084919157587747,-0.0041046752769658*792844d7
#CORRIMUDATAA,FILE,0,21.0,FINEBACKUPSTEERING,2317,469422.050,02000000,e5fc,17139;2317,469422.050000000,-0.0003876859609160,-0.0008661198591529,0.0002961957630303,-0.0041730014596917,-0.0102474017311641,0.0045762042190458*7123d74d
#CORRIMUDATAA,FILE,0,16.0,FINEBACKUPSTEERING,2317,469422.100,02000000,e5fc,17139;2317,469422.100000000,-0.0003376149635297,-0.0002766780935695,0.0004637285915591,0.0028663661580198,-0.0119580710869410,0.0156580757113798*f9630407
#CORRIMUDATAA,FILE,0,16.0,FINEBACKUPSTEERING,2317,469422.150,02000000,e5fc,17139;2317,469422.150000000,-0.0006969776699863,0.0001280197934790,0.0004884225910438,0.0089689361563008,-0.0086728548198062,0.0095356998500679*919fc67d
#CORRIMUDATAA,FILE,0,16.0,FINEBACKUPSTEERING,2317,469422.200,02000000,e5fc,17139;2317,469422.200000000,-0.0008565257459912,-0.0002504324069803,0.0006106441103511,-0.0027843213553369,-0.0114748179434198,0.0135649664663088*41042661
#CORRIMUDATAA,FILE,0,16.0,FINEBACKUPSTEERING,2317,469422.250,02000000,e5fc,17139;2317,469422.250000000,-0.0008610585199916,0.0001817244179911,0.0003949248449538,-0.0102797083056732,-0.0130318479019990,-0.0013223375503602*e5eb2689
#CORRIMUDATAA,FILE,0,16.0,FINEBACKUPSTEERING,2317,469422.300,02000000,e5fc,17139;2317,469422.300000000,-0.0003301204348213,0.0005796604883959,0.0003576799784356,0.0039209604986579,-0.0096345740385066,-0.0040179060096174*4656d7ef
#CORRIMUDATAA,FILE,0,16.0,FINEBACKUPSTEERING,2317,469422.350,02000000,e5fc,17139;2317,469422.350000000,-0.0001736666397257,0.0005543201565292,0.0005034599615781,0.0077497682491651,-0.0071938337993080,-0.0117616023935892*f5f3d852
#CORRIMUDATAA,FILE,0,16.0,FINEBACKUPSTEERING,2317,469422.400,02000000,e5fc,17139;2317,469422.400000000,0.0000905756131942,0.0003679846110344,0.0005862647776593,-0.0019861840460983,-0.0060739564018014,-0.0263500547540442*b623d86a
#CORRIMUDATAA,FILE,0,16.0,FINEBACKUPSTEERING,2317,469422.450,02000000,e5fc,17139;2317,469422.450000000,0.0002310228435160,0.0005210919321614,0.0003372892458795,-0.0098837369520450,-0.0060080046064651,-0.0230176927696947*d346213c
#CORRIMUDATAA,FILE,0,16.0,FINEBACKUPSTEERING,2317,469422.500,02000000,e5fc,17139;2317,469422.500000000,0.0004611993564129,0.0002908841760212,0.0002521320921715,-0.0020748375709603,-0.0094628683005219,-0.0140676098597681*8672b73f
#CORRIMUDATAA,FILE,0,16.0,FINEBACKUPSTEERING,2317,469422.550,02000000,e5fc,17139;2317,469422.550000000,0.0003512784791110,-0.0002938910724136,0.0004046039048525,-0.0032582275724613,-0.0285071606120004,0.0186310533484739*b28d67dc
#CORRIMUDATAA,FILE,0,16.0,FINEBACKUPSTEERING,2317,469422.600,02000000,e5fc,17139;2317,469422.600000000,-0.0001483617097581,-0.0000098873944451,0.0004817838277010,0.0007835131591598,-0.0427277184284142,0.0251844891706351*dd6c34b7
#CORRIMUDATAA,FILE,0,16.0,FINEBACKUPSTEERING,2317,469422.650,02000000,e5fc,17139;2317,469422.650000000,-0.0006785452824160,-0.0004970736533987,0.0004786947034575,-0.0016592290799414,-0.0420308653971560,0.0113349462887389*4bcb39b8
#CORRIMUDATAA,FILE,0,16.0,FINEBACKUPSTEERING,2317,469422.700,02000000,e5fc,17139;2317,469422.700000000,-0.0009304976477927,-0.0005181553024926,0.0005298711534094,-0.0091189237998842,-0.0336662321194464,-0.0059727998439525*9a0eb5de
#CORRIMUDATAA,FILE,0,16.0,FINEBACKUPSTEERING,2317,469422.750,02000000,e5fc,17139;2317,469422.750000000,-0.0004945686503201,-0.0000240450189675,0.0003896723164877,0.0011560696945968,-0.0131578073221416,-0.0185846074856169*4eeffdad
#CORRIMUDATAA,FILE,0,16.0,FINEBACKUPSTEERING,2317,469422.800,02000000,e5fc,17139;2317,469422.800000000,0.0001477122628077,0.0001443449983583,0.0004085362905133,0.0062278639849625,-0.0088534890048419,-0.0322571084677618*f4ee908f
#CORRIMUDATAA,FILE,0,16.0,FINEBACKUPSTEERING,2317,469422.850,02000000,e5fc,17139;2317,469422.850000000,0.0010416844996767,0.0003645160082252,0.0004085737977266,-0.0001607922119054,-0.0103757434705085,-0.0045138743599313*e11a0ed9
#CORRIMUDATAA,FILE,0,16.0,FINEBACKUPSTEERING,2317,469422.900,02000000,e5fc,17139;2317,469422.900000000,0.0011640083573742,0.0005765028170486,0.0003004245520272,-0.0015854602265102,-0.0102982005344687,0.0092957187894803*e17352a8
#CORRIMUDATAA,FILE,0,16.0,FINEBACKUPSTEERING,2317,469422.950,02000000,e5fc,17139;2317,469422.950000000,0.0007534761527355,0.0003899673390450,0.0002965417853493,-0.0001401499464576,-0.0104110810203984,0.0215182361353304*92cca9c1
#CORRIMUDATAA,FILE,0,16.0,FINEBACKUPSTEERING,2317,469423.000,02000000,e5fc,17139;2317,469423.000000000,0.0002176484133954,0.0004221618419579,0.0004291409509012,-0.0011549790995486,-0.0156346489147318,0.0140568859005165*49ff37ae
#CORRIMUDATAA,FILE,0,16.0,FINEBACKUPSTEERING,2317,469423.050,02000000,e5fc,17139;2317,469423.050000000,-0.0002618883701567,0.0006240698845282,0.0004021546311580,0.0000876990580558,-0.0213329123631456,0.0100077579498648*7f1cec47
#CORRIMUDATAA,FILE,0,16.0,FINEBACKUPSTEERING,2317,469423.100,02000000,e5fc,17139;2317,469423.100000000,-0.0006647208895255,0.0009279055384900,0.0004884403873053,0.0030551172007551,-0.0294491066497401,0.0063291339711834*9f7bc001
#CORRIMUDATAA,FILE,0,21.5,FINEBACKUPSTEERING,2317,469423.150,02000000,e5fc,17139;2317,469423.150000000,-0.0007140338068955,0.0003231543510607,0.0004061481573024,-0.0059487180522059,-0.0250709336432332,0.0012337824240979*133ae96a
#CORRIMUDATAA,FILE,0,21.5,FINEBACKUPSTEERING,2317,469423.200,02000000,e5fc,17139;2317,469423.200000000,-0.0005006722973830,-0.0000011619965964,0.0003135674688873,-0.0137192688018294,-0.0209213008465282,-0.0058271993613319*a7f625bc
#CORRIMUDATAA,FILE,0,21.5,FINEBACKUPSTEERING,2317,469423.250,02000000,e5fc,17139;2317,469423.250000000,0.0000124358353158,0.0002969109847734,0.0003145993697756,0.0033314436245075,-0.0167129952298731,-0.0147676006439721*780a1ed7
#CORRIMUDATAA,FILE,0,21.5,FINEBACKUPSTEERING,2317,469423.300,02000000,e5fc,17139;2317,469423.300000000,0.0004791570256922,-0.0005019725088381,0.0004334900569359,0.0027333146592216,-0.0105590961128099,-0.0224337896489484*96449367
#CORRIMUDATAA,FILE,0,21.5,FINEBACKUPSTEERING,2317,469423.350,02000000,e5fc,17139;2317,469423.350000000,0.0008635710590150,-0.0007272852348741,0.0003682514454283,-0.0101715633566295,-0.0090754352279079,-0.0130730360256463*fb5c5707
#CORRIMUDATAA,FILE,0,21.5,FINEBACKUPSTEERING,2317,469423.400,02000000,e5fc,17139;2317,469423.400000000,0.0010035795495576,-0.0003359756995118,0.0002477417763034,-0.0040578386153830,-0.0091615186151270,-0.0069970526648664*6dc06bb4
#CORRIMUDATAA,FILE,0,21.5,FINEBACKUPSTEERING,2317,469423.450,02000000,e5fc,17139;2317,469423.450000000,0.0010013420286005,-0.0002402675126447,0.0003013056121986,0.0102340413984190,-0.0103114992844652,0.0033278151172596*5a5bd3d3
#CORRIMUDATAA,FILE,0,21.5,FINEBACKUPSTEERING,2317,469423.500,02000000,e5fc,17139;2317,469423.500000000,0.0009456138361056,-0.0000381740580160,0.0004861592142935,0.0104969903803543,0.0022410160839270,0.0121100856792925*1fa3dc8d
#CORRIMUDATAA,FILE,0,21.5,FINEBACKUPSTEERING,2317,469423.550,02000000,e5fc,17139;2317,469423.550000000,0.0006374346386469,-0.0001224314065075,0.0005275255856912,-0.0058140600779909,0.0204028791329535,0.0042644883982475*4aef345e
#CORRIMUDATAA,FILE,0,21.5,FINEBACKUPSTEERING,2317,469423.600,02000000,e5fc,17139;2317,469423.600000000,0.0004925834455458,-0.0002484102154633,0.0002882133734208,-0.0127910235118013,0.0256937308666418,-0.0038306773335354*b210a396
#CORRIMUDATAA,FILE,0,21.5,FINEBACKUPSTEERING,2317,469423.650,02000000,e5fc,17139;2317,469423.650000000,0.0002002047648605,-0.0009676873441859,-0.0001417749436442,-0.0064182794939306,0.0070871702033814,0.0116689115429894*ff83a62f
#CORRIMUDATAA,FILE,0,21.5,FINEBACKUPSTEERING,2317,469423.700,02000000,e5fc,17139;2317,469423.700000000,-0.0001884199307675,-0.0010700344896683,-0.0006366840548838,-0.0039140280009717,-0.0097552740221028,0.0213990666934407*6ea8db29
#CORRIMUDATAA,FILE,0,21.5,FINEBACKUPSTEERING,2317,469423.750,02000000,e5fc,17139;2317,469423.750000000,-0.0002920099054970,-0.0002850237613467,-0.0011185158641777,0.0069890130405555,-0.0072607746569993,0.0032468302316404*23ab7e42
#CORRIMUDATAA,FILE,0,21.5,FINEBACKUPSTEERING,2317,469423.800,02000000,e5fc,17139;2317,469423.800000000,-0.0002586691821354,-0.0001472848359050,-0.0015956949482640,0.0054416996634247,0.0053216882453542,-0.0003039920794276*1af75d82
#CORRIMUDATAA,FILE,0,21.5,FINEBACKUPSTEERING,2317,469423.850,02000000,e5fc,17139;2317,469423.850000000,-0.0001688274340051,-0.0000262400696947,-0.0019204332052048,0.0021682602664126,0.0139778222584664,0.0027422929446635*d93d8e8b
#CORRIMUDATAA,FILE,0,21.5,FINEBACKUPSTEERING,2317,469423.900,02000000,e5fc,17139;2317,469423.900000000,-0.0001149936010512,0.0001712999151067,-0.0026713059625660,0.0071693492547071,0.0154410688752718,-0.0016255071914064*437b3150
#CORRIMUDATAA,FILE,0,21.5,FINEBACKUPSTEERING,2317,469423.950,02000000,e5fc,17139;2317,469423.950000000,-0.0000114461766261,0.0000852960294510,-0.0033543617701495,0.0177762571457135,0.0086867831519417,-0.0023287250106639*4658d0d9
#CORRIMUDATAA,FILE,0,21.5,FINEBACKUPSTEERING,2317,469424.000,02000000,e5fc,17139;2317,469424.000000000,0.0001534975929853,-0.0004235406173853,-0.0028934752967097,0.0063249032889957,0.0025363047598464,-0.0021715589357452*47947c70
#CORRIMUDATAA,FILE,0,21.5,FINEBACKUPSTEERING,2317,469424.050,02000000,e5fc,17139;2317,469424.050000000,0.0003086348917022,0.0000246850081073,-0.0034331520782758,0.0058928123356133,0.0020536902685967,0.0000376074449495*da22b72d
#CORRIMUDATAA,FILE,0,20.0,FINEBACKUPSTEERING,2317,469424.100,02000000,e5fc,17139;2317,469424.100000000,0.0004345836561745,-0.0001723736573252,-0.0039453302319152,0.0165913323840185,0.0104779582755822,-0.0123000275927172*3210c930
#CORRIMUDATAA,FILE,0,20.0,FINEBACKUPSTEERING,2317,469424.150,02000000,e5fc,17139;2317,469424.150000000,0.0005020878955808,0.0000237640723254,-0.0032205030124767,0.0132385062573072,0.0157300272797148,0.0010991593582899*8ac568bc
#CORRIMUDATAA,FILE,0,20.0,FINEBACKUPSTEERING,2317,469424.200,02000000,e5fc,17139;2317,469424.200000000,0.0004965535090239,0.0002297469253584,-0.0035618512795690,0.0140240495065026,0.0177443319339595,-0.0083798002921001*38a0c677
#CORRIMUDATAA,FILE,0,20.0,FINEBACKUPSTEERING,2317,469424.250,02000000,e5fc,17139;2317,469424.250000000,0.0004565670808078,-0.0000081940755423,-0.0040760390226138,0.0070475418015934,0.0132733472183282,-0.0118078806464788*3e6f593c
#CORRIMUDATAA,FILE,0,20.0,FINEBACKUPSTEERING,2317,469424.300,02000000,e5fc,17139;2317,469424.300000000,0.0004118240387490,-0.0003627817383292,-0.0033977686454243,0.0101513922305706,0.0053343309741670,0.0004695219600072*161a32c7
#CORRIMUDATAA,FILE,0,20.0,FINEBACKUPSTEERING,2317,469424.350,02000000,e5fc,17139;2317,469424.350000000,0.0002218570550337,-0.0004175944896822,-0.0037184766083456,0.0130268347526429,0.0056507442788108,0.0107463098881396*01dac015
#CORRIMUDATAA,FILE,0,20.0,FINEBACKUPSTEERING,2317,469424.400,02000000,e5fc,17139;2317,469424.400000000,-0.0000080396685028,0.0001913080804490,-0.0037478652449369,0.0320765338465250,0.0142789277692044,0.0109971863996954*0b28c2e5
#CORRIMUDATAA,FILE,0,20.0,FINEBACKUPSTEERING,2317,469424.450,02000000,e5fc,17139;2317,469424.450000000,-0.0004327782791054,0.0002087923558717,-0.0032067858277929,0.0181741244601438,0.0188384374147585,0.0069639703439741*dec8fcb0
#CORRIMUDATAA,FILE,0,20.0,FINEBACKUPSTEERING,2317,469424.500,02000000,e5fc,17139;2317,469424.500000000,-0.0003268959419884,0.0009111706867994,-0.0029752087969999,0.0049132166612186,0.0191043263326884,-0.0032813011134520*44b2d7cf
#CORRIMUDATAA,FILE,0,20.0,FINEBACKUPSTEERING,2317,469424.550,02000000,e5fc,17139;2317,469424.550000000,-0.0005008256280711,0.0014276529823324,-0.0035797040293992,0.0204995340148283,0.0139912923913149,-0.0085216759888921*22c1f775
#CORRIMUDATAA,FILE,0,20.0,FINEBACKUPSTEERING,2317,469424.600,02000000,e5fc,17139;2317,469424.600000000,-0.0005208111333590,0.0011269069575157,-0.0029361086194723,0.0149974702146352,0.0004854403466120,0.0107873222671373*8e4c73e8
#CORRIMUDATAA,FILE,0,20.0,FINEBACKUPSTEERING,2317,469424.650,02000000,e5fc,17139;2317,469424.650000000,-0.0005573465281589,0.0003652829002503,-0.0024230287161457,0.0018597206461998,0.0026820865900454,0.0201754412815183*bbb89b2d
#CORRIMUDATAA,FILE,0,20.0,FINEBACKUPSTEERING,2317,469424.700,02000000,e5fc,17139;2317,469424.700000000,-0.0008618558152337,-0.0000805850300413,-0.0028177063960650,0.0005123521906024,0.0130402677391738,-0.0025134291968226*a662ab64
#CORRIMUDATAA,FILE,0,20.0,FINEBACKUPSTEERING,2317,469424.750,02000000,e5fc,17139;2317,469424.750000000,-0.0005430249644968,-0.0003219283012941,-0.0024352447566969,0.0083135978744623,0.0201995598295882,-0.0045299758286121*0f46bd9f
#CORRIMUDATAA,FILE,0,20.0,FINEBACKUPSTEERING,2317,469424.800,02000000,e5fc,17139;2317,469424.800000000,-0.0003678340832255,-0.0003371831097893,-0.0021069763724529,0.0092512733878118,0.0191785046487767,0.0110180161836545*554aa041
#CORRIMUDATAA,FILE,0,20.0,FINEBACKUPSTEERING,2317,469424.850,02000000,e5fc,17139;2317,469424.850000000,-0.0005749512125472,-0.0003366336354916,-0.0023809059562010,0.0167810473006140,0.0147633973741690,-0.0095597528869457*5e188a94
#CORRIMUDATAA,FILE,0,20.0,FINEBACKUPSTEERING,2317,469424.900,02000000,e5fc,17139;2317,469424.900000000,-0.0005078655799594,0.0000337564522677,-0.0019612917906166,0.0141421724125557,0.0059908633785885,-0.0008573864482289*09470c56
#CORRIMUDATAA,FILE,0,20.0,FINEBACKUPSTEERING,2317,469424.950,02000000,e5fc,17139;2317,469424.950000000,-0.0006281807253136,0.0000279057080266,-0.0016678717392417,0.0033947099732152,0.0030780021624671,-0.0027093971500783*8749d06a
#CORRIMUDATAA,FILE,0,20.0,FINEBACKUPSTEERING,2317,469425.000,02000000,e5fc,17139;2317,469425.000000000,-0.0006064724950461,0.0000209454668906,-0.0018727538078876,0.0044245293032381,0.0124605917366364,-0.0081370446771314*bff11c25
#CORRIMUDATAA,FILE,0,20.0,FINEBACKUPSTEERING,2317,469425.050,02000000,e5fc,17139;2317,469425.050000000,0.0002027843849024,-0.0002171730960532,-0.0013654311965334,0.0112155832609001,0.0214042146625953,-0.0294823793367606*6146962a
#CORRIMUDATAA,FILE,0,20.0,FINESTEERING,2317,469425.100,02000000,e5fc,17139;2317,469425.100000000,0.0006054967884554,-0.0000002371787516,-0.0010613992581264,0.0064519112814318,0.0171978065974754,-0.0145944803328408*18aacf11
#CORRIMUDATAA,FILE,0,21.0,FINESTEERING,2317,469425.150,02000000,e5fc,17139;2317,469425.150000000,0.0008368694458367,-0.0004151519377536,-0.0010634903612960,0.0116766692672863,0.0201666065311485,0.0055001194086368*c1627b81
#CORRIMUDATAA,FILE,0,21.0,FINESTEERING,2317,469425.200,02000000,e5fc,17139;2317,469425.200000000,0.0003912775600992,-0.0003627594577515,-0.0008882977473857,-0.0055671859956647,0.0075890415872903,0.0104959303420095*f2c5f13f
#CORRIMUDATAA,FILE,0,21.0,FINESTEERING,2317,469425.250,02000000,e5fc,17139;2317,469425.250000000,-0.0000568384672132,-0.0006424397408049,-0.0010120026699282,0.0021872149479685,0.0086951745002409,0.0147585535268533*f773b711
#CORRIMUDATAA,FILE,0,21.0,FINESTEERING,2317,469425.300,02000000,e5fc,17139;2317,469425.300000000,-0.0001147849074097,-0.0001524208704106,-0.0010658875089748,-0.0021254854520390,0.0151436922826606,-0.0014058192106119*232cd509
#CORRIMUDATAA,FILE,0,21.0,FINESTEERING,2317,469425.350,02000000,e5fc,17139;2317,469425.350000000,0.0003122020510368,0.0001896717028693,-0.0009897292226865,0.0181831642620765,0.0203640247892894,-0.0058836312490472*4f59925d
#CORRIMUDATAA,FILE,0,21.0,FINESTEERING,2317,469425.400,02000000,e5fc,17139;2317,469425.400000000,0.0008810947966545,0.0001386348529703,-0.0009121444404777,0.0085297733016988,0.0196929499353454,-0.0007733309490951*b77040e6
#CORRIMUDATAA,FILE,0,21.0,FINESTEERING,2317,469425.450,02000000,e5fc,17139;2317,469425.450000000,0.0010059915079049,0.0011271228251641,-0.0010232266152709,0.0048684824859508,0.0153893609177464,0.0027613468676807*a802d7f6
#CORRIMUDATAA,FILE,0,21.0,FINESTEERING,2317,469425.500,02000000,e5fc,17139;2317,469425.500000000,0.0005462159751775,0.0014353463664887,-0.0011415110870794,0.0046563895907492,0.0095733834594506,0.0104857019200943*476242c0
#CORRIMUDATAA,FILE,0,21.0,FINESTEERING,2317,469425.550,02000000,e5fc,17139;2317,469425.550000000,0.0000671273928593,0.0012280190023075,-0.0010676751851034,-0.0009540888726839,0.0105549475209361,-0.0013190841213703*bc1dde2a
#CORRIMUDATAA,FILE,0,21.0,FINESTEERING,2317,469425.600,02000000,e5fc,17139;2317,469425.600000000,-0.0001671416681700,0.0015066002292260,-0.0011558308901840,0.0053247399159695,0.0142642151481865,0.0019405075799672*bbd28ff9
#CORRIMUDATAA,FILE,0,21.0,FINESTEERING,2317,469425.650,02000000,e5fc,17139;2317,469425.650000000,-0.0004670093979292,0.0008272276040714,-0.0011141021226451,0.0039043752757102,0.0195153101192273,0.0099112216481382*676b6309
#CORRIMUDATAA,FILE,0,21.0,FINESTEERING,2317,469425.700,02000000,e5fc,17139;2317,469425.700000000,-0.0004984978279116,-0.0004121875396715,-0.0008626706332482,-0.0001222823596930,0.0204185780322379,-0.0041251887933122*dfcdbca9
#CORRIMUDATAA,FILE,0,21.0,FINESTEERING,2317,469425.750,02000000,e5fc,17139;2317,469425.750000000,-0.0004079886808848,-0.0006235827070496,-0.0005765009420596,-0.0027823295939872,0.0140417210533961,0.0032837654844308*e73f5b62
#CORRIMUDATAA,FILE,0,21.0,FINESTEERING,2317,469425.800,02000000,e5fc,17139;2317,469425.800000000,-0.0004647977377043,-0.0007436564692363,-0.0004079158028322,-0.0023672509384734,0.0092911690459464,-0.0109375801255473*cfcb994e
#CORRIMUDATAA,FILE,0,21.0,FINESTEERING,2317,469425.850,02000000,e5fc,17139;2317,469425.850000000,0.0001979313748946,-0.0008948816874770,-0.0000250728011150,0.0056015916206301,0.0115510451480938,-0.0244388178582913*77f6cab9
#CORRIMUDATAA,FILE,0,21.0,FINESTEERING,2317,469425.900,02000000,e5fc,17139;2317,469425.900000000,0.0005075792976245,-0.0001999064033664,0.0004391896863825,0.0051334747215710,0.0146996916749343,0.0152358660922318*e3ab72d0
#CORRIMUDATAA,FILE,0,21.0,FINESTEERING,2317,469425.950,02000000,e5fc,17139;2317,469425.950000000,0.0002500755584271,0.0004041107840356,0.0008259257167295,0.0098159651111335,0.0115977113968596,0.0270807368148270*68e9d8ff
#CORRIMUDATAA,FILE,0,21.0,FINESTEERING,2317,469426.000,02000000,e5fc,17139;2317,469426.000000000,-0.0001315236930467,0.0003553929396126,0.0013441586281189,0.0018973054328037,0.0164936764529518,0.0263098811213969*f6e69e56
#CORRIMUDATAA,FILE,0,21.0,FINESTEERING,2317,469426.050,02000000,e5fc,17139;2317,469426.050000000,-0.0002607929702284,0.0006196416416498,0.0013602775821258,0.0003752912144100,0.0143192057456218,-0.0041504181425208*d8194cbd
#CORRIMUDATAA,FILE,0,19.0,FINESTEERING,2317,469426.100,02000000,e5fc,17139;2317,469426.100000000,0.0000633554487756,0.0012238678146805,0.0019647972079006,-0.0061763714729413,0.0139437455033000,-0.0278111558208529*893f4a3b
#CORRIMUDATAA,FILE,0,19.0,FINESTEERING,2317,469426.150,02000000,e5fc,17139;2317,469426.150000000,0.0002138525261571,0.0010594547721212,0.0016642867226369,-0.0103855720319853,0.0102439137731423,-0.0026437200514977*f3f37128
#CORRIMUDATAA,FILE,0,19.0,FINESTEERING,2317,469426.200,02000000,e5fc,17139;2317,469426.200000000,0.0004453415585483,0.0006616613642089,0.0019093859278498,-0.0077259488873551,0.0135184588417102,-0.0127096071075355*162faa5b
#CORRIMUDATAA,FILE,0,19.0,FINESTEERING,2317,469426.250,02000000,e5fc,17139;2317,469426.250000000,0.0007686561870100,0.0001186066639679,0.0019320586907077,-0.0175105264124058,0.0204347334984061,-0.0224001841212892*035dcf97
#CORRIMUDATAA,FILE,0,19.0,FINESTEERING,2317,469426.300,02000000,e5fc,17139;2317,469426.300000000,0.0009184048910084,-0.0006325991817972,0.0019113998782414,-0.0224418590369745,0.0202796162951408,-0.0098929598806310*7a30266f
#CORRIMUDATAA,FILE,0,19.0,FINESTEERING,2317,469426.350,02000000,e5fc,17139;2317,469426.350000000,0.0006410835405023,-0.0009185487680307,0.0015075021171639,-0.0089004350377760,0.0095087713565681,0.0078792115502887*453dc3e2
#CORRIMUDATAA,FILE,0,19.0,FINESTEERING,2317,469426.400,02000000,e5fc,17139;2317,469426.400000000,0.0005894396641960,-0.0014943621869917,0.0020234031267247,-0.0030660211902563,0.0073097065659949,0.0168639099333113*f2240c14
#CORRIMUDATAA,FILE,0,19.0,FINESTEERING,2317,469426.450,02000000,e5fc,17139;2317,469426.450000000,0.0003247235628805,-0.0015515157960896,0.0019156716190911,-0.0137167564425815,0.0096458214479989,0.0134118990555211*af7d06c3
#CORRIMUDATAA,FILE,0,19.0,FINESTEERING,2317,469426.500,02000000,e5fc,17139;2317,469426.500000000,-0.0000227631990094,-0.0014071060052478,0.0019376425191047,-0.0049926693240162,0.0144476360410864,0.0171748158610707*992a51fe
#CORRIMUDATAA,FILE,0,19.0,FINESTEERING,2317,469426.550,02000000,e5fc,17139;2317,469426.550000000,-0.0003387868465032,-0.0013930627034280,0.0020609766666414,-0.0081427189567413,0.0185447984975419,0.0029433687547877*af41104c
#CORRIMUDATAA,FILE,0,19.0,FINESTEERING,2317,469426.600,02000000,e5fc,17139;2317,469426.600000000,-0.0004413575582411,-0.0005903472220483,0.0020268794745333,-0.0037523462023695,0.0175221835309532,0.0058295088996139*307ec71f
#CORRIMUDATAA,FILE,0,19.0,FINESTEERING,2317,469426.650,02000000,e5fc,17139;2317,469426.650000000,-0.0004294502921317,-0.0000605559237152,0.0018252138511393,-0.0003855008374643,0.0121195362190752,0.0014434809147263*16323579
#CORRIMUDATAA,FILE,0,19.0,FINESTEERING,2317,469426.700,02000000,e5fc,17139;2317,469426.700000000,-0.0006416276757078,0.0004453903743047,0.0021924634694168,-0.0054937340634175,0.0088623456429807,0.0034817506756683*51a48206
#CORRIMUDATAA,FILE,0,19.0,FINESTEERING,2317,469426.750,02000000,e5fc,17139;2317,469426.750000000,-0.0004463278634179,0.0007625573860884,0.0018197107333512,-0.0130660092856890,0.0118490418145778,-0.0044350580007337*6c9160a9
#CORRIMUDATAA,FILE,0,19.0,FINESTEERING,2317,469426.800,02000000,e5fc,17139;2317,469426.800000000,-0.0004293492887343,0.0007093318335037,0.0017272115151130,-0.0075902856870932,0.0167263654094777,-0.0024661167119845*375b6ced
#CORRIMUDATAA,FILE,0,19.0,FINESTEERING,2317,469426.850,02000000,e5fc,17139;2317,469426.850000000,-0.0003125684220455,0.0005756887094707,0.0017964102374978,-0.0066542291189854,0.0207458014520349,-0.0185812594318505*154d9f2f
#CORRIMUDATAA,FILE,0,19.0,FINESTEERING,2317,469426.900,02000000,e5fc,17139;2317,469426.900000000,-0.0002348233137285,-0.0000017359489534,0.0018914483714654,-0.0092800608096741,0.0150330102423726,-0.0088409949090466*024f23e9
#CORRIMUDATAA,FILE,0,19.0,FINESTEERING,2317,469426.950,02000000,e5fc,17139;2317,469426.950000000,-0.0003600066134985,-0.0002997781197779,0.0017648865151841,-0.0136159692503752,0.0081943797845566,0.0217054125927310*120cdda4
#CORRIMUDATAA,FILE,0,19.0,FINESTEERING,2317,469427.000,02000000,e5fc,17139;2317,469427.000000000,-0.0010842348709890,-0.0011910400987651,0.0021160189353449,-0.0189216455943330,0.0107458178619784,0.0020079727831909*c9341321
#CORRIMUDATAA,FILE,0,19.0,FINESTEERING,2317,469427.050,02000000,e5fc,17139;2317,469427.050000000,-0.0007379451333045,-0.0014269354364854,0.0017447330369912,-0.0179625061928402,0.0182956893968260,-0.0153193990809545*057098da
#CORRIMUDATAA,FILE,0,17.5,FINESTEERING,2317,469427.100,02000000,e5fc,17139;2317,469427.100000000,-0.0003671252934233,-0.0014291569362129,0.0014205827565052,-0.0116566059877553,0.0202176999842985,-0.0155103857018732*3ef82d7b
#CORRIMUDATAA,FILE,0,17.5,FINESTEERING,2317,469427.150,02000000,e5fc,17139;2317,469427.150000000,-0.0001910179118797,-0.0014792492346788,0.0015075587939724,0.0019339044970538,0.0195895160681842,0.0026892058582375*b2a6a167
#CORRIMUDATAA,FILE,0,17.5,FINESTEERING,2317,469427.200,02000000,e5fc,17139;2317,469427.200000000,-0.0001710363158782,-0.0008441348630305,0.0016085557626110,0.0064485095586811,0.0154497517206901,-0.0070033472392357*b1c6824d
#CORRIMUDATAA,FILE,0,17.5,FINESTEERING,2317,469427.250,02000000,e5fc,17139;2317,469427.250000000,-0.0000336775943217,-0.0003369506958929,0.0012397672938837,-0.0013079212877403,0.0098913794922387,0.0123389720021693*eb900e35
