#INSPVAXA,FILE,0,24.0,FINESTEERING,2317,469412.350,02000800,46eb,17139;INS_SOLUTION_GOOD,INS_PPP_CONVERGING,17.60150086668,78.12665261315,525.8454,-76.2000,-0.0010,0.0051,-0.0002,1.420436695,-0.745563718,3.130912692,0.3294,0.3774,0.4500,0.0069,0.0071,0.0045,0.0621,0.0608,0.5417,ab000044,0*a0dfc908
#INSPVAXA,FILE,0,24.0,FINESTEERING,2317,469412.400,02000800,46eb,17139;INS_SOLUTION_GOOD,INS_PPP_CONVERGING,17.60150086656,78.12665261328,525.8454,-76.2000,-0.0010,0.0051,-0.0004,1.420035301,-0.743946243,3.131768285,0.3294,0.3774,0.4500,0.0069,0.0071,0.0045,0.0621,0.0608,0.5417,ab000044,0*ecbb6443
#INSPVAXA,FILE,0,24.0,FINESTEERING,2317,469412.800,02000800,46eb,17139;INS_SOLUTION_GOOD,INS_PPP_CONVERGING,17.60150086601,78.12665261615,525.8455,-76.2000,-0.0011,0.0058,0.0005,1.420398417,-0.745640460,3.133750959,0.3294,0.3774,0.4500,0.0069,0.0071,0.0045,0.0621,0.0608,0.5417,ab000044,0*4130e300
#INSPVAXA,FILE,0,24.0,FINESTEERING,2317,469412.900,02000800,46eb,17139;INS_SOLUTION_GOOD,INS_PPP_CONVERGING,17.60150086606,78.12665261754,525.8455,-76.2000,-0.0010,0.0055,0.0015,1.420849692,-0.745530735,3.134069770,0.3294,0.3774,0.4500,0.0069,0.0071,0.0045,0.0621,0.0608,0.5417,ab000044,0*d6f85ba7
#INSPVAXA,FILE,0,24.0,FINESTEERING,2317,469413.050,02000800,46eb,17139;INS_SOLUTION_GOOD,INS_PPP_CONVERGING,17.60150086595,78.12665261907,525.8456,-76.2000,-0.0009,0.0061,0.0002,1.422032958,-0.744012902,3.135042856,0.3260,0.3733,0.4445,0.0069,0.0071,0.0045,0.0620,0.0608,0.5414,ab000044,0*b1a86498
#INSPVAXA,FILE,0,24.0,FINESTEERING,2317,469413.250,02000800,46eb,17139;INS_SOLUTION_GOOD,INS_PPP_CONVERGING,17.60150086839,78.12665261849,525.8456,-76.2000,0.0034,0.0060,0.0005,1.421314630,-0.741042673,3.136719323,0.3260,0.3733,0.4445,0.0069,0.0071,0.0045,0.0620,0.0608,0.5414,ab000044,0*7de939c8
#INSPVAXA,FILE,0,24.0,FINESTEERING,2317,469413.700,02000800,46eb,17139;INS_SOLUTION_GOOD,INS_PPP_CONVERGING,17.60150096219,78.12665262445,525.8450,-76.2000,0.0569,0.0090,-0.0033,1.424850478,-0.720341097,3.136707037,0.3260,0.3733,0.4445,0.0069,0.0071,0.0045,0.0620,0.0608,0.5414,ab000044,0*9da0a09a
#INSPVAXA,FILE,0,24.0,FINESTEERING,2317,469413.850,02000800,46eb,17139;INS_SOLUTION_GOOD,INS_PPP_CONVERGING,17.60150106163,78.12665263065,525.8445,-76.2000,0.0889,0.0091,-0.0026,1.425667996,-0.709364749,3.135310915,0.3260,0.3733,0.4445,0.0069,0.0071,0.0045,0.0620,0.0608,0.5414,ab000044,0*9b81ae3f
#INSPVAXA,FILE,0,24.0,FINESTEERING,2317,469413.950,02000800,46eb,17139;INS_SOLUTION_GOOD,INS_PPP_CONVERGING,17.60150115245,78.12665263618,525.8443,-76.2000,0.1118,0.0112,-0.0017,1.424492045,-0.701813077,3.133167242,0.3260,0.3733,0.4445,0.0069,0.0071,0.0045,0.0620,0.0608,0.5414,ab000044,0*bc5d707a
#INSPVAXA,FILE,0,24.0,FINESTEERING,2317,469414.050,02000800,46eb,17139;INS_SOLUTION_GOOD,INS_PPP_CONVERGING,17.60150126777,78.12665263865,525.8432,-76.2000,0.1449,0.0122,-0.0043,1.424802879,-0.687117147,3.129830130,0.3165,0.3686,0.4437,0.0089,0.0092,0.0063,0.0622,0.0609,0.5442,ab000043,0*2d8329cc
#INSPVAXA,FILE,0,22.5,FINESTEERING,2317,469414.100,02000800,46eb,17139;INS_SOLUTION_GOOD,INS_PPP_CONVERGING,17.60150133069,78.12665261919,525.8393,-76.2000,0.1582,0.0134,-0.0035,1.424660783,-0.682952202,3.128862975,0.3165,0.3686,0.4437,0.0089,0.0092,0.0063,0.0622,0.0609,0.5442,ab000043,0*cd29de5c
#INSPVAXA,FILE,0,22.5,FINESTEERING,2317,469414.150,02000800,46eb,17139;INS_SOLUTION_GOOD,INS_PPP_CONVERGING,17.60150140180,78.12665260039,525.8354,-76.2000,0.1775,0.0146,-0.0057,1.425210650,-0.678014024,3.127777282,0.3165,0.3686,0.4437,0.0089,0.0092,0.0063,0.0622,0.0609,0.5442,ab000043,0*57535c28
#INSPVAXA,FILE,0,22.5,FINESTEERING,2317,469414.200,02000800,46eb,17139;INS_SOLUTION_GOOD,INS_PPP_CONVERGING,17.60150147965,78.12665257953,525.8312,-76.2000,0.1963,0.0156,-0.0041,1.425353693,-0.668255731,3.125938662,0.3165,0.3686,0.4437,0.0089,0.0092,0.0063,0.0622,0.0609,0.5442,ab000043,0*d6ae5c77
#INSPVAXA,FILE,0,22.5,FINESTEERING,2317,469414.350,02000800,46eb,17139;INS_SOLUTION_GOOD,INS_PPP_CONVERGING,17.60150176474,78.12665252739,525.8198,-76.2000,0.2531,0.0186,-0.0039,1.425915904,-0.645304907,3.117671939,0.3165,0.3686,0.4437,0.0089,0.0092,0.0063,0.0622,0.0609,0.5442,ab000043,0*f8bfaab7
#INSPVAXA,FILE,0,22.5,FINESTEERING,2317,469414.400,02000800,46eb,17139;INS_SOLUTION_GOOD,INS_PPP_CONVERGING,17.60150187820,78.12665251339,525.8164,-76.2000,0.2731,0.0191,-0.0008,1.423439377,-0.639085712,3.114432327,0.3165,0.3686,0.4437,0.0089,0.0092,0.0063,0.0622,0.0609,0.5442,ab000043,0*40d1462e
#INSPVAXA,FILE,0,22.5,FINESTEERING,2317,469414.700,02000800,46eb,17139;INS_SOLUTION_GOOD,INS_PPP_CONVERGING,17.60150277103,78.12665242290,525.7932,-76.2000,0.4137,0.0267,-0.0038,1.410130981,-0.595251939,3.085442102,0.3165,0.3686,0.4437,0.0089,0.0092,0.0063,0.0622,0.0609,0.5442,ab000043,0*c834798c
#INSPVAXA,FILE,0,22.5,FINESTEERING,2317,469414.750,02000800,46eb,17139;INS_SOLUTION_GOOD,INS_PPP_CONVERGING,17.60150295812,78.12665241067,525.7893,-76.2000,0.4387,0.0283,-0.0036,1.405444904,-0.587179247,3.077386806,0.3165,0.3686,0.4437,0.0089,0.0092,0.0063,0.0622,0.0609,0.5442,ab000043,0*00adffef
#INSPVAXA,FILE,0,22.5,FINESTEERING,2317,469414.800,02000800,46eb,17139;INS_SOLUTION_GOOD,INS_PPP_CONVERGING,17.60150315672,78.12665239888,525.7855,-76.2000,0.4653,0.0297,-0.0035,1.401075108,-0.579451086,3.068870684,0.3165,0.3686,0.4437,0.0089,0.0092,0.0063,0.0622,0.0609,0.5442,ab000043,0*f7b8a38d
#INSPVAXA,FILE,0,22.5,FINESTEERING,2317,469414.850,02000800,46eb,17139;INS_SOLUTION_GOOD,INS_PPP_CONVERGING,17.60150336813,78.12665238777,525.7815,-76.2000,0.4941,0.0309,-0.0058,1.396701749,-0.569904871,3.059543161,0.3165,0.3686,0.4437,0.0089,0.0092,0.0063,0.0622,0.0609,0.5442,ab000043,0*937fba53
#INSPVAXA,FILE,0,22.5,FINESTEERING,2317,469414.900,02000800,46eb,17139;INS_SOLUTION_GOOD,INS_PPP_CONVERGING,17.60150359419,78.12665237745,525.7774,-76.2000,0.5291,0.0326,-0.0107,1.393329256,-0.555858919,3.048999120,0.3165,0.3686,0.4437,0.0089,0.0092,0.0063,0.0622,0.0609,0.5442,ab000043,0*5044d8ea
#INSPVAXA,FILE,0,22.5,FINESTEERING,2317,469415.000,02000800,46eb,17139;INS_SOLUTION_GOOD,INS_PPP_CONVERGING,17.60150409158,78.12665235914,525.7690,-76.2000,0.5977,0.0351,-0.0125,1.386143614,-0.516361481,3.026221563,0.3165,0.3686,0.4437,0.0089,0.0092,0.0063,0.0622,0.0609,0.5442,ab000043,0*e60e2366
#INSPVAXA,FILE,0,22.5,FINESTEERING,2317,469415.050,02000800,46eb,17139;INS_SOLUTION_GOOD,INS_PPP_CONVERGING,17.60150436584,78.12665235562,525.7656,-76.2000,0.6330,0.0375,-0.0106,1.385691525,-0.499746091,3.015164579,0.3088,0.3642,0.4411,0.0105,0.0121,0.0074,0.0622,0.0610,0.5463,ab000243,0*a1f0a0ec
#INSPVAXA,FILE,0,22.5,FINESTEERING,2317,469415.100,02000800,46eb,17139;INS_SOLUTION_GOOD,INS_PPP_CONVERGING,17.60150465674,78.12665234670,525.7618,-76.2000,0.6703,0.0397,-0.0112,1.383412355,-0.481854384,3.001795183,0.3088,0.3642,0.4411,0.0105,0.0121,0.0074,0.0622,0.0610,0.5463,ab000243,0*1b44d351
#INSPVAXA,FILE,0,22.5,FINESTEERING,2317,469415.150,02000800,46eb,17139;INS_SOLUTION_GOOD,INS_PPP_CONVERGING,17.60150496478,78.12665234098,525.7583,-76.2000,0.7096,0.0398,-0.0093,1.380422285,-0.464584721,2.986170737,0.3088,0.3642,0.4411,0.0105,0.0121,0.0074,0.0622,0.0610,0.5463,ab000243,0*b732fd1d
#INSPVAXA,FILE,0,22.5,FINESTEERING,2317,469415.250,02000800,46eb,17139;INS_SOLUTION_GOOD,INS_PPP_CONVERGING,17.60150563072,78.12665233102,525.7519,-76.2000,0.7805,0.0433,-0.0018,1.373917255,-0.443630331,2.953192209,0.3088,0.3642,0.4411,0.0105,0.0121,0.0074,0.0622,0.0610,0.5463,ab000243,0*1a5b52ae
#INSPVAXA,FILE,0,22.5,FINESTEERING,2317,469415.350,02000800,46eb,17139;INS_SOLUTION_GOOD,INS_PPP_CONVERGING,17.60150636211,78.12665232821,525.7465,-76.2000,0.8530,0.0483,0.0021,1.369356879,-0.428900121,2.913931894,0.3088,0.3642,0.4411,0.0105,0.0121,0.0074,0.0622,0.0610,0.5463,ab000243,0*e125f384
#INSPVAXA,FILE,0,22.5,FINESTEERING,2317,469415.400,02000800,46eb,17139;INS_SOLUTION_GOOD,INS_PPP_CONVERGING,17.60150675209,78.12665232670,525.7436,-76.2000,0.8886,0.0479,-0.0016,1.370319594,-0.423629072,2.893414144,0.3088,0.3642,0.4411,0.0105,0.0121,0.0074,0.0622,0.0610,0.5463,ab000243,0*fac1d192
#INSPVAXA,FILE,0,22.5,FINESTEERING,2317,469415.450,02000800,46eb,17139;INS_SOLUTION_GOOD,INS_PPP_CONVERGING,17.60150715909,78.12665232243,525.7403,-76.2000,0.9282,0.0472,-0.0044,1.368407335,-0.419745386,2.873780795,0.3088,0.3642,0.4411,0.0105,0.0121,0.0074,0.0622,0.0610,0.5463,ab000243,0*24703bc5
#INSPVAXA,FILE,0,22.5,FINESTEERING,2317,469415.500,02000800,46eb,17139;INS_SOLUTION_GOOD,INS_PPP_CONVERGING,17.60150758332,78.12665232292,525.7377,-76.2000,0.9663,0.0467,-0.0000,1.362161142,-0.409970178,2.852115043,0.3088,0.3642,0.4411,0.0105,0.0121,0.0074,0.0622,0.0610,0.5463,ab000243,0*ad1a4e30
#INSPVAXA,FILE,0,22.5,FINESTEERING,2317,469415.550,02000800,46eb,17139;INS_SOLUTION_GOOD,INS_PPP_CONVERGING,17.60150802370,78.12665231927,525.7345,-76.2000,1.0028,0.0495,0.0022,1.354854535,-0.407795472,2.826386138,0.3088,0.3642,0.4411,0.0105,0.0121,0.0074,0.0622,0.0610,0.5463,ab000243,0*8532dd33
#INSPVAXA,FILE,0,22.5,FINESTEERING,2317,469415.600,02000800,46eb,17139;INS_SOLUTION_GOOD,INS_PPP_CONVERGING,17.60150848216,78.12665231952,525.7317,-76.2000,1.0414,0.0533,0.0007,1.340186539,-0.407934064,2.795556688,0.3088,0.3642,0.4411,0.0105,0.0121,0.0074,0.0622,0.0610,0.5463,ab000243,0*ae67c77d
#INSPVAXA,FILE,0,22.5,FINESTEERING,2317,469415.650,02000800,46eb,17139;INS_SOLUTION_GOOD,INS_PPP_CONVERGING,17.60150895914,78.12665232282,525.7292,-76.2000,1.0848,0.0531,-0.0023,1.325299499,-0.398065432,2.762098419,0.3088,0.3642,0.4411,0.0105,0.0121,0.0074,0.0622,0.0610,0.5463,ab000243,0*85eebb03
#INSPVAXA,FILE,0,22.5,FINESTEERING,2317,469415.700,02000800,46eb,17139;INS_SOLUTION_GOOD,INS_PPP_CONVERGING,17.60150945519,78.12665232389,525.7261,-76.2000,1.1288,0.0530,-0.0068,1.312708696,-0.388204803,2.730440256,0.3088,0.3642,0.4411,0.0105,0.0121,0.0074,0.0622,0.0610,0.5463,ab000243,0*798042e2
#INSPVAXA,FILE,0,22.5,FINESTEERING,2317,469415.750,02000800,46eb,17139;INS_SOLUTION_GOOD,INS_PPP_CONVERGING,17.60150997086,78.12665232349,525.7225,-76.2000,1.1743,0.0552,-0.0101,1.301554273,-0.371209080,2.698457007,0.3088,0.3642,0.4411,0.0105,0.0121,0.0074,0.0622,0.0610,0.5463,ab000243,0*dfc7bf70
#INSPVAXA,FILE,0,22.5,FINESTEERING,2317,469415.800,02000800,46eb,17139;INS_SOLUTION_GOOD,INS_PPP_CONVERGING,17.60151050757,78.12665232821,525.7194,-76.2000,1.2187,0.0560,-0.0113,1.297450898,-0.350551183,2.666017289,0.3088,0.3642,0.4411,0.0105,0.0121,0.0074,0.0622,0.0610,0.5463,ab000243,0*3b47e0ad
#INSPVAXA,FILE,0,22.5,FINESTEERING,2317,469415.850,02000800,46eb,17139;INS_SOLUTION_GOOD,INS_PPP_CONVERGING,17.60151106441,78.12665233076,525.7160,-76.2000,1.2634,0.0562,-0.0103,1.293993677,-0.333719437,2.633906069,0.3088,0.3642,0.4411,0.0105,0.0121,0.0074,0.0622,0.0610,0.5463,ab000243,0*50975412
#INSPVAXA,FILE,0,22.5,FINESTEERING,2317,469415.900,02000800,46eb,17139;INS_SOLUTION_GOOD,INS_PPP_CONVERGING,17.60151164207,78.12665233398,525.7127,-76.2000,1.3109,0.0590,-0.0108,1.299216313,-0.313597362,2.600195108,0.3088,0.3642,0.4411,0.0105,0.0121,0.0074,0.0622,0.0610,0.5463,ab000243,0*affbad31
#INSPVAXA,FILE,0,22.5,FINESTEERING,2317,469415.950,02000800,46eb,17139;INS_SOLUTION_GOOD,INS_PPP_CONVERGING,17.60151224006,78.12665233941,525.7095,-76.2000,1.3571,0.0633,-0.0057,1.297250113,-0.287983190,2.562771615,0.3088,0.3642,0.4411,0.0105,0.0121,0.0074,0.0622,0.0610,0.5463,ab000243,0*ba150c20
#INSPVAXA,FILE,0,22.5,FINESTEERING,2317,469416.000,02000800,46eb,17139;INS_SOLUTION_GOOD,INS_PPP_CONVERGING,17.60151285926,78.12665234519,525.7064,-76.2000,1.4035,0.0624,-0.0055,1.295303917,-0.266686389,2.523884151,0.3088,0.3642,0.4411,0.0105,0.0121,0.0074,0.0622,0.0610,0.5463,ab000243,0*221a10d2
#INSPVAXA,FILE,0,22.5,FINESTEERING,2317,469416.050,02000800,46eb,17139;INS_SOLUTION_GOOD,INS_PPP_CONVERGING,17.60151350065,78.12665234565,525.7029,-76.2000,1.4532,0.0640,-0.0095,1.303454435,-0.248878870,2.480310353,0.3026,0.3610,0.4368,0.0121,0.0174,0.0086,0.0620,0.0607,0.5433,ab000243,0*729b16e1
#INSPVAXA,FILE,0,22.5,FINESTEERING,2317,469416.100,02000800,46eb,17139;INS_SOLUTION_GOOD,INS_PPP_CONVERGING,17.60151416593,78.12665234605,525.7002,-76.2000,1.5026,0.0641,-0.0106,1.307443762,-0.230865045,2.431764304,0.3026,0.3610,0.4368,0.0121,0.0174,0.0086,0.0620,0.0607,0.5433,ab000243,0*60dccfd3
#INSPVAXA,FILE,0,23.0,FINESTEERING,2317,469416.150,02000800,46eb,17139;INS_SOLUTION_GOOD,INS_PPP_CONVERGING,17.60151485323,78.12665234347,525.6976,-76.2000,1.5540,0.0622,-0.0028,1.297974401,-0.218384596,2.382875294,0.3026,0.3610,0.4368,0.0121,0.0174,0.0086,0.0620,0.0607,0.5433,ab000243,0*2460a09f
#INSPVAXA,FILE,0,23.0,FINESTEERING,2317,469416.200,02000800,46eb,17139;INS_SOLUTION_GOOD,INS_PPP_CONVERGING,17.60151556281,78.12665234049,525.6951,-76.2000,1.6038,0.0610,0.0001,1.287140490,-0.214904786,2.333524683,0.3026,0.3610,0.4368,0.0121,0.0174,0.0086,0.0620,0.0607,0.5433,ab000243,0*e96805c2
#INSPVAXA,FILE,0,23.0,FINESTEERING,2317,469416.250,02000800,46eb,17139;INS_SOLUTION_GOOD,INS_PPP_CONVERGING,17.60151629511,78.12665233490,525.6926,-76.2000,1.6546,0.0620,0.0016,1.282401992,-0.218988595,2.280780859,0.3026,0.3610,0.4368,0.0121,0.0174,0.0086,0.0620,0.0607,0.5433,ab000243,0*2c70e21b
#INSPVAXA,FILE,0,23.0,FINESTEERING,2317,469416.300,02000800,46eb,17139;INS_SOLUTION_GOOD,INS_PPP_CONVERGING,17.60151705086,78.12665233542,525.6906,-76.2000,1.7041,0.0626,0.0051,1.274048117,-0.222143855,2.227401400,0.3026,0.3610,0.4368,0.0121,0.0174,0.0086,0.0620,0.0607,0.5433,ab000243,0*66e8859a
#INSPVAXA,FILE,0,23.0,FINESTEERING,2317,469416.350,02000800,46eb,17139;INS_SOLUTION_GOOD,INS_PPP_CONVERGING,17.60151782929,78.12665233025,525.6882,-76.2000,1.7561,0.0606,0.0052,1.258952755,-0.222431369,2.173372867,0.3026,0.3610,0.4368,0.0121,0.0174,0.0086,0.0620,0.0607,0.5433,ab000243,0*ba411eb7
#INSPVAXA,FILE,0,23.0,FINESTEERING,2317,469416.400,02000800,46eb,17139;INS_SOLUTION_GOOD,INS_PPP_CONVERGING,17.60151863107,78.12665233024,525.6864,-76.2000,1.8064,0.0596,0.0076,1.242636834,-0.214893855,2.121100010,0.3026,0.3610,0.4368,0.0121,0.0174,0.0086,0.0620,0.0607,0.5433,ab000243,0*880fac69
#INSPVAXA,FILE,0,23.0,FINESTEERING,2317,469416.450,02000800,46eb,17139;INS_SOLUTION_GOOD,INS_PPP_CONVERGING,17.60151945436,78.12665232770,525.6844,-76.2000,1.8544,0.0608,0.0103,1.233757171,-0.201502145,2.065737645,0.3026,0.3610,0.4368,0.0121,0.0174,0.0086,0.0620,0.0607,0.5433,ab000243,0*a638e23f
#INSPVAXA,FILE,0,23.0,FINESTEERING,2317,469416.500,02000800,46eb,17139;INS_SOLUTION_GOOD,INS_PPP_CONVERGING,17.60152029949,78.12665232339,525.6822,-76.2000,1.9026,0.0624,0.0087,1.223587325,-0.190718848,2.006756572,0.3026,0.3610,0.4368,0.0121,0.0174,0.0086,0.0620,0.0607,0.5433,ab000243,0*f58c2ed9
#INSPVAXA,FILE,0,23.0,FINESTEERING,2317,469416.550,02000800,46eb,17139;INS_SOLUTION_GOOD,INS_PPP_CONVERGING,17.60152116702,78.12665232452,525.6804,-76.2000,1.9504,0.0601,0.0053,1.204548883,-0.181333004,1.946169653,0.3026,0.3610,0.4368,0.0121,0.0174,0.0086,0.0620,0.0607,0.5433,ab000243,0*fbbfdb61
#INSPVAXA,FILE,0,23.0,FINESTEERING,2317,469416.600,02000800,46eb,17139;INS_SOLUTION_GOOD,INS_PPP_CONVERGING,17.60152205472,78.12665232172,525.6782,-76.2000,1.9944,0.0566,0.0085,1.194242045,-0.179080842,1.882006578,0.3026,0.3610,0.4368,0.0121,0.0174,0.0086,0.0620,0.0607,0.5433,ab000243,0*be73f473
#INSPVAXA,FILE,0,23.0,FINESTEERING,2317,469416.650,02000800,46eb,17139;INS_SOLUTION_GOOD,INS_PPP_CONVERGING,17.60152296058,78.12665231673,525.6760,-76.2000,2.0325,0.0599,0.0118,1.196820250,-0.189901952,1.816851960,0.3026,0.3610,0.4368,0.0121,0.0174,0.0086,0.0620,0.0607,0.5433,ab000243,0*5bb3a87c
#INSPVAXA,FILE,0,23.0,FINESTEERING,2317,469416.700,02000800,46eb,17139;INS_SOLUTION_GOOD,INS_PPP_CONVERGING,17.60152388353,78.12665231505,525.6740,-76.2000,2.0675,0.0598,0.0096,1.203428689,-0.206154555,1.755259077,0.3026,0.3610,0.4368,0.0121,0.0174,0.0086,0.0620,0.0607,0.5433,ab000243,0*8db5b31a
#INSPVAXA,FILE,0,23.0,FINESTEERING,2317,469416.750,02000800,46eb,17139;INS_SOLUTION_GOOD,INS_PPP_CONVERGING,17.60152482121,78.12665231512,525.6723,-76.2000,2.0974,0.0549,0.0129,1.206396108,-0.224751565,1.697773677,0.3026,0.3610,0.4368,0.0121,0.0174,0.0086,0.0620,0.0607,0.5433,ab000243,0*2c572076
#INSPVAXA,FILE,0,23.0,FINESTEERING,2317,469416.800,02000000,46eb,17139;INS_SOLUTION_GOOD,INS_PPP_CONVERGING,17.60152577166,78.12665230992,525.6705,-76.2000,2.1261,0.0486,0.0131,1.216537157,-0.235312443,1.641100401,0.3026,0.3610,0.4368,0.0121,0.0174,0.0086,0.0620,0.0607,0.5433,ab000243,0*23769386
#INSPVAXA,FILE,0,23.0,FINESTEERING,2317,469416.850,02000000,46eb,17139;INS_SOLUTION_GOOD,INS_PPP_CONVERGING,17.60152673500,78.12665230158,525.6685,-76.2000,2.1547,0.0503,0.0138,1.214915539,-0.237575763,1.579647024,0.3026,0.3610,0.4368,0.0121,0.0174,0.0086,0.0620,0.0607,0.5433,ab000243,0*61e5c35a
#INSPVAXA,FILE,0,23.0,FINESTEERING,2317,469416.900,02000000,46eb,17139;INS_SOLUTION_GOOD,INS_PPP_CONVERGING,17.60152771096,78.12665229626,525.6667,-76.2000,2.1808,0.0500,0.0132,1.190434415,-0.239984944,1.513889567,0.3026,0.3610,0.4368,0.0121,0.0174,0.0086,0.0620,0.0607,0.5433,ab000243,0*f384c1cd
#INSPVAXA,FILE,0,23.0,FINESTEERING,2317,469416.950,02000000,46eb,17139;INS_SOLUTION_GOOD,INS_PPP_CONVERGING,17.60152869646,78.12665228987,525.6652,-76.2000,2.1984,0.0465,0.0216,1.177624111,-0.240038798,1.447133928,0.3026,0.3610,0.4368,0.0121,0.0174,0.0086,0.0620,0.0607,0.5433,ab000243,0*dfa0a6e5
#INSPVAXA,FILE,0,23.0,FINESTEERING,2317,469417.000,02000000,46eb,17139;INS_SOLUTION_GOOD,INS_PPP_CONVERGING,17.60152968807,78.12665228337,525.6640,-76.2000,2.2068,0.0462,0.0259,1.167904415,-0.242141650,1.381887823,0.3026,0.3610,0.4368,0.0121,0.0174,0.0086,0.0620,0.0607,0.5433,ab000243,0*8d2d40af
#INSPVAXA,FILE,0,23.0,FINESTEERING,2317,469417.050,02000000,46eb,17139;INS_SOLUTION_GOOD,INS_PPP_CONVERGING,17.60153068185,78.12665227169,525.6633,-76.2000,2.2051,0.0387,0.0291,1.153093588,-0.230076019,1.325189651,0.2972,0.3602,0.4304,0.0143,0.0233,0.0109,0.0614,0.0600,0.5278,ab000243,0*bbf40c49
#INSPVAXA,FILE,0,23.0,FINEBACKUPSTEERING,2317,469417.100,02000000,46eb,17139;INS_SOLUTION_GOOD,INS_PPP_CONVERGING,17.60153167746,78.12665224134,525.6623,-76.2000,2.2096,0.0310,0.0250,1.140689597,-0.186874877,1.276998139,0.2972,0.3602,0.4304,0.0143,0.0233,0.0109,0.0614,0.0600,0.5278,ab000243,0*30f4b006
#INSPVAXA,FILE,0,16.5,FINEBACKUPSTEERING,2317,469417.150,02000000,46eb,17139;INS_SOLUTION_GOOD,INS_PPP_CONVERGING,17.60153267555,78.12665220633,525.6609,-76.2000,2.2171,0.0318,0.0207,1.139555445,-0.140160225,1.232431860,0.2972,0.3602,0.4304,0.0143,0.0233,0.0109,0.0614,0.0600,0.5278,ab000243,0*9511c91b
#INSPVAXA,FILE,0,16.5,FINEBACKUPSTEERING,2317,469417.200,02000000,46eb,17139;INS_SOLUTION_GOOD,INS_PPP_CONVERGING,17.60153367654,78.12665217616,525.6597,-76.2000,2.2221,0.0323,0.0180,1.133694221,-0.109190372,1.187948265,0.2972,0.3602,0.4304,0.0143,0.0233,0.0109,0.0614,0.0600,0.5278,ab000243,0*702d71de
#INSPVAXA,FILE,0,16.5,FINEBACKUPSTEERING,2317,469417.250,02000000,46eb,17139;INS_SOLUTION_GOOD,INS_PPP_CONVERGING,17.60153467915,78.12665214951,525.6586,-76.2000,2.2243,0.0308,0.0192,1.102592463,-0.097217567,1.149451327,0.2972,0.3602,0.4304,0.0143,0.0233,0.0109,0.0614,0.0600,0.5278,ab000243,0*d3199024
#INSPVAXA,FILE,0,16.5,FINEBACKUPSTEERING,2317,469417.300,02000000,46eb,17139;INS_SOLUTION_GOOD,INS_PPP_CONVERGING,17.60153568311,78.12665211391,525.6569,-76.2000,2.2305,0.0242,0.0103,1.066160384,-0.099201735,1.108879690,0.2972,0.3602,0.4304,0.0143,0.0233,0.0109,0.0614,0.0600,0.5278,ab000243,0*a3175c8e
#INSPVAXA,FILE,0,16.5,FINEBACKUPSTEERING,2317,469417.350,02000000,46eb,17139;INS_SOLUTION_GOOD,INS_PPP_CONVERGING,17.60153669165,78.12665208381,525.6551,-76.2000,2.2424,0.0204,-0.0029,1.061419977,-0.090960595,1.073451420,0.2972,0.3602,0.4304,0.0143,0.0233,0.0109,0.0614,0.0600,0.5278,ab000243,0*4f1dbf60
#INSPVAXA,FILE,0,16.5,FINEBACKUPSTEERING,2317,469417.400,02000000,46eb,17139;INS_SOLUTION_GOOD,INS_PPP_CONVERGING,17.60153770609,78.12665205131,525.6526,-76.2000,2.2571,0.0255,-0.0087,1.067668697,-0.082381615,1.040043775,0.2972,0.3602,0.4304,0.0143,0.0233,0.0109,0.0614,0.0600,0.5278,ab000243,0*95512a85
#INSPVAXA,FILE,0,16.5,FINEBACKUPSTEERING,2317,469417.450,02000000,46eb,17139;INS_SOLUTION_GOOD,INS_PPP_CONVERGING,17.60153872604,78.12665201690,525.6497,-76.2000,2.2688,0.0262,-0.0117,1.060994243,-0.084285758,1.007894760,0.2972,0.3602,0.4304,0.0143,0.0233,0.0109,0.0614,0.0600,0.5278,ab000243,0*9216615c
#INSPVAXA,FILE,0,16.5,FINEBACKUPSTEERING,2317,469417.500,02000000,46eb,17139;INS_SOLUTION_GOOD,INS_PPP_CONVERGING,17.60153975067,78.12665198941,525.6474,-76.2000,2.2753,0.0226,-0.0039,1.068043153,-0.084673458,0.981096197,0.2972,0.3602,0.4304,0.0143,0.0233,0.0109,0.0614,0.0600,0.5278,ab000243,0*c7314e11
#INSPVAXA,FILE,0,16.5,FINEBACKUPSTEERING,2317,469417.550,02000000,46eb,17139;INS_SOLUTION_GOOD,INS_PPP_CONVERGING,17.60154077691,78.12665195766,525.6454,-76.2000,2.2777,0.0207,0.0083,1.090204769,-0.090987013,0.950765690,0.2972,0.3602,0.4304,0.0143,0.0233,0.0109,0.0614,0.0600,0.5278,ab000243,0*48d2c9b5
#INSPVAXA,FILE,0,16.5,FINEBACKUPSTEERING,2317,469417.600,02000000,46eb,17139;INS_SOLUTION_GOOD,INS_PPP_CONVERGING,17.60154180364,78.12665192272,525.6436,-76.2000,2.2774,0.0231,0.0182,1.107924663,-0.104977290,0.915883276,0.2972,0.3602,0.4304,0.0143,0.0233,0.0109,0.0614,0.0600,0.5278,ab000243,0*241e843a
#INSPVAXA,FILE,0,16.5,FINEBACKUPSTEERING,2317,469417.650,02000000,46eb,17139;INS_SOLUTION_GOOD,INS_PPP_CONVERGING,17.60154283069,78.12665189616,525.6426,-76.2000,2.2778,0.0224,0.0216,1.112932641,-0.110937994,0.880855757,0.2972,0.3602,0.4304,0.0143,0.0233,0.0109,0.0614,0.0600,0.5278,ab000243,0*a91a8c5d
#INSPVAXA,FILE,0,16.5,FINEBACKUPSTEERING,2317,469417.700,02000000,46eb,17139;INS_SOLUTION_GOOD,INS_PPP_CONVERGING,17.60154385894,78.12665186353,525.6414,-76.2000,2.2831,0.0139,0.0213,1.127950929,-0.107868629,0.848562165,0.2972,0.3602,0.4304,0.0143,0.0233,0.0109,0.0614,0.0600,0.5278,ab000243,0*9f4adbe0
#INSPVAXA,FILE,0,16.5,FINEBACKUPSTEERING,2317,469417.750,02000000,46eb,17139;INS_SOLUTION_GOOD,INS_PPP_CONVERGING,17.60154489119,78.12665182609,525.6395,-76.2000,2.2973,0.0139,0.0035,1.182375259,-0.078648013,0.821161900,0.2972,0.3602,0.4304,0.0143,0.0233,0.0109,0.0614,0.0600,0.5278,ab000243,0*4b3bf5af
#INSPVAXA,FILE,0,16.5,FINEBACKUPSTEERING,2317,469417.800,02000000,46eb,17139;INS_SOLUTION_GOOD,INS_PPP_CONVERGING,17.60154593160,78.12665179922,525.6373,-76.2000,2.3173,0.0236,-0.0111,1.230476667,-0.026377673,0.799149601,0.2972,0.3602,0.4304,0.0143,0.0233,0.0109,0.0614,0.0600,0.5278,ab000243,0*00b594c2
#INSPVAXA,FILE,0,16.5,FINEBACKUPSTEERING,2317,469417.850,02000000,46eb,17139;INS_SOLUTION_GOOD,INS_PPP_CONVERGING,17.60154698137,78.12665176991,525.6344,-76.2000,2.3389,0.0193,-0.0148,1.250863218,0.025337138,0.775879916,0.2972,0.3602,0.4304,0.0143,0.0233,0.0109,0.0614,0.0600,0.5278,ab000243,0*caaefea4
#INSPVAXA,FILE,0,16.5,FINEBACKUPSTEERING,2317,469417.900,02000000,46eb,17139;INS_SOLUTION_GOOD,INS_PPP_CONVERGING,17.60154804023,78.12665173735,525.6317,-76.2000,2.3584,0.0097,-0.0059,1.299774910,0.075350116,0.752792847,0.2972,0.3602,0.4304,0.0143,0.0233,0.0109,0.0614,0.0600,0.5278,ab000243,0*462bb7bb
#INSPVAXA,FILE,0,16.5,FINEBACKUPSTEERING,2317,469417.950,02000000,46eb,17139;INS_SOLUTION_GOOD,INS_PPP_CONVERGING,17.60154910745,78.12665170083,525.6292,-76.2000,2.3770,0.0131,0.0033,1.349070569,0.114307419,0.723521830,0.2972,0.3602,0.4304,0.0143,0.0233,0.0109,0.0614,0.0600,0.5278,ab000243,0*8f84891e
#INSPVAXA,FILE,0,16.5,FINEBACKUPSTEERING,2317,469418.000,02000000,46eb,17139;INS_SOLUTION_GOOD,INS_PPP_CONVERGING,17.60155018252,78.12665166996,525.6272,-76.2000,2.3914,0.0156,0.0077,1.350001464,0.134834335,0.688474049,0.2972,0.3602,0.4304,0.0143,0.0233,0.0109,0.0614,0.0600,0.5278,ab000243,0*8d8755eb
#INSPVAXA,FILE,0,16.5,FINEBACKUPSTEERING,2317,469418.050,02000000,46eb,17139;INS_SOLUTION_GOOD,INS_PPP_CONVERGING,17.60155126235,78.12665163395,525.6263,-76.2000,2.3979,0.0013,0.0326,1.332261278,0.136234349,0.656111352,0.2923,0.3621,0.4219,0.0170,0.0245,0.0145,0.0613,0.0598,0.5041,ab000243,0*04361035
#INSPVAXA,FILE,0,12.0,FINEBACKUPSTEERING,2317,469418.100,02000000,46eb,17139;INS_SOLUTION_GOOD,INS_PPP_CONVERGING,17.60155234431,78.12665158292,525.6263,-76.2000,2.4018,-0.0027,0.0551,1.341231298,0.102296828,0.630983134,0.2923,0.3621,0.4219,0.0170,0.0245,0.0145,0.0613,0.0598,0.5041,ab000243,0*67c913a2
#INSPVAXA,FILE,0,12.0,FINEBACKUPSTEERING,2317,469418.150,02000000,46eb,17139;INS_SOLUTION_GOOD,INS_PPP_CONVERGING,17.60155342592,78.12665153733,525.6285,-76.2000,2.3981,0.0038,0.1093,1.334959592,0.015607008,0.607461357,0.2923,0.3621,0.4219,0.0170,0.0245,0.0145,0.0613,0.0598,0.5041,ab000243,0*066b176d
#INSPVAXA,FILE,0,12.0,FINEBACKUPSTEERING,2317,469418.200,02000000,46eb,17139;INS_SOLUTION_GOOD,INS_PPP_CONVERGING,17.60155450940,78.12665149398,525.6322,-76.2000,2.4095,0.0061,0.1163,1.342861222,-0.100543790,0.583413038,0.2923,0.3621,0.4219,0.0170,0.0245,0.0145,0.0613,0.0598,0.5041,ab000243,0*9dc4d3b2
#INSPVAXA,FILE,0,12.0,FINEBACKUPSTEERING,2317,469418.250,02000000,46eb,17139;INS_SOLUTION_GOOD,INS_PPP_CONVERGING,17.60155560111,78.12665145126,525.6349,-76.2000,2.4335,0.0055,0.0772,1.389482705,-0.200804059,0.559655317,0.2923,0.3621,0.4219,0.0170,0.0245,0.0145,0.0613,0.0598,0.5041,ab000243,0*3ad7f97e
#INSPVAXA,FILE,0,12.0,FINEBACKUPSTEERING,2317,469418.300,02000000,46eb,17139;INS_SOLUTION_GOOD,INS_PPP_CONVERGING,17.60155670503,78.12665140945,525.6355,-76.2000,2.4625,0.0063,0.0305,1.430062593,-0.242731959,0.536651620,0.2923,0.3621,0.4219,0.0170,0.0245,0.0145,0.0613,0.0598,0.5041,ab000243,0*877af4ee
#INSPVAXA,FILE,0,12.0,FINEBACKUPSTEERING,2317,469418.350,02000000,46eb,17139;INS_SOLUTION_GOOD,INS_PPP_CONVERGING,17.60155782047,78.12665136539,525.6344,-76.2000,2.4866,-0.0041,0.0053,1.444507985,-0.226276030,0.518061420,0.2923,0.3621,0.4219,0.0170,0.0245,0.0145,0.0613,0.0598,0.5041,ab000243,0*f5a2655e
#INSPVAXA,FILE,0,12.0,FINEBACKUPSTEERING,2317,469418.400,02000000,46eb,17139;INS_SOLUTION_GOOD,INS_PPP_CONVERGING,17.60155894669,78.12665131778,525.6321,-76.2000,2.5092,-0.0096,-0.0149,1.465273979,-0.181877310,0.501016446,0.2923,0.3621,0.4219,0.0170,0.0245,0.0145,0.0613,0.0598,0.5041,ab000243,0*bb7539c1
#INSPVAXA,FILE,0,12.0,FINEBACKUPSTEERING,2317,469418.450,02000000,46eb,17139;INS_SOLUTION_GOOD,INS_PPP_CONVERGING,17.60156008333,78.12665127596,525.6291,-76.2000,2.5311,-0.0010,-0.0313,1.496385438,-0.123542804,0.475714258,0.2923,0.3621,0.4219,0.0170,0.0245,0.0145,0.0613,0.0598,0.5041,ab000243,0*ee8f9241
#INSPVAXA,FILE,0,12.0,FINEBACKUPSTEERING,2317,469418.500,02000000,46eb,17139;INS_SOLUTION_GOOD,INS_PPP_CONVERGING,17.60156122799,78.12665122937,525.6254,-76.2000,2.5492,0.0007,-0.0316,1.501556160,-0.067848039,0.440688944,0.2923,0.3621,0.4219,0.0170,0.0245,0.0145,0.0613,0.0598,0.5041,ab000243,0*10efd49e
#INSPVAXA,FILE,0,12.0,FINEBACKUPSTEERING,2317,469418.550,02000000,46eb,17139;INS_SOLUTION_GOOD,INS_PPP_CONVERGING,17.60156238107,78.12665118367,525.6222,-76.2000,2.5669,-0.0130,-0.0193,1.486862575,-0.021734713,0.412999253,0.2923,0.3621,0.4219,0.0170,0.0245,0.0145,0.0613,0.0598,0.5041,ab000243,0*f70366cd
#INSPVAXA,FILE,0,12.0,FINEBACKUPSTEERING,2317,469418.600,02000000,46eb,17139;INS_SOLUTION_GOOD,INS_PPP_CONVERGING,17.60156354246,78.12665113330,525.6197,-76.2000,2.5864,-0.0208,-0.0029,1.495875806,0.012496886,0.392890833,0.2923,0.3621,0.4219,0.0170,0.0245,0.0145,0.0613,0.0598,0.5041,ab000243,0*65d84145
#INSPVAXA,FILE,0,12.0,FINEBACKUPSTEERING,2317,469418.650,02000000,46eb,17139;INS_SOLUTION_GOOD,INS_PPP_CONVERGING,17.60156471449,78.12665108407,525.6178,-76.2000,2.6137,-0.0116,0.0005,1.536139355,0.054309772,0.369330473,0.2923,0.3621,0.4219,0.0170,0.0245,0.0145,0.0613,0.0598,0.5041,ab000243,0*fa4e5576
#INSPVAXA,FILE,0,12.0,FINEBACKUPSTEERING,2317,469418.700,02000000,46eb,17139;INS_SOLUTION_GOOD,INS_PPP_CONVERGING,17.60156590073,78.12665103993,525.6161,-76.2000,2.6478,-0.0023,0.0078,1.562901623,0.100869140,0.337896108,0.2923,0.3621,0.4219,0.0170,0.0245,0.0145,0.0613,0.0598,0.5041,ab000243,0*bbf650a0
#INSPVAXA,FILE,0,12.0,FINEBACKUPSTEERING,2317,469418.750,02000000,46eb,17139;INS_SOLUTION_GOOD,INS_PPP_CONVERGING,17.60156710261,78.12665100154,525.6152,-76.2000,2.6822,-0.0026,0.0218,1.595329637,0.142607120,0.306576335,0.2923,0.3621,0.4219,0.0170,0.0245,0.0145,0.0613,0.0598,0.5041,ab000243,0*a0e876f3
#INSPVAXA,FILE,0,12.0,FINEBACKUPSTEERING,2317,469418.800,02000000,46eb,17139;INS_SOLUTION_GOOD,INS_PPP_CONVERGING,17.60156832056,78.12665095570,525.6144,-76.2000,2.7215,-0.0047,0.0286,1.656806398,0.176154779,0.273250800,0.2923,0.3621,0.4219,0.0170,0.0245,0.0145,0.0613,0.0598,0.5041,ab000243,0*7ecd4529
#INSPVAXA,FILE,0,12.0,FINEBACKUPSTEERING,2317,469418.850,02000000,46eb,17139;INS_SOLUTION_GOOD,INS_PPP_CONVERGING,17.60156955670,78.12665091121,525.6138,-76.2000,2.7621,-0.0148,0.0220,1.691022294,0.205312140,0.251238667,0.2923,0.3621,0.4219,0.0170,0.0245,0.0145,0.0613,0.0598,0.5041,ab000243,0*3b4e1801
#INSPVAXA,FILE,0,12.0,FINEBACKUPSTEERING,2317,469418.900,02000000,46eb,17139;INS_SOLUTION_GOOD,INS_PPP_CONVERGING,17.60157081029,78.12665086253,525.6135,-76.2000,2.7983,-0.0230,0.0386,1.712013459,0.215490979,0.237351490,0.2923,0.3621,0.4219,0.0170,0.0245,0.0145,0.0613,0.0598,0.5041,ab000243,0*14d766c7
#INSPVAXA,FILE,0,12.0,FINEBACKUPSTEERING,2317,469418.950,02000000,46eb,17139;INS_SOLUTION_GOOD,INS_PPP_CONVERGING,17.60157208113,78.12665081667,525.6139,-76.2000,2.8377,-0.0230,0.0425,1.725481475,0.203254894,0.217894283,0.2923,0.3621,0.4219,0.0170,0.0245,0.0145,0.0613,0.0598,0.5041,ab000243,0*e7bd0904
#INSPVAXA,FILE,0,12.0,FINEBACKUPSTEERING,2317,469419.000,02000000,46eb,17139;INS_SOLUTION_GOOD,INS_PPP_CONVERGING,17.60157336897,78.12665076365,525.6136,-76.2000,2.8756,-0.0232,0.0349,1.708850785,0.172960311,0.185452471,0.2923,0.3621,0.4219,0.0170,0.0245,0.0145,0.0613,0.0598,0.5041,ab000243,0*c000bb15
#INSPVAXA,FILE,0,12.0,FINEBACKUPSTEERING,2317,469419.050,02000000,46eb,17139;INS_SOLUTION_GOOD,INS_PPP_CONVERGING,17.60157467542,78.12665070910,525.6135,-76.2000,2.9174,-0.0267,0.0313,1.702213462,0.158081529,0.156116853,0.2881,0.3638,0.4137,0.0183,0.0263,0.0168,0.0613,0.0597,0.4843,ab000243,0*020fc90e
#INSPVAXA,FILE,0,12.0,FINEBACKUPSTEERING,2317,469419.100,02000000,46eb,17139;INS_SOLUTION_GOOD,INS_PPP_CONVERGING,17.60157600161,78.12665064264,525.6123,-76.2000,2.9621,-0.0277,0.0049,1.701961327,0.170184942,0.128689521,0.2881,0.3638,0.4137,0.0183,0.0263,0.0168,0.0613,0.0597,0.4843,ab000243,0*3db566c5
#INSPVAXA,FILE,0,17.5,FINEBACKUPSTEERING,2317,469419.150,02000000,46eb,17139;INS_SOLUTION_GOOD,INS_PPP_CONVERGING,17.60157734809,78.12665057189,525.6099,-76.2000,3.0069,-0.0271,-0.0082,1.718854640,0.210590874,0.102537820,0.2881,0.3638,0.4137,0.0183,0.0263,0.0168,0.0613,0.0597,0.4843,ab000243,0*07830cd7
#INSPVAXA,FILE,0,17.5,FINEBACKUPSTEERING,2317,469419.200,02000000,46eb,17139;INS_SOLUTION_GOOD,INS_PPP_CONVERGING,17.60157871342,78.12665051224,525.6076,-76.2000,3.0468,-0.0211,-0.0044,1.767708032,0.252926122,0.070217801,0.2881,0.3638,0.4137,0.0183,0.0263,0.0168,0.0613,0.0597,0.4843,ab000243,0*9dd6084b
#INSPVAXA,FILE,0,17.5,FINEBACKUPSTEERING,2317,469419.250,02000000,46eb,17139;INS_SOLUTION_GOOD,INS_PPP_CONVERGING,17.60158009656,78.12665044908,525.6056,-76.2000,3.0856,-0.0245,0.0076,1.813160508,0.290590802,0.033408024,0.2881,0.3638,0.4137,0.0183,0.0263,0.0168,0.0613,0.0597,0.4843,ab000243,0*a973d654
#INSPVAXA,FILE,0,17.5,FINEBACKUPSTEERING,2317,469419.300,02000000,46eb,17139;INS_SOLUTION_GOOD,INS_PPP_CONVERGING,17.60158149819,78.12665037893,525.6040,-76.2000,3.1293,-0.0345,0.0213,1.830395439,0.318350383,0.004501857,0.2881,0.3638,0.4137,0.0183,0.0263,0.0168,0.0613,0.0597,0.4843,ab000243,0*41114006
#INSPVAXA,FILE,0,17.5,FINEBACKUPSTEERING,2317,469419.350,02000000,46eb,17139;INS_SOLUTION_GOOD,INS_PPP_CONVERGING,17.60158292017,78.12665031009,525.6031,-76.2000,3.1748,-0.0403,0.0235,1.831343620,0.320863576,359.978620841,0.2881,0.3638,0.4137,0.0183,0.0263,0.0168,0.0613,0.0597,0.4843,ab000243,0*98a4a7e7
#INSPVAXA,FILE,0,17.5,FINEBACKUPSTEERING,2317,469419.400,02000000,46eb,17139;INS_SOLUTION_GOOD,INS_PPP_CONVERGING,17.60158436254,78.12665024295,525.6029,-76.2000,3.2201,-0.0478,0.0407,1.826732302,0.312683741,359.949407512,0.2881,0.3638,0.4137,0.0183,0.0263,0.0168,0.0613,0.0597,0.4843,ab000243,0*a3849e8f
#INSPVAXA,FILE,0,17.5,FINEBACKUPSTEERING,2317,469419.450,02000000,46eb,17139;INS_SOLUTION_GOOD,INS_PPP_CONVERGING,17.60158582539,78.12665016521,525.6024,-76.2000,3.2658,-0.0514,0.0326,1.806691085,0.302106117,359.915938812,0.2881,0.3638,0.4137,0.0183,0.0263,0.0168,0.0613,0.0597,0.4843,ab000243,0*dec7c62c
#INSPVAXA,FILE,0,17.5,FINEBACKUPSTEERING,2317,469419.500,02000000,46eb,17139;INS_SOLUTION_GOOD,INS_PPP_CONVERGING,17.60158730899,78.12665009167,525.6026,-76.2000,3.3111,-0.0513,0.0482,1.767521798,0.284601167,359.883023806,0.2881,0.3638,0.4137,0.0183,0.0263,0.0168,0.0613,0.0597,0.4843,ab000243,0*8a622b16
#INSPVAXA,FILE,0,17.5,FINEBACKUPSTEERING,2317,469419.550,02000000,46eb,17139;INS_SOLUTION_GOOD,INS_PPP_CONVERGING,17.60158881377,78.12665002180,525.6035,-76.2000,3.3592,-0.0531,0.0534,1.757495228,0.263519470,359.855141921,0.2881,0.3638,0.4137,0.0183,0.0263,0.0168,0.0613,0.0597,0.4843,ab000243,0*1b5041cb
#INSPVAXA,FILE,0,17.5,FINEBACKUPSTEERING,2317,469419.600,02000000,46eb,17139;INS_SOLUTION_GOOD,INS_PPP_CONVERGING,17.60159033879,78.12664994461,525.6044,-76.2000,3.4048,-0.0493,0.0597,1.762507238,0.232884933,359.823934045,0.2881,0.3638,0.4137,0.0183,0.0263,0.0168,0.0613,0.0597,0.4843,ab000243,0*9e00c582
#INSPVAXA,FILE,0,17.5,FINEBACKUPSTEERING,2317,469419.650,02000000,46eb,17139;INS_SOLUTION_GOOD,INS_PPP_CONVERGING,17.60159188470,78.12664987327,525.6057,-76.2000,3.4488,-0.0512,0.0613,1.745041666,0.195806806,359.791103822,0.2881,0.3638,0.4137,0.0183,0.0263,0.0168,0.0613,0.0597,0.4843,ab000243,0*64a2774a
#INSPVAXA,FILE,0,17.5,FINEBACKUPSTEERING,2317,469419.700,02000000,46eb,17139;INS_SOLUTION_GOOD,INS_PPP_CONVERGING,17.60159345173,78.12664979810,525.6066,-76.2000,3.4961,-0.0656,0.0422,1.737247881,0.156617985,359.762625124,0.2881,0.3638,0.4137,0.0183,0.0263,0.0168,0.0613,0.0597,0.4843,ab000243,0*c8fcc6f7
#INSPVAXA,FILE,0,17.5,FINEBACKUPSTEERING,2317,469419.750,02000000,46eb,17139;INS_SOLUTION_GOOD,INS_PPP_CONVERGING,17.60159503816,78.12664971866,525.6067,-76.2000,3.5386,-0.0720,0.0306,1.746057430,0.128946337,359.737856343,0.2881,0.3638,0.4137,0.0183,0.0263,0.0168,0.0613,0.0597,0.4843,ab000243,0*9016b5dc
#INSPVAXA,FILE,0,17.5,FINEBACKUPSTEERING,2317,469419.800,02000000,46eb,17139;INS_SOLUTION_GOOD,INS_PPP_CONVERGING,17.60159664228,78.12664964092,525.6063,-76.2000,3.5758,-0.0632,0.0285,1.762325434,0.115804442,359.706945125,0.2881,0.3638,0.4137,0.0183,0.0263,0.0168,0.0613,0.0597,0.4843,ab000243,0*f855059a
#INSPVAXA,FILE,0,17.5,FINEBACKUPSTEERING,2317,469419.850,02000000,46eb,17139;INS_SOLUTION_GOOD,INS_PPP_CONVERGING,17.60159826306,78.12664956748,525.6059,-76.2000,3.6118,-0.0584,0.0259,1.742282613,0.113419325,359.666625413,0.2881,0.3638,0.4137,0.0183,0.0263,0.0168,0.0613,0.0597,0.4843,ab000243,0*a7c661fe
#INSPVAXA,FILE,0,17.5,FINEBACKUPSTEERING,2317,469419.900,02000000,46eb,17139;INS_SOLUTION_GOOD,INS_PPP_CONVERGING,17.60159990110,78.12664949076,525.6054,-76.2000,3.6519,-0.0731,0.0281,1.741676836,0.118404266,359.627764810,0.2881,0.3638,0.4137,0.0183,0.0263,0.0168,0.0613,0.0597,0.4843,ab000243,0*6614427b
#INSPVAXA,FILE,0,17.5,FINEBACKUPSTEERING,2317,469419.950,02000000,46eb,17139;INS_SOLUTION_GOOD,INS_PPP_CONVERGING,17.60160155669,78.12664940949,525.6051,-76.2000,3.6897,-0.0821,0.0395,1.750983380,0.107689978,359.595814659,0.2881,0.3638,0.4137,0.0183,0.0263,0.0168,0.0613,0.0597,0.4843,ab000243,0*b72395bb
#INSPVAXA,FILE,0,17.5,FINEBACKUPSTEERING,2317,469420.000,02000000,46eb,17139;INS_SOLUTION_GOOD,INS_PPP_CONVERGING,17.60160322979,78.12664933138,525.6055,-76.2000,3.7284,-0.0813,0.0471,1.749789871,0.086005931,359.568210234,0.2881,0.3638,0.4137,0.0183,0.0263,0.0168,0.0613,0.0597,0.4843,ab000243,0*871f7a81
#INSPVAXA,FILE,0,17.5,FINEBACKUPSTEERING,2317,469420.050,02000000,46eb,17139;INS_SOLUTION_GOOD,INS_PPP_CONVERGING,17.60160492067,78.12664924056,525.6053,-76.2000,3.7674,-0.0851,0.0340,1.712654611,0.078998162,359.541022922,0.2843,0.3646,0.4066,0.0185,0.0289,0.0176,0.0612,0.0595,0.4632,ab000243,0*dcf6b6a7
#INSPVAXA,FILE,0,17.5,FINEBACKUPSTEERING,2317,469420.100,02000000,46eb,17139;INS_SOLUTION_GOOD,INS_PPP_CONVERGING,17.60160662956,78.12664913555,525.6045,-76.2000,3.8025,-0.0947,0.0263,1.675063649,0.088118932,359.519002981,0.2843,0.3646,0.4066,0.0185,0.0289,0.0176,0.0612,0.0595,0.4632,ab000243,0*46282542
#INSPVAXA,FILE,0,17.5,FINEBACKUPSTEERING,2317,469420.150,02000000,46eb,17139;INS_SOLUTION_GOOD,INS_PPP_CONVERGING,17.60160835362,78.12664903950,525.6042,-76.2000,3.8337,-0.0928,0.0338,1.635703362,0.098379840,359.491094672,0.2843,0.3646,0.4066,0.0185,0.0289,0.0176,0.0612,0.0595,0.4632,ab000243,0*0d669646
#INSPVAXA,FILE,0,21.0,FINEBACKUPSTEERING,2317,469420.200,02000000,46eb,17139;INS_SOLUTION_GOOD,INS_PPP_CONVERGING,17.60161009027,78.12664893874,525.6041,-76.2000,3.8596,-0.0936,0.0328,1.598548650,0.110379372,359.459177217,0.2843,0.3646,0.4066,0.0185,0.0289,0.0176,0.0612,0.0595,0.4632,ab000243,0*8858a4af
#INSPVAXA,FILE,0,21.0,FINEBACKUPSTEERING,2317,469420.250,02000000,46eb,17139;INS_SOLUTION_GOOD,INS_PPP_CONVERGING,17.60161183793,78.12664883543,525.6039,-76.2000,3.8822,-0.0911,0.0409,1.577856660,0.111982086,359.420519809,0.2843,0.3646,0.4066,0.0185,0.0289,0.0176,0.0612,0.0595,0.4632,ab000243,0*0d97e90d
#INSPVAXA,FILE,0,21.0,FINEBACKUPSTEERING,2317,469420.300,02000000,46eb,17139;INS_SOLUTION_GOOD,INS_PPP_CONVERGING,17.60161359595,78.12664874137,525.6045,-76.2000,3.9039,-0.0972,0.0441,1.543275528,0.106394334,359.382258613,0.2843,0.3646,0.4066,0.0185,0.0289,0.0176,0.0612,0.0595,0.4632,ab000243,0*db1c7f21
#INSPVAXA,FILE,0,21.0,FINEBACKUPSTEERING,2317,469420.350,02000000,46eb,17139;INS_SOLUTION_GOOD,INS_PPP_CONVERGING,17.60161536353,78.12664863843,525.6049,-76.2000,3.9257,-0.1095,0.0387,1.510101552,0.098296528,359.348766825,0.2843,0.3646,0.4066,0.0185,0.0289,0.0176,0.0612,0.0595,0.4632,ab000243,0*a2336f2e
#INSPVAXA,FILE,0,21.0,FINEBACKUPSTEERING,2317,469420.400,02000000,46eb,17139;INS_SOLUTION_GOOD,INS_PPP_CONVERGING,17.60161714178,78.12664852877,525.6045,-76.2000,3.9513,-0.1104,0.0214,1.520668395,0.103888829,359.317213964,0.2843,0.3646,0.4066,0.0185,0.0289,0.0176,0.0612,0.0595,0.4632,ab000243,0*377ed818
#INSPVAXA,FILE,0,21.0,FINEBACKUPSTEERING,2317,469420.450,02000000,46eb,17139;INS_SOLUTION_GOOD,INS_PPP_CONVERGING,17.60161893060,78.12664843205,525.6042,-76.2000,3.9739,-0.0972,0.0225,1.532365771,0.119101952,359.281158960,0.2843,0.3646,0.4066,0.0185,0.0289,0.0176,0.0612,0.0595,0.4632,ab000243,0*d99f7f09
#INSPVAXA,FILE,0,21.0,FINEBACKUPSTEERING,2317,469420.500,02000000,46eb,17139;INS_SOLUTION_GOOD,INS_PPP_CONVERGING,17.60162073090,78.12664833086,525.6034,-76.2000,4.0008,-0.1085,0.0084,1.536014488,0.150600998,359.242325509,0.2843,0.3646,0.4066,0.0185,0.0289,0.0176,0.0612,0.0595,0.4632,ab000243,0*dd67b78f
#INSPVAXA,FILE,0,21.0,FINEBACKUPSTEERING,2317,469420.550,02000000,46eb,17139;INS_SOLUTION_GOOD,INS_PPP_CONVERGING,17.60162254179,78.12664822119,525.6027,-76.2000,4.0251,-0.1187,0.0139,1.551120810,0.194458969,359.218169603,0.2843,0.3646,0.4066,0.0185,0.0289,0.0176,0.0612,0.0595,0.4632,ab000243,0*9287082b
#INSPVAXA,FILE,0,21.0,FINEBACKUPSTEERING,2317,469420.600,02000000,46eb,17139;INS_SOLUTION_GOOD,INS_PPP_CONVERGING,17.60162436459,78.12664811889,525.6018,-76.2000,4.0501,-0.1186,0.0024,1.570754497,0.245820150,359.199601067,0.2843,0.3646,0.4066,0.0185,0.0289,0.0176,0.0612,0.0595,0.4632,ab000243,0*13b46aa4
#INSPVAXA,FILE,0,21.0,FINEBACKUPSTEERING,2317,469420.650,02000000,46eb,17139;INS_SOLUTION_GOOD,INS_PPP_CONVERGING,17.60162619680,78.12664801395,525.6010,-76.2000,4.0684,-0.1156,0.0221,1.561338514,0.281885834,359.167608277,0.2843,0.3646,0.4066,0.0185,0.0289,0.0176,0.0612,0.0595,0.4632,ab000243,0*3a5e4124
#INSPVAXA,FILE,0,21.0,FINEBACKUPSTEERING,2317,469420.700,02000000,46eb,17139;INS_SOLUTION_GOOD,INS_PPP_CONVERGING,17.60162803758,78.12664790315,525.6007,-76.2000,4.0870,-0.1225,0.0275,1.535696362,0.290708595,359.131325185,0.2843,0.3646,0.4066,0.0185,0.0289,0.0176,0.0612,0.0595,0.4632,ab000243,0*2ec4a3af
#INSPVAXA,FILE,0,21.0,FINEBACKUPSTEERING,2317,469420.750,02000000,46eb,17139;INS_SOLUTION_GOOD,INS_PPP_CONVERGING,17.60162988625,78.12664779810,525.6010,-76.2000,4.1029,-0.1328,0.0309,1.520922008,0.298875253,359.098281222,0.2843,0.3646,0.4066,0.0185,0.0289,0.0176,0.0612,0.0595,0.4632,ab000243,0*5362913a
#INSPVAXA,FILE,0,21.0,FINEBACKUPSTEERING,2317,469420.800,02000000,46eb,17139;INS_SOLUTION_GOOD,INS_PPP_CONVERGING,17.60163174217,78.12664768307,525.6014,-76.2000,4.1192,-0.1316,0.0393,1.507542970,0.289802375,359.059088191,0.2843,0.3646,0.4066,0.0185,0.0289,0.0176,0.0612,0.0595,0.4632,ab000243,0*91018985
#INSPVAXA,FILE,0,21.0,FINEBACKUPSTEERING,2317,469420.850,02000000,46eb,17139;INS_SOLUTION_GOOD,INS_PPP_CONVERGING,17.60163360573,78.12664757354,525.6024,-76.2000,4.1361,-0.1301,0.0542,1.499281429,0.283242482,359.020272111,0.2843,0.3646,0.4066,0.0185,0.0289,0.0176,0.0612,0.0595,0.4632,ab000243,0*05e5da92
#INSPVAXA,FILE,0,21.0,FINEBACKUPSTEERING,2317,469420.900,02000000,46eb,17139;INS_SOLUTION_GOOD,INS_PPP_CONVERGING,17.60163547794,78.12664746348,525.6035,-76.2000,4.1575,-0.1377,0.0449,1.469913772,0.282409453,358.984885447,0.2843,0.3646,0.4066,0.0185,0.0289,0.0176,0.0612,0.0595,0.4632,ab000243,0*2f17796d
#INSPVAXA,FILE,0,21.0,FINEBACKUPSTEERING,2317,469420.950,02000000,46eb,17139;INS_SOLUTION_GOOD,INS_PPP_CONVERGING,17.60163735988,78.12664734856,525.6042,-76.2000,4.1795,-0.1508,0.0386,1.447996084,0.288419374,358.955255926,0.2843,0.3646,0.4066,0.0185,0.0289,0.0176,0.0612,0.0595,0.4632,ab000243,0*0b4b6edf
#INSPVAXA,FILE,0,21.0,FINEBACKUPSTEERING,2317,469421.000,02000000,46eb,17139;INS_SOLUTION_GOOD,INS_PPP_CONVERGING,17.60163925152,78.12664723173,525.6047,-76.2000,4.2022,-0.1503,0.0354,1.428288368,0.300733069,358.927879644,0.2843,0.3646,0.4066,0.0185,0.0289,0.0176,0.0612,0.0595,0.4632,ab000243,0*8b653ee6
#INSPVAXA,FILE,0,21.0,FINEBACKUPSTEERING,2317,469421.050,02000000,46eb,17139;INS_SOLUTION_GOOD,INS_PPP_CONVERGING,17.60164115242,78.12664711696,525.6052,-76.2000,4.2201,-0.1454,0.0368,1.404305675,0.309993943,358.896313875,0.2800,0.3647,0.4008,0.0185,0.0281,0.0181,0.0611,0.0593,0.4377,ab001243,0*2ccb0a68
#INSPVAXA,FILE,0,21.0,FINEBACKUPSTEERING,2317,469421.100,02000000,46eb,17139;INS_SOLUTION_GOOD,INS_PPP_CONVERGING,17.60164305985,78.12664700208,525.6067,-76.2000,4.2308,-0.1442,0.0539,1.380880047,0.305086095,358.856626078,0.2800,0.3647,0.4008,0.0185,0.0281,0.0181,0.0611,0.0593,0.4377,ab001243,0*24cd2a75
#INSPVAXA,FILE,0,21.0,FINEBACKUPSTEERING,2317,469421.150,02000000,46eb,17139;INS_SOLUTION_GOOD,INS_PPP_CONVERGING,17.60164497123,78.12664688228,525.6085,-76.2000,4.2353,-0.1490,0.0639,1.389262835,0.277364320,358.817870830,0.2800,0.3647,0.4008,0.0185,0.0281,0.0181,0.0611,0.0593,0.4377,ab001243,0*c3d32f59
#INSPVAXA,FILE,0,21.0,FINEBACKUPSTEERING,2317,469421.200,02000000,46eb,17139;INS_SOLUTION_GOOD,INS_PPP_CONVERGING,17.60164688271,78.12664677063,525.6113,-76.2000,4.2301,-0.1460,0.0804,1.423190731,0.238133720,358.780493163,0.2800,0.3647,0.4008,0.0185,0.0281,0.0181,0.0611,0.0593,0.4377,ab001243,0*d728de10
#INSPVAXA,FILE,0,21.0,FINEBACKUPSTEERING,2317,469421.250,02000000,46eb,17139;INS_SOLUTION_GOOD,INS_PPP_CONVERGING,17.60164878856,78.12664665609,525.6147,-76.2000,4.2172,-0.1490,0.0901,1.430161792,0.179932722,358.739879677,0.2800,0.3647,0.4008,0.0185,0.0281,0.0181,0.0611,0.0593,0.4377,ab001243,0*69783c34
#INSPVAXA,FILE,0,21.0,FINEBACKUPSTEERING,2317,469421.300,02000000,46eb,17139;INS_SOLUTION_GOOD,INS_PPP_CONVERGING,17.60165068478,78.12664653370,525.6185,-76.2000,4.1892,-0.1608,0.0998,1.407820441,0.088995827,358.706168184,0.2800,0.3647,0.4008,0.0185,0.0281,0.0181,0.0611,0.0593,0.4377,ab001243,0*7c198ae2
#INSPVAXA,FILE,0,21.0,FINEBACKUPSTEERING,2317,469421.350,02000000,46eb,17139;INS_SOLUTION_GOOD,INS_PPP_CONVERGING,17.60165257731,78.12664641066,525.6216,-76.2000,4.1798,-0.1670,0.0812,1.391133848,-0.014194345,358.676398901,0.2800,0.3647,0.4008,0.0185,0.0281,0.0181,0.0611,0.0593,0.4377,ab001243,0*c1de3ed8
#INSPVAXA,FILE,0,21.0,FINEBACKUPSTEERING,2317,469421.400,02000000,46eb,17139;INS_SOLUTION_GOOD,INS_PPP_CONVERGING,17.60165446837,78.12664628850,525.6241,-76.2000,4.1875,-0.1633,0.0477,1.375450947,-0.067258167,358.633561232,0.2800,0.3647,0.4008,0.0185,0.0281,0.0181,0.0611,0.0593,0.4377,ab001243,0*fdf62089
#INSPVAXA,FILE,0,21.0,FINEBACKUPSTEERING,2317,469421.450,02000000,46eb,17139;INS_SOLUTION_GOOD,INS_PPP_CONVERGING,17.60165635421,78.12664616770,525.6259,-76.2000,4.1712,-0.1642,0.0410,1.323309715,-0.092895959,358.591743444,0.2800,0.3647,0.4008,0.0185,0.0281,0.0181,0.0611,0.0593,0.4377,ab001243,0*c5dc87a8
#INSPVAXA,FILE,0,21.0,FINEBACKUPSTEERING,2317,469421.500,02000000,46eb,17139;INS_SOLUTION_GOOD,INS_PPP_CONVERGING,17.60165823412,78.12664604403,525.6271,-76.2000,4.1533,-0.1751,0.0373,1.307359773,-0.105304202,358.555573072,0.2800,0.3647,0.4008,0.0185,0.0281,0.0181,0.0611,0.0593,0.4377,ab001243,0*591cf0f7
#INSPVAXA,FILE,0,21.0,FINEBACKUPSTEERING,2317,469421.550,02000000,46eb,17139;INS_SOLUTION_GOOD,INS_PPP_CONVERGING,17.60166010861,78.12664591903,525.6276,-76.2000,4.1465,-0.1743,0.0125,1.301488399,-0.081956174,358.528640741,0.2800,0.3647,0.4008,0.0185,0.0281,0.0181,0.0611,0.0593,0.4377,ab001243,0*2df6922b
#INSPVAXA,FILE,0,21.0,FINEBACKUPSTEERING,2317,469421.600,02000000,46eb,17139;INS_SOLUTION_GOOD,INS_PPP_CONVERGING,17.60166197874,78.12664579493,525.6282,-76.2000,4.1388,-0.1746,0.0181,1.287282299,-0.036443626,358.497563710,0.2800,0.3647,0.4008,0.0185,0.0281,0.0181,0.0611,0.0593,0.4377,ab001243,0*2e3831cf
#INSPVAXA,FILE,0,21.0,FINEBACKUPSTEERING,2317,469421.650,02000000,46eb,17139;INS_SOLUTION_GOOD,INS_PPP_CONVERGING,17.60166384357,78.12664567086,525.6289,-76.2000,4.1286,-0.1775,0.0251,1.302764923,0.004947154,358.459761454,0.2800,0.3647,0.4008,0.0185,0.0281,0.0181,0.0611,0.0593,0.4377,ab001243,0*3e05948d
#INSPVAXA,FILE,0,21.0,FINEBACKUPSTEERING,2317,469421.700,02000000,46eb,17139;INS_SOLUTION_GOOD,INS_PPP_CONVERGING,17.60166570384,78.12664554745,525.6299,-76.2000,4.1165,-0.1720,0.0315,1.327794067,0.028882957,358.423963460,0.2800,0.3647,0.4008,0.0185,0.0281,0.0181,0.0611,0.0593,0.4377,ab001243,0*7319da0a
#INSPVAXA,FILE,0,21.0,FINEBACKUPSTEERING,2317,469421.750,02000000,46eb,17139;INS_SOLUTION_GOOD,INS_PPP_CONVERGING,17.60166755995,78.12664542444,525.6314,-76.2000,4.1080,-0.1754,0.0428,1.358642084,0.037880138,358.388010075,0.2800,0.3647,0.4008,0.0185,0.0281,0.0181,0.0611,0.0593,0.4377,ab001243,0*96143c43
#INSPVAXA,FILE,0,21.0,FINEBACKUPSTEERING,2317,469421.800,02000000,46eb,17139;INS_SOLUTION_GOOD,INS_PPP_CONVERGING,17.60166941227,78.12664530124,525.6330,-76.2000,4.1013,-0.1754,0.0400,1.375433853,0.016224964,358.353739852,0.2800,0.3647,0.4008,0.0185,0.0281,0.0181,0.0611,0.0593,0.4377,ab001243,0*889d56fb
#INSPVAXA,FILE,0,21.0,FINEBACKUPSTEERING,2317,469421.850,02000000,46eb,17139;INS_SOLUTION_GOOD,INS_PPP_CONVERGING,17.60167126125,78.12664517954,525.6346,-76.2000,4.0924,-0.1842,0.0460,1.396440085,-0.016880292,358.324028525,0.2800,0.3647,0.4008,0.0185,0.0281,0.0181,0.0611,0.0593,0.4377,ab001243,0*b335757f
#INSPVAXA,FILE,0,21.0,FINEBACKUPSTEERING,2317,469421.900,02000000,46eb,17139;INS_SOLUTION_GOOD,INS_PPP_CONVERGING,17.60167310612,78.12664504746,525.6351,-76.2000,4.0835,-0.1910,0.0304,1.391393712,-0.065995868,358.294465232,0.2800,0.3647,0.4008,0.0185,0.0281,0.0181,0.0611,0.0593,0.4377,ab001243,0*a8f99660
#INSPVAXA,FILE,0,21.0,FINEBACKUPSTEERING,2317,469421.950,02000000,46eb,17139;INS_SOLUTION_GOOD,INS_PPP_CONVERGING,17.60167494712,78.12664491712,525.6355,-76.2000,4.0751,-0.1963,0.0228,1.368262035,-0.087052719,358.268663308,0.2800,0.3647,0.4008,0.0185,0.0281,0.0181,0.0611,0.0593,0.4377,ab001243,0*842cc2d7
#INSPVAXA,FILE,0,21.0,FINEBACKUPSTEERING,2317,469422.000,02000000,46eb,17139;INS_SOLUTION_GOOD,INS_PPP_CONVERGING,17.60167678407,78.12664478552,525.6356,-76.2000,4.0674,-0.1985,0.0243,1.323577542,-0.097938825,358.240565856,0.2800,0.3647,0.4008,0.0185,0.0281,0.0181,0.0611,0.0593,0.4377,ab001243,0*c8efe521
#INSPVAXA,FILE,0,21.0,FINEBACKUPSTEERING,2317,469422.050,02000000,46eb,17139;INS_SOLUTION_GOOD,INS_PPP_CONVERGING,17.60167861608,78.12664465270,525.6360,-76.2000,4.0538,-0.2031,0.0454,1.270335773,-0.120082194,358.213730938,0.2757,0.3645,0.3954,0.0183,0.0253,0.0181,0.0609,0.0591,0.4201,ab001243,0*3c72e470
#INSPVAXA,FILE,0,16.0,FINEBACKUPSTEERING,2317,469422.100,02000000,46eb,17139;INS_SOLUTION_GOOD,INS_PPP_CONVERGING,17.60168044212,78.12664451515,525.6364,-76.2000,4.0425,-0.1952,0.0523,1.279159106,-0.140280685,358.179390237,0.2757,0.3645,0.3954,0.0183,0.0253,0.0181,0.0609,0.0591,0.4201,ab001243,0*0e43a099
#INSPVAXA,FILE,0,16.0,FINEBACKUPSTEERING,2317,469422.150,02000000,46eb,17139;INS_SOLUTION_GOOD,INS_PPP_CONVERGING,17.60168226415,78.12664438921,525.6378,-76.2000,4.0317,-0.1856,0.0759,1.283377118,-0.199694002,358.139608882,0.2757,0.3645,0.3954,0.0183,0.0253,0.0181,0.0609,0.0591,0.4201,ab001243,0*7f4032b8
#INSPVAXA,FILE,0,16.0,FINEBACKUPSTEERING,2317,469422.200,02000000,46eb,17139;INS_SOLUTION_GOOD,INS_PPP_CONVERGING,17.60168408089,78.12664425605,525.6395,-76.2000,4.0232,-0.1973,0.0695,1.264340611,-0.243547314,358.102280994,0.2757,0.3645,0.3954,0.0183,0.0253,0.0181,0.0609,0.0591,0.4201,ab001243,0*30e78151
#INSPVAXA,FILE,0,16.0,FINEBACKUPSTEERING,2317,469422.250,02000000,46eb,17139;INS_SOLUTION_GOOD,INS_PPP_CONVERGING,17.60168589218,78.12664412178,525.6414,-76.2000,4.0082,-0.2050,0.0777,1.288013572,-0.293337578,358.074467261,0.2757,0.3645,0.3954,0.0183,0.0253,0.0181,0.0609,0.0591,0.4201,ab001243,0*86e5d65d
#INSPVAXA,FILE,0,16.0,FINEBACKUPSTEERING,2317,469422.300,02000000,46eb,17139;INS_SOLUTION_GOOD,INS_PPP_CONVERGING,17.60168769871,78.12664399241,525.6434,-76.2000,3.9997,-0.1964,0.0515,1.325245059,-0.310260294,358.044701578,0.2757,0.3645,0.3954,0.0183,0.0253,0.0181,0.0609,0.0591,0.4201,ab001243,0*2bb57991
#INSPVAXA,FILE,0,16.0,FINEBACKUPSTEERING,2317,469422.350,02000000,46eb,17139;INS_SOLUTION_GOOD,INS_PPP_CONVERGING,17.60168950179,78.12664386312,525.6447,-76.2000,3.9923,-0.1883,0.0424,1.353849746,-0.307007087,358.006236775,0.2757,0.3645,0.3954,0.0183,0.0253,0.0181,0.0609,0.0591,0.4201,ab001243,0*2262ed7e
#INSPVAXA,FILE,0,16.0,FINEBACKUPSTEERING,2317,469422.400,02000000,46eb,17139;INS_SOLUTION_GOOD,INS_PPP_CONVERGING,17.60169130219,78.12664372984,525.6446,-76.2000,3.9876,-0.1996,0.0118,1.370445010,-0.300589658,357.971244963,0.2757,0.3645,0.3954,0.0183,0.0253,0.0181,0.0609,0.0591,0.4201,ab001243,0*d3308c21
#INSPVAXA,FILE,0,16.0,FINEBACKUPSTEERING,2317,469422.450,02000000,46eb,17139;INS_SOLUTION_GOOD,INS_PPP_CONVERGING,17.60169309983,78.12664359843,525.6436,-76.2000,3.9794,-0.2101,-0.0052,1.409693417,-0.276008350,357.948743415,0.2757,0.3645,0.3954,0.0183,0.0253,0.0181,0.0609,0.0591,0.4201,ab001243,0*0e15219a
#INSPVAXA,FILE,0,16.0,FINEBACKUPSTEERING,2317,469422.500,02000000,46eb,17139;INS_SOLUTION_GOOD,INS_PPP_CONVERGING,17.60169489295,78.12664346253,525.6417,-76.2000,3.9665,-0.2074,-0.0034,1.406154150,-0.255766475,357.929028479,0.2757,0.3645,0.3954,0.0183,0.0253,0.0181,0.0609,0.0591,0.4201,ab001243,0*002a7f05
#INSPVAXA,FILE,0,16.0,FINEBACKUPSTEERING,2317,469422.550,02000000,46eb,17139;INS_SOLUTION_GOOD,INS_PPP_CONVERGING,17.60169667493,78.12664332227,525.6406,-76.2000,3.9322,-0.2115,0.0187,1.387391874,-0.246738365,357.898424612,0.2757,0.3645,0.3954,0.0183,0.0253,0.0181,0.0609,0.0591,0.4201,ab001243,0*3fd24b41
#INSPVAXA,FILE,0,16.0,FINEBACKUPSTEERING,2317,469422.600,02000000,46eb,17139;INS_SOLUTION_GOOD,INS_PPP_CONVERGING,17.60169843878,78.12664318652,525.6408,-76.2000,3.8861,-0.2069,0.0394,1.386558829,-0.263150086,357.862224699,0.2757,0.3645,0.3954,0.0183,0.0253,0.0181,0.0609,0.0591,0.4201,ab001243,0*a12d4d2f
#INSPVAXA,FILE,0,16.0,FINEBACKUPSTEERING,2317,469422.650,02000000,46eb,17139;INS_SOLUTION_GOOD,INS_PPP_CONVERGING,17.60170018190,78.12664305463,525.6418,-76.2000,3.8416,-0.2114,0.0523,1.343839035,-0.315356550,357.825371361,0.2757,0.3645,0.3954,0.0183,0.0253,0.0181,0.0609,0.0591,0.4201,ab001243,0*df46988f
#INSPVAXA,FILE,0,16.0,FINEBACKUPSTEERING,2317,469422.700,02000000,46eb,17139;INS_SOLUTION_GOOD,INS_PPP_CONVERGING,17.60170191037,78.12664291269,525.6423,-76.2000,3.8184,-0.2203,0.0387,1.329308743,-0.356343641,357.791694545,0.2757,0.3645,0.3954,0.0183,0.0253,0.0181,0.0609,0.0591,0.4201,ab001243,0*984aba96
#INSPVAXA,FILE,0,16.0,FINEBACKUPSTEERING,2317,469422.750,02000000,46eb,17139;INS_SOLUTION_GOOD,INS_PPP_CONVERGING,17.60170363150,78.12664277766,525.6422,-76.2000,3.8094,-0.2150,0.0194,1.332871054,-0.384026741,357.761092128,0.2757,0.3645,0.3954,0.0183,0.0253,0.0181,0.0609,0.0591,0.4201,ab001243,0*3a6d7438
#INSPVAXA,FILE,0,16.0,FINEBACKUPSTEERING,2317,469422.800,02000000,46eb,17139;INS_SOLUTION_GOOD,INS_PPP_CONVERGING,17.60170534832,78.12664264183,525.6404,-76.2000,3.7989,-0.2101,-0.0115,1.340563628,-0.362712087,357.732600551,0.2757,0.3645,0.3954,0.0183,0.0253,0.0181,0.0609,0.0591,0.4201,ab001243,0*696090a2
#INSPVAXA,FILE,0,16.0,FINEBACKUPSTEERING,2317,469422.850,02000000,46eb,17139;INS_SOLUTION_GOOD,INS_PPP_CONVERGING,17.60170706078,78.12664250277,525.6383,-76.2000,3.7889,-0.2136,-0.0142,1.367467667,-0.286610664,357.708622882,0.2757,0.3645,0.3954,0.0183,0.0253,0.0181,0.0609,0.0591,0.4201,ab001243,0*ee812323
#INSPVAXA,FILE,0,16.0,FINEBACKUPSTEERING,2317,469422.900,02000000,46eb,17139;INS_SOLUTION_GOOD,INS_PPP_CONVERGING,17.60170876844,78.12664236684,525.6366,-76.2000,3.7802,-0.2147,0.0024,1.404575224,-0.219406511,357.687093079,0.2757,0.3645,0.3954,0.0183,0.0253,0.0181,0.0609,0.0591,0.4201,ab001243,0*d8a3f005
#INSPVAXA,FILE,0,16.0,FINEBACKUPSTEERING,2317,469422.950,02000000,46eb,17139;INS_SOLUTION_GOOD,INS_PPP_CONVERGING,17.60171047127,78.12664223460,525.6361,-76.2000,3.7697,-0.2158,0.0247,1.423056847,-0.183205410,357.663150864,0.2757,0.3645,0.3954,0.0183,0.0253,0.0181,0.0609,0.0591,0.4201,ab001243,0*e32e682a
#INSPVAXA,FILE,0,16.0,FINEBACKUPSTEERING,2317,469423.000,02000000,46eb,17139;INS_SOLUTION_GOOD,INS_PPP_CONVERGING,17.60171216766,78.12664209562,525.6361,-76.2000,3.7508,-0.2163,0.0343,1.449249026,-0.182244722,357.631656423,0.2757,0.3645,0.3954,0.0183,0.0253,0.0181,0.0609,0.0591,0.4201,ab001243,0*c4180113
#INSPVAXA,FILE,0,16.0,FINEBACKUPSTEERING,2317,469423.050,02000000,46eb,17139;INS_SOLUTION_GOOD,INS_PPP_CONVERGING,17.60171385585,78.12664196163,525.6370,-76.2000,3.7245,-0.2140,0.0464,1.497611968,-0.210240200,357.599955897,0.2715,0.3627,0.3915,0.0182,0.0230,0.0179,0.0609,0.0589,0.4117,ab000243,0*a787659c
#INSPVAXA,FILE,0,16.0,FINEBACKUPSTEERING,2317,469423.100,02000000,46eb,17139;INS_SOLUTION_GOOD,INS_PPP_CONVERGING,17.60171553481,78.12664182812,525.6386,-76.2000,3.6936,-0.2103,0.0527,1.548165031,-0.256818289,357.566056255,0.2715,0.3627,0.3915,0.0182,0.0230,0.0179,0.0609,0.0589,0.4117,ab000243,0*ad837164
#INSPVAXA,FILE,0,21.5,FINEBACKUPSTEERING,2317,469423.150,02000000,46eb,17139;INS_SOLUTION_GOOD,INS_PPP_CONVERGING,17.60171720238,78.12664169238,525.6403,-76.2000,3.6724,-0.2217,0.0443,1.545173429,-0.293939044,357.541546974,0.2715,0.3627,0.3915,0.0182,0.0230,0.0179,0.0609,0.0589,0.4117,ab000243,0*05ef5e2e
#INSPVAXA,FILE,0,21.5,FINEBACKUPSTEERING,2317,469423.200,02000000,46eb,17139;INS_SOLUTION_GOOD,INS_PPP_CONVERGING,17.60171886090,78.12664154801,525.6416,-76.2000,3.6557,-0.2314,0.0401,1.552034792,-0.301800825,357.522808378,0.2715,0.3627,0.3915,0.0182,0.0230,0.0179,0.0609,0.0589,0.4117,ab000243,0*d59cb38c
#INSPVAXA,FILE,0,21.5,FINEBACKUPSTEERING,2317,469423.250,02000000,46eb,17139;INS_SOLUTION_GOOD,INS_PPP_CONVERGING,17.60172051158,78.12664140746,525.6422,-76.2000,3.6398,-0.2237,0.0225,1.566091254,-0.290481598,357.498973929,0.2715,0.3627,0.3915,0.0182,0.0230,0.0179,0.0609,0.0589,0.4117,ab000243,0*4199dee6
#INSPVAXA,FILE,0,21.5,FINEBACKUPSTEERING,2317,469423.300,02000000,46eb,17139;INS_SOLUTION_GOOD,INS_PPP_CONVERGING,17.60172215725,78.12664126873,525.6419,-76.2000,3.6297,-0.2272,0.0001,1.517884043,-0.257488712,357.470092476,0.2715,0.3627,0.3915,0.0182,0.0230,0.0179,0.0609,0.0589,0.4117,ab000243,0*850ea632
#INSPVAXA,FILE,0,21.5,FINEBACKUPSTEERING,2317,469423.350,02000000,46eb,17139;INS_SOLUTION_GOOD,INS_PPP_CONVERGING,17.60172379837,78.12664112586,525.6408,-76.2000,3.6215,-0.2394,-0.0109,1.483507136,-0.201283375,357.448957566,0.2715,0.3627,0.3915,0.0182,0.0230,0.0179,0.0609,0.0589,0.4117,ab000243,0*ccb2fe8d
#INSPVAXA,FILE,0,21.5,FINEBACKUPSTEERING,2317,469423.400,02000000,46eb,17139;INS_SOLUTION_GOOD,INS_PPP_CONVERGING,17.60172543529,78.12664098046,525.6394,-76.2000,3.6116,-0.2387,-0.0151,1.467862832,-0.143734045,357.433885820,0.2715,0.3627,0.3915,0.0182,0.0230,0.0179,0.0609,0.0589,0.4117,ab000243,0*0e730157
#INSPVAXA,FILE,0,21.5,FINEBACKUPSTEERING,2317,469423.450,02000000,46eb,17139;INS_SOLUTION_GOOD,INS_PPP_CONVERGING,17.60172706779,78.12664083913,525.6381,-76.2000,3.6022,-0.2248,-0.0106,1.456799163,-0.086615755,357.410877718,0.2715,0.3627,0.3915,0.0182,0.0230,0.0179,0.0609,0.0589,0.4117,ab000243,0*839352dd
#INSPVAXA,FILE,0,21.5,FINEBACKUPSTEERING,2317,469423.500,02000000,46eb,17139;INS_SOLUTION_GOOD,INS_PPP_CONVERGING,17.60172870024,78.12664070296,525.6373,-76.2000,3.6145,-0.2186,-0.0008,1.457562657,-0.030616294,357.377052806,0.2715,0.3627,0.3915,0.0182,0.0230,0.0179,0.0609,0.0589,0.4117,ab000243,0*1ac2e041
#INSPVAXA,FILE,0,21.5,FINEBACKUPSTEERING,2317,469423.550,02000000,46eb,17139;INS_SOLUTION_GOOD,INS_PPP_CONVERGING,17.60173034098,78.12664056472,525.6367,-76.2000,3.6398,-0.2301,0.0053,1.448320489,0.005715665,357.345110569,0.2715,0.3627,0.3915,0.0182,0.0230,0.0179,0.0609,0.0589,0.4117,ab000243,0*d7c29957
#INSPVAXA,FILE,0,21.5,FINEBACKUPSTEERING,2317,469423.600,02000000,46eb,17139;INS_SOLUTION_GOOD,INS_PPP_CONVERGING,17.60173199310,78.12664042016,525.6360,-76.2000,3.6615,-0.2438,-0.0019,1.428569585,0.031368576,357.333825523,0.2715,0.3627,0.3915,0.0182,0.0230,0.0179,0.0609,0.0589,0.4117,ab000243,0*afd130da
#INSPVAXA,FILE,0,21.5,FINEBACKUPSTEERING,2317,469423.650,02000000,46eb,17139;INS_SOLUTION_GOOD,INS_PPP_CONVERGING,17.60173364939,78.12664027199,525.6358,-76.2000,3.6601,-0.2475,0.0152,1.356418919,0.038899411,357.346922394,0.2715,0.3627,0.3915,0.0182,0.0230,0.0179,0.0609,0.0589,0.4117,ab000243,0*980b84d1
#INSPVAXA,FILE,0,21.5,FINEBACKUPSTEERING,2317,469423.700,02000000,46eb,17139;INS_SOLUTION_GOOD,INS_PPP_CONVERGING,17.60173530199,78.12664012241,525.6364,-76.2000,3.6470,-0.2513,0.0407,1.310199924,0.021231065,357.390734331,0.2715,0.3627,0.3915,0.0182,0.0230,0.0179,0.0609,0.0589,0.4117,ab000243,0*273f17b0
#INSPVAXA,FILE,0,21.5,FINEBACKUPSTEERING,2317,469423.750,02000000,46eb,17139;INS_SOLUTION_GOOD,INS_PPP_CONVERGING,17.60173695129,78.12663997579,525.6374,-76.2000,3.6428,-0.2420,0.0361,1.300104236,-0.004023327,357.458893979,0.2715,0.3627,0.3915,0.0182,0.0230,0.0179,0.0609,0.0589,0.4117,ab000243,0*5b1ccc0b
#INSPVAXA,FILE,0,21.5,FINEBACKUPSTEERING,2317,469423.800,02000000,46eb,17139;INS_SOLUTION_GOOD,INS_PPP_CONVERGING,17.60173860221,78.12663983192,525.6385,-76.2000,3.6535,-0.2388,0.0347,1.295380867,-0.020935422,357.556586804,0.2715,0.3627,0.3915,0.0182,0.0230,0.0179,0.0609,0.0589,0.4117,ab000243,0*87a7d16f
#INSPVAXA,FILE,0,21.5,FINEBACKUPSTEERING,2317,469423.850,02000000,46eb,17139;INS_SOLUTION_GOOD,INS_PPP_CONVERGING,17.60174025937,78.12663969199,525.6398,-76.2000,3.6730,-0.2361,0.0377,1.293002431,-0.030769115,357.687693301,0.2715,0.3627,0.3915,0.0182,0.0230,0.0179,0.0609,0.0589,0.4117,ab000243,0*b4e363a9
#INSPVAXA,FILE,0,21.5,FINEBACKUPSTEERING,2317,469423.900,02000000,46eb,17139;INS_SOLUTION_GOOD,INS_PPP_CONVERGING,17.60174192368,78.12663955200,525.6409,-76.2000,3.6871,-0.2263,0.0295,1.314303813,-0.033748879,357.850230174,0.2715,0.3627,0.3915,0.0182,0.0230,0.0179,0.0609,0.0589,0.4117,ab000243,0*519fe54e
