#BESTPOSA,FILE,0,29.0,FINESTEERING,2319,307456.450,02000800,cdba,17139;SOL_COMPUTED,NARROW_INT,17.60109100219,78.12662889351,528.1828,-76.2000,WGS84,0.0064,0.0059,0.0148,"0",0.450,0.000,56,56,56,54,00,21,3f,37*5212d486
#BESTPOSA,FILE,0,29.0,FINESTEERING,2319,307456.500,02000800,cdba,17139;SOL_COMPUTED,NARROW_INT,17.60109091288,78.12662825290,528.1813,-76.2000,WGS84,0.0064,0.0060,0.0148,"0",0.500,0.000,56,56,56,54,00,21,3f,37*5bfd6028
#BESTPOSA,FILE,0,29.0,FINESTEERING,2319,307456.550,02000800,cdba,17139;SOL_COMPUTED,NARROW_INT,17.60109084532,78.12662761329,528.1821,-76.2000,WGS84,0.0064,0.0060,0.0148,"0",0.550,0.000,56,56,56,54,00,21,3f,37*7e5a5fba
#BESTPOSA,FILE,0,29.0,FINESTEERING,2319,307456.600,02000800,cdba,17139;SOL_COMPUTED,NARROW_INT,17.60109076578,78.12662700511,528.1828,-76.2000,WGS84,0.0065,0.0060,0.0149,"0",0.600,0.000,56,56,56,54,00,21,3f,37*0bf530f4
#BESTPOSA,FILE,0,29.0,FINESTEERING,2319,307456.650,02000800,cdba,17139;SOL_COMPUTED,NARROW_INT,17.60109069129,78.12662638399,528.1837,-76.2000,WGS84,0.0065,0.0060,0.0149,"0",0.650,0.000,56,56,56,54,00,21,3f,37*7bf88fb4
#BESTPOSA,FILE,0,29.0,FINESTEERING,2319,307456.700,02000800,cdba,17139;SOL_COMPUTED,NARROW_INT,17.60109060834,78.12662577960,528.1829,-76.2000,WGS84,0.0065,0.0060,0.0149,"0",0.700,0.000,56,56,56,54,00,21,3f,37*84ccfb5b
#BESTPOSA,FILE,0,29.0,FINESTEERING,2319,307456.750,02000800,cdba,17139;SOL_COMPUTED,NARROW_INT,17.60109051924,78.12662518251,528.1841,-76.2000,WGS84,0.0065,0.0060,0.0150,"0",0.750,0.000,56,56,56,54,00,21,3f,37*36d538d4
#BESTPOSA,FILE,0,29.0,FINESTEERING,2319,307456.850,02000800,cdba,17139;SOL_COMPUTED,NARROW_INT,17.60109037054,78.12662400343,528.1844,-76.2000,WGS84,0.0065,0.0061,0.0150,"0",0.850,0.000,56,56,56,54,00,21,3f,37*b9f91d95
#BESTPOSA,FILE,0,29.0,FINESTEERING,2319,307456.950,02000800,cdba,17139;SOL_COMPUTED,NARROW_INT,17.60109023644,78.12662284673,528.1898,-76.2000,WGS84,0.0066,0.0061,0.0151,"0",0.950,0.000,56,56,56,54,00,21,3f,37*9f7e38ae
#BESTPOSA,FILE,0,29.0,FINESTEERING,2319,307457.050,02000800,cdba,17139;SOL_COMPUTED,NARROW_INT,17.60109012086,78.12662171388,528.1931,-76.2000,WGS84,0.0067,0.0062,0.0153,"0",1.050,0.000,56,56,56,54,00,21,3f,37*63b12ae7
#BESTPOSA,FILE,0,29.0,FINESTEERING,2319,307457.150,02000800,cdba,17139;SOL_COMPUTED,NARROW_INT,17.60108996800,78.12662057690,528.1913,-76.2000,WGS84,0.0068,0.0063,0.0154,"0",1.150,0.000,56,56,56,54,00,21,3f,37*140418b4
#BESTPOSA,FILE,0,29.5,FINESTEERING,2319,307457.250,02000800,cdba,17139;SOL_COMPUTED,NARROW_INT,17.60108984450,78.12661947965,528.1964,-76.2000,WGS84,0.0068,0.0063,0.0154,"0",1.250,0.000,56,56,56,54,00,21,3f,37*c0723517
#BESTPOSA,FILE,0,29.5,FINESTEERING,2319,307457.350,02000800,cdba,17139;SOL_COMPUTED,NARROW_INT,17.60108970561,78.12661839209,528.1902,-76.2000,WGS84,0.0063,0.0059,0.0147,"0",0.350,0.000,56,56,56,54,00,21,3f,37*5c1f8831
#BESTPOSA,FILE,0,29.5,FINESTEERING,2319,307457.450,02000800,cdba,17139;SOL_COMPUTED,NARROW_INT,17.60108955976,78.12661725751,528.1892,-76.2000,WGS84,0.0064,0.0059,0.0147,"0",0.450,0.000,56,56,56,54,00,21,3f,37*7d5c1902
#BESTPOSA,FILE,0,29.5,FINESTEERING,2319,307457.500,02000800,cdba,17139;SOL_COMPUTED,NARROW_INT,17.60108949425,78.12661669281,528.1918,-76.2000,WGS84,0.0064,0.0059,0.0148,"0",0.500,0.000,56,56,56,54,00,21,3f,37*d91837f3
#BESTPOSA,FILE,0,29.5,FINESTEERING,2319,307457.600,02000800,cdba,17139;SOL_COMPUTED,NARROW_INT,17.60108933436,78.12661554096,528.1930,-76.2000,WGS84,0.0064,0.0060,0.0148,"0",0.600,0.000,56,56,56,54,00,21,3f,37*ead1c765
#BESTPOSA,FILE,0,29.5,FINESTEERING,2319,307457.700,02000800,cdba,17139;SOL_COMPUTED,NARROW_INT,17.60108917976,78.12661440370,528.1982,-76.2000,WGS84,0.0065,0.0060,0.0149,"0",0.700,0.000,56,56,56,54,00,21,3f,37*3f82bbf7
#BESTPOSA,FILE,0,29.5,FINESTEERING,2319,307457.800,02000800,cdba,17139;SOL_COMPUTED,NARROW_INT,17.60108902179,78.12661326114,528.2006,-76.2000,WGS84,0.0065,0.0060,0.0149,"0",0.800,0.000,56,56,56,54,00,21,3f,37*27c3d5f4
#BESTPOSA,FILE,0,29.5,FINESTEERING,2319,307457.900,02000800,cdba,17139;SOL_COMPUTED,NARROW_INT,17.60108885479,78.12661210009,528.1984,-76.2000,WGS84,0.0065,0.0061,0.0150,"0",0.900,0.000,56,56,56,54,00,21,3f,37*c9bc674f
#BESTPOSA,FILE,0,29.5,FINESTEERING,2319,307458.000,02000800,cdba,17139;SOL_COMPUTED,NARROW_INT,17.60108868974,78.12661093821,528.1990,-76.2000,WGS84,0.0066,0.0061,0.0151,"0",1.000,0.000,56,56,56,54,00,21,3f,37*92b62e77
#BESTPOSA,FILE,0,29.5,FINESTEERING,2319,307458.100,02000800,cdba,17139;SOL_COMPUTED,NARROW_INT,17.60108850228,78.12660977174,528.2053,-76.2000,WGS84,0.0067,0.0062,0.0153,"0",1.100,0.000,56,56,56,54,00,21,3f,37*4aa29cd1
#BESTPOSA,FILE,0,30.5,FINESTEERING,2319,307458.200,02000800,cdba,17139;SOL_COMPUTED,NARROW_INT,17.60108832696,78.12660860826,528.2034,-76.2000,WGS84,0.0068,0.0063,0.0154,"0",1.200,0.000,56,56,56,54,00,21,3f,37*50f9b9b8
#BESTPOSA,FILE,0,30.5,FINESTEERING,2319,307458.300,02000800,cdba,17139;SOL_COMPUTED,NARROW_INT,17.60108812239,78.12660742107,528.2010,-76.2000,WGS84,0.0068,0.0063,0.0154,"0",1.300,0.000,56,56,56,54,00,21,3f,37*3c1e1e8a
#BESTPOSA,FILE,0,30.5,FINESTEERING,2319,307458.400,02000800,cdba,17139;SOL_COMPUTED,NARROW_INT,17.60108792083,78.12660619377,528.1984,-76.2000,WGS84,0.0063,0.0059,0.0147,"0",0.400,0.000,56,56,56,54,00,21,3f,37*a4496ed2
#BESTPOSA,FILE,0,30.5,FINESTEERING,2319,307458.450,02000800,cdba,17139;SOL_COMPUTED,NARROW_INT,17.60108782253,78.12660559954,528.1993,-76.2000,WGS84,0.0064,0.0059,0.0147,"0",0.450,0.000,56,56,56,54,00,21,3f,37*00cacc76
#BESTPOSA,FILE,0,30.5,FINESTEERING,2319,307458.550,02000800,cdba,17139;SOL_COMPUTED,NARROW_INT,17.60108763969,78.12660436172,528.2010,-76.2000,WGS84,0.0064,0.0060,0.0148,"0",0.550,0.000,56,56,56,54,00,21,3f,37*f8c5a16d
#BESTPOSA,FILE,0,30.5,FINESTEERING,2319,307458.650,02000800,cdba,17139;SOL_COMPUTED,NARROW_INT,17.60108745051,78.12660311242,528.2027,-76.2000,WGS84,0.0064,0.0060,0.0149,"0",0.650,0.000,56,56,56,54,00,21,3f,37*f997cc7c
#BESTPOSA,FILE,0,30.5,FINESTEERING,2319,307458.750,02000800,cdba,17139;SOL_COMPUTED,NARROW_INT,17.60108723089,78.12660185804,528.2055,-76.2000,WGS84,0.0065,0.0060,0.0149,"0",0.750,0.000,56,56,56,54,00,21,3f,37*95e33ad5
#BESTPOSA,FILE,0,30.5,FINESTEERING,2319,307458.850,02000800,cdba,17139;SOL_COMPUTED,NARROW_INT,17.60108701372,78.12660058985,528.2052,-76.2000,WGS84,0.0065,0.0061,0.0150,"0",0.850,0.000,56,56,56,54,00,21,3f,37*0b8ab418
#BESTPOSA,FILE,0,30.5,FINESTEERING,2319,307458.950,02000800,cdba,17139;SOL_COMPUTED,NARROW_INT,17.60108680375,78.12659930469,528.2030,-76.2000,WGS84,0.0066,0.0061,0.0151,"0",0.950,0.000,56,56,56,54,00,21,3f,37*dfcc6f57
#BESTPOSA,FILE,0,30.5,FINESTEERING,2319,307459.050,02000800,cdba,17139;SOL_COMPUTED,NARROW_INT,17.60108660690,78.12659799625,528.2029,-76.2000,WGS84,0.0067,0.0062,0.0153,"0",1.050,0.000,56,56,56,54,00,21,3f,37*52026680
#BESTPOSA,FILE,0,30.5,FINESTEERING,2319,307459.150,02000800,cdba,17139;SOL_COMPUTED,NARROW_INT,17.60108639724,78.12659669547,528.2034,-76.2000,WGS84,0.0067,0.0062,0.0153,"0",1.150,0.000,56,56,56,54,00,21,3f,37*103dd0a8
#BESTPOSA,FILE,0,31.0,FINESTEERING,2319,307459.250,02000800,cdba,17139;SOL_COMPUTED,NARROW_INT,17.60108618967,78.12659534655,528.2036,-76.2000,WGS84,0.0068,0.0063,0.0154,"0",1.250,0.000,56,56,56,54,00,21,3f,37*153a5355
#BESTPOSA,FILE,0,31.0,FINESTEERING,2319,307459.350,02000800,cdba,17139;SOL_COMPUTED,NARROW_INT,17.60108601288,78.12659402310,528.2100,-76.2000,WGS84,0.0063,0.0059,0.0147,"0",0.350,0.000,56,56,56,54,00,21,3f,37*5168a480
#BESTPOSA,FILE,0,31.0,FINESTEERING,2319,307459.450,02000800,cdba,17139;SOL_COMPUTED,NARROW_INT,17.60108581241,78.12659264814,528.2092,-76.2000,WGS84,0.0064,0.0059,0.0147,"0",0.450,0.000,56,56,56,54,00,21,3f,37*2482a5f2
#BESTPOSA,FILE,0,31.0,FINESTEERING,2319,307459.500,02000800,cdba,17139;SOL_COMPUTED,NARROW_INT,17.60108571452,78.12659196782,528.2105,-76.2000,WGS84,0.0064,0.0059,0.0148,"0",0.500,0.000,56,56,56,54,00,21,3f,37*680960f3
#BESTPOSA,FILE,0,31.0,FINESTEERING,2319,307459.650,02000800,cdba,17139;SOL_COMPUTED,NARROW_INT,17.60108542906,78.12658991320,528.2117,-76.2000,WGS84,0.0064,0.0060,0.0149,"0",0.650,0.000,56,56,56,54,00,21,3f,37*4b3f7a97
#BESTPOSA,FILE,0,31.0,FINESTEERING,2319,307459.700,02000800,cdba,17139;SOL_COMPUTED,NARROW_INT,17.60108533851,78.12658920419,528.2100,-76.2000,WGS84,0.0065,0.0060,0.0149,"0",0.700,0.000,56,56,56,54,00,21,3f,37*efe515e4
#BESTPOSA,FILE,0,31.0,FINESTEERING,2319,307459.750,02000800,cdba,17139;SOL_COMPUTED,NARROW_INT,17.60108524645,78.12658850706,528.2106,-76.2000,WGS84,0.0065,0.0060,0.0149,"0",0.750,0.000,56,56,56,54,00,21,3f,37*8942af58
#BESTPOSA,FILE,0,31.0,FINESTEERING,2319,307459.800,02000800,cdba,17139;SOL_COMPUTED,NARROW_INT,17.60108516493,78.12658780761,528.2092,-76.2000,WGS84,0.0065,0.0060,0.0149,"0",0.800,0.000,56,56,56,54,00,21,3f,37*51081141
#BESTPOSA,FILE,0,31.0,FINESTEERING,2319,307459.850,02000800,cdba,17139;SOL_COMPUTED,NARROW_INT,17.60108506411,78.12658709858,528.2097,-76.2000,WGS84,0.0065,0.0060,0.0150,"0",0.850,0.000,56,56,56,54,00,21,3f,37*b435c6b9
#BESTPOSA,FILE,0,31.0,FINESTEERING,2319,307459.900,02000800,cdba,17139;SOL_COMPUTED,NARROW_INT,17.60108496595,78.12658639300,528.2088,-76.2000,WGS84,0.0065,0.0061,0.0150,"0",0.900,0.000,56,56,56,54,00,21,3f,37*9a4cfa64
#BESTPOSA,FILE,0,31.0,FINESTEERING,2319,307459.950,02000800,cdba,17139;SOL_COMPUTED,NARROW_INT,17.60108488750,78.12658569784,528.2090,-76.2000,WGS84,0.0065,0.0061,0.0150,"0",0.950,0.000,56,56,56,54,00,21,3f,37*e6733ed2
#BESTPOSA,FILE,0,31.0,FINESTEERING,2319,307460.000,02000800,cdba,17139;SOL_COMPUTED,NARROW_INT,17.60108480070,78.12658500654,528.2089,-76.2000,WGS84,0.0066,0.0061,0.0151,"0",1.000,0.000,56,56,56,54,00,21,3f,37*dbe76e68
#BESTPOSA,FILE,0,31.0,FINESTEERING,2319,307460.050,02000800,cdba,17139;SOL_COMPUTED,NARROW_INT,17.60108469369,78.12658431795,528.2109,-76.2000,WGS84,0.0067,0.0062,0.0152,"0",1.050,0.000,56,56,56,54,00,21,3f,37*7734bc7e
#BESTPOSA,FILE,0,30.5,FINESTEERING,2319,307460.100,02000800,cdba,17139;SOL_COMPUTED,NARROW_INT,17.60108460607,78.12658363201,528.2095,-76.2000,WGS84,0.0067,0.0062,0.0153,"0",1.100,0.000,56,56,56,54,00,21,3f,37*42f723f6
#BESTPOSA,FILE,0,30.5,FINESTEERING,2319,307460.150,02000800,cdba,17139;SOL_COMPUTED,NARROW_INT,17.60108451437,78.12658294762,528.2075,-76.2000,WGS84,0.0067,0.0062,0.0153,"0",1.150,0.000,56,56,56,54,00,21,3f,37*a2115430
#BESTPOSA,FILE,0,30.5,FINESTEERING,2319,307460.200,02000800,cdba,17139;SOL_COMPUTED,NARROW_INT,17.60108442275,78.12658224877,528.2070,-76.2000,WGS84,0.0067,0.0062,0.0153,"0",1.200,0.000,56,56,56,54,00,21,3f,37*30b3d030
#BESTPOSA,FILE,0,30.5,FINESTEERING,2319,307460.250,02000800,cdba,17139;SOL_COMPUTED,NARROW_INT,17.60108434184,78.12658154153,528.2069,-76.2000,WGS84,0.0067,0.0063,0.0154,"0",1.250,0.000,56,56,56,54,00,21,3f,37*268f6275
#BESTPOSA,FILE,0,30.5,FINESTEERING,2319,307460.300,02000000,cdba,17139;SOL_COMPUTED,NARROW_INT,17.60108425605,78.12658083687,528.2072,-76.2000,WGS84,0.0068,0.0063,0.0154,"0",1.300,0.000,56,56,56,54,00,21,3f,37*17286635
#BESTPOSA,FILE,0,30.5,FINESTEERING,2319,307460.350,02000000,cdba,17139;SOL_COMPUTED,NARROW_INT,17.60108417070,78.12658012994,528.2069,-76.2000,WGS84,0.0068,0.0063,0.0154,"0",1.350,0.000,56,56,56,54,00,21,3f,37*7d8c342c
#BESTPOSA,FILE,0,30.5,FINESTEERING,2319,307460.400,02000000,cdba,17139;SOL_COMPUTED,NARROW_INT,17.60108408425,78.12657942429,528.2059,-76.2000,WGS84,0.0068,0.0063,0.0155,"0",1.400,0.000,56,56,56,54,00,21,3f,37*0cd6d452
#BESTPOSA,FILE,0,30.5,FINESTEERING,2319,307460.450,02000000,cdba,17139;SOL_COMPUTED,NARROW_INT,17.60108401147,78.12657869179,528.2030,-76.2000,WGS84,0.0063,0.0058,0.0146,"0",0.450,0.000,56,56,56,54,00,21,3f,37*06c3a35d
#BESTPOSA,FILE,0,30.5,FINESTEERING,2319,307460.500,02000000,cdba,17139;SOL_COMPUTED,NARROW_INT,17.60108393220,78.12657798418,528.2024,-76.2000,WGS84,0.0064,0.0059,0.0146,"0",0.500,0.000,56,56,56,54,00,21,3f,37*db86e91b
#BESTPOSA,FILE,0,30.5,FINESTEERING,2319,307460.550,02000000,cdba,17139;SOL_COMPUTED,NARROW_INT,17.60108383788,78.12657725340,528.2007,-76.2000,WGS84,0.0064,0.0059,0.0146,"0",0.550,0.000,56,56,56,54,00,21,3f,37*c3bd7c33
#BESTPOSA,FILE,0,30.5,FINESTEERING,2319,307460.600,02000000,cdba,17139;SOL_COMPUTED,NARROW_INT,17.60108375724,78.12657653906,528.2021,-76.2000,WGS84,0.0064,0.0059,0.0147,"0",0.600,0.000,56,56,56,54,00,21,3f,37*b35f0595
#BESTPOSA,FILE,0,30.5,FINESTEERING,2319,307460.650,02000000,cdba,17139;SOL_COMPUTED,NARROW_INT,17.60108368822,78.12657580302,528.2015,-76.2000,WGS84,0.0064,0.0059,0.0147,"0",0.650,0.000,56,56,56,54,00,21,3f,37*98322d98
#BESTPOSA,FILE,0,30.5,FINESTEERING,2319,307460.700,02000000,cdba,17139;SOL_COMPUTED,NARROW_INT,17.60108360104,78.12657508260,528.2023,-76.2000,WGS84,0.0064,0.0059,0.0147,"0",0.700,0.000,56,56,56,54,00,21,3f,37*b79b3d62
#BESTPOSA,FILE,0,30.5,FINESTEERING,2319,307460.750,02000000,cdba,17139;SOL_COMPUTED,NARROW_INT,17.60108352022,78.12657433999,528.1993,-76.2000,WGS84,0.0064,0.0059,0.0148,"0",0.750,0.000,56,56,56,54,00,21,3f,37*0ce28050
#BESTPOSA,FILE,0,30.5,FINESTEERING,2319,307460.800,02000000,cdba,17139;SOL_COMPUTED,NARROW_INT,17.60108344671,78.12657361043,528.2010,-76.2000,WGS84,0.0065,0.0060,0.0148,"0",0.800,0.000,56,56,56,54,00,21,3f,37*30209bfe
#BESTPOSA,FILE,0,30.5,FINESTEERING,2319,307460.850,02000000,cdba,17139;SOL_COMPUTED,NARROW_INT,17.60108337925,78.12657285738,528.2011,-76.2000,WGS84,0.0065,0.0060,0.0148,"0",0.850,0.000,56,56,56,54,00,21,3f,37*5c187c84
#BESTPOSA,FILE,0,30.5,FINESTEERING,2319,307460.900,02000000,cdba,17139;SOL_COMPUTED,NARROW_INT,17.60108331599,78.12657210200,528.2028,-76.2000,WGS84,0.0065,0.0060,0.0149,"0",0.900,0.000,56,56,56,54,00,21,3f,37*4d0ab1d8
#BESTPOSA,FILE,0,30.5,FINESTEERING,2319,307460.950,02000000,cdba,17139;SOL_COMPUTED,NARROW_INT,17.60108324709,78.12657135585,528.2020,-76.2000,WGS84,0.0065,0.0060,0.0149,"0",0.950,0.000,56,56,56,54,00,21,3f,37*edcf53b8
#BESTPOSA,FILE,0,30.5,FINESTEERING,2319,307461.000,02000000,cdba,17139;SOL_COMPUTED,NARROW_INT,17.60108317945,78.12657060064,528.2010,-76.2000,WGS84,0.0065,0.0060,0.0149,"0",1.000,0.000,56,56,56,54,00,21,3f,37*55109e0f
#BESTPOSA,FILE,0,30.5,FINESTEERING,2319,307461.050,02000000,cdba,17139;SOL_COMPUTED,NARROW_INT,17.60108311790,78.12656984106,528.2003,-76.2000,WGS84,0.0066,0.0061,0.0151,"0",1.050,0.000,56,56,56,54,00,21,3f,37*8647058a
#BESTPOSA,FILE,0,19.5,FINESTEERING,2319,307461.100,02000000,cdba,17139;SOL_COMPUTED,NARROW_INT,17.60108306837,78.12656907178,528.2011,-76.2000,WGS84,0.0067,0.0061,0.0151,"0",1.100,0.000,56,56,56,54,00,21,3f,37*631ef214
#BESTPOSA,FILE,0,19.5,FINESTEERING,2319,307461.150,02000000,cdba,17139;SOL_COMPUTED,NARROW_INT,17.60108300725,78.12656829986,528.2009,-76.2000,WGS84,0.0067,0.0062,0.0152,"0",1.150,0.000,56,56,56,54,00,21,3f,37*0e25d247
#BESTPOSA,FILE,0,19.5,FINESTEERING,2319,307461.200,02000000,cdba,17139;SOL_COMPUTED,NARROW_INT,17.60108295150,78.12656752290,528.2017,-76.2000,WGS84,0.0067,0.0062,0.0152,"0",1.200,0.000,56,56,56,54,00,21,3f,37*5ba3660f
#BESTPOSA,FILE,0,19.5,FINESTEERING,2319,307461.250,02000000,cdba,17139;SOL_COMPUTED,NARROW_INT,17.60108289205,78.12656673959,528.2019,-76.2000,WGS84,0.0067,0.0062,0.0152,"0",1.250,0.000,56,56,56,54,00,21,3f,37*3e6de572
#BESTPOSA,FILE,0,19.5,FINESTEERING,2319,307461.300,02000000,cdba,17139;SOL_COMPUTED,NARROW_INT,17.60108281159,78.12656595944,528.2006,-76.2000,WGS84,0.0067,0.0062,0.0152,"0",1.300,0.000,56,56,56,54,00,21,3f,37*b60743ea
#BESTPOSA,FILE,0,19.5,FINESTEERING,2319,307461.350,02000000,cdba,17139;SOL_COMPUTED,NARROW_INT,17.60108275607,78.12656515776,528.2006,-76.2000,WGS84,0.0068,0.0062,0.0153,"0",1.350,0.000,56,56,56,54,00,21,3f,37*f9a142ea
#BESTPOSA,FILE,0,19.5,FINESTEERING,2319,307461.400,02000000,cdba,17139;SOL_COMPUTED,NARROW_INT,17.60108267240,78.12656436772,528.1960,-76.2000,WGS84,0.0063,0.0058,0.0145,"0",0.400,0.000,56,56,56,54,00,21,3f,37*6145c5dd
#BESTPOSA,FILE,0,19.5,FINESTEERING,2319,307461.450,02000000,cdba,17139;SOL_COMPUTED,NARROW_INT,17.60108261471,78.12656355474,528.1953,-76.2000,WGS84,0.0063,0.0058,0.0146,"0",0.450,0.000,56,56,56,54,00,21,3f,37*29449fc6
#BESTPOSA,FILE,0,19.5,FINESTEERING,2319,307461.500,02000000,cdba,17139;SOL_COMPUTED,NARROW_INT,17.60108256449,78.12656274201,528.1950,-76.2000,WGS84,0.0064,0.0059,0.0146,"0",0.500,0.000,56,56,56,54,00,21,3f,37*be039236
#BESTPOSA,FILE,0,19.5,FINESTEERING,2319,307461.550,02000000,cdba,17139;SOL_COMPUTED,NARROW_INT,17.60108251342,78.12656193123,528.1949,-76.2000,WGS84,0.0064,0.0059,0.0146,"0",0.550,0.000,56,56,56,54,00,21,3f,37*b5994c20
#BESTPOSA,FILE,0,19.5,FINESTEERING,2319,307461.600,02000000,cdba,17139;SOL_COMPUTED,NARROW_INT,17.60108246752,78.12656112205,528.1946,-76.2000,WGS84,0.0064,0.0059,0.0147,"0",0.600,0.000,56,56,56,54,00,21,3f,37*5f7d7082
#BESTPOSA,FILE,0,19.5,FINESTEERING,2319,307461.650,02000000,cdba,17139;SOL_COMPUTED,NARROW_INT,17.60108242866,78.12656031050,528.1942,-76.2000,WGS84,0.0064,0.0059,0.0147,"0",0.650,0.000,56,56,56,54,00,21,3f,37*0cfb0bb9
#BESTPOSA,FILE,0,19.5,FINESTEERING,2319,307461.700,02000000,cdba,17139;SOL_COMPUTED,NARROW_INT,17.60108237710,78.12655948545,528.1936,-76.2000,WGS84,0.0064,0.0059,0.0147,"0",0.700,0.000,56,56,56,54,00,21,3f,37*b7635020
#BESTPOSA,FILE,0,19.5,FINESTEERING,2319,307461.750,02000000,cdba,17139;SOL_COMPUTED,NARROW_INT,17.60108232622,78.12655864175,528.1938,-76.2000,WGS84,0.0064,0.0060,0.0148,"0",0.750,0.000,56,56,56,54,00,21,3f,37*e80ff0c2
#BESTPOSA,FILE,0,19.5,FINESTEERING,2319,307461.800,02000000,cdba,17139;SOL_COMPUTED,NARROW_INT,17.60108229049,78.12655779352,528.1913,-76.2000,WGS84,0.0065,0.0060,0.0148,"0",0.800,0.000,56,56,56,54,00,21,3f,37*f91c3ea5
#BESTPOSA,FILE,0,19.5,FINESTEERING,2319,307461.850,02000000,cdba,17139;SOL_COMPUTED,NARROW_INT,17.60108225569,78.12655693029,528.1905,-76.2000,WGS84,0.0065,0.0060,0.0148,"0",0.850,0.000,56,56,56,54,00,21,3f,37*51f2aa4a
#BESTPOSA,FILE,0,19.5,FINESTEERING,2319,307461.900,02000000,cdba,17139;SOL_COMPUTED,NARROW_INT,17.60108220071,78.12655604970,528.1901,-76.2000,WGS84,0.0065,0.0060,0.0148,"0",0.900,0.000,56,56,56,54,00,21,3f,37*ef2918fd
#BESTPOSA,FILE,0,19.5,FINESTEERING,2319,307461.950,02000000,cdba,17139;SOL_COMPUTED,NARROW_INT,17.60108214656,78.12655515197,528.1894,-76.2000,WGS84,0.0065,0.0060,0.0149,"0",0.950,0.000,56,56,56,54,00,21,3f,37*16995706
#BESTPOSA,FILE,0,19.5,FINESTEERING,2319,307462.000,02000000,cdba,17139;SOL_COMPUTED,NARROW_INT,17.60108211312,78.12655423253,528.1901,-76.2000,WGS84,0.0065,0.0060,0.0149,"0",1.000,0.000,56,56,56,54,00,21,3f,37*da78173c
#BESTPOSA,FILE,0,19.5,FINESTEERING,2319,307462.050,02000000,cdba,17139;SOL_COMPUTED,NARROW_INT,17.60108204890,78.12655330064,528.1885,-76.2000,WGS84,0.0066,0.0061,0.0151,"0",1.050,0.000,56,56,56,54,00,21,3f,37*e581cff9
#BESTPOSA,FILE,0,19.5,FINESTEERING,2319,307462.100,02000000,cdba,17139;SOL_COMPUTED,NARROW_INT,17.60108200992,78.12655233879,528.1866,-76.2000,WGS84,0.0066,0.0061,0.0151,"0",1.100,0.000,56,56,56,54,00,21,3f,37*f6a1012e
#BESTPOSA,FILE,0,19.5,FINESTEERING,2319,307462.150,02000000,cdba,17139;SOL_COMPUTED,NARROW_INT,17.60108195124,78.12655135507,528.1848,-76.2000,WGS84,0.0067,0.0062,0.0151,"0",1.150,0.000,56,56,56,54,00,21,3f,37*77bf24b9
#BESTPOSA,FILE,0,19.5,FINESTEERING,2319,307462.200,02000000,cdba,17139;SOL_COMPUTED,NARROW_INT,17.60108189835,78.12655035339,528.1856,-76.2000,WGS84,0.0067,0.0062,0.0152,"0",1.200,0.000,56,56,56,54,00,21,3f,37*989e1c88
#BESTPOSA,FILE,0,25.5,FINESTEERING,2319,307462.250,02000000,cdba,17139;SOL_COMPUTED,NARROW_INT,17.60108185493,78.12654933475,528.1860,-76.2000,WGS84,0.0067,0.0062,0.0152,"0",1.250,0.000,56,56,56,54,00,21,3f,37*e1cae752
#BESTPOSA,FILE,0,25.5,FINESTEERING,2319,307462.300,02000000,cdba,17139;SOL_COMPUTED,NARROW_INT,17.60108180576,78.12654827513,528.1820,-76.2000,WGS84,0.0067,0.0062,0.0152,"0",1.300,0.000,56,56,56,54,00,21,3f,37*6369f4ef
#BESTPOSA,FILE,0,25.5,FINESTEERING,2319,307462.350,02000000,cdba,17139;SOL_COMPUTED,NARROW_INT,17.60108176502,78.12654718479,528.1813,-76.2000,WGS84,0.0067,0.0062,0.0152,"0",1.350,0.000,56,56,56,54,00,21,3f,37*ee821cac
#BESTPOSA,FILE,0,25.5,FINESTEERING,2319,307462.400,02000000,cdba,17139;SOL_COMPUTED,NARROW_INT,17.60108172798,78.12654606270,528.1801,-76.2000,WGS84,0.0063,0.0058,0.0145,"0",0.400,0.000,56,56,56,54,00,21,3f,37*3109fced
#BESTPOSA,FILE,0,25.5,FINESTEERING,2319,307462.450,02000000,cdba,17139;SOL_COMPUTED,NARROW_INT,17.60108167620,78.12654492548,528.1769,-76.2000,WGS84,0.0063,0.0058,0.0146,"0",0.450,0.000,56,56,56,54,00,21,3f,37*f4f23b34
#BESTPOSA,FILE,0,25.5,FINESTEERING,2319,307462.500,02000000,cdba,17139;SOL_COMPUTED,NARROW_INT,17.60108162359,78.12654376191,528.1760,-76.2000,WGS84,0.0063,0.0059,0.0146,"0",0.500,0.000,56,56,56,54,00,21,3f,37*1bc5705a
#BESTPOSA,FILE,0,25.5,FINESTEERING,2319,307462.550,02000000,cdba,17139;SOL_COMPUTED,NARROW_INT,17.60108158005,78.12654257045,528.1760,-76.2000,WGS84,0.0064,0.0059,0.0146,"0",0.550,0.000,56,56,56,54,00,21,3f,37*ecaf74a3
#BESTPOSA,FILE,0,25.5,FINESTEERING,2319,307462.600,02000000,cdba,17139;SOL_COMPUTED,NARROW_INT,17.60108152411,78.12654132710,528.1753,-76.2000,WGS84,0.0064,0.0059,0.0146,"0",0.600,0.000,56,56,56,54,00,21,3f,37*6d5c835d
#BESTPOSA,FILE,0,25.5,FINESTEERING,2319,307462.650,02000000,cdba,17139;SOL_COMPUTED,NARROW_INT,17.60108146205,78.12654006439,528.1745,-76.2000,WGS84,0.0064,0.0059,0.0147,"0",0.650,0.000,56,56,56,54,00,21,3f,37*f800d236
#BESTPOSA,FILE,0,25.5,FINESTEERING,2319,307462.700,02000000,cdba,17139;SOL_COMPUTED,NARROW_INT,17.60108141733,78.12653878119,528.1752,-76.2000,WGS84,0.0064,0.0059,0.0147,"0",0.700,0.000,56,56,56,54,00,21,3f,37*e147bf9d
#BESTPOSA,FILE,0,25.5,FINESTEERING,2319,307462.750,02000000,cdba,17139;SOL_COMPUTED,NARROW_INT,17.60108136289,78.12653746064,528.1757,-76.2000,WGS84,0.0064,0.0060,0.0147,"0",0.750,0.000,56,56,56,54,00,21,3f,37*fb33cd4f
#BESTPOSA,FILE,0,25.5,FINESTEERING,2319,307462.800,02000000,cdba,17139;SOL_COMPUTED,NARROW_INT,17.60108131600,78.12653611910,528.1745,-76.2000,WGS84,0.0064,0.0060,0.0148,"0",0.800,0.000,56,56,56,54,00,21,3f,37*490c1fdc
#BESTPOSA,FILE,0,25.5,FINESTEERING,2319,307462.850,02000000,cdba,17139;SOL_COMPUTED,NARROW_INT,17.60108126664,78.12653474421,528.1709,-76.2000,WGS84,0.0065,0.0060,0.0148,"0",0.850,0.000,56,56,56,54,00,21,3f,37*a6f805e1
#BESTPOSA,FILE,0,25.5,FINESTEERING,2319,307462.900,02000000,cdba,17139;SOL_COMPUTED,NARROW_INT,17.60108120643,78.12653334538,528.1716,-76.2000,WGS84,0.0065,0.0060,0.0148,"0",0.900,0.000,56,56,56,54,00,21,3f,37*26dc6d97
#BESTPOSA,FILE,0,25.5,FINESTEERING,2319,307462.950,02000000,cdba,17139;SOL_COMPUTED,NARROW_INT,17.60108114303,78.12653191275,528.1698,-76.2000,WGS84,0.0065,0.0060,0.0149,"0",0.950,0.000,56,56,56,54,00,21,3f,37*a54bb7b2
#BESTPOSA,FILE,0,25.5,FINESTEERING,2319,307463.000,02000000,cdba,17139;SOL_COMPUTED,NARROW_INT,17.60108109582,78.12653044160,528.1655,-76.2000,WGS84,0.0065,0.0060,0.0149,"0",1.000,0.000,56,56,56,54,00,21,3f,37*12ab1d6e
#BESTPOSA,FILE,0,25.5,FINESTEERING,2319,307463.050,02000000,cdba,17139;SOL_COMPUTED,NARROW_INT,17.60108103595,78.12652896131,528.1663,-76.2000,WGS84,0.0066,0.0061,0.0151,"0",1.050,0.000,56,56,56,54,00,21,3f,37*c6708459
#BESTPOSA,FILE,0,25.5,FINESTEERING,2319,307463.100,02000000,cdba,17139;SOL_COMPUTED,NARROW_INT,17.60108098519,78.12652745556,528.1671,-76.2000,WGS84,0.0066,0.0061,0.0151,"0",1.100,0.000,56,56,56,54,00,21,3f,37*90dbe5e2
#BESTPOSA,FILE,0,25.5,FINESTEERING,2319,307463.150,02000000,cdba,17139;SOL_COMPUTED,NARROW_INT,17.60108093895,78.12652590434,528.1652,-76.2000,WGS84,0.0067,0.0062,0.0151,"0",1.150,0.000,56,56,56,54,00,21,3f,37*e93626a7
#BESTPOSA,FILE,0,25.5,FINESTEERING,2319,307463.200,02000000,cdba,17139;SOL_COMPUTED,NARROW_INT,17.60108089981,78.12652434092,528.1642,-76.2000,WGS84,0.0067,0.0062,0.0152,"0",1.200,0.000,56,56,56,54,00,21,3f,37*a349077f
#BESTPOSA,FILE,0,25.5,FINESTEERING,2319,307463.250,02000000,cdba,17139;SOL_COMPUTED,NARROW_INT,17.60108088124,78.12652276878,528.1625,-76.2000,WGS84,0.0067,0.0062,0.0152,"0",1.250,0.000,56,56,56,54,00,21,3f,37*ae91094e
#BESTPOSA,FILE,0,25.5,FINESTEERING,2319,307463.300,02000000,cdba,17139;SOL_COMPUTED,NARROW_INT,17.60108087364,78.12652117050,528.1604,-76.2000,WGS84,0.0067,0.0062,0.0152,"0",1.300,0.000,56,56,56,54,00,21,3f,37*3899ce64
#BESTPOSA,FILE,0,25.5,FINESTEERING,2319,307463.350,02000000,cdba,17139;SOL_COMPUTED,NARROW_INT,17.60108085880,78.12651955340,528.1609,-76.2000,WGS84,0.0067,0.0062,0.0152,"0",1.350,0.000,56,56,56,54,00,21,3f,37*bbff5799
#BESTPOSA,FILE,0,25.5,FINESTEERING,2319,307463.400,02000000,cdba,17139;SOL_COMPUTED,NARROW_INT,17.60108085441,78.12651793982,528.1654,-76.2000,WGS84,0.0063,0.0058,0.0146,"0",0.400,0.000,56,56,56,54,00,21,3f,37*cebfcc32
#BESTPOSA,FILE,0,25.5,FINESTEERING,2319,307463.450,02000000,cdba,17139;SOL_COMPUTED,NARROW_INT,17.60108086726,78.12651628378,528.1661,-76.2000,WGS84,0.0063,0.0059,0.0147,"0",0.450,0.000,56,56,56,54,00,21,3f,37*1e87d4cb
#BESTPOSA,FILE,0,25.5,FINESTEERING,2319,307463.500,02000000,cdba,17139;SOL_COMPUTED,NARROW_INT,17.60108087612,78.12651460190,528.1661,-76.2000,WGS84,0.0063,0.0059,0.0147,"0",0.500,0.000,56,56,56,54,00,21,3f,37*397c37d7
#BESTPOSA,FILE,0,25.5,FINESTEERING,2319,307463.550,02000000,cdba,17139;SOL_COMPUTED,NARROW_INT,17.60108087633,78.12651289451,528.1661,-76.2000,WGS84,0.0064,0.0059,0.0147,"0",0.550,0.000,56,56,56,54,00,21,3f,37*9058dc85
#BESTPOSA,FILE,0,25.5,FINESTEERING,2319,307463.600,02000000,cdba,17139;SOL_COMPUTED,NARROW_INT,17.60108088086,78.12651115200,528.1645,-76.2000,WGS84,0.0064,0.0059,0.0148,"0",0.600,0.000,56,56,56,54,00,21,3f,37*aed3968d
#BESTPOSA,FILE,0,25.5,FINESTEERING,2319,307463.650,02000000,cdba,17139;SOL_COMPUTED,NARROW_INT,17.60108088796,78.12650938732,528.1611,-76.2000,WGS84,0.0064,0.0059,0.0148,"0",0.650,0.000,56,56,56,54,00,21,3f,37*f14eea20
#BESTPOSA,FILE,0,25.5,FINESTEERING,2319,307463.700,02000000,cdba,17139;SOL_COMPUTED,NARROW_INT,17.60108088180,78.12650759915,528.1604,-76.2000,WGS84,0.0064,0.0059,0.0148,"0",0.700,0.000,56,56,56,54,00,21,3f,37*6f8a0303
#BESTPOSA,FILE,0,25.5,FINESTEERING,2319,307463.750,02000000,cdba,17139;SOL_COMPUTED,NARROW_INT,17.60108088139,78.12650578449,528.1579,-76.2000,WGS84,0.0064,0.0060,0.0148,"0",0.750,0.000,56,56,56,54,00,21,3f,37*a076207f
#BESTPOSA,FILE,0,25.5,FINESTEERING,2319,307463.800,02000000,cdba,17139;SOL_COMPUTED,NARROW_INT,17.60108089960,78.12650396196,528.1564,-76.2000,WGS84,0.0064,0.0060,0.0149,"0",0.800,0.000,56,56,56,54,00,21,3f,37*dc9b8440
#BESTPOSA,FILE,0,25.5,FINESTEERING,2319,307463.850,02000000,cdba,17139;SOL_COMPUTED,NARROW_INT,17.60108089613,78.12650211784,528.1548,-76.2000,WGS84,0.0065,0.0060,0.0149,"0",0.850,0.000,56,56,56,54,00,21,3f,37*a0507909
#BESTPOSA,FILE,0,25.5,FINESTEERING,2319,307463.900,02000000,cdba,17139;SOL_COMPUTED,NARROW_INT,17.60108089263,78.12650024394,528.1525,-76.2000,WGS84,0.0065,0.0060,0.0149,"0",0.900,0.000,56,56,56,54,00,21,3f,37*28f47d52
#BESTPOSA,FILE,0,25.5,FINESTEERING,2319,307463.950,02000000,cdba,17139;SOL_COMPUTED,NARROW_INT,17.60108088230,78.12649835984,528.1500,-76.2000,WGS84,0.0065,0.0060,0.0150,"0",0.950,0.000,56,56,56,54,00,21,3f,37*b56d763e
#BESTPOSA,FILE,0,25.5,FINESTEERING,2319,307464.000,02000000,cdba,17139;SOL_COMPUTED,NARROW_INT,17.60108089037,78.12649646006,528.1499,-76.2000,WGS84,0.0065,0.0060,0.0150,"0",1.000,0.000,56,56,56,54,00,21,3f,37*2382daf6
#BESTPOSA,FILE,0,25.5,FINESTEERING,2319,307464.050,02000000,cdba,17139;SOL_COMPUTED,NARROW_INT,17.60108090217,78.12649453296,528.1517,-76.2000,WGS84,0.0066,0.0061,0.0152,"0",1.050,0.000,56,56,56,54,00,21,3f,37*cca6af6d
#BESTPOSA,FILE,0,25.0,FINESTEERING,2319,307464.100,02000000,cdba,17139;SOL_COMPUTED,NARROW_INT,17.60108093690,78.12649258752,528.1568,-76.2000,WGS84,0.0066,0.0062,0.0152,"0",1.100,0.000,56,56,56,54,00,21,3f,37*c74dcd5e
#BESTPOSA,FILE,0,25.0,FINESTEERING,2319,307464.150,02000000,cdba,17139;SOL_COMPUTED,NARROW_INT,17.60108097515,78.12649061542,528.1597,-76.2000,WGS84,0.0067,0.0062,0.0152,"0",1.150,0.000,56,56,56,54,00,21,3f,37*b7377db9
#BESTPOSA,FILE,0,25.0,FINESTEERING,2319,307464.200,02000000,cdba,17139;SOL_COMPUTED,NARROW_INT,17.60108101971,78.12648862951,528.1610,-76.2000,WGS84,0.0067,0.0062,0.0153,"0",1.200,0.000,56,56,56,54,00,21,3f,37*2727cee9
#BESTPOSA,FILE,0,25.0,FINESTEERING,2319,307464.250,02000000,cdba,17139;SOL_COMPUTED,NARROW_INT,17.60108107299,78.12648662375,528.1592,-76.2000,WGS84,0.0067,0.0062,0.0153,"0",1.250,0.000,56,56,56,54,00,21,3f,37*20dbd428
#BESTPOSA,FILE,0,25.0,FINESTEERING,2319,307464.300,02000000,cdba,17139;SOL_COMPUTED,NARROW_INT,17.60108112367,78.12648461842,528.1572,-76.2000,WGS84,0.0067,0.0062,0.0153,"0",1.300,0.000,56,56,56,54,00,21,3f,37*81d925d9
#BESTPOSA,FILE,0,25.0,FINESTEERING,2319,307464.350,02000000,cdba,17139;SOL_COMPUTED,NARROW_INT,17.60108116481,78.12648260245,528.1530,-76.2000,WGS84,0.0067,0.0062,0.0153,"0",1.350,0.000,56,56,56,54,00,21,3f,37*ff109a4a
#BESTPOSA,FILE,0,25.0,FINESTEERING,2319,307464.400,02000000,cdba,17139;SOL_COMPUTED,NARROW_INT,17.60108120831,78.12648056413,528.1444,-76.2000,WGS84,0.0068,0.0063,0.0154,"0",1.400,0.000,56,56,56,54,00,21,3f,37*084f2ce5
#BESTPOSA,FILE,0,25.0,FINESTEERING,2319,307464.450,02000000,cdba,17139;SOL_COMPUTED,NARROW_INT,17.60108122911,78.12647847361,528.1360,-76.2000,WGS84,0.0063,0.0059,0.0147,"0",0.450,0.000,56,56,56,54,00,21,3f,37*5941bd04
#BESTPOSA,FILE,0,25.0,FINESTEERING,2319,307464.500,02000000,cdba,17139;SOL_COMPUTED,NARROW_INT,17.60108127501,78.12647639486,528.1322,-76.2000,WGS84,0.0063,0.0059,0.0148,"0",0.500,0.000,56,56,56,54,00,21,3f,37*d1c8568c
#BESTPOSA,FILE,0,25.0,FINESTEERING,2319,307464.550,02000000,cdba,17139;SOL_COMPUTED,NARROW_INT,17.60108130267,78.12647426316,528.1315,-76.2000,WGS84,0.0064,0.0059,0.0148,"0",0.550,0.000,56,56,56,54,00,21,3f,37*21e912ac
#BESTPOSA,FILE,0,25.0,FINESTEERING,2319,307464.600,02000000,cdba,17139;SOL_COMPUTED,NARROW_INT,17.60108132647,78.12647210627,528.1336,-76.2000,WGS84,0.0064,0.0059,0.0148,"0",0.600,0.000,56,56,56,54,00,21,3f,37*9eff5dbc
#BESTPOSA,FILE,0,25.0,FINESTEERING,2319,307464.650,02000000,cdba,17139;SOL_COMPUTED,NARROW_INT,17.60108136768,78.12646993033,528.1371,-76.2000,WGS84,0.0064,0.0059,0.0149,"0",0.650,0.000,56,56,56,54,00,21,3f,37*886d2740
#BESTPOSA,FILE,0,25.0,FINESTEERING,2319,307464.700,02000000,cdba,17139;SOL_COMPUTED,NARROW_INT,17.60108140743,78.12646773800,528.1431,-76.2000,WGS84,0.0064,0.0059,0.0149,"0",0.700,0.000,56,56,56,54,00,21,3f,37*7b52f1ce
#BESTPOSA,FILE,0,25.0,FINESTEERING,2319,307464.750,02000000,cdba,17139;SOL_COMPUTED,NARROW_INT,17.60108143282,78.12646554964,528.1454,-76.2000,WGS84,0.0064,0.0060,0.0149,"0",0.750,0.000,56,56,56,54,00,21,3f,37*fe6f916a
#BESTPOSA,FILE,0,25.0,FINESTEERING,2319,307464.800,02000000,cdba,17139;SOL_COMPUTED,NARROW_INT,17.60108146199,78.12646336323,528.1474,-76.2000,WGS84,0.0065,0.0060,0.0150,"0",0.800,0.000,56,56,56,54,00,21,3f,37*ef9f400a
#BESTPOSA,FILE,0,25.0,FINESTEERING,2319,307464.850,02000000,cdba,17139;SOL_COMPUTED,NARROW_INT,17.60108147039,78.12646117361,528.1443,-76.2000,WGS84,0.0065,0.0060,0.0150,"0",0.850,0.000,56,56,56,54,00,21,3f,37*c7b3223b
#BESTPOSA,FILE,0,25.0,FINESTEERING,2319,307464.900,02000000,cdba,17139;SOL_COMPUTED,NARROW_INT,17.60108149023,78.12645898076,528.1406,-76.2000,WGS84,0.0065,0.0060,0.0150,"0",0.900,0.000,56,56,56,54,00,21,3f,37*1409a5e4
#BESTPOSA,FILE,0,25.0,FINESTEERING,2319,307464.950,02000000,cdba,17139;SOL_COMPUTED,NARROW_INT,17.60108153825,78.12645677794,528.1351,-76.2000,WGS84,0.0065,0.0060,0.0150,"0",0.950,0.000,56,56,56,54,00,21,3f,37*ce90c80d
#BESTPOSA,FILE,0,25.0,FINESTEERING,2319,307465.000,02000000,cdba,17139;SOL_COMPUTED,NARROW_INT,17.60108159847,78.12645454724,528.1305,-76.2000,WGS84,0.0065,0.0060,0.0151,"0",1.000,0.000,56,56,56,54,00,21,3f,37*8357de71
#BESTPOSA,FILE,0,25.0,FINESTEERING,2319,307465.050,02000000,cdba,17139;SOL_COMPUTED,NARROW_INT,17.60108169934,78.12645228207,528.1267,-76.2000,WGS84,0.0066,0.0061,0.0152,"0",1.050,0.000,56,56,56,54,00,21,3f,37*1bcb6c06
#BESTPOSA,FILE,0,25.0,FINESTEERING,2319,307465.100,02000000,cdba,17139;SOL_COMPUTED,NARROW_INT,17.60108180336,78.12644999953,528.1256,-76.2000,WGS84,0.0067,0.0062,0.0153,"0",1.100,0.000,56,56,56,54,00,21,3f,37*06fe2793
#BESTPOSA,FILE,0,26.0,FINESTEERING,2319,307465.150,02000000,cdba,17139;SOL_COMPUTED,NARROW_INT,17.60108190362,78.12644769046,528.1234,-76.2000,WGS84,0.0067,0.0062,0.0153,"0",1.150,0.000,56,56,56,54,00,21,3f,37*9ec26b9d
#BESTPOSA,FILE,0,26.0,FINESTEERING,2319,307465.200,02000000,cdba,17139;SOL_COMPUTED,NARROW_INT,17.60108199363,78.12644534101,528.1221,-76.2000,WGS84,0.0067,0.0062,0.0153,"0",1.200,0.000,56,56,56,54,00,21,3f,37*4fed88cf
#BESTPOSA,FILE,0,26.0,FINESTEERING,2319,307465.250,02000000,cdba,17139;SOL_COMPUTED,NARROW_INT,17.60108205769,78.12644297268,528.1195,-76.2000,WGS84,0.0067,0.0062,0.0154,"0",1.250,0.000,56,56,56,54,00,21,3f,37*895c21a7
#BESTPOSA,FILE,0,26.0,FINESTEERING,2319,307465.300,02000000,cdba,17139;SOL_COMPUTED,NARROW_INT,17.60108210135,78.12644058687,528.1201,-76.2000,WGS84,0.0067,0.0062,0.0154,"0",1.300,0.000,56,56,56,54,00,21,3f,37*0f17d3bf
#BESTPOSA,FILE,0,26.0,FINESTEERING,2319,307465.350,02000000,cdba,17139;SOL_COMPUTED,NARROW_INT,17.60108210929,78.12643818849,528.1203,-76.2000,WGS84,0.0068,0.0062,0.0154,"0",1.350,0.000,56,56,56,54,00,21,3f,37*e3322b1f
#BESTPOSA,FILE,0,26.0,FINESTEERING,2319,307465.400,02000000,cdba,17139;SOL_COMPUTED,NARROW_INT,17.60108213344,78.12643577875,528.1222,-76.2000,WGS84,0.0063,0.0058,0.0147,"0",0.400,0.000,56,56,56,54,00,21,3f,37*0d87f000
#BESTPOSA,FILE,0,26.0,FINESTEERING,2319,307465.450,02000000,cdba,17139;SOL_COMPUTED,NARROW_INT,17.60108213149,78.12643334946,528.1232,-76.2000,WGS84,0.0064,0.0059,0.0148,"0",0.450,0.000,56,56,56,54,00,21,3f,37*25c1c787
#BESTPOSA,FILE,0,26.0,FINESTEERING,2319,307465.500,02000000,cdba,17139;SOL_COMPUTED,NARROW_INT,17.60108214938,78.12643092454,528.1226,-76.2000,WGS84,0.0064,0.0059,0.0148,"0",0.500,0.000,56,56,56,54,00,21,3f,37*147ff0a5
#BESTPOSA,FILE,0,26.0,FINESTEERING,2319,307465.550,02000000,cdba,17139;SOL_COMPUTED,NARROW_INT,17.60108216804,78.12642849603,528.1202,-76.2000,WGS84,0.0064,0.0059,0.0148,"0",0.550,0.000,56,56,56,54,00,21,3f,37*396dc04c
#BESTPOSA,FILE,0,26.0,FINESTEERING,2319,307465.600,02000000,cdba,17139;SOL_COMPUTED,NARROW_INT,17.60108220334,78.12642604123,528.1156,-76.2000,WGS84,0.0064,0.0059,0.0148,"0",0.600,0.000,56,56,56,54,00,21,3f,37*7c8d68d1
#BESTPOSA,FILE,0,26.0,FINESTEERING,2319,307465.650,02000000,cdba,17139;SOL_COMPUTED,NARROW_INT,17.60108224689,78.12642358605,528.1147,-76.2000,WGS84,0.0064,0.0059,0.0149,"0",0.650,0.000,56,56,56,54,00,21,3f,37*da19b7dc
#BESTPOSA,FILE,0,26.0,FINESTEERING,2319,307465.700,02000000,cdba,17139;SOL_COMPUTED,NARROW_INT,17.60108229996,78.12642111353,528.1083,-76.2000,WGS84,0.0064,0.0059,0.0149,"0",0.700,0.000,56,56,56,54,00,21,3f,37*0a0e37ce
#BESTPOSA,FILE,0,26.0,FINESTEERING,2319,307465.750,02000000,cdba,17139;SOL_COMPUTED,NARROW_INT,17.60108235550,78.12641863066,528.1038,-76.2000,WGS84,0.0065,0.0060,0.0149,"0",0.750,0.000,56,56,56,54,00,21,3f,37*a7dba1d3
#BESTPOSA,FILE,0,26.0,FINESTEERING,2319,307465.800,02000000,cdba,17139;SOL_COMPUTED,NARROW_INT,17.60108242305,78.12641612939,528.1017,-76.2000,WGS84,0.0065,0.0060,0.0150,"0",0.800,0.000,56,56,56,54,00,21,3f,37*68bbd124
#BESTPOSA,FILE,0,26.0,FINESTEERING,2319,307465.850,02000000,cdba,17139;SOL_COMPUTED,NARROW_INT,17.60108250669,78.12641361576,528.1011,-76.2000,WGS84,0.0065,0.0060,0.0150,"0",0.850,0.000,56,56,56,54,00,21,3f,37*b72534cb
#BESTPOSA,FILE,0,26.0,FINESTEERING,2319,307465.900,02000000,cdba,17139;SOL_COMPUTED,NARROW_INT,17.60108256455,78.12641109037,528.1022,-76.2000,WGS84,0.0065,0.0060,0.0150,"0",0.900,0.000,56,56,56,54,00,21,3f,37*5d7108f5
#BESTPOSA,FILE,0,26.0,FINESTEERING,2319,307465.950,02000000,cdba,17139;SOL_COMPUTED,NARROW_INT,17.60108261913,78.12640853733,528.1005,-76.2000,WGS84,0.0065,0.0060,0.0150,"0",0.950,0.000,56,56,56,54,00,21,3f,37*d693137a
#BESTPOSA,FILE,0,26.0,FINESTEERING,2319,307466.000,02000000,cdba,17139;SOL_COMPUTED,NARROW_INT,17.60108268336,78.12640597525,528.0992,-76.2000,WGS84,0.0066,0.0060,0.0151,"0",1.000,0.000,56,56,56,54,00,21,3f,37*9c3827bd
#BESTPOSA,FILE,0,26.0,FINESTEERING,2319,307466.050,02000000,cdba,17139;SOL_COMPUTED,NARROW_INT,17.60108272137,78.12640339085,528.0958,-76.2000,WGS84,0.0067,0.0061,0.0153,"0",1.050,0.000,56,56,56,54,00,21,3f,37*f661a927
#BESTPOSA,FILE,0,26.0,FINESTEERING,2319,307466.100,02000000,cdba,17139;SOL_COMPUTED,NARROW_INT,17.60108275961,78.12640078986,528.0932,-76.2000,WGS84,0.0067,0.0062,0.0153,"0",1.100,0.000,56,56,56,54,00,21,3f,37*e26f4f48
#BESTPOSA,FILE,0,26.0,FINESTEERING,2319,307466.150,02000000,cdba,17139;SOL_COMPUTED,NARROW_INT,17.60108278786,78.12639818232,528.0922,-76.2000,WGS84,0.0067,0.0062,0.0153,"0",1.150,0.000,56,56,56,54,00,21,3f,37*54b5f21c
#BESTPOSA,FILE,0,26.0,FINESTEERING,2319,307466.200,02000000,cdba,17139;SOL_COMPUTED,NARROW_INT,17.60108283224,78.12639555611,528.0890,-76.2000,WGS84,0.0067,0.0062,0.0154,"0",1.200,0.000,56,56,56,54,00,21,3f,37*0ac745e7
#BESTPOSA,FILE,0,26.0,FINESTEERING,2319,307466.250,02000000,cdba,17139;SOL_COMPUTED,NARROW_INT,17.60108284886,78.12639290135,528.0899,-76.2000,WGS84,0.0068,0.0062,0.0154,"0",1.250,0.000,56,56,56,54,00,21,3f,37*994abf71
#BESTPOSA,FILE,0,26.0,FINESTEERING,2319,307466.300,02000000,cdba,17139;SOL_COMPUTED,NARROW_INT,17.60108287897,78.12639022704,528.0892,-76.2000,WGS84,0.0068,0.0062,0.0154,"0",1.300,0.000,56,56,56,54,00,21,3f,37*073c4a54
#BESTPOSA,FILE,0,26.0,FINESTEERING,2319,307466.350,02000000,cdba,17139;SOL_COMPUTED,NARROW_INT,17.60108291073,78.12638753227,528.0918,-76.2000,WGS84,0.0063,0.0058,0.0146,"0",0.350,0.000,56,56,56,54,00,21,3f,37*c58ba79b
#BESTPOSA,FILE,0,26.0,FINESTEERING,2319,307466.400,02000000,cdba,17139;SOL_COMPUTED,NARROW_INT,17.60108296304,78.12638482821,528.0932,-76.2000,WGS84,0.0063,0.0058,0.0147,"0",0.400,0.000,56,56,56,54,00,21,3f,37*13351bce
#BESTPOSA,FILE,0,26.0,FINESTEERING,2319,307466.450,02000000,cdba,17139;SOL_COMPUTED,NARROW_INT,17.60108300559,78.12638208867,528.0941,-76.2000,WGS84,0.0064,0.0059,0.0147,"0",0.450,0.000,56,56,56,54,00,21,3f,37*7ec472b2
#BESTPOSA,FILE,0,26.0,FINESTEERING,2319,307466.500,02000000,cdba,17139;SOL_COMPUTED,NARROW_INT,17.60108307253,78.12637935586,528.0932,-76.2000,WGS84,0.0064,0.0059,0.0147,"0",0.500,0.000,56,56,56,54,00,21,3f,37*2d9c7f3b
#BESTPOSA,FILE,0,26.0,FINESTEERING,2319,307466.550,02000000,cdba,17139;SOL_COMPUTED,NARROW_INT,17.60108313725,78.12637659687,528.0935,-76.2000,WGS84,0.0064,0.0059,0.0148,"0",0.550,0.000,56,56,56,54,00,21,3f,37*f3c31d9e
#BESTPOSA,FILE,0,26.0,FINESTEERING,2319,307466.600,02000000,cdba,17139;SOL_COMPUTED,NARROW_INT,17.60108318726,78.12637382562,528.0899,-76.2000,WGS84,0.0064,0.0059,0.0148,"0",0.600,0.000,56,56,56,54,00,21,3f,37*e7596f14
#BESTPOSA,FILE,0,26.0,FINESTEERING,2319,307466.650,02000000,cdba,17139;SOL_COMPUTED,NARROW_INT,17.60108323311,78.12637104492,528.0877,-76.2000,WGS84,0.0064,0.0059,0.0148,"0",0.650,0.000,56,56,56,54,00,21,3f,37*0eebf2ff
#BESTPOSA,FILE,0,26.0,FINESTEERING,2319,307466.700,02000000,cdba,17139;SOL_COMPUTED,NARROW_INT,17.60108326660,78.12636826005,528.0848,-76.2000,WGS84,0.0065,0.0059,0.0149,"0",0.700,0.000,56,56,56,54,00,21,3f,37*3601c1c0
#BESTPOSA,FILE,0,26.0,FINESTEERING,2319,307466.750,02000000,cdba,17139;SOL_COMPUTED,NARROW_INT,17.60108330983,78.12636544247,528.0803,-76.2000,WGS84,0.0065,0.0060,0.0149,"0",0.750,0.000,56,56,56,54,00,21,3f,37*18573e68
#BESTPOSA,FILE,0,26.0,FINESTEERING,2319,307466.800,02000000,cdba,17139;SOL_COMPUTED,NARROW_INT,17.60108336094,78.12636263127,528.0754,-76.2000,WGS84,0.0065,0.0060,0.0149,"0",0.800,0.000,56,56,56,54,00,21,3f,37*fbbb4bc1
#BESTPOSA,FILE,0,26.0,FINESTEERING,2319,307466.850,02000000,cdba,17139;SOL_COMPUTED,NARROW_INT,17.60108340129,78.12635979170,528.0728,-76.2000,WGS84,0.0065,0.0060,0.0150,"0",0.850,0.000,56,56,56,54,00,21,3f,37*f6509c84
#BESTPOSA,FILE,0,26.0,FINESTEERING,2319,307466.900,02000000,cdba,17139;SOL_COMPUTED,NARROW_INT,17.60108343126,78.12635693188,528.0711,-76.2000,WGS84,0.0065,0.0060,0.0150,"0",0.900,0.000,56,56,56,54,00,21,3f,37*e18db630
#BESTPOSA,FILE,0,26.0,FINESTEERING,2319,307466.950,02000000,cdba,17139;SOL_COMPUTED,NARROW_INT,17.60108348195,78.12635406424,528.0704,-76.2000,WGS84,0.0065,0.0060,0.0150,"0",0.950,0.000,56,56,56,54,00,21,3f,37*fa8614df
#BESTPOSA,FILE,0,26.0,FINESTEERING,2319,307467.000,02000000,cdba,17139;SOL_COMPUTED,NARROW_INT,17.60108348840,78.12635117478,528.0658,-76.2000,WGS84,0.0066,0.0061,0.0151,"0",1.000,0.000,56,56,56,54,00,21,3f,37*a30dab19
#BESTPOSA,FILE,0,26.0,FINESTEERING,2319,307467.050,02000000,cdba,17139;SOL_COMPUTED,NARROW_INT,17.60108350696,78.12634827551,528.0672,-76.2000,WGS84,0.0067,0.0062,0.0153,"0",1.050,0.000,56,56,56,54,00,21,3f,37*f2b7dee1
#BESTPOSA,FILE,0,26.0,FINESTEERING,2319,307467.100,02000000,cdba,17139;SOL_COMPUTED,NARROW_INT,17.60108354200,78.12634535206,528.0632,-76.2000,WGS84,0.0067,0.0062,0.0153,"0",1.100,0.000,56,56,56,54,00,21,3f,37*b567ea99
#BESTPOSA,FILE,0,27.0,FINESTEERING,2319,307467.150,02000000,cdba,17139;SOL_COMPUTED,NARROW_INT,17.60108358587,78.12634242012,528.0577,-76.2000,WGS84,0.0068,0.0062,0.0154,"0",1.150,0.000,56,56,56,54,00,21,3f,37*56fa35bb
#BESTPOSA,FILE,0,27.0,FINESTEERING,2319,307467.200,02000000,cdba,17139;SOL_COMPUTED,NARROW_INT,17.60108360237,78.12633946166,528.0536,-76.2000,WGS84,0.0068,0.0062,0.0154,"0",1.200,0.000,56,56,56,54,00,21,3f,37*4bbf2e15
#BESTPOSA,FILE,0,27.0,FINESTEERING,2319,307467.250,02000000,cdba,17139;SOL_COMPUTED,NARROW_INT,17.60108362201,78.12633649417,528.0499,-76.2000,WGS84,0.0068,0.0063,0.0154,"0",1.250,0.000,56,56,56,54,00,21,3f,37*1d8e64dc
#BESTPOSA,FILE,0,27.0,FINESTEERING,2319,307467.300,02000000,cdba,17139;SOL_COMPUTED,NARROW_INT,17.60108363498,78.12633351551,528.0498,-76.2000,WGS84,0.0068,0.0063,0.0155,"0",1.300,0.000,56,56,56,54,00,21,3f,37*58752bc9
#BESTPOSA,FILE,0,27.0,FINESTEERING,2319,307467.350,02000000,cdba,17139;SOL_COMPUTED,NARROW_INT,17.60108371026,78.12633052086,528.0484,-76.2000,WGS84,0.0063,0.0059,0.0147,"0",0.350,0.000,56,56,56,54,00,21,3f,37*4d33644d
#BESTPOSA,FILE,0,27.0,FINESTEERING,2319,307467.400,02000000,cdba,17139;SOL_COMPUTED,NARROW_INT,17.60108373250,78.12632750346,528.0444,-76.2000,WGS84,0.0064,0.0059,0.0147,"0",0.400,0.000,56,56,56,54,00,21,3f,37*5b026593
#BESTPOSA,FILE,0,27.0,FINESTEERING,2319,307467.450,02000000,cdba,17139;SOL_COMPUTED,NARROW_INT,17.60108377193,78.12632447772,528.0446,-76.2000,WGS84,0.0064,0.0059,0.0147,"0",0.450,0.000,56,56,56,54,00,21,3f,37*9eb2d2a1
#BESTPOSA,FILE,0,27.0,FINESTEERING,2319,307467.500,02000000,cdba,17139;SOL_COMPUTED,NARROW_INT,17.60108378949,78.12632144285,528.0438,-76.2000,WGS84,0.0064,0.0059,0.0148,"0",0.500,0.000,56,56,56,54,00,21,3f,37*a7c9e556
#BESTPOSA,FILE,0,27.0,FINESTEERING,2319,307467.550,02000000,cdba,17139;SOL_COMPUTED,NARROW_INT,17.60108382028,78.12631836358,528.0400,-76.2000,WGS84,0.0064,0.0059,0.0148,"0",0.550,0.000,56,56,56,54,00,21,3f,37*1237755a
#BESTPOSA,FILE,0,27.0,FINESTEERING,2319,307467.600,02000000,cdba,17139;SOL_COMPUTED,NARROW_INT,17.60108384441,78.12631528732,528.0369,-76.2000,WGS84,0.0064,0.0059,0.0148,"0",0.600,0.000,56,56,56,54,00,21,3f,37*7c22af18
#BESTPOSA,FILE,0,27.0,FINESTEERING,2319,307467.650,02000000,cdba,17139;SOL_COMPUTED,NARROW_INT,17.60108386813,78.12631221030,528.0308,-76.2000,WGS84,0.0065,0.0060,0.0149,"0",0.650,0.000,56,56,56,54,00,21,3f,37*6f3b4e54
#BESTPOSA,FILE,0,27.0,FINESTEERING,2319,307467.700,02000000,cdba,17139;SOL_COMPUTED,NARROW_INT,17.60108388794,78.12630909575,528.0298,-76.2000,WGS84,0.0065,0.0060,0.0149,"0",0.700,0.000,56,56,56,54,00,21,3f,37*f4285dc8
#BESTPOSA,FILE,0,27.0,FINESTEERING,2319,307467.750,02000000,cdba,17139;SOL_COMPUTED,NARROW_INT,17.60108390379,78.12630596441,528.0290,-76.2000,WGS84,0.0065,0.0060,0.0149,"0",0.750,0.000,56,56,56,54,00,21,3f,37*41fb3d85
#BESTPOSA,FILE,0,27.0,FINESTEERING,2319,307467.800,02000000,cdba,17139;SOL_COMPUTED,NARROW_INT,17.60108390764,78.12630282893,528.0261,-76.2000,WGS84,0.0065,0.0060,0.0150,"0",0.800,0.000,56,56,56,54,00,21,3f,37*e9942988
#BESTPOSA,FILE,0,27.0,FINESTEERING,2319,307467.850,02000000,cdba,17139;SOL_COMPUTED,NARROW_INT,17.60108391239,78.12629967437,528.0214,-76.2000,WGS84,0.0065,0.0060,0.0150,"0",0.850,0.000,56,56,56,54,00,21,3f,37*b4023307
#BESTPOSA,FILE,0,27.0,FINESTEERING,2319,307467.900,02000000,cdba,17139;SOL_COMPUTED,NARROW_INT,17.60108394355,78.12629651680,528.0188,-76.2000,WGS84,0.0066,0.0060,0.0150,"0",0.900,0.000,56,56,56,54,00,21,3f,37*da6b8a13
#BESTPOSA,FILE,0,27.0,FINESTEERING,2319,307467.950,02000000,cdba,17139;SOL_COMPUTED,NARROW_INT,17.60108397613,78.12629335715,528.0162,-76.2000,WGS84,0.0066,0.0061,0.0151,"0",0.950,0.000,56,56,56,54,00,21,3f,37*cb14cc4f
#BESTPOSA,FILE,0,27.0,FINESTEERING,2319,307468.000,02000000,cdba,17139;SOL_COMPUTED,NARROW_INT,17.60108399502,78.12629019995,528.0132,-76.2000,WGS84,0.0066,0.0061,0.0151,"0",1.000,0.000,56,56,56,54,00,21,3f,37*f6319992
#BESTPOSA,FILE,0,27.0,FINESTEERING,2319,307468.050,02000000,cdba,17139;SOL_COMPUTED,NARROW_INT,17.60108400956,78.12628703663,528.0056,-76.2000,WGS84,0.0067,0.0062,0.0153,"0",1.050,0.000,56,56,56,54,00,21,3f,37*dc8ba294
#BESTPOSA,FILE,0,26.0,FINESTEERING,2319,307468.100,02000000,cdba,17139;SOL_COMPUTED,NARROW_INT,17.60108400724,78.12628385283,528.0045,-76.2000,WGS84,0.0068,0.0062,0.0153,"0",1.100,0.000,56,56,56,54,00,21,3f,37*a1986253
#BESTPOSA,FILE,0,26.0,FINESTEERING,2319,307468.150,02000000,cdba,17139;SOL_COMPUTED,NARROW_INT,17.60108399256,78.12628067292,527.9962,-76.2000,WGS84,0.0068,0.0062,0.0154,"0",1.150,0.000,56,56,56,54,00,21,3f,37*e90ce123
#BESTPOSA,FILE,0,26.0,FINESTEERING,2319,307468.200,02000000,cdba,17139;SOL_COMPUTED,NARROW_INT,17.60108399635,78.12627746302,527.9888,-76.2000,WGS84,0.0068,0.0063,0.0154,"0",1.200,0.000,56,56,56,54,00,21,3f,37*ba49c5a4
#BESTPOSA,FILE,0,26.0,FINESTEERING,2319,307468.250,02000000,cdba,17139;SOL_COMPUTED,NARROW_INT,17.60108397956,78.12627422218,527.9850,-76.2000,WGS84,0.0068,0.0063,0.0154,"0",1.250,0.000,56,56,56,54,00,21,3f,37*67375c40
#BESTPOSA,FILE,0,26.0,FINESTEERING,2319,307468.300,02000000,cdba,17139;SOL_COMPUTED,NARROW_INT,17.60108397381,78.12627098656,527.9822,-76.2000,WGS84,0.0068,0.0063,0.0155,"0",1.300,0.000,56,56,56,54,00,21,3f,37*79e81c31
#BESTPOSA,FILE,0,26.0,FINESTEERING,2319,307468.350,02000000,cdba,17139;SOL_COMPUTED,NARROW_INT,17.60108396116,78.12626773626,527.9798,-76.2000,WGS84,0.0068,0.0063,0.0155,"0",1.350,0.000,56,56,56,54,00,21,3f,37*b1c7e059
#BESTPOSA,FILE,0,26.0,FINESTEERING,2319,307468.400,02000000,cdba,17139;SOL_COMPUTED,NARROW_INT,17.60108393591,78.12626445560,527.9782,-76.2000,WGS84,0.0064,0.0059,0.0147,"0",0.400,0.000,56,56,56,54,00,21,3f,37*bad00aea
#BESTPOSA,FILE,0,26.0,FINESTEERING,2319,307468.450,02000000,cdba,17139;SOL_COMPUTED,NARROW_INT,17.60108392364,78.12626115094,527.9821,-76.2000,WGS84,0.0064,0.0059,0.0147,"0",0.450,0.000,56,56,56,54,00,21,3f,37*52213405
#BESTPOSA,FILE,0,26.0,FINESTEERING,2319,307468.500,02000000,cdba,17139;SOL_COMPUTED,NARROW_INT,17.60108390792,78.12625786024,527.9788,-76.2000,WGS84,0.0064,0.0059,0.0148,"0",0.500,0.000,56,56,56,54,00,21,3f,37*5094698e
#BESTPOSA,FILE,0,26.0,FINESTEERING,2319,307468.550,02000000,cdba,17139;SOL_COMPUTED,NARROW_INT,17.60108387864,78.12625455738,527.9773,-76.2000,WGS84,0.0064,0.0059,0.0148,"0",0.550,0.000,56,56,56,54,00,21,3f,37*f41a4b40
#BESTPOSA,FILE,0,26.0,FINESTEERING,2319,307468.600,02000000,cdba,17139;SOL_COMPUTED,NARROW_INT,17.60108385105,78.12625124707,527.9788,-76.2000,WGS84,0.0065,0.0059,0.0148,"0",0.600,0.000,56,56,56,54,00,21,3f,37*ca9c51c1
#BESTPOSA,FILE,0,26.0,FINESTEERING,2319,307468.650,02000000,cdba,17139;SOL_COMPUTED,NARROW_INT,17.60108383563,78.12624791271,527.9764,-76.2000,WGS84,0.0065,0.0060,0.0149,"0",0.650,0.000,56,56,56,54,00,21,3f,37*4869a732
#BESTPOSA,FILE,0,26.0,FINESTEERING,2319,307468.700,02000000,cdba,17139;SOL_COMPUTED,NARROW_INT,17.60108380540,78.12624459190,527.9749,-76.2000,WGS84,0.0065,0.0060,0.0149,"0",0.700,0.000,56,56,56,54,00,21,3f,37*49547de0
#BESTPOSA,FILE,0,26.0,FINESTEERING,2319,307468.750,02000000,cdba,17139;SOL_COMPUTED,NARROW_INT,17.60108378132,78.12624125350,527.9719,-76.2000,WGS84,0.0065,0.0060,0.0149,"0",0.750,0.000,56,56,56,54,00,21,3f,37*4e03b55b
#BESTPOSA,FILE,0,26.0,FINESTEERING,2319,307468.800,02000000,cdba,17139;SOL_COMPUTED,NARROW_INT,17.60108373973,78.12623788823,527.9692,-76.2000,WGS84,0.0065,0.0060,0.0150,"0",0.800,0.000,56,56,56,54,00,21,3f,37*fe9d45de
#BESTPOSA,FILE,0,26.0,FINESTEERING,2319,307468.850,02000000,cdba,17139;SOL_COMPUTED,NARROW_INT,17.60108370021,78.12623450711,527.9651,-76.2000,WGS84,0.0065,0.0060,0.0150,"0",0.850,0.000,56,56,56,54,00,21,3f,37*3878873b
#BESTPOSA,FILE,0,26.0,FINESTEERING,2319,307468.900,02000000,cdba,17139;SOL_COMPUTED,NARROW_INT,17.60108366332,78.12623112831,527.9639,-76.2000,WGS84,0.0066,0.0060,0.0150,"0",0.900,0.000,56,56,56,54,00,21,3f,37*28397d29
#BESTPOSA,FILE,0,26.0,FINESTEERING,2319,307468.950,02000000,cdba,17139;SOL_COMPUTED,NARROW_INT,17.60108362305,78.12622774684,527.9626,-76.2000,WGS84,0.0066,0.0061,0.0150,"0",0.950,0.000,56,56,56,54,00,21,3f,37*e419c368
#BESTPOSA,FILE,0,26.0,FINESTEERING,2319,307469.000,02000000,cdba,17139;SOL_COMPUTED,NARROW_INT,17.60108357764,78.12622434075,527.9643,-76.2000,WGS84,0.0066,0.0061,0.0151,"0",1.000,0.000,56,56,56,54,00,21,3f,37*04214f04
#BESTPOSA,FILE,0,26.0,FINESTEERING,2319,307469.050,02000000,cdba,17139;SOL_COMPUTED,NARROW_INT,17.60108353854,78.12622091415,527.9623,-76.2000,WGS84,0.0067,0.0062,0.0153,"0",1.050,0.000,56,56,56,54,00,21,3f,37*a52454b6
#BESTPOSA,FILE,0,26.0,FINESTEERING,2319,307469.100,02000000,cdba,17139;SOL_COMPUTED,NARROW_INT,17.60108349875,78.12621749577,527.9614,-76.2000,WGS84,0.0067,0.0062,0.0153,"0",1.100,0.000,56,56,56,54,00,21,3f,37*19f50672
#BESTPOSA,FILE,0,27.5,FINESTEERING,2319,307469.150,02000000,cdba,17139;SOL_COMPUTED,NARROW_INT,17.60108344847,78.12621407141,527.9620,-76.2000,WGS84,0.0068,0.0062,0.0154,"0",1.150,0.000,56,56,56,54,00,21,3f,37*a354471e
#BESTPOSA,FILE,0,27.5,FINESTEERING,2319,307469.200,02000000,cdba,17139;SOL_COMPUTED,NARROW_INT,17.60108339443,78.12621064117,527.9618,-76.2000,WGS84,0.0068,0.0062,0.0154,"0",1.200,0.000,56,56,56,54,00,21,3f,37*06d38dd1
#BESTPOSA,FILE,0,27.5,FINESTEERING,2319,307469.250,02000000,cdba,17139;SOL_COMPUTED,NARROW_INT,17.60108333115,78.12620719175,527.9584,-76.2000,WGS84,0.0068,0.0063,0.0154,"0",1.250,0.000,56,56,56,54,00,21,3f,37*6f7d19e5
#BESTPOSA,FILE,0,27.5,FINESTEERING,2319,307469.300,02000000,cdba,17139;SOL_COMPUTED,NARROW_INT,17.60108327083,78.12620372975,527.9546,-76.2000,WGS84,0.0068,0.0063,0.0155,"0",1.300,0.000,56,56,56,54,00,21,3f,37*05b0448a
#BESTPOSA,FILE,0,27.5,FINESTEERING,2319,307469.350,02000000,cdba,17139;SOL_COMPUTED,NARROW_INT,17.60108319167,78.12620030783,527.9563,-76.2000,WGS84,0.0063,0.0058,0.0146,"0",0.350,0.000,56,56,56,54,00,21,3f,37*7e0b564c
#BESTPOSA,FILE,0,27.5,FINESTEERING,2319,307469.400,02000000,cdba,17139;SOL_COMPUTED,NARROW_INT,17.60108312509,78.12619682320,527.9544,-76.2000,WGS84,0.0064,0.0059,0.0147,"0",0.400,0.000,56,56,56,54,00,21,3f,37*5e36a919
#BESTPOSA,FILE,0,27.5,FINESTEERING,2319,307469.450,02000000,cdba,17139;SOL_COMPUTED,NARROW_INT,17.60108305731,78.12619333291,527.9513,-76.2000,WGS84,0.0064,0.0059,0.0147,"0",0.450,0.000,56,56,56,54,00,21,3f,37*57bbe656
#BESTPOSA,FILE,0,27.5,FINESTEERING,2319,307469.500,02000000,cdba,17139;SOL_COMPUTED,NARROW_INT,17.60108298399,78.12618983820,527.9536,-76.2000,WGS84,0.0064,0.0059,0.0147,"0",0.500,0.000,56,56,56,54,00,21,3f,37*f944761a
#BESTPOSA,FILE,0,27.5,FINESTEERING,2319,307469.550,02000000,cdba,17139;SOL_COMPUTED,NARROW_INT,17.60108292331,78.12618632039,527.9536,-76.2000,WGS84,0.0064,0.0059,0.0148,"0",0.550,0.000,56,56,56,54,00,21,3f,37*a2ae99e1
#BESTPOSA,FILE,0,27.5,FINESTEERING,2319,307469.600,02000000,cdba,17139;SOL_COMPUTED,NARROW_INT,17.60108283919,78.12618279591,527.9517,-76.2000,WGS84,0.0064,0.0059,0.0148,"0",0.600,0.000,56,56,56,54,00,21,3f,37*26905365
#BESTPOSA,FILE,0,27.5,FINESTEERING,2319,307469.650,02000000,cdba,17139;SOL_COMPUTED,NARROW_INT,17.60108277911,78.12617924811,527.9520,-76.2000,WGS84,0.0065,0.0060,0.0148,"0",0.650,0.000,56,56,56,54,00,21,3f,37*07cf2ebb
#BESTPOSA,FILE,0,27.5,FINESTEERING,2319,307469.700,02000000,cdba,17139;SOL_COMPUTED,NARROW_INT,17.60108269417,78.12617569492,527.9546,-76.2000,WGS84,0.0065,0.0060,0.0149,"0",0.700,0.000,56,56,56,54,00,21,3f,37*d1faffdb
#BESTPOSA,FILE,0,27.5,FINESTEERING,2319,307469.750,02000000,cdba,17139;SOL_COMPUTED,NARROW_INT,17.60108260673,78.12617213500,527.9508,-76.2000,WGS84,0.0065,0.0060,0.0149,"0",0.750,0.000,56,56,56,54,00,21,3f,37*ed8bca3d
#BESTPOSA,FILE,0,27.5,FINESTEERING,2319,307469.800,02000000,cdba,17139;SOL_COMPUTED,NARROW_INT,17.60108249289,78.12616857122,527.9484,-76.2000,WGS84,0.0065,0.0060,0.0149,"0",0.800,0.000,56,56,56,54,00,21,3f,37*d9de687a
#BESTPOSA,FILE,0,27.5,FINESTEERING,2319,307469.850,02000000,cdba,17139;SOL_COMPUTED,NARROW_INT,17.60108239424,78.12616499467,527.9430,-76.2000,WGS84,0.0065,0.0060,0.0149,"0",0.850,0.000,56,56,56,54,00,21,3f,37*0581d896
#BESTPOSA,FILE,0,27.5,FINESTEERING,2319,307469.900,02000000,cdba,17139;SOL_COMPUTED,NARROW_INT,17.60108230890,78.12616139542,527.9429,-76.2000,WGS84,0.0066,0.0060,0.0150,"0",0.900,0.000,56,56,56,54,00,21,3f,37*2da10559
#BESTPOSA,FILE,0,27.5,FINESTEERING,2319,307469.950,02000000,cdba,17139;SOL_COMPUTED,NARROW_INT,17.60108220486,78.12615780653,527.9414,-76.2000,WGS84,0.0066,0.0061,0.0150,"0",0.950,0.000,56,56,56,54,00,21,3f,37*3c144471
#BESTPOSA,FILE,0,27.5,FINESTEERING,2319,307470.000,02000000,cdba,17139;SOL_COMPUTED,NARROW_INT,17.60108212758,78.12615420510,527.9380,-76.2000,WGS84,0.0066,0.0061,0.0150,"0",1.000,0.000,56,56,56,54,00,21,3f,37*295e1604
#BESTPOSA,FILE,0,27.5,FINESTEERING,2319,307470.050,02000000,cdba,17139;SOL_COMPUTED,NARROW_INT,17.60108204992,78.12615058779,527.9361,-76.2000,WGS84,0.0067,0.0062,0.0153,"0",1.050,0.000,56,56,56,54,00,21,3f,37*2ff809c7
#BESTPOSA,FILE,0,27.5,FINESTEERING,2319,307470.100,02000000,cdba,17139;SOL_COMPUTED,NARROW_INT,17.60108199150,78.12614697704,527.9338,-76.2000,WGS84,0.0068,0.0062,0.0153,"0",1.100,0.000,56,56,56,54,00,21,3f,37*a94c2930
#BESTPOSA,FILE,0,27.5,FINESTEERING,2319,307470.150,02000000,cdba,17139;SOL_COMPUTED,NARROW_INT,17.60108193520,78.12614335324,527.9336,-76.2000,WGS84,0.0068,0.0062,0.0153,"0",1.150,0.000,56,56,56,54,00,21,3f,37*0da89266
#BESTPOSA,FILE,0,27.5,FINESTEERING,2319,307470.200,02000000,cdba,17139;SOL_COMPUTED,NARROW_INT,17.60108188391,78.12613972168,527.9310,-76.2000,WGS84,0.0068,0.0062,0.0154,"0",1.200,0.000,56,56,56,54,00,21,3f,37*d5cf2b20
#BESTPOSA,FILE,0,27.5,FINESTEERING,2319,307470.250,02000000,cdba,17139;SOL_COMPUTED,NARROW_INT,17.60108181697,78.12613607753,527.9270,-76.2000,WGS84,0.0068,0.0063,0.0154,"0",1.250,0.000,56,56,56,54,00,21,3f,37*d01cf7fa
#BESTPOSA,FILE,0,27.5,FINESTEERING,2319,307470.300,02000000,cdba,17139;SOL_COMPUTED,NARROW_INT,17.60108175056,78.12613242114,527.9224,-76.2000,WGS84,0.0069,0.0063,0.0155,"0",1.300,0.000,56,56,56,54,00,21,3f,37*99614dc0
#BESTPOSA,FILE,0,27.5,FINESTEERING,2319,307470.350,02000000,cdba,17139;SOL_COMPUTED,NARROW_INT,17.60108173307,78.12612875653,527.9192,-76.2000,WGS84,0.0069,0.0063,0.0155,"0",1.350,0.000,56,56,56,54,00,21,3f,37*b01e7575
#BESTPOSA,FILE,0,27.5,FINESTEERING,2319,307470.400,02000000,cdba,17139;SOL_COMPUTED,NARROW_INT,17.60108174593,78.12612505932,527.9197,-76.2000,WGS84,0.0064,0.0059,0.0146,"0",0.400,0.000,56,56,56,54,00,21,3f,37*aee48b55
#BESTPOSA,FILE,0,27.5,FINESTEERING,2319,307470.450,02000000,cdba,17139;SOL_COMPUTED,NARROW_INT,17.60108171500,78.12612135895,527.9183,-76.2000,WGS84,0.0064,0.0059,0.0147,"0",0.450,0.000,56,56,56,54,00,21,3f,37*31f33de5
#BESTPOSA,FILE,0,27.5,FINESTEERING,2319,307470.500,02000000,cdba,17139;SOL_COMPUTED,NARROW_INT,17.60108171642,78.12611765751,527.9193,-76.2000,WGS84,0.0064,0.0059,0.0147,"0",0.500,0.000,56,56,56,54,00,21,3f,37*aa7bbfe1
#BESTPOSA,FILE,0,27.5,FINESTEERING,2319,307470.550,02000000,cdba,17139;SOL_COMPUTED,NARROW_INT,17.60108170523,78.12611394841,527.9187,-76.2000,WGS84,0.0065,0.0059,0.0147,"0",0.550,0.000,56,56,56,54,00,21,3f,37*f12eecc0
#BESTPOSA,FILE,0,27.5,FINESTEERING,2319,307470.600,02000000,cdba,17139;SOL_COMPUTED,NARROW_INT,17.60108172302,78.12611022796,527.9177,-76.2000,WGS84,0.0065,0.0059,0.0148,"0",0.600,0.000,56,56,56,54,00,21,3f,37*0f807537
#BESTPOSA,FILE,0,27.5,FINESTEERING,2319,307470.650,02000000,cdba,17139;SOL_COMPUTED,NARROW_INT,17.60108172809,78.12610649700,527.9167,-76.2000,WGS84,0.0065,0.0060,0.0148,"0",0.650,0.000,56,56,56,54,00,21,3f,37*0c1962b4
#BESTPOSA,FILE,0,27.5,FINESTEERING,2319,307470.700,02000000,cdba,17139;SOL_COMPUTED,NARROW_INT,17.60108174746,78.12610277134,527.9171,-76.2000,WGS84,0.0065,0.0060,0.0148,"0",0.700,0.000,56,56,56,54,00,21,3f,37*011830a4
#BESTPOSA,FILE,0,27.5,FINESTEERING,2319,307470.750,02000000,cdba,17139;SOL_COMPUTED,NARROW_INT,17.60108175903,78.12609903718,527.9121,-76.2000,WGS84,0.0065,0.0060,0.0149,"0",0.750,0.000,56,56,56,54,00,21,3f,37*4ff549c4
#BESTPOSA,FILE,0,27.5,FINESTEERING,2319,307470.800,02000000,cdba,17139;SOL_COMPUTED,NARROW_INT,17.60108177759,78.12609529005,527.9103,-76.2000,WGS84,0.0065,0.0060,0.0149,"0",0.800,0.000,56,56,56,54,00,21,3f,37*e708b239
#BESTPOSA,FILE,0,27.5,FINESTEERING,2319,307470.850,02000000,cdba,17139;SOL_COMPUTED,NARROW_INT,17.60108179211,78.12609152730,527.9104,-76.2000,WGS84,0.0066,0.0060,0.0149,"0",0.850,0.000,56,56,56,54,00,21,3f,37*9df83d34
#BESTPOSA,FILE,0,27.5,FINESTEERING,2319,307470.900,02000000,cdba,17139;SOL_COMPUTED,NARROW_INT,17.60108181493,78.12608775766,527.9087,-76.2000,WGS84,0.0066,0.0061,0.0149,"0",0.900,0.000,56,56,56,54,00,21,3f,37*6c416b1f
#BESTPOSA,FILE,0,27.5,FINESTEERING,2319,307470.950,02000000,cdba,17139;SOL_COMPUTED,NARROW_INT,17.60108182677,78.12608395885,527.9064,-76.2000,WGS84,0.0066,0.0061,0.0150,"0",0.950,0.000,56,56,56,54,00,21,3f,37*5182d8e3
#BESTPOSA,FILE,0,27.5,FINESTEERING,2319,307471.000,02000000,cdba,17139;SOL_COMPUTED,NARROW_INT,17.60108183031,78.12608016664,527.9080,-76.2000,WGS84,0.0066,0.0061,0.0150,"0",1.000,0.000,56,56,56,54,00,21,3f,37*b64bd8f5
#BESTPOSA,FILE,0,27.5,FINESTEERING,2319,307471.050,02000000,cdba,17139;SOL_COMPUTED,NARROW_INT,17.60108183145,78.12607636352,527.9055,-76.2000,WGS84,0.0068,0.0062,0.0152,"0",1.050,0.000,56,56,56,54,00,21,3f,37*81b38765
#BESTPOSA,FILE,0,26.0,FINESTEERING,2319,307471.100,02000000,cdba,17139;SOL_COMPUTED,NARROW_INT,17.60108182534,78.12607255944,527.9043,-76.2000,WGS84,0.0068,0.0062,0.0153,"0",1.100,0.000,56,56,56,54,00,21,3f,37*d9f4ca8f
#BESTPOSA,FILE,0,26.0,FINESTEERING,2319,307471.150,02000000,cdba,17139;SOL_COMPUTED,NARROW_INT,17.60108182028,78.12606875259,527.9039,-76.2000,WGS84,0.0068,0.0062,0.0153,"0",1.150,0.000,56,56,56,54,00,21,3f,37*fadebd5d
#BESTPOSA,FILE,0,26.0,FINESTEERING,2319,307471.200,02000000,cdba,17139;SOL_COMPUTED,NARROW_INT,17.60108178665,78.12606491396,527.9042,-76.2000,WGS84,0.0068,0.0063,0.0153,"0",1.200,0.000,56,56,56,54,00,21,3f,37*3aefd087
#BESTPOSA,FILE,0,26.0,FINESTEERING,2319,307471.250,02000000,cdba,17139;SOL_COMPUTED,NARROW_INT,17.60108174560,78.12606107647,527.9002,-76.2000,WGS84,0.0068,0.0063,0.0154,"0",1.250,0.000,56,56,56,54,00,21,3f,37*e4019b6c
#BESTPOSA,FILE,0,26.0,FINESTEERING,2319,307471.300,02000000,cdba,17139;SOL_COMPUTED,NARROW_INT,17.60108170458,78.12605723548,527.8968,-76.2000,WGS84,0.0068,0.0063,0.0154,"0",1.300,0.000,56,56,56,54,00,21,3f,37*8f139b11
#BESTPOSA,FILE,0,26.0,FINESTEERING,2319,307471.350,02000000,cdba,17139;SOL_COMPUTED,NARROW_INT,17.60108164278,78.12605336808,527.8893,-76.2000,WGS84,0.0064,0.0058,0.0146,"0",0.350,0.000,56,56,56,54,00,21,3f,37*e296103f
#BESTPOSA,FILE,0,26.0,FINESTEERING,2319,307471.400,02000000,cdba,17139;SOL_COMPUTED,NARROW_INT,17.60108161901,78.12604949204,527.8885,-76.2000,WGS84,0.0064,0.0059,0.0147,"0",0.400,0.000,56,56,56,54,00,21,3f,37*46c25296
