#BESTVELA,FILE,0,29.0,FINESTEERING,2319,307456.450,02000800,10a2,17139;SOL_COMPUTED,NARROW_INT,0.025,0.450,1.4452,262.269356,-0.0260,0*ba9b8b8b
#BESTVELA,FILE,0,29.0,FINESTEERING,2319,307456.500,02000800,10a2,17139;SOL_COMPUTED,NARROW_INT,0.025,0.500,1.3743,261.728840,-0.0296,0*1c1bcb99
#BESTVELA,FILE,0,29.0,FINESTEERING,2319,307456.550,02000800,10a2,17139;SOL_COMPUTED,NARROW_INT,0.025,0.550,1.3661,263.715132,0.0172,0*23f0d600
#BESTVELA,FILE,0,29.0,FINESTEERING,2319,307456.600,02000800,10a2,17139;SOL_COMPUTED,NARROW_INT,0.025,0.600,1.3031,262.234805,0.0137,0*43b74998
#BESTVELA,FILE,0,29.0,FINESTEERING,2319,307456.650,02000800,10a2,17139;SOL_COMPUTED,NARROW_INT,0.025,0.650,1.3289,262.871532,0.0181,0*4f96cb0c
#BESTVELA,FILE,0,29.0,FINESTEERING,2319,307456.700,02000800,10a2,17139;SOL_COMPUTED,NARROW_INT,0.025,0.700,1.2962,261.855596,-0.0160,0*343388c7
#BESTVELA,FILE,0,29.0,FINESTEERING,2319,307456.750,02000800,10a2,17139;SOL_COMPUTED,NARROW_INT,0.025,0.750,1.2828,261.155646,0.0226,0*f3a28a70
#BESTVELA,FILE,0,29.0,FINESTEERING,2319,307456.850,02000800,10a2,17139;SOL_COMPUTED,NARROW_INT,0.025,0.850,1.2516,262.449107,-0.0068,0*43549917
#BESTVELA,FILE,0,29.0,FINESTEERING,2319,307456.950,02000800,10a2,17139;SOL_COMPUTED,NARROW_INT,0.025,0.950,1.2124,263.335286,0.0715,0*5cfd00c9
#BESTVELA,FILE,0,29.0,FINESTEERING,2319,307457.050,02000800,10a2,17139;SOL_COMPUTED,NARROW_INT,0.025,1.050,1.2113,263.232515,0.0459,0*dbea8a8d
#BESTVELA,FILE,0,29.0,FINESTEERING,2319,307457.150,02000800,10a2,17139;SOL_COMPUTED,NARROW_INT,0.025,1.150,1.2193,262.772249,-0.0208,0*4cabb9f2
#BESTVELA,FILE,0,29.5,FINESTEERING,2319,307457.250,02000800,10a2,17139;SOL_COMPUTED,NARROW_INT,0.025,1.250,1.1657,264.460069,0.0347,0*62676432
#BESTVELA,FILE,0,29.5,FINESTEERING,2319,307457.350,02000800,10a2,17139;SOL_COMPUTED,NARROW_INT,0.025,0.350,1.1745,261.745849,-0.0014,0*b9cf06fd
#BESTVELA,FILE,0,29.5,FINESTEERING,2319,307457.450,02000800,10a2,17139;SOL_COMPUTED,NARROW_INT,0.025,0.450,1.1923,262.065494,0.0372,0*b39c2351
#BESTVELA,FILE,0,29.5,FINESTEERING,2319,307457.550,02000800,10a2,17139;SOL_COMPUTED,NARROW_INT,0.025,0.550,1.2294,262.321311,0.0041,0*659f0b05
#BESTVELA,FILE,0,29.5,FINESTEERING,2319,307457.650,02000800,10a2,17139;SOL_COMPUTED,NARROW_INT,0.025,0.650,1.2019,261.923064,0.0404,0*39fb69ca
#BESTVELA,FILE,0,29.5,FINESTEERING,2319,307457.700,02000800,10a2,17139;SOL_COMPUTED,NARROW_INT,0.025,0.700,1.2366,261.941379,0.0633,0*67a3b7fd
#BESTVELA,FILE,0,29.5,FINESTEERING,2319,307457.800,02000800,10a2,17139;SOL_COMPUTED,NARROW_INT,0.025,0.800,1.2394,261.893418,0.0433,0*c8b209d1
#BESTVELA,FILE,0,29.5,FINESTEERING,2319,307457.900,02000800,10a2,17139;SOL_COMPUTED,NARROW_INT,0.025,0.900,1.2350,261.369656,-0.0139,0*db471e62
#BESTVELA,FILE,0,29.5,FINESTEERING,2319,307458.000,02000800,10a2,17139;SOL_COMPUTED,NARROW_INT,0.025,1.000,1.2760,261.661036,-0.0200,0*65147a2e
#BESTVELA,FILE,0,29.5,FINESTEERING,2319,307458.100,02000800,10a2,17139;SOL_COMPUTED,NARROW_INT,0.025,1.100,1.2778,260.581825,0.0815,0*7ea3356f
#BESTVELA,FILE,0,30.5,FINESTEERING,2319,307458.200,02000800,10a2,17139;SOL_COMPUTED,NARROW_INT,0.025,1.200,1.2651,261.398709,-0.0433,0*3d126bc9
#BESTVELA,FILE,0,30.5,FINESTEERING,2319,307458.300,02000800,10a2,17139;SOL_COMPUTED,NARROW_INT,0.025,1.300,1.3023,259.314057,-0.0376,0*0e038af1
#BESTVELA,FILE,0,30.5,FINESTEERING,2319,307458.400,02000800,10a2,17139;SOL_COMPUTED,NARROW_INT,0.025,0.400,1.3208,260.082958,-0.0427,0*3fbd6309
#BESTVELA,FILE,0,30.5,FINESTEERING,2319,307458.500,02000800,10a2,17139;SOL_COMPUTED,NARROW_INT,0.025,0.500,1.3488,261.842230,0.0021,0*618b3f0c
#BESTVELA,FILE,0,30.5,FINESTEERING,2319,307458.600,02000800,10a2,17139;SOL_COMPUTED,NARROW_INT,0.025,0.600,1.3448,260.740621,0.0324,0*6b3675c4
#BESTVELA,FILE,0,30.5,FINESTEERING,2319,307458.700,02000800,10a2,17139;SOL_COMPUTED,NARROW_INT,0.025,0.700,1.3614,259.746612,0.0613,0*daece039
#BESTVELA,FILE,0,30.5,FINESTEERING,2319,307458.750,02000800,10a2,17139;SOL_COMPUTED,NARROW_INT,0.025,0.750,1.3456,259.559706,-0.0041,0*c7383ca2
#BESTVELA,FILE,0,30.5,FINESTEERING,2319,307458.850,02000800,10a2,17139;SOL_COMPUTED,NARROW_INT,0.025,0.850,1.3853,260.130191,0.0555,0*66caa99a
#BESTVELA,FILE,0,30.5,FINESTEERING,2319,307458.950,02000800,10a2,17139;SOL_COMPUTED,NARROW_INT,0.025,0.950,1.3972,260.867356,-0.0095,0*0d9c745d
#BESTVELA,FILE,0,30.5,FINESTEERING,2319,307459.050,02000800,10a2,17139;SOL_COMPUTED,NARROW_INT,0.025,1.050,1.3961,261.433615,0.0633,0*18f6d21f
#BESTVELA,FILE,0,30.5,FINESTEERING,2319,307459.150,02000800,10a2,17139;SOL_COMPUTED,NARROW_INT,0.025,1.150,1.3937,260.458470,0.0009,0*e9fe8e2d
#BESTVELA,FILE,0,31.0,FINESTEERING,2319,307459.250,02000800,10a2,17139;SOL_COMPUTED,NARROW_INT,0.025,1.250,1.4628,261.446166,0.0167,0*22b23c14
#BESTVELA,FILE,0,31.0,FINESTEERING,2319,307459.350,02000800,10a2,17139;SOL_COMPUTED,NARROW_INT,0.025,0.350,1.4617,260.898300,0.0264,0*c3e834ec
#BESTVELA,FILE,0,31.0,FINESTEERING,2319,307459.450,02000800,10a2,17139;SOL_COMPUTED,NARROW_INT,0.025,0.450,1.4898,262.103250,-0.0429,0*a765772d
#BESTVELA,FILE,0,31.0,FINESTEERING,2319,307459.550,02000800,10a2,17139;SOL_COMPUTED,NARROW_INT,0.025,0.550,1.4635,261.406670,-0.0202,0*6848c4b3
#BESTVELA,FILE,0,31.0,FINESTEERING,2319,307459.600,02000800,10a2,17139;SOL_COMPUTED,NARROW_INT,0.025,0.600,1.4807,262.059273,0.0191,0*d43fb443
#BESTVELA,FILE,0,31.0,FINESTEERING,2319,307459.700,02000800,10a2,17139;SOL_COMPUTED,NARROW_INT,0.025,0.700,1.5185,262.414622,-0.0338,0*1749278d
#BESTVELA,FILE,0,31.0,FINESTEERING,2319,307459.750,02000800,10a2,17139;SOL_COMPUTED,NARROW_INT,0.025,0.750,1.4940,262.159926,0.0113,0*54166bbc
#BESTVELA,FILE,0,31.0,FINESTEERING,2319,307459.800,02000800,10a2,17139;SOL_COMPUTED,NARROW_INT,0.025,0.800,1.4958,263.071153,-0.0275,0*21319ad0
#BESTVELA,FILE,0,31.0,FINESTEERING,2319,307459.850,02000800,10a2,17139;SOL_COMPUTED,NARROW_INT,0.025,0.850,1.5217,261.566062,0.0106,0*6927258d
#BESTVELA,FILE,0,31.0,FINESTEERING,2319,307459.900,02000800,10a2,17139;SOL_COMPUTED,NARROW_INT,0.025,0.900,1.5136,261.746001,-0.0178,0*0d6941a7
#BESTVELA,FILE,0,31.0,FINESTEERING,2319,307459.950,02000800,10a2,17139;SOL_COMPUTED,NARROW_INT,0.025,0.950,1.4860,263.288171,0.0039,0*4412963d
#BESTVELA,FILE,0,31.0,FINESTEERING,2319,307460.000,02000800,10a2,17139;SOL_COMPUTED,NARROW_INT,0.025,1.000,1.4801,262.541504,-0.0030,0*b0588db1
#BESTVELA,FILE,0,31.0,FINESTEERING,2319,307460.050,02000800,10a2,17139;SOL_COMPUTED,NARROW_INT,0.025,1.050,1.4809,260.795238,0.0410,0*143805bb
#BESTVELA,FILE,0,30.5,FINESTEERING,2319,307460.100,02000800,10a2,17139;SOL_COMPUTED,NARROW_INT,0.025,1.100,1.4691,262.413069,-0.0284,0*5985b497
#BESTVELA,FILE,0,30.5,FINESTEERING,2319,307460.150,02000800,10a2,17139;SOL_COMPUTED,NARROW_INT,0.025,1.150,1.4670,262.046233,-0.0406,0*c3ff70bd
#BESTVELA,FILE,0,30.5,FINESTEERING,2319,307460.200,02000800,10a2,17139;SOL_COMPUTED,NARROW_INT,0.025,1.200,1.4974,262.215864,-0.0101,0*9c2f2e80
#BESTVELA,FILE,0,30.5,FINESTEERING,2319,307460.250,02000800,10a2,17139;SOL_COMPUTED,NARROW_INT,0.025,1.250,1.5121,263.197515,-0.0006,0*4973c3a3
#BESTVELA,FILE,0,30.5,FINESTEERING,2319,307460.300,02000000,10a2,17139;SOL_COMPUTED,NARROW_INT,0.025,1.300,1.5080,262.764884,0.0049,0*0ef47289
#BESTVELA,FILE,0,30.5,FINESTEERING,2319,307460.350,02000000,10a2,17139;SOL_COMPUTED,NARROW_INT,0.025,1.350,1.5126,262.825114,-0.0049,0*87d63e3a
#BESTVELA,FILE,0,30.5,FINESTEERING,2319,307460.400,02000000,10a2,17139;SOL_COMPUTED,NARROW_INT,0.025,1.400,1.5102,262.719691,-0.0211,0*45147163
#BESTVELA,FILE,0,30.5,FINESTEERING,2319,307460.450,02000000,10a2,17139;SOL_COMPUTED,NARROW_INT,0.025,0.450,1.5399,262.952494,-0.0026,0*78cfca23
#BESTVELA,FILE,0,30.5,FINESTEERING,2319,307460.500,02000000,10a2,17139;SOL_COMPUTED,NARROW_INT,0.025,0.500,1.5124,263.336970,-0.0134,0*6e47ea06
#BESTVELA,FILE,0,30.5,FINESTEERING,2319,307460.550,02000000,10a2,17139;SOL_COMPUTED,NARROW_INT,0.025,0.550,1.5654,262.334969,-0.0344,0*7031b089
#BESTVELA,FILE,0,30.5,FINESTEERING,2319,307460.600,02000000,10a2,17139;SOL_COMPUTED,NARROW_INT,0.025,0.600,1.5270,263.286910,0.0286,0*5399ced5
#BESTVELA,FILE,0,30.5,FINESTEERING,2319,307460.650,02000000,10a2,17139;SOL_COMPUTED,NARROW_INT,0.025,0.650,1.5700,264.415644,-0.0125,0*907e0276
#BESTVELA,FILE,0,30.5,FINESTEERING,2319,307460.700,02000000,10a2,17139;SOL_COMPUTED,NARROW_INT,0.025,0.700,1.5416,262.807799,0.0164,0*99318371
#BESTVELA,FILE,0,30.5,FINESTEERING,2319,307460.750,02000000,10a2,17139;SOL_COMPUTED,NARROW_INT,0.025,0.750,1.5866,263.525664,-0.0596,0*dd8d056b
#BESTVELA,FILE,0,30.5,FINESTEERING,2319,307460.800,02000000,10a2,17139;SOL_COMPUTED,NARROW_INT,0.025,0.800,1.5574,264.002183,0.0346,0*fb04fdd3
#BESTVELA,FILE,0,30.5,FINESTEERING,2319,307460.850,02000000,10a2,17139;SOL_COMPUTED,NARROW_INT,0.025,0.850,1.6056,264.663599,0.0008,0*f316300b
#BESTVELA,FILE,0,30.5,FINESTEERING,2319,307460.900,02000000,10a2,17139;SOL_COMPUTED,NARROW_INT,0.025,0.900,1.6098,265.009366,0.0353,0*e4241020
#BESTVELA,FILE,0,30.5,FINESTEERING,2319,307460.950,02000000,10a2,17139;SOL_COMPUTED,NARROW_INT,0.025,0.950,1.5914,264.500420,-0.0176,0*6bab890c
#BESTVELA,FILE,0,30.5,FINESTEERING,2319,307461.000,02000000,10a2,17139;SOL_COMPUTED,NARROW_INT,0.025,1.000,1.6103,264.664399,-0.0200,0*70689b7e
#BESTVELA,FILE,0,30.5,FINESTEERING,2319,307461.050,02000000,10a2,17139;SOL_COMPUTED,NARROW_INT,0.025,1.050,1.6183,265.170089,-0.0134,0*e64a0155
#BESTVELA,FILE,0,19.5,FINESTEERING,2319,307461.100,02000000,10a2,17139;SOL_COMPUTED,NARROW_INT,0.025,1.100,1.6368,266.159059,0.0153,0*e0cbed7e
#BESTVELA,FILE,0,19.5,FINESTEERING,2319,307461.150,02000000,10a2,17139;SOL_COMPUTED,NARROW_INT,0.025,1.150,1.6443,265.280226,-0.0030,0*78a72063
#BESTVELA,FILE,0,19.5,FINESTEERING,2319,307461.200,02000000,10a2,17139;SOL_COMPUTED,NARROW_INT,0.025,1.200,1.6541,265.721300,0.0158,0*1152e5c9
#BESTVELA,FILE,0,19.5,FINESTEERING,2319,307461.250,02000000,10a2,17139;SOL_COMPUTED,NARROW_INT,0.025,1.250,1.6681,265.475059,0.0043,0*b588e64a
#BESTVELA,FILE,0,19.5,FINESTEERING,2319,307461.300,02000000,10a2,17139;SOL_COMPUTED,NARROW_INT,0.025,1.300,1.6658,263.861756,-0.0262,0*da1a6ed0
#BESTVELA,FILE,0,19.5,FINESTEERING,2319,307461.350,02000000,10a2,17139;SOL_COMPUTED,NARROW_INT,0.025,1.350,1.7064,265.869729,0.0008,0*a5f6ae03
#BESTVELA,FILE,0,19.5,FINESTEERING,2319,307461.400,02000000,10a2,17139;SOL_COMPUTED,NARROW_INT,0.025,0.400,1.6988,265.877237,-0.0277,0*89639e14
#BESTVELA,FILE,0,19.5,FINESTEERING,2319,307461.450,02000000,10a2,17139;SOL_COMPUTED,NARROW_INT,0.025,0.450,1.7306,265.768497,-0.0141,0*c60ec930
#BESTVELA,FILE,0,19.5,FINESTEERING,2319,307461.500,02000000,10a2,17139;SOL_COMPUTED,NARROW_INT,0.025,0.500,1.7290,266.312886,-0.0057,0*6b5f49be
#BESTVELA,FILE,0,19.5,FINESTEERING,2319,307461.550,02000000,10a2,17139;SOL_COMPUTED,NARROW_INT,0.025,0.550,1.7250,266.242228,-0.0032,0*07ff224e
#BESTVELA,FILE,0,19.5,FINESTEERING,2319,307461.600,02000000,10a2,17139;SOL_COMPUTED,NARROW_INT,0.025,0.600,1.7209,266.615317,-0.0067,0*d66f5be8
#BESTVELA,FILE,0,19.5,FINESTEERING,2319,307461.650,02000000,10a2,17139;SOL_COMPUTED,NARROW_INT,0.025,0.650,1.7250,267.141784,-0.0067,0*4f4d8544
#BESTVELA,FILE,0,19.5,FINESTEERING,2319,307461.700,02000000,10a2,17139;SOL_COMPUTED,NARROW_INT,0.025,0.700,1.7553,266.271852,-0.0133,0*3f195253
#BESTVELA,FILE,0,19.5,FINESTEERING,2319,307461.750,02000000,10a2,17139;SOL_COMPUTED,NARROW_INT,0.025,0.750,1.7947,266.401838,0.0050,0*bdd3e6cd
#BESTVELA,FILE,0,19.5,FINESTEERING,2319,307461.800,02000000,10a2,17139;SOL_COMPUTED,NARROW_INT,0.025,0.800,1.8025,267.484519,-0.0502,0*1b1a5ca5
#BESTVELA,FILE,0,19.5,FINESTEERING,2319,307461.850,02000000,10a2,17139;SOL_COMPUTED,NARROW_INT,0.025,0.850,1.8342,267.593485,-0.0165,0*76dc596d
#BESTVELA,FILE,0,19.5,FINESTEERING,2319,307461.900,02000000,10a2,17139;SOL_COMPUTED,NARROW_INT,0.025,0.900,1.8734,266.274564,-0.0073,0*06f1548d
#BESTVELA,FILE,0,19.5,FINESTEERING,2319,307461.950,02000000,10a2,17139;SOL_COMPUTED,NARROW_INT,0.025,0.950,1.9096,266.401147,-0.0147,0*d086808b
#BESTVELA,FILE,0,19.5,FINESTEERING,2319,307462.000,02000000,10a2,17139;SOL_COMPUTED,NARROW_INT,0.025,1.000,1.9533,267.828205,0.0138,0*420b2cd6
#BESTVELA,FILE,0,19.5,FINESTEERING,2319,307462.050,02000000,10a2,17139;SOL_COMPUTED,NARROW_INT,0.025,1.050,1.9835,265.890164,-0.0318,0*62b321d9
#BESTVELA,FILE,0,19.5,FINESTEERING,2319,307462.100,02000000,10a2,17139;SOL_COMPUTED,NARROW_INT,0.025,1.100,2.0438,267.580097,-0.0365,0*f4e24f23
#BESTVELA,FILE,0,19.5,FINESTEERING,2319,307462.150,02000000,10a2,17139;SOL_COMPUTED,NARROW_INT,0.025,1.150,2.0924,266.440725,-0.0369,0*b911257f
#BESTVELA,FILE,0,19.5,FINESTEERING,2319,307462.200,02000000,10a2,17139;SOL_COMPUTED,NARROW_INT,0.025,1.200,2.1297,266.848686,0.0154,0*063d6df4
#BESTVELA,FILE,0,25.5,FINESTEERING,2319,307462.250,02000000,10a2,17139;SOL_COMPUTED,NARROW_INT,0.025,1.250,2.1647,267.455289,0.0087,0*62dfa808
#BESTVELA,FILE,0,25.5,FINESTEERING,2319,307462.300,02000000,10a2,17139;SOL_COMPUTED,NARROW_INT,0.025,1.300,2.2522,267.229941,-0.0792,0*3ba401a6
#BESTVELA,FILE,0,25.5,FINESTEERING,2319,307462.350,02000000,10a2,17139;SOL_COMPUTED,NARROW_INT,0.025,1.350,2.3165,267.768701,-0.0147,0*2d938f57
#BESTVELA,FILE,0,25.5,FINESTEERING,2319,307462.400,02000000,10a2,17139;SOL_COMPUTED,NARROW_INT,0.025,0.400,2.3613,268.173187,-0.0285,0*b20008c2
#BESTVELA,FILE,0,25.5,FINESTEERING,2319,307462.450,02000000,10a2,17139;SOL_COMPUTED,NARROW_INT,0.025,0.450,2.4170,267.281921,-0.0625,0*6103224f
#BESTVELA,FILE,0,25.5,FINESTEERING,2319,307462.500,02000000,10a2,17139;SOL_COMPUTED,NARROW_INT,0.025,0.500,2.4729,267.300838,-0.0190,0*b50ebde1
#BESTVELA,FILE,0,25.5,FINESTEERING,2319,307462.550,02000000,10a2,17139;SOL_COMPUTED,NARROW_INT,0.025,0.550,2.5313,267.817739,-0.0007,0*ed55dbfb
#BESTVELA,FILE,0,25.5,FINESTEERING,2319,307462.600,02000000,10a2,17139;SOL_COMPUTED,NARROW_INT,0.025,0.600,2.6425,267.314002,-0.0127,0*1be16054
#BESTVELA,FILE,0,25.5,FINESTEERING,2319,307462.650,02000000,10a2,17139;SOL_COMPUTED,NARROW_INT,0.025,0.650,2.6842,267.066269,-0.0174,0*b292b667
#BESTVELA,FILE,0,25.5,FINESTEERING,2319,307462.700,02000000,10a2,17139;SOL_COMPUTED,NARROW_INT,0.025,0.700,2.7260,267.918734,0.0148,0*b530ad58
#BESTVELA,FILE,0,25.5,FINESTEERING,2319,307462.750,02000000,10a2,17139;SOL_COMPUTED,NARROW_INT,0.025,0.750,2.8061,267.538615,0.0093,0*7e490ec3
#BESTVELA,FILE,0,25.5,FINESTEERING,2319,307462.800,02000000,10a2,17139;SOL_COMPUTED,NARROW_INT,0.025,0.800,2.8499,267.912859,-0.0222,0*07297b75
#BESTVELA,FILE,0,25.5,FINESTEERING,2319,307462.850,02000000,10a2,17139;SOL_COMPUTED,NARROW_INT,0.025,0.850,2.9209,267.856051,-0.0729,0*c08ca7a0
#BESTVELA,FILE,0,25.5,FINESTEERING,2319,307462.900,02000000,10a2,17139;SOL_COMPUTED,NARROW_INT,0.025,0.900,2.9727,267.430207,0.0145,0*8a4db23d
#BESTVELA,FILE,0,25.5,FINESTEERING,2319,307462.950,02000000,10a2,17139;SOL_COMPUTED,NARROW_INT,0.025,0.950,3.0447,267.358026,-0.0370,0*fe250bf2
#BESTVELA,FILE,0,25.5,FINESTEERING,2319,307463.000,02000000,10a2,17139;SOL_COMPUTED,NARROW_INT,0.025,1.000,3.1249,268.083290,-0.0848,0*67ecf90e
#BESTVELA,FILE,0,25.5,FINESTEERING,2319,307463.050,02000000,10a2,17139;SOL_COMPUTED,NARROW_INT,0.025,1.050,3.1454,267.585152,0.0158,0*4bc2ae2a
#BESTVELA,FILE,0,25.5,FINESTEERING,2319,307463.100,02000000,10a2,17139;SOL_COMPUTED,NARROW_INT,0.025,1.100,3.1986,267.987133,0.0152,0*5e288ae0
#BESTVELA,FILE,0,25.5,FINESTEERING,2319,307463.150,02000000,10a2,17139;SOL_COMPUTED,NARROW_INT,0.025,1.150,3.2948,268.219515,-0.0372,0*7d0bdbdd
#BESTVELA,FILE,0,25.5,FINESTEERING,2319,307463.200,02000000,10a2,17139;SOL_COMPUTED,NARROW_INT,0.025,1.200,3.3202,268.504660,-0.0201,0*429aa044
#BESTVELA,FILE,0,25.5,FINESTEERING,2319,307463.250,02000000,10a2,17139;SOL_COMPUTED,NARROW_INT,0.025,1.250,3.3378,269.294481,-0.0347,0*e8b40e5f
#BESTVELA,FILE,0,25.5,FINESTEERING,2319,307463.300,02000000,10a2,17139;SOL_COMPUTED,NARROW_INT,0.025,1.300,3.3931,269.715966,-0.0427,0*860982f9
#BESTVELA,FILE,0,25.5,FINESTEERING,2319,307463.350,02000000,10a2,17139;SOL_COMPUTED,NARROW_INT,0.025,1.350,3.4332,269.451524,0.0116,0*4cdb3a08
#BESTVELA,FILE,0,25.5,FINESTEERING,2319,307463.400,02000000,10a2,17139;SOL_COMPUTED,NARROW_INT,0.025,0.400,3.4598,269.087608,-0.0004,0*f4531dc3
#BESTVELA,FILE,0,25.5,FINESTEERING,2319,307463.450,02000000,10a2,17139;SOL_COMPUTED,NARROW_INT,0.025,0.450,3.5158,270.463785,0.0143,0*e623dc1b
#BESTVELA,FILE,0,25.5,FINESTEERING,2319,307463.500,02000000,10a2,17139;SOL_COMPUTED,NARROW_INT,0.025,0.500,3.5706,270.314531,0.0005,0*d7554975
#BESTVELA,FILE,0,25.5,FINESTEERING,2319,307463.550,02000000,10a2,17139;SOL_COMPUTED,NARROW_INT,0.025,0.550,3.6247,270.007562,-0.0002,0*b592ef6e
#BESTVELA,FILE,0,25.5,FINESTEERING,2319,307463.600,02000000,10a2,17139;SOL_COMPUTED,NARROW_INT,0.025,0.600,3.6993,270.155114,-0.0326,0*5c49bc74
#BESTVELA,FILE,0,25.5,FINESTEERING,2319,307463.650,02000000,10a2,17139;SOL_COMPUTED,NARROW_INT,0.025,0.650,3.7464,270.240347,-0.0664,0*b1aaf939
#BESTVELA,FILE,0,25.5,FINESTEERING,2319,307463.700,02000000,10a2,17139;SOL_COMPUTED,NARROW_INT,0.025,0.700,3.7962,269.794477,-0.0147,0*aae3e82d
#BESTVELA,FILE,0,25.5,FINESTEERING,2319,307463.750,02000000,10a2,17139;SOL_COMPUTED,NARROW_INT,0.025,0.750,3.8525,269.986324,-0.0505,0*bb613f77
#BESTVELA,FILE,0,25.5,FINESTEERING,2319,307463.800,02000000,10a2,17139;SOL_COMPUTED,NARROW_INT,0.025,0.800,3.8694,270.597108,-0.0307,0*b3b66a85
#BESTVELA,FILE,0,25.5,FINESTEERING,2319,307463.850,02000000,10a2,17139;SOL_COMPUTED,NARROW_INT,0.025,0.850,3.9150,269.887591,-0.0310,0*2f8b3c06
#BESTVELA,FILE,0,25.5,FINESTEERING,2319,307463.900,02000000,10a2,17139;SOL_COMPUTED,NARROW_INT,0.025,0.900,3.9782,269.888459,-0.0455,0*d63cad20
#BESTVELA,FILE,0,25.5,FINESTEERING,2319,307463.950,02000000,10a2,17139;SOL_COMPUTED,NARROW_INT,0.025,0.950,3.9999,269.672451,-0.0499,0*a0627447
#BESTVELA,FILE,0,25.5,FINESTEERING,2319,307464.000,02000000,10a2,17139;SOL_COMPUTED,NARROW_INT,0.025,1.000,4.0332,270.253677,-0.0023,0*2231717a
#BESTVELA,FILE,0,25.5,FINESTEERING,2319,307464.050,02000000,10a2,17139;SOL_COMPUTED,NARROW_INT,0.025,1.050,4.0912,270.365962,0.0356,0*9614f5cf
#BESTVELA,FILE,0,25.0,FINESTEERING,2319,307464.100,02000000,10a2,17139;SOL_COMPUTED,NARROW_INT,0.025,1.100,4.1308,271.066580,0.1016,0*e2a66668
#BESTVELA,FILE,0,25.0,FINESTEERING,2319,307464.150,02000000,10a2,17139;SOL_COMPUTED,NARROW_INT,0.025,1.150,4.1876,271.158605,0.0573,0*0717f063
#BESTVELA,FILE,0,25.0,FINESTEERING,2319,307464.200,02000000,10a2,17139;SOL_COMPUTED,NARROW_INT,0.025,1.200,4.2172,271.340320,0.0264,0*b166bf7a
#BESTVELA,FILE,0,25.0,FINESTEERING,2319,307464.250,02000000,10a2,17139;SOL_COMPUTED,NARROW_INT,0.025,1.250,4.2598,271.586479,-0.0352,0*6bf52f75
#BESTVELA,FILE,0,25.0,FINESTEERING,2319,307464.300,02000000,10a2,17139;SOL_COMPUTED,NARROW_INT,0.025,1.300,4.2587,271.509763,-0.0408,0*0aa63ecd
#BESTVELA,FILE,0,25.0,FINESTEERING,2319,307464.350,02000000,10a2,17139;SOL_COMPUTED,NARROW_INT,0.025,1.350,4.2808,271.218811,-0.0830,0*b7606883
#BESTVELA,FILE,0,25.0,FINESTEERING,2319,307464.400,02000000,10a2,17139;SOL_COMPUTED,NARROW_INT,0.025,1.400,4.3283,271.275045,-0.1727,0*056b3b48
#BESTVELA,FILE,0,25.0,FINESTEERING,2319,307464.450,02000000,10a2,17139;SOL_COMPUTED,NARROW_INT,0.025,0.450,4.3741,271.950633,-0.1040,0*7d2978c6
#BESTVELA,FILE,0,25.0,FINESTEERING,2319,307464.500,02000000,10a2,17139;SOL_COMPUTED,NARROW_INT,0.025,0.500,4.4143,271.318952,-0.0766,0*4db780d2
#BESTVELA,FILE,0,25.0,FINESTEERING,2319,307464.550,02000000,10a2,17139;SOL_COMPUTED,NARROW_INT,0.025,0.550,4.5259,270.775150,-0.0138,0*f25a3e72
#BESTVELA,FILE,0,25.0,FINESTEERING,2319,307464.600,02000000,10a2,17139;SOL_COMPUTED,NARROW_INT,0.025,0.600,4.5793,270.659219,0.0424,0*6e0db28d
#BESTVELA,FILE,0,25.0,FINESTEERING,2319,307464.650,02000000,10a2,17139;SOL_COMPUTED,NARROW_INT,0.025,0.650,4.6203,271.131461,0.0697,0*d688c17f
#BESTVELA,FILE,0,25.0,FINESTEERING,2319,307464.700,02000000,10a2,17139;SOL_COMPUTED,NARROW_INT,0.025,0.700,4.6551,271.083026,0.1204,0*3e49e902
#BESTVELA,FILE,0,25.0,FINESTEERING,2319,307464.750,02000000,10a2,17139;SOL_COMPUTED,NARROW_INT,0.025,0.750,4.6461,270.693227,0.0447,0*7f3fbf8b
#BESTVELA,FILE,0,25.0,FINESTEERING,2319,307464.800,02000000,10a2,17139;SOL_COMPUTED,NARROW_INT,0.025,0.800,4.6421,270.797073,0.0400,0*a5a4398b
#BESTVELA,FILE,0,25.0,FINESTEERING,2319,307464.850,02000000,10a2,17139;SOL_COMPUTED,NARROW_INT,0.025,0.850,4.6485,270.229231,-0.0617,0*b0baeaf5
#BESTVELA,FILE,0,25.0,FINESTEERING,2319,307464.900,02000000,10a2,17139;SOL_COMPUTED,NARROW_INT,0.025,0.900,4.6555,270.540641,-0.0727,0*b3a61bbf
#BESTVELA,FILE,0,25.0,FINESTEERING,2319,307464.950,02000000,10a2,17139;SOL_COMPUTED,NARROW_INT,0.025,0.950,4.6777,271.302032,-0.1110,0*30e7e206
#BESTVELA,FILE,0,25.0,FINESTEERING,2319,307465.000,02000000,10a2,17139;SOL_COMPUTED,NARROW_INT,0.025,1.000,4.7375,271.612644,-0.0914,0*6834ee98
#BESTVELA,FILE,0,25.0,FINESTEERING,2319,307465.050,02000000,10a2,17139;SOL_COMPUTED,NARROW_INT,0.025,1.050,4.8141,272.658480,-0.0766,0*6f25c2f8
#BESTVELA,FILE,0,25.0,FINESTEERING,2319,307465.100,02000000,10a2,17139;SOL_COMPUTED,NARROW_INT,0.025,1.100,4.8512,272.720697,-0.0222,0*c3032ccd
#BESTVELA,FILE,0,26.0,FINESTEERING,2319,307465.150,02000000,10a2,17139;SOL_COMPUTED,NARROW_INT,0.025,1.150,4.9071,272.592291,-0.0435,0*aa20ce35
#BESTVELA,FILE,0,26.0,FINESTEERING,2319,307465.200,02000000,10a2,17139;SOL_COMPUTED,NARROW_INT,0.025,1.200,4.9918,272.287647,-0.0259,0*01d0fd42
#BESTVELA,FILE,0,26.0,FINESTEERING,2319,307465.250,02000000,10a2,17139;SOL_COMPUTED,NARROW_INT,0.025,1.250,5.0299,271.615641,-0.0529,0*45a3a52e
#BESTVELA,FILE,0,26.0,FINESTEERING,2319,307465.300,02000000,10a2,17139;SOL_COMPUTED,NARROW_INT,0.025,1.300,5.0659,271.093288,0.0123,0*01717d10
#BESTVELA,FILE,0,26.0,FINESTEERING,2319,307465.350,02000000,10a2,17139;SOL_COMPUTED,NARROW_INT,0.025,1.350,5.0917,270.197772,0.0035,0*8a3c771d
#BESTVELA,FILE,0,26.0,FINESTEERING,2319,307465.400,02000000,10a2,17139;SOL_COMPUTED,NARROW_INT,0.025,0.400,5.1288,270.118750,0.0697,0*120becec
#BESTVELA,FILE,0,26.0,FINESTEERING,2319,307465.450,02000000,10a2,17139;SOL_COMPUTED,NARROW_INT,0.025,0.450,5.1573,269.952138,0.0197,0*33ca1626
#BESTVELA,FILE,0,26.0,FINESTEERING,2319,307465.500,02000000,10a2,17139;SOL_COMPUTED,NARROW_INT,0.025,0.500,5.1482,270.440876,-0.0116,0*65e1ed73
#BESTVELA,FILE,0,26.0,FINESTEERING,2319,307465.550,02000000,10a2,17139;SOL_COMPUTED,NARROW_INT,0.025,0.550,5.1558,270.458976,-0.0488,0*50170037
#BESTVELA,FILE,0,26.0,FINESTEERING,2319,307465.600,02000000,10a2,17139;SOL_COMPUTED,NARROW_INT,0.025,0.600,5.2120,270.859219,-0.0924,0*925a7298
#BESTVELA,FILE,0,26.0,FINESTEERING,2319,307465.650,02000000,10a2,17139;SOL_COMPUTED,NARROW_INT,0.025,0.650,5.2131,271.059732,-0.0166,0*bcf7e93b
#BESTVELA,FILE,0,26.0,FINESTEERING,2319,307465.700,02000000,10a2,17139;SOL_COMPUTED,NARROW_INT,0.025,0.700,5.2504,271.282122,-0.1290,0*c457c9b4
#BESTVELA,FILE,0,26.0,FINESTEERING,2319,307465.750,02000000,10a2,17139;SOL_COMPUTED,NARROW_INT,0.025,0.750,5.2725,271.336287,-0.0890,0*79b07726
#BESTVELA,FILE,0,26.0,FINESTEERING,2319,307465.800,02000000,10a2,17139;SOL_COMPUTED,NARROW_INT,0.025,0.800,5.3122,271.613003,-0.0436,0*b0d9430d
#BESTVELA,FILE,0,26.0,FINESTEERING,2319,307465.850,02000000,10a2,17139;SOL_COMPUTED,NARROW_INT,0.025,0.850,5.3396,271.987210,-0.0106,0*4a71b8c5
#BESTVELA,FILE,0,26.0,FINESTEERING,2319,307465.900,02000000,10a2,17139;SOL_COMPUTED,NARROW_INT,0.025,0.900,5.3628,271.368675,0.0206,0*dcdd058b
#BESTVELA,FILE,0,26.0,FINESTEERING,2319,307465.950,02000000,10a2,17139;SOL_COMPUTED,NARROW_INT,0.025,0.950,5.4213,271.277010,-0.0323,0*55234562
#BESTVELA,FILE,0,26.0,FINESTEERING,2319,307466.000,02000000,10a2,17139;SOL_COMPUTED,NARROW_INT,0.025,1.000,5.4411,271.497514,-0.0267,0*1c68a381
#BESTVELA,FILE,0,26.0,FINESTEERING,2319,307466.050,02000000,10a2,17139;SOL_COMPUTED,NARROW_INT,0.025,1.050,5.4872,270.878698,-0.0681,0*705cac6f
#BESTVELA,FILE,0,26.0,FINESTEERING,2319,307466.100,02000000,10a2,17139;SOL_COMPUTED,NARROW_INT,0.025,1.100,5.5225,270.878405,-0.0516,0*da9f1259
#BESTVELA,FILE,0,26.0,FINESTEERING,2319,307466.150,02000000,10a2,17139;SOL_COMPUTED,NARROW_INT,0.025,1.150,5.5360,270.647172,-0.0208,0*679e4e40
#BESTVELA,FILE,0,26.0,FINESTEERING,2319,307466.200,02000000,10a2,17139;SOL_COMPUTED,NARROW_INT,0.025,1.200,5.5762,271.009657,-0.0634,0*bd96d731
#BESTVELA,FILE,0,26.0,FINESTEERING,2319,307466.250,02000000,10a2,17139;SOL_COMPUTED,NARROW_INT,0.025,1.250,5.6361,270.373950,0.0181,0*e135b545
#BESTVELA,FILE,0,26.0,FINESTEERING,2319,307466.300,02000000,10a2,17139;SOL_COMPUTED,NARROW_INT,0.025,1.300,5.6779,270.672770,-0.0137,0*f0230f71
#BESTVELA,FILE,0,26.0,FINESTEERING,2319,307466.350,02000000,10a2,17139;SOL_COMPUTED,NARROW_INT,0.025,0.350,5.7425,270.862141,-0.0320,0*5d221be4
#BESTVELA,FILE,0,26.0,FINESTEERING,2319,307466.400,02000000,10a2,17139;SOL_COMPUTED,NARROW_INT,0.025,0.400,5.7418,271.155689,0.0283,0*26ef31d0
#BESTVELA,FILE,0,26.0,FINESTEERING,2319,307466.450,02000000,10a2,17139;SOL_COMPUTED,NARROW_INT,0.025,0.450,5.8167,270.927813,0.0168,0*053c525f
#BESTVELA,FILE,0,26.0,FINESTEERING,2319,307466.500,02000000,10a2,17139;SOL_COMPUTED,NARROW_INT,0.025,0.500,5.8035,271.463106,-0.0167,0*6e0b1114
#BESTVELA,FILE,0,26.0,FINESTEERING,2319,307466.550,02000000,10a2,17139;SOL_COMPUTED,NARROW_INT,0.025,0.550,5.8590,271.401357,0.0060,0*d7391177
#BESTVELA,FILE,0,26.0,FINESTEERING,2319,307466.600,02000000,10a2,17139;SOL_COMPUTED,NARROW_INT,0.025,0.600,5.8843,271.078078,-0.0726,0*5e7a2b64
#BESTVELA,FILE,0,26.0,FINESTEERING,2319,307466.650,02000000,10a2,17139;SOL_COMPUTED,NARROW_INT,0.025,0.650,5.9042,270.984972,-0.0434,0*bb360c05
#BESTVELA,FILE,0,26.0,FINESTEERING,2319,307466.700,02000000,10a2,17139;SOL_COMPUTED,NARROW_INT,0.025,0.700,5.9126,270.718586,-0.0597,0*0c1f90b8
#BESTVELA,FILE,0,26.0,FINESTEERING,2319,307466.750,02000000,10a2,17139;SOL_COMPUTED,NARROW_INT,0.025,0.750,5.9824,270.916710,-0.0893,0*20b31457
#BESTVELA,FILE,0,26.0,FINESTEERING,2319,307466.800,02000000,10a2,17139;SOL_COMPUTED,NARROW_INT,0.025,0.800,5.9691,271.086043,-0.0971,0*0e37cea9
#BESTVELA,FILE,0,26.0,FINESTEERING,2319,307466.850,02000000,10a2,17139;SOL_COMPUTED,NARROW_INT,0.025,0.850,6.0290,270.848813,-0.0519,0*241e16b7
#BESTVELA,FILE,0,26.0,FINESTEERING,2319,307466.900,02000000,10a2,17139;SOL_COMPUTED,NARROW_INT,0.025,0.900,6.0716,270.626260,-0.0355,0*5a85bb07
#BESTVELA,FILE,0,26.0,FINESTEERING,2319,307466.950,02000000,10a2,17139;SOL_COMPUTED,NARROW_INT,0.025,0.950,6.0889,271.055821,-0.0124,0*eb75e9e6
#BESTVELA,FILE,0,26.0,FINESTEERING,2319,307467.000,02000000,10a2,17139;SOL_COMPUTED,NARROW_INT,0.025,1.000,6.1342,270.133497,-0.0930,0*ea286f69
#BESTVELA,FILE,0,26.0,FINESTEERING,2319,307467.050,02000000,10a2,17139;SOL_COMPUTED,NARROW_INT,0.025,1.050,6.1552,270.382452,0.0279,0*4c435911
#BESTVELA,FILE,0,26.0,FINESTEERING,2319,307467.100,02000000,10a2,17139;SOL_COMPUTED,NARROW_INT,0.025,1.100,6.2069,270.715964,-0.0807,0*cc796608
#BESTVELA,FILE,0,27.0,FINESTEERING,2319,307467.150,02000000,10a2,17139;SOL_COMPUTED,NARROW_INT,0.025,1.150,6.2251,270.893839,-0.1090,0*3f038f09
#BESTVELA,FILE,0,27.0,FINESTEERING,2319,307467.200,02000000,10a2,17139;SOL_COMPUTED,NARROW_INT,0.025,1.200,6.2808,270.333267,-0.0817,0*99b2592d
#BESTVELA,FILE,0,27.0,FINESTEERING,2319,307467.250,02000000,10a2,17139;SOL_COMPUTED,NARROW_INT,0.025,1.250,6.3000,270.395325,-0.0748,0*a08000f1
#BESTVELA,FILE,0,27.0,FINESTEERING,2319,307467.300,02000000,10a2,17139;SOL_COMPUTED,NARROW_INT,0.025,1.300,6.3236,270.260187,-0.0016,0*ad853c6d
#BESTVELA,FILE,0,27.0,FINESTEERING,2319,307467.350,02000000,10a2,17139;SOL_COMPUTED,NARROW_INT,0.025,0.350,6.3658,270.957656,-0.0483,0*0667bac1
#BESTVELA,FILE,0,27.0,FINESTEERING,2319,307467.400,02000000,10a2,17139;SOL_COMPUTED,NARROW_INT,0.025,0.400,6.4060,270.440368,-0.0793,0*2ab9d2f5
#BESTVELA,FILE,0,27.0,FINESTEERING,2319,307467.450,02000000,10a2,17139;SOL_COMPUTED,NARROW_INT,0.025,0.450,6.4241,270.778566,0.0046,0*74d0fe50
#BESTVELA,FILE,0,27.0,FINESTEERING,2319,307467.500,02000000,10a2,17139;SOL_COMPUTED,NARROW_INT,0.025,0.500,6.4430,270.345704,-0.0162,0*f1af9720
#BESTVELA,FILE,0,27.0,FINESTEERING,2319,307467.550,02000000,10a2,17139;SOL_COMPUTED,NARROW_INT,0.025,0.550,6.5375,270.597375,-0.0760,0*c9675a71
#BESTVELA,FILE,0,27.0,FINESTEERING,2319,307467.600,02000000,10a2,17139;SOL_COMPUTED,NARROW_INT,0.025,0.600,6.5310,270.468498,-0.0626,0*444386a2
#BESTVELA,FILE,0,27.0,FINESTEERING,2319,307467.650,02000000,10a2,17139;SOL_COMPUTED,NARROW_INT,0.025,0.650,6.5326,270.460704,-0.1212,0*2203d3cf
#BESTVELA,FILE,0,27.0,FINESTEERING,2319,307467.700,02000000,10a2,17139;SOL_COMPUTED,NARROW_INT,0.025,0.700,6.6122,270.379857,-0.0215,0*630cadc6
#BESTVELA,FILE,0,27.0,FINESTEERING,2319,307467.750,02000000,10a2,17139;SOL_COMPUTED,NARROW_INT,0.025,0.750,6.6478,270.302416,-0.0161,0*8672ef56
#BESTVELA,FILE,0,27.0,FINESTEERING,2319,307467.800,02000000,10a2,17139;SOL_COMPUTED,NARROW_INT,0.025,0.800,6.6565,270.073456,-0.0574,0*9eead8f5
#BESTVELA,FILE,0,27.0,FINESTEERING,2319,307467.850,02000000,10a2,17139;SOL_COMPUTED,NARROW_INT,0.025,0.850,6.6970,270.090053,-0.0941,0*547d8257
#BESTVELA,FILE,0,27.0,FINESTEERING,2319,307467.900,02000000,10a2,17139;SOL_COMPUTED,NARROW_INT,0.025,0.900,6.7038,270.589485,-0.0521,0*d3036c87
#BESTVELA,FILE,0,27.0,FINESTEERING,2319,307467.950,02000000,10a2,17139;SOL_COMPUTED,NARROW_INT,0.025,0.950,6.7082,270.615948,-0.0510,0*8dd2f0a4
#BESTVELA,FILE,0,27.0,FINESTEERING,2319,307468.000,02000000,10a2,17139;SOL_COMPUTED,NARROW_INT,0.025,1.000,6.7027,270.357561,-0.0603,0*67115bd5
#BESTVELA,FILE,0,27.0,FINESTEERING,2319,307468.050,02000000,10a2,17139;SOL_COMPUTED,NARROW_INT,0.025,1.050,6.7157,270.274569,-0.1534,0*9bd3ccf5
#BESTVELA,FILE,0,26.0,FINESTEERING,2319,307468.100,02000000,10a2,17139;SOL_COMPUTED,NARROW_INT,0.025,1.100,6.7591,269.956601,-0.0204,0*cd7888ff
#BESTVELA,FILE,0,26.0,FINESTEERING,2319,307468.150,02000000,10a2,17139;SOL_COMPUTED,NARROW_INT,0.025,1.150,6.7509,269.724144,-0.1671,0*4feaba6a
#BESTVELA,FILE,0,26.0,FINESTEERING,2319,307468.200,02000000,10a2,17139;SOL_COMPUTED,NARROW_INT,0.025,1.200,6.8145,270.070619,-0.1475,0*e4fd2c9d
#BESTVELA,FILE,0,26.0,FINESTEERING,2319,307468.250,02000000,10a2,17139;SOL_COMPUTED,NARROW_INT,0.025,1.250,6.8803,269.690531,-0.0766,0*d95b9a47
#BESTVELA,FILE,0,26.0,FINESTEERING,2319,307468.300,02000000,10a2,17139;SOL_COMPUTED,NARROW_INT,0.025,1.300,6.8691,269.893819,-0.0548,0*6a9fa462
#BESTVELA,FILE,0,26.0,FINESTEERING,2319,307468.350,02000000,10a2,17139;SOL_COMPUTED,NARROW_INT,0.025,1.350,6.9003,269.767481,-0.0491,0*24621b16
#BESTVELA,FILE,0,26.0,FINESTEERING,2319,307468.400,02000000,10a2,17139;SOL_COMPUTED,NARROW_INT,0.025,0.400,6.9760,269.772220,-0.0275,0*a61aa9ce
#BESTVELA,FILE,0,26.0,FINESTEERING,2319,307468.450,02000000,10a2,17139;SOL_COMPUTED,NARROW_INT,0.025,0.450,7.0157,269.778243,0.0770,0*619f629d
#BESTVELA,FILE,0,26.0,FINESTEERING,2319,307468.500,02000000,10a2,17139;SOL_COMPUTED,NARROW_INT,0.025,0.500,6.9861,269.714576,-0.0660,0*6d973563
#BESTVELA,FILE,0,26.0,FINESTEERING,2319,307468.550,02000000,10a2,17139;SOL_COMPUTED,NARROW_INT,0.025,0.550,7.0121,269.470493,-0.0288,0*c5d98231
#BESTVELA,FILE,0,26.0,FINESTEERING,2319,307468.600,02000000,10a2,17139;SOL_COMPUTED,NARROW_INT,0.025,0.600,7.0279,269.502062,0.0302,0*aa805465
#BESTVELA,FILE,0,26.0,FINESTEERING,2319,307468.650,02000000,10a2,17139;SOL_COMPUTED,NARROW_INT,0.025,0.650,7.0788,269.723759,-0.0488,0*bbffda09
#BESTVELA,FILE,0,26.0,FINESTEERING,2319,307468.700,02000000,10a2,17139;SOL_COMPUTED,NARROW_INT,0.025,0.700,7.0503,269.456234,-0.0309,0*68f28455
#BESTVELA,FILE,0,26.0,FINESTEERING,2319,307468.750,02000000,10a2,17139;SOL_COMPUTED,NARROW_INT,0.025,0.750,7.0875,269.569098,-0.0588,0*2446281f
#BESTVELA,FILE,0,26.0,FINESTEERING,2319,307468.800,02000000,10a2,17139;SOL_COMPUTED,NARROW_INT,0.025,0.800,7.1449,269.261734,-0.0541,0*280b8378
#BESTVELA,FILE,0,26.0,FINESTEERING,2319,307468.850,02000000,10a2,17139;SOL_COMPUTED,NARROW_INT,0.025,0.850,7.1785,269.301688,-0.0830,0*8b0fdfdc
#BESTVELA,FILE,0,26.0,FINESTEERING,2319,307468.900,02000000,10a2,17139;SOL_COMPUTED,NARROW_INT,0.025,0.900,7.1735,269.347735,-0.0243,0*ce526f53
#BESTVELA,FILE,0,26.0,FINESTEERING,2319,307468.950,02000000,10a2,17139;SOL_COMPUTED,NARROW_INT,0.025,0.950,7.1793,269.288613,-0.0256,0*dbfe9f61
#BESTVELA,FILE,0,26.0,FINESTEERING,2319,307469.000,02000000,10a2,17139;SOL_COMPUTED,NARROW_INT,0.025,1.000,7.2317,269.203596,0.0353,0*fdcaedc5
#BESTVELA,FILE,0,26.0,FINESTEERING,2319,307469.050,02000000,10a2,17139;SOL_COMPUTED,NARROW_INT,0.025,1.050,7.2751,269.318401,-0.0404,0*e9668ad1
#BESTVELA,FILE,0,26.0,FINESTEERING,2319,307469.100,02000000,10a2,17139;SOL_COMPUTED,NARROW_INT,0.025,1.100,7.2576,269.304602,-0.0180,0*2bf17737
#BESTVELA,FILE,0,27.5,FINESTEERING,2319,307469.150,02000000,10a2,17139;SOL_COMPUTED,NARROW_INT,0.025,1.150,7.2706,269.122892,0.0110,0*cef6a60a
#BESTVELA,FILE,0,27.5,FINESTEERING,2319,307469.200,02000000,10a2,17139;SOL_COMPUTED,NARROW_INT,0.025,1.200,7.2833,269.059035,-0.0036,0*85bfcbe2
#BESTVELA,FILE,0,27.5,FINESTEERING,2319,307469.250,02000000,10a2,17139;SOL_COMPUTED,NARROW_INT,0.025,1.250,7.3243,268.904124,-0.0684,0*678337d0
#BESTVELA,FILE,0,27.5,FINESTEERING,2319,307469.300,02000000,10a2,17139;SOL_COMPUTED,NARROW_INT,0.025,1.300,7.3509,268.959146,-0.0763,0*d9069ecf
#BESTVELA,FILE,0,27.5,FINESTEERING,2319,307469.350,02000000,10a2,17139;SOL_COMPUTED,NARROW_INT,0.025,0.350,7.3370,268.866879,0.0063,0*9bcfbe17
#BESTVELA,FILE,0,27.5,FINESTEERING,2319,307469.400,02000000,10a2,17139;SOL_COMPUTED,NARROW_INT,0.025,0.400,7.3992,268.858588,-0.0378,0*7563ff24
#BESTVELA,FILE,0,27.5,FINESTEERING,2319,307469.450,02000000,10a2,17139;SOL_COMPUTED,NARROW_INT,0.025,0.450,7.4113,268.840057,-0.0627,0*40033d67
#BESTVELA,FILE,0,27.5,FINESTEERING,2319,307469.500,02000000,10a2,17139;SOL_COMPUTED,NARROW_INT,0.025,0.500,7.4209,268.746708,0.0456,0*7fd7049b
#BESTVELA,FILE,0,27.5,FINESTEERING,2319,307469.550,02000000,10a2,17139;SOL_COMPUTED,NARROW_INT,0.025,0.550,7.4694,268.969612,0.0007,0*cd264aa5
#BESTVELA,FILE,0,27.5,FINESTEERING,2319,307469.600,02000000,10a2,17139;SOL_COMPUTED,NARROW_INT,0.025,0.600,7.4846,268.574445,-0.0384,0*a92d0015
#BESTVELA,FILE,0,27.5,FINESTEERING,2319,307469.650,02000000,10a2,17139;SOL_COMPUTED,NARROW_INT,0.025,0.650,7.5330,268.988527,0.0057,0*4b4cf99b
#BESTVELA,FILE,0,27.5,FINESTEERING,2319,307469.700,02000000,10a2,17139;SOL_COMPUTED,NARROW_INT,0.025,0.700,7.5456,268.572103,0.0526,0*21487e6f
#BESTVELA,FILE,0,27.5,FINESTEERING,2319,307469.750,02000000,10a2,17139;SOL_COMPUTED,NARROW_INT,0.025,0.750,7.5600,268.532926,-0.0759,0*a34a2f6e
#BESTVELA,FILE,0,27.5,FINESTEERING,2319,307469.800,02000000,10a2,17139;SOL_COMPUTED,NARROW_INT,0.025,0.800,7.5700,268.092300,-0.0489,0*23117181
#BESTVELA,FILE,0,27.5,FINESTEERING,2319,307469.850,02000000,10a2,17139;SOL_COMPUTED,NARROW_INT,0.025,0.850,7.5960,268.352689,-0.1080,0*c1a15ba8
#BESTVELA,FILE,0,27.5,FINESTEERING,2319,307469.900,02000000,10a2,17139;SOL_COMPUTED,NARROW_INT,0.025,0.900,7.6434,268.583725,-0.0019,0*4c4c46eb
#BESTVELA,FILE,0,27.5,FINESTEERING,2319,307469.950,02000000,10a2,17139;SOL_COMPUTED,NARROW_INT,0.025,0.950,7.6226,268.268688,-0.0291,0*0ba624ff
#BESTVELA,FILE,0,27.5,FINESTEERING,2319,307470.000,02000000,10a2,17139;SOL_COMPUTED,NARROW_INT,0.025,1.000,7.6476,268.718296,-0.0684,0*4e36b7f0
#BESTVELA,FILE,0,27.5,FINESTEERING,2319,307470.050,02000000,10a2,17139;SOL_COMPUTED,NARROW_INT,0.025,1.050,7.6813,268.717490,-0.0373,0*88622649
#BESTVELA,FILE,0,27.5,FINESTEERING,2319,307470.100,02000000,10a2,17139;SOL_COMPUTED,NARROW_INT,0.025,1.100,7.6666,269.033531,-0.0459,0*647c6232
#BESTVELA,FILE,0,27.5,FINESTEERING,2319,307470.150,02000000,10a2,17139;SOL_COMPUTED,NARROW_INT,0.025,1.150,7.6942,269.071973,-0.0052,0*355d6491
#BESTVELA,FILE,0,27.5,FINESTEERING,2319,307470.200,02000000,10a2,17139;SOL_COMPUTED,NARROW_INT,0.025,1.200,7.7105,269.156465,-0.0514,0*5d04ba72
#BESTVELA,FILE,0,27.5,FINESTEERING,2319,307470.250,02000000,10a2,17139;SOL_COMPUTED,NARROW_INT,0.025,1.250,7.7378,268.902718,-0.0799,0*5358999e
#BESTVELA,FILE,0,27.5,FINESTEERING,2319,307470.300,02000000,10a2,17139;SOL_COMPUTED,NARROW_INT,0.025,1.300,7.7638,268.915004,-0.0915,0*0b4d4fcb
#BESTVELA,FILE,0,27.5,FINESTEERING,2319,307470.350,02000000,10a2,17139;SOL_COMPUTED,NARROW_INT,0.025,1.350,7.7799,269.715053,-0.0656,0*5147dccc
#BESTVELA,FILE,0,27.5,FINESTEERING,2319,307470.400,02000000,10a2,17139;SOL_COMPUTED,NARROW_INT,0.025,0.400,7.8214,269.759649,-0.0109,0*e7c8a309
#BESTVELA,FILE,0,27.5,FINESTEERING,2319,307470.450,02000000,10a2,17139;SOL_COMPUTED,NARROW_INT,0.025,0.450,7.8560,269.500722,-0.0297,0*97118620
#BESTVELA,FILE,0,27.5,FINESTEERING,2319,307470.500,02000000,10a2,17139;SOL_COMPUTED,NARROW_INT,0.025,0.500,7.8580,270.022886,0.0209,0*9e2a26cb
#BESTVELA,FILE,0,27.5,FINESTEERING,2319,307470.550,02000000,10a2,17139;SOL_COMPUTED,NARROW_INT,0.025,0.550,7.8743,269.819783,-0.0124,0*9e67f2fb
#BESTVELA,FILE,0,27.5,FINESTEERING,2319,307470.600,02000000,10a2,17139;SOL_COMPUTED,NARROW_INT,0.025,0.600,7.8985,270.285650,-0.0198,0*631ca573
#BESTVELA,FILE,0,27.5,FINESTEERING,2319,307470.650,02000000,10a2,17139;SOL_COMPUTED,NARROW_INT,0.025,0.650,7.9207,270.081294,-0.0207,0*e8eb38ee
#BESTVELA,FILE,0,27.5,FINESTEERING,2319,307470.700,02000000,10a2,17139;SOL_COMPUTED,NARROW_INT,0.025,0.700,7.9096,270.310591,0.0082,0*f07166f8
#BESTVELA,FILE,0,27.5,FINESTEERING,2319,307470.750,02000000,10a2,17139;SOL_COMPUTED,NARROW_INT,0.025,0.750,7.9275,270.185053,-0.0996,0*e3ab5a0a
#BESTVELA,FILE,0,27.5,FINESTEERING,2319,307470.800,02000000,10a2,17139;SOL_COMPUTED,NARROW_INT,0.025,0.800,7.9551,270.295971,-0.0357,0*56e2a929
#BESTVELA,FILE,0,27.5,FINESTEERING,2319,307470.850,02000000,10a2,17139;SOL_COMPUTED,NARROW_INT,0.025,0.850,7.9883,270.230555,0.0023,0*be0ad69b
#BESTVELA,FILE,0,27.5,FINESTEERING,2319,307470.900,02000000,10a2,17139;SOL_COMPUTED,NARROW_INT,0.025,0.900,8.0030,270.361688,-0.0351,0*b786d69f
#BESTVELA,FILE,0,27.5,FINESTEERING,2319,307470.950,02000000,10a2,17139;SOL_COMPUTED,NARROW_INT,0.025,0.950,8.0648,270.186165,-0.0452,0*78fbc996
#BESTVELA,FILE,0,27.5,FINESTEERING,2319,307471.000,02000000,10a2,17139;SOL_COMPUTED,NARROW_INT,0.025,1.000,8.0507,270.055748,0.0320,0*01237404
#BESTVELA,FILE,0,27.5,FINESTEERING,2319,307471.050,02000000,10a2,17139;SOL_COMPUTED,NARROW_INT,0.025,1.050,8.0739,270.017923,-0.0511,0*35fb8a89
#BESTVELA,FILE,0,26.0,FINESTEERING,2319,307471.100,02000000,10a2,17139;SOL_COMPUTED,NARROW_INT,0.025,1.100,8.0759,269.904101,-0.0223,0*0d886fe5
#BESTVELA,FILE,0,26.0,FINESTEERING,2319,307471.150,02000000,10a2,17139;SOL_COMPUTED,NARROW_INT,0.025,1.150,8.0818,269.920542,-0.0092,0*ee898862
#BESTVELA,FILE,0,26.0,FINESTEERING,2319,307471.200,02000000,10a2,17139;SOL_COMPUTED,NARROW_INT,0.025,1.200,8.1496,269.476635,0.0064,0*2d0793ac
#BESTVELA,FILE,0,26.0,FINESTEERING,2319,307471.250,02000000,10a2,17139;SOL_COMPUTED,NARROW_INT,0.025,1.250,8.1474,269.360926,-0.0801,0*32d00c9d
#BESTVELA,FILE,0,26.0,FINESTEERING,2319,307471.300,02000000,10a2,17139;SOL_COMPUTED,NARROW_INT,0.025,1.300,8.1548,269.362101,-0.0676,0*8a39a38a
#BESTVELA,FILE,0,26.0,FINESTEERING,2319,307471.350,02000000,10a2,17139;SOL_COMPUTED,NARROW_INT,0.025,0.350,8.2009,269.544906,-0.0390,0*7a3af4f4
#BESTVELA,FILE,0,26.0,FINESTEERING,2319,307471.400,02000000,10a2,17139;SOL_COMPUTED,NARROW_INT,0.025,0.400,8.2289,269.633650,-0.0168,0*80d8adcd
#BESTVELA,FILE,0,26.0,FINESTEERING,2319,307471.450,02000000,10a2,17139;SOL_COMPUTED,NARROW_INT,0.025,0.450,8.2155,269.314072,-0.0399,0*76673068
#BESTVELA,FILE,0,26.0,FINESTEERING,2319,307471.500,02000000,10a2,17139;SOL_COMPUTED,NARROW_INT,0.025,0.500,8.1803,269.423935,-0.0277,0*f9b2ebb8
#BESTVELA,FILE,0,26.0,FINESTEERING,2319,307471.550,02000000,10a2,17139;SOL_COMPUTED,NARROW_INT,0.025,0.550,8.2342,269.328884,-0.1300,0*b0c326fd
#BESTVELA,FILE,0,26.0,FINESTEERING,2319,307471.600,02000000,10a2,17139;SOL_COMPUTED,NARROW_INT,0.025,0.600,8.2505,269.612016,-0.1222,0*b9090665
#BESTVELA,FILE,0,26.0,FINESTEERING,2319,307471.650,02000000,10a2,17139;SOL_COMPUTED,NARROW_INT,0.025,0.650,8.2764,269.712721,-0.0526,0*390fb52a
#BESTVELA,FILE,0,26.0,FINESTEERING,2319,307471.700,02000000,10a2,17139;SOL_COMPUTED,NARROW_INT,0.025,0.700,8.2862,269.394840,-0.0360,0*b5f3d409
#BESTVELA,FILE,0,26.0,FINESTEERING,2319,307471.750,02000000,10a2,17139;SOL_COMPUTED,NARROW_INT,0.025,0.750,8.3274,269.381567,-0.0576,0*2edd2a5b
#BESTVELA,FILE,0,26.0,FINESTEERING,2319,307471.800,02000000,10a2,17139;SOL_COMPUTED,NARROW_INT,0.025,0.800,8.3604,269.406562,-0.0213,0*113b54c2
#BESTVELA,FILE,0,26.0,FINESTEERING,2319,307471.850,02000000,10a2,17139;SOL_COMPUTED,NARROW_INT,0.025,0.850,8.4074,269.564704,-0.0299,0*8bf00aa2
#BESTVELA,FILE,0,26.0,FINESTEERING,2319,307471.900,02000000,10a2,17139;SOL_COMPUTED,NARROW_INT,0.025,0.900,8.4169,269.700672,0.0082,0*5ba12079
#BESTVELA,FILE,0,26.0,FINESTEERING,2319,307471.950,02000000,10a2,17139;SOL_COMPUTED,NARROW_INT,0.025,0.950,8.4304,269.646545,-0.0210,0*0edc6cdb
#BESTVELA,FILE,0,26.0,FINESTEERING,2319,307472.000,02000000,10a2,17139;SOL_COMPUTED,NARROW_INT,0.025,1.000,8.4302,269.717585,-0.0201,0*b18062ec
#BESTVELA,FILE,0,26.0,FINESTEERING,2319,307472.050,02000000,10a2,17139;SOL_COMPUTED,NARROW_INT,0.025,1.050,8.4552,269.507884,-0.0186,0*f524e05d
#BESTVELA,FILE,0,26.0,FINESTEERING,2319,307472.100,02000000,10a2,17139;SOL_COMPUTED,NARROW_INT,0.025,1.100,8.4361,269.476920,-0.0951,0*11c1d4fe
#BESTVELA,FILE,0,27.5,FINESTEERING,2319,307472.150,02000000,10a2,17139;SOL_COMPUTED,NARROW_INT,0.025,1.150,8.4807,269.239707,-0.1105,0*736bee8d
#BESTVELA,FILE,0,27.5,FINESTEERING,2319,307472.200,02000000,10a2,17139;SOL_COMPUTED,NARROW_INT,0.025,1.200,8.4903,269.359762,-0.1038,0*f550a4e1
#BESTVELA,FILE,0,27.5,FINESTEERING,2319,307472.250,02000000,10a2,17139;SOL_COMPUTED,NARROW_INT,0.025,1.250,8.5015,269.347878,-0.0829,0*d42d998b
#BESTVELA,FILE,0,27.5,FINESTEERING,2319,307472.300,02000000,10a2,17139;SOL_COMPUTED,NARROW_INT,0.025,1.300,8.5420,269.532262,-0.1185,0*dcc4512f
#BESTVELA,FILE,0,27.5,FINESTEERING,2319,307472.350,02000000,10a2,17139;SOL_COMPUTED,NARROW_INT,0.025,1.350,8.5543,269.406953,-0.0133,0*36f79b6d
#BESTVELA,FILE,0,27.5,FINESTEERING,2319,307472.400,02000000,10a2,17139;SOL_COMPUTED,NARROW_INT,0.025,0.400,8.5808,269.354792,-0.0504,0*c6f65852
#BESTVELA,FILE,0,27.5,FINESTEERING,2319,307472.450,02000000,10a2,17139;SOL_COMPUTED,NARROW_INT,0.025,0.450,8.6081,269.398911,-0.0187,0*e7aa5980
#BESTVELA,FILE,0,27.5,FINESTEERING,2319,307472.500,02000000,10a2,17139;SOL_COMPUTED,NARROW_INT,0.025,0.500,8.6231,269.191869,-0.0880,0*89a7da80
#BESTVELA,FILE,0,27.5,FINESTEERING,2319,307472.550,02000000,10a2,17139;SOL_COMPUTED,NARROW_INT,0.025,0.550,8.6351,269.304006,-0.0899,0*5186d134
#BESTVELA,FILE,0,27.5,FINESTEERING,2319,307472.600,02000000,10a2,17139;SOL_COMPUTED,NARROW_INT,0.025,0.600,8.6747,269.318240,-0.1164,0*315e26db
#BESTVELA,FILE,0,27.5,FINESTEERING,2319,307472.650,02000000,10a2,17139;SOL_COMPUTED,NARROW_INT,0.025,0.650,8.6844,269.153698,-0.1093,0*7d5ac0c8
#BESTVELA,FILE,0,27.5,FINESTEERING,2319,307472.700,02000000,10a2,17139;SOL_COMPUTED,NARROW_INT,0.025,0.700,8.6717,269.195957,-0.0679,0*6af73d4a
#BESTVELA,FILE,0,27.5,FINESTEERING,2319,307472.750,02000000,10a2,17139;SOL_COMPUTED,NARROW_INT,0.025,0.750,8.6931,268.999443,-0.0600,0*8f56a0c2
#BESTVELA,FILE,0,27.5,FINESTEERING,2319,307472.800,02000000,10a2,17139;SOL_COMPUTED,NARROW_INT,0.025,0.800,8.7255,269.249911,-0.0290,0*c07ae7aa
#BESTVELA,FILE,0,27.5,FINESTEERING,2319,307472.850,02000000,10a2,17139;SOL_COMPUTED,NARROW_INT,0.025,0.850,8.7784,269.310976,-0.0569,0*e4de79aa
#BESTVELA,FILE,0,27.5,FINESTEERING,2319,307472.900,02000000,10a2,17139;SOL_COMPUTED,NARROW_INT,0.025,0.900,8.7392,269.342265,-0.0256,0*0bfac605
#BESTVELA,FILE,0,27.5,FINESTEERING,2319,307472.950,02000000,10a2,17139;SOL_COMPUTED,NARROW_INT,0.025,0.950,8.7614,269.474073,-0.0238,0*e97a22f9
#BESTVELA,FILE,0,27.5,FINESTEERING,2319,307473.000,02000000,10a2,17139;SOL_COMPUTED,NARROW_INT,0.025,1.000,8.8193,269.092711,-0.0974,0*1c125cf0
#BESTVELA,FILE,0,27.5,FINESTEERING,2319,307473.050,02000000,10a2,17139;SOL_COMPUTED,NARROW_INT,0.025,1.050,8.8160,269.480048,0.0192,0*0291cd24
#BESTVELA,FILE,0,27.0,FINESTEERING,2319,307473.100,02000000,10a2,17139;SOL_COMPUTED,NARROW_INT,0.025,1.100,8.8645,269.211439,-0.0714,0*7f3c53dc
#BESTVELA,FILE,0,27.0,FINESTEERING,2319,307473.150,02000000,10a2,17139;SOL_COMPUTED,NARROW_INT,0.025,1.150,8.8589,269.056994,0.0061,0*613f1a05
#BESTVELA,FILE,0,27.0,FINESTEERING,2319,307473.200,02000000,10a2,17139;SOL_COMPUTED,NARROW_INT,0.025,1.200,8.8968,268.934505,-0.0659,0*3e4fd734
#BESTVELA,FILE,0,27.0,FINESTEERING,2319,307473.250,02000000,10a2,17139;SOL_COMPUTED,NARROW_INT,0.025,1.250,8.8995,268.974192,-0.0454,0*66dea381
#BESTVELA,FILE,0,27.0,FINESTEERING,2319,307473.300,02000000,10a2,17139;SOL_COMPUTED,NARROW_INT,0.025,1.300,8.9083,269.305163,-0.0452,0*20894e6c
#BESTVELA,FILE,0,27.0,FINESTEERING,2319,307473.350,02000000,10a2,17139;SOL_COMPUTED,NARROW_INT,0.025,1.350,8.9450,268.477657,-0.1322,0*8d2efe3e
#BESTVELA,FILE,0,27.0,FINESTEERING,2319,307473.400,02000000,10a2,17139;SOL_COMPUTED,NARROW_INT,0.025,0.400,8.9268,268.764792,-0.0629,0*01855fc3
#BESTVELA,FILE,0,27.0,FINESTEERING,2319,307473.450,02000000,10a2,17139;SOL_COMPUTED,NARROW_INT,0.025,0.450,8.9711,269.611971,0.0222,0*2245bb63
#BESTVELA,FILE,0,27.0,FINESTEERING,2319,307473.500,02000000,10a2,17139;SOL_COMPUTED,NARROW_INT,0.025,0.500,8.9885,269.580814,0.0259,0*39ea340e
#BESTVELA,FILE,0,27.0,FINESTEERING,2319,307473.550,02000000,10a2,17139;SOL_COMPUTED,NARROW_INT,0.025,0.550,9.0141,269.373860,-0.0955,0*f2241b71
#BESTVELA,FILE,0,27.0,FINESTEERING,2319,307473.600,02000000,10a2,17139;SOL_COMPUTED,NARROW_INT,0.025,0.600,9.0304,269.667602,-0.1017,0*d3930f33
#BESTVELA,FILE,0,27.0,FINESTEERING,2319,307473.650,02000000,10a2,17139;SOL_COMPUTED,NARROW_INT,0.025,0.650,9.0487,269.721046,0.0054,0*ee8c3062
#BESTVELA,FILE,0,27.0,FINESTEERING,2319,307473.700,02000000,10a2,17139;SOL_COMPUTED,NARROW_INT,0.025,0.700,9.0482,269.876898,-0.0598,0*7f1b64d0
#BESTVELA,FILE,0,27.0,FINESTEERING,2319,307473.750,02000000,10a2,17139;SOL_COMPUTED,NARROW_INT,0.025,0.750,9.1025,269.916209,0.0061,0*ef002b2a
#BESTVELA,FILE,0,27.0,FINESTEERING,2319,307473.800,02000000,10a2,17139;SOL_COMPUTED,NARROW_INT,0.025,0.800,9.0898,270.008015,-0.0980,0*e7fb385b
#BESTVELA,FILE,0,27.0,FINESTEERING,2319,307473.850,02000000,10a2,17139;SOL_COMPUTED,NARROW_INT,0.025,0.850,9.0979,270.261249,-0.0062,0*db3309a8
#BESTVELA,FILE,0,27.0,FINESTEERING,2319,307473.900,02000000,10a2,17139;SOL_COMPUTED,NARROW_INT,0.025,0.900,9.1324,270.268370,0.0154,0*e997f3c1
#BESTVELA,FILE,0,27.0,FINESTEERING,2319,307473.950,02000000,10a2,17139;SOL_COMPUTED,NARROW_INT,0.025,0.950,9.1244,270.521895,-0.0875,0*87726250
#BESTVELA,FILE,0,27.0,FINESTEERING,2319,307474.000,02000000,10a2,17139;SOL_COMPUTED,NARROW_INT,0.025,1.000,9.1498,270.507923,-0.0554,0*342cccea
#BESTVELA,FILE,0,27.0,FINESTEERING,2319,307474.050,02000000,10a2,17139;SOL_COMPUTED,NARROW_INT,0.025,1.050,9.1345,270.297727,-0.1033,0*de5039b1
#BESTVELA,FILE,0,23.5,FINESTEERING,2319,307474.100,02000000,10a2,17139;SOL_COMPUTED,NARROW_INT,0.025,1.100,9.1770,270.515572,0.0308,0*c8221caa
#BESTVELA,FILE,0,23.5,FINESTEERING,2319,307474.150,02000000,10a2,17139;SOL_COMPUTED,NARROW_INT,0.025,1.150,9.2072,270.593087,-0.0277,0*1268c822
#BESTVELA,FILE,0,23.5,FINESTEERING,2319,307474.200,02000000,10a2,17139;SOL_COMPUTED,NARROW_INT,0.025,1.200,9.2119,270.459152,0.0115,0*2e00aa97
#BESTVELA,FILE,0,23.5,FINESTEERING,2319,307474.250,02000000,10a2,17139;SOL_COMPUTED,NARROW_INT,0.025,1.250,9.2398,270.215166,-0.0191,0*92211f36
#BESTVELA,FILE,0,23.5,FINESTEERING,2319,307474.300,02000000,10a2,17139;SOL_COMPUTED,NARROW_INT,0.025,1.300,9.2923,270.106948,-0.0202,0*ac8cf366
#BESTVELA,FILE,0,23.5,FINESTEERING,2319,307474.350,02000000,10a2,17139;SOL_COMPUTED,NARROW_INT,0.025,1.350,9.2693,269.986213,0.0098,0*ad1e653e
#BESTVELA,FILE,0,23.5,FINESTEERING,2319,307474.400,02000000,10a2,17139;SOL_COMPUTED,NARROW_INT,0.025,0.400,9.2990,270.080042,-0.0524,0*ea41bbd2
#BESTVELA,FILE,0,23.5,FINESTEERING,2319,307474.450,02000000,10a2,17139;SOL_COMPUTED,NARROW_INT,0.025,0.450,9.2485,269.843382,-0.0413,0*a7bdc578
#BESTVELA,FILE,0,23.5,FINESTEERING,2319,307474.500,02000000,10a2,17139;SOL_COMPUTED,NARROW_INT,0.025,0.500,9.2870,269.739837,-0.0108,0*8ee803fd
#BESTVELA,FILE,0,23.5,FINESTEERING,2319,307474.550,02000000,10a2,17139;SOL_COMPUTED,NARROW_INT,0.025,0.550,9.3119,269.798490,-0.0509,0*3c0a7077
#BESTVELA,FILE,0,23.5,FINESTEERING,2319,307474.600,02000000,10a2,17139;SOL_COMPUTED,NARROW_INT,0.025,0.600,9.3275,269.710651,-0.0603,0*1049f11f
#BESTVELA,FILE,0,23.5,FINESTEERING,2319,307474.650,02000000,10a2,17139;SOL_COMPUTED,NARROW_INT,0.025,0.650,9.3638,269.704635,-0.0487,0*9c03d0f8
#BESTVELA,FILE,0,23.5,FINESTEERING,2319,307474.700,02000000,10a2,17139;SOL_COMPUTED,NARROW_INT,0.025,0.700,9.4354,269.632477,0.0122,0*2e6066b8
#BESTVELA,FILE,0,23.5,FINESTEERING,2319,307474.750,02000000,10a2,17139;SOL_COMPUTED,NARROW_INT,0.025,0.750,9.4716,269.635013,-0.0326,0*0c66f567
#BESTVELA,FILE,0,23.5,FINESTEERING,2319,307474.800,02000000,10a2,17139;SOL_COMPUTED,NARROW_INT,0.025,0.800,9.4940,269.919752,0.0268,0*680244c0
#BESTVELA,FILE,0,23.5,FINESTEERING,2319,307474.850,02000000,10a2,17139;SOL_COMPUTED,NARROW_INT,0.025,0.850,9.4899,269.800184,-0.0284,0*7976294c
#BESTVELA,FILE,0,23.5,FINESTEERING,2319,307474.900,02000000,10a2,17139;SOL_COMPUTED,NARROW_INT,0.025,0.900,9.4828,269.681008,-0.0976,0*64bf6ed4
#BESTVELA,FILE,0,23.5,FINESTEERING,2319,307474.950,02000000,10a2,17139;SOL_COMPUTED,NARROW_INT,0.025,0.950,9.4851,269.848624,-0.0664,0*58f47dc3
#BESTVELA,FILE,0,23.5,FINESTEERING,2319,307475.000,02000000,10a2,17139;SOL_COMPUTED,NARROW_INT,0.025,1.000,9.4475,269.485471,-0.1441,0*2a527018
#BESTVELA,FILE,0,23.5,FINESTEERING,2319,307475.050,02000000,10a2,17139;SOL_COMPUTED,NARROW_INT,0.025,1.050,9.4786,269.477531,-0.2254,0*b1f5f69b
#BESTVELA,FILE,0,23.5,FINESTEERING,2319,307475.100,02000000,10a2,17139;SOL_COMPUTED,NARROW_INT,0.025,1.100,9.4942,269.392091,-0.1808,0*ed5e150a
#BESTVELA,FILE,0,25.0,FINESTEERING,2319,307475.150,02000000,10a2,17139;SOL_COMPUTED,NARROW_INT,0.025,1.150,9.4936,269.267431,-0.1347,0*684a0999
#BESTVELA,FILE,0,25.0,FINESTEERING,2319,307475.200,02000000,10a2,17139;SOL_COMPUTED,NARROW_INT,0.025,1.200,9.5528,268.860653,-0.1158,0*284034fa
#BESTVELA,FILE,0,25.0,FINESTEERING,2319,307475.250,02000000,10a2,17139;SOL_COMPUTED,NARROW_INT,0.025,1.250,9.5658,268.869380,-0.1532,0*3fbbcc23
#BESTVELA,FILE,0,25.0,FINESTEERING,2319,307475.300,02000000,10a2,17139;SOL_COMPUTED,NARROW_INT,0.025,1.300,9.6162,268.933421,-0.0808,0*1c4a2862
#BESTVELA,FILE,0,25.0,FINESTEERING,2319,307475.350,02000000,10a2,17139;SOL_COMPUTED,NARROW_INT,0.025,0.350,9.6451,268.755214,-0.1203,0*0c3da5d8
#BESTVELA,FILE,0,25.0,FINESTEERING,2319,307475.400,02000000,10a2,17139;SOL_COMPUTED,NARROW_INT,0.025,0.400,9.6242,268.692676,-0.0411,0*97257cc0
#BESTVELA,FILE,0,25.0,FINESTEERING,2319,307475.450,02000000,10a2,17139;SOL_COMPUTED,NARROW_INT,0.025,0.450,9.6417,268.378223,-0.0540,0*c08611b7
#BESTVELA,FILE,0,25.0,FINESTEERING,2319,307475.500,02000000,10a2,17139;SOL_COMPUTED,NARROW_INT,0.025,0.500,9.6627,268.353703,-0.1346,0*ca6d534e
#BESTVELA,FILE,0,25.0,FINESTEERING,2319,307475.550,02000000,10a2,17139;SOL_COMPUTED,NARROW_INT,0.025,0.550,9.6833,268.283078,-0.0656,0*fc376ae3
#BESTVELA,FILE,0,25.0,FINESTEERING,2319,307475.600,02000000,10a2,17139;SOL_COMPUTED,NARROW_INT,0.025,0.600,9.6725,268.414707,-0.0692,0*0f08ecc7
#BESTVELA,FILE,0,25.0,FINESTEERING,2319,307475.650,02000000,10a2,17139;SOL_COMPUTED,NARROW_INT,0.025,0.650,9.7245,268.590307,-0.1284,0*c567bdcb
#BESTVELA,FILE,0,25.0,FINESTEERING,2319,307475.700,02000000,10a2,17139;SOL_COMPUTED,NARROW_INT,0.025,0.700,9.7242,268.323771,-0.0910,0*38ad6f7e
#BESTVELA,FILE,0,25.0,FINESTEERING,2319,307475.750,02000000,10a2,17139;SOL_COMPUTED,NARROW_INT,0.025,0.750,9.7285,268.462399,-0.0361,0*a2e14320
#BESTVELA,FILE,0,25.0,FINESTEERING,2319,307475.800,02000000,10a2,17139;SOL_COMPUTED,NARROW_INT,0.025,0.800,9.7497,268.224750,0.0054,0*337deffa
#BESTVELA,FILE,0,25.0,FINESTEERING,2319,307475.850,02000000,10a2,17139;SOL_COMPUTED,NARROW_INT,0.025,0.850,9.8045,268.302689,-0.0486,0*507af9ce
#BESTVELA,FILE,0,25.0,FINESTEERING,2319,307475.900,02000000,10a2,17139;SOL_COMPUTED,NARROW_INT,0.025,0.900,9.7991,267.983485,0.0175,0*83b8a568
#BESTVELA,FILE,0,25.0,FINESTEERING,2319,307475.950,02000000,10a2,17139;SOL_COMPUTED,NARROW_INT,0.025,0.950,9.8048,268.145085,-0.0236,0*9b0529d0
#BESTVELA,FILE,0,25.0,FINESTEERING,2319,307476.000,02000000,10a2,17139;SOL_COMPUTED,NARROW_INT,0.025,1.000,9.8336,267.970329,-0.0498,0*a81faf4b
#BESTVELA,FILE,0,25.0,FINESTEERING,2319,307476.050,02000000,10a2,17139;SOL_COMPUTED,NARROW_INT,0.025,1.050,9.8454,267.655028,0.0394,0*d7b8df95
#BESTVELA,FILE,0,25.0,FINESTEERING,2319,307476.100,02000000,10a2,17139;SOL_COMPUTED,NARROW_INT,0.025,1.100,9.8473,268.027722,0.0346,0*5489d906
#BESTVELA,FILE,0,27.0,FINESTEERING,2319,307476.150,02000000,10a2,17139;SOL_COMPUTED,NARROW_INT,0.025,1.150,9.8649,267.517101,-0.0224,0*9dcbbf2f
#BESTVELA,FILE,0,27.0,FINESTEERING,2319,307476.200,02000000,10a2,17139;SOL_COMPUTED,NARROW_INT,0.025,1.200,9.8810,267.743482,0.0388,0*5b214f9c
#BESTVELA,FILE,0,27.0,FINESTEERING,2319,307476.250,02000000,10a2,17139;SOL_COMPUTED,NARROW_INT,0.025,1.250,9.9396,267.587623,0.0298,0*d489cfcc
#BESTVELA,FILE,0,27.0,FINESTEERING,2319,307476.300,02000000,10a2,17139;SOL_COMPUTED,NARROW_INT,0.025,1.300,9.9498,267.682045,0.0327,0*213db0c2
#BESTVELA,FILE,0,27.0,FINESTEERING,2319,307476.350,02000000,10a2,17139;SOL_COMPUTED,NARROW_INT,0.025,1.350,9.9934,267.309586,0.0588,0*7e645cad
#BESTVELA,FILE,0,27.0,FINESTEERING,2319,307476.400,02000000,10a2,17139;SOL_COMPUTED,NARROW_INT,0.025,0.400,10.0028,267.330886,-0.0156,0*46afd075
#BESTVELA,FILE,0,27.0,FINESTEERING,2319,307476.450,02000000,10a2,17139;SOL_COMPUTED,NARROW_INT,0.025,0.450,10.0506,267.474810,0.0014,0*88e0d4b5
#BESTVELA,FILE,0,27.0,FINESTEERING,2319,307476.500,02000000,10a2,17139;SOL_COMPUTED,NARROW_INT,0.025,0.500,9.9871,267.326339,-0.0729,0*a0127049
#BESTVELA,FILE,0,27.0,FINESTEERING,2319,307476.550,02000000,10a2,17139;SOL_COMPUTED,NARROW_INT,0.025,0.550,10.0253,267.487573,-0.0828,0*159d1e11
#BESTVELA,FILE,0,27.0,FINESTEERING,2319,307476.600,02000000,10a2,17139;SOL_COMPUTED,NARROW_INT,0.025,0.600,10.0360,267.525140,-0.0427,0*60f7ef5c
#BESTVELA,FILE,0,27.0,FINESTEERING,2319,307476.650,02000000,10a2,17139;SOL_COMPUTED,NARROW_INT,0.025,0.650,10.0332,267.158076,-0.1081,0*78f1fa2a
#BESTVELA,FILE,0,27.0,FINESTEERING,2319,307476.700,02000000,10a2,17139;SOL_COMPUTED,NARROW_INT,0.025,0.700,10.0547,267.239869,-0.1772,0*3d679ef8
#BESTVELA,FILE,0,27.0,FINESTEERING,2319,307476.750,02000000,10a2,17139;SOL_COMPUTED,NARROW_INT,0.025,0.750,10.0331,267.444501,-0.1075,0*11277a9f
#BESTVELA,FILE,0,27.0,FINESTEERING,2319,307476.800,02000000,10a2,17139;SOL_COMPUTED,NARROW_INT,0.025,0.800,10.1093,267.574733,-0.0827,0*a6f19d6a
#BESTVELA,FILE,0,27.0,FINESTEERING,2319,307476.850,02000000,10a2,17139;SOL_COMPUTED,NARROW_INT,0.025,0.850,10.1437,267.473397,-0.0839,0*df4b0c43
#BESTVELA,FILE,0,27.0,FINESTEERING,2319,307476.900,02000000,10a2,17139;SOL_COMPUTED,NARROW_INT,0.025,0.900,10.1579,268.063551,-0.0818,0*0c59bc92
#BESTVELA,FILE,0,27.0,FINESTEERING,2319,307476.950,02000000,10a2,17139;SOL_COMPUTED,NARROW_INT,0.025,0.950,10.1511,267.805396,-0.1030,0*968446f1
#BESTVELA,FILE,0,27.0,FINESTEERING,2319,307477.000,02000000,10a2,17139;SOL_COMPUTED,NARROW_INT,0.025,1.000,10.1971,267.805215,-0.0776,0*637b6217
#BESTVELA,FILE,0,27.0,FINESTEERING,2319,307477.050,02000000,10a2,17139;SOL_COMPUTED,NARROW_INT,0.025,1.050,10.2004,267.869806,-0.1313,0*57078f84
#BESTVELA,FILE,0,27.0,FINESTEERING,2319,307477.100,02000000,10a2,17139;SOL_COMPUTED,NARROW_INT,0.025,1.100,10.1876,267.761424,-0.1356,0*16042713
#BESTVELA,FILE,0,27.0,FINESTEERING,2319,307477.150,02000000,10a2,17139;SOL_COMPUTED,NARROW_INT,0.025,1.150,10.2029,267.968804,-0.0971,0*224c498e
#BESTVELA,FILE,0,27.0,FINESTEERING,2319,307477.200,02000000,10a2,17139;SOL_COMPUTED,NARROW_INT,0.025,1.200,10.2449,267.813564,-0.1883,0*aaa9a718
#BESTVELA,FILE,0,27.0,FINESTEERING,2319,307477.250,02000000,10a2,17139;SOL_COMPUTED,NARROW_INT,0.025,1.250,10.2216,268.078073,-0.1293,0*aad06bbe
#BESTVELA,FILE,0,27.0,FINESTEERING,2319,307477.300,02000000,10a2,17139;SOL_COMPUTED,NARROW_INT,0.025,1.300,10.2312,268.166160,-0.1548,0*dc6f5be6
#BESTVELA,FILE,0,27.0,FINESTEERING,2319,307477.350,02000000,10a2,17139;SOL_COMPUTED,NARROW_INT,0.025,0.350,10.2534,267.803597,-0.1731,0*6bd8fd00
#BESTVELA,FILE,0,27.0,FINESTEERING,2319,307477.400,02000000,10a2,17139;SOL_COMPUTED,NARROW_INT,0.025,0.400,10.2341,268.011813,-0.1778,0*cc3a4def
#BESTVELA,FILE,0,27.0,FINESTEERING,2319,307477.450,02000000,10a2,17139;SOL_COMPUTED,NARROW_INT,0.025,0.450,10.2413,267.994948,-0.0878,0*45891154
#BESTVELA,FILE,0,27.0,FINESTEERING,2319,307477.500,02000000,10a2,17139;SOL_COMPUTED,NARROW_INT,0.025,0.500,10.2861,268.210095,-0.0727,0*546b894c
#BESTVELA,FILE,0,27.0,FINESTEERING,2319,307477.550,02000000,10a2,17139;SOL_COMPUTED,NARROW_INT,0.025,0.550,10.3150,268.324720,-0.0479,0*20084cdb
#BESTVELA,FILE,0,27.0,FINESTEERING,2319,307477.600,02000000,10a2,17139;SOL_COMPUTED,NARROW_INT,0.025,0.600,10.3615,268.376899,0.0046,0*2c12997e
#BESTVELA,FILE,0,27.0,FINESTEERING,2319,307477.650,02000000,10a2,17139;SOL_COMPUTED,NARROW_INT,0.025,0.650,10.4127,268.579883,-0.0225,0*fea5c69e
#BESTVELA,FILE,0,27.0,FINESTEERING,2319,307477.700,02000000,10a2,17139;SOL_COMPUTED,NARROW_INT,0.025,0.700,10.3932,268.809365,0.0506,0*9d22a8e1
#BESTVELA,FILE,0,27.0,FINESTEERING,2319,307477.750,02000000,10a2,17139;SOL_COMPUTED,NARROW_INT,0.025,0.750,10.4068,269.030407,0.0290,0*0dfd63a8
#BESTVELA,FILE,0,27.0,FINESTEERING,2319,307477.800,02000000,10a2,17139;SOL_COMPUTED,NARROW_INT,0.025,0.800,10.4178,268.821195,-0.1064,0*6bd3d599
#BESTVELA,FILE,0,27.0,FINESTEERING,2319,307477.850,02000000,10a2,17139;SOL_COMPUTED,NARROW_INT,0.025,0.850,10.3851,268.861904,-0.1408,0*a21d3e54
#BESTVELA,FILE,0,27.0,FINESTEERING,2319,307477.900,02000000,10a2,17139;SOL_COMPUTED,NARROW_INT,0.025,0.900,10.3631,269.416492,-0.1272,0*5296fb11
#BESTVELA,FILE,0,27.0,FINESTEERING,2319,307477.950,02000000,10a2,17139;SOL_COMPUTED,NARROW_INT,0.025,0.950,10.3555,269.433836,-0.1024,0*5ce31db5
#BESTVELA,FILE,0,27.0,FINESTEERING,2319,307478.000,02000000,10a2,17139;SOL_COMPUTED,NARROW_INT,0.025,1.000,10.3430,269.811255,-0.1512,0*46be605d
#BESTVELA,FILE,0,27.0,FINESTEERING,2319,307478.050,02000000,10a2,17139;SOL_COMPUTED,NARROW_INT,0.025,1.050,10.3887,270.176880,-0.0714,0*79c9d5b1
#BESTVELA,FILE,0,27.0,FINESTEERING,2319,307478.100,02000000,10a2,17139;SOL_COMPUTED,NARROW_INT,0.025,1.100,10.3833,270.457351,-0.0828,0*d90ed0cc
#BESTVELA,FILE,0,27.0,FINESTEERING,2319,307478.150,02000000,10a2,17139;SOL_COMPUTED,NARROW_INT,0.025,1.150,10.3731,270.386238,-0.0430,0*f0e86c44
#BESTVELA,FILE,0,27.0,FINESTEERING,2319,307478.200,02000000,10a2,17139;SOL_COMPUTED,NARROW_INT,0.025,1.200,10.4147,270.554220,-0.0388,0*fdda2432
#BESTVELA,FILE,0,27.0,FINESTEERING,2319,307478.250,02000000,10a2,17139;SOL_COMPUTED,NARROW_INT,0.025,1.250,10.4372,270.667402,-0.0211,0*44b0f454
#BESTVELA,FILE,0,27.0,FINESTEERING,2319,307478.300,02000000,10a2,17139;SOL_COMPUTED,NARROW_INT,0.025,1.300,10.4430,270.742022,0.0123,0*abd124e4
#BESTVELA,FILE,0,27.0,FINESTEERING,2319,307478.350,02000000,10a2,17139;SOL_COMPUTED,NARROW_INT,0.025,0.350,10.4598,270.763090,0.0202,0*13e2b421
#BESTVELA,FILE,0,27.0,FINESTEERING,2319,307478.400,02000000,10a2,17139;SOL_COMPUTED,NARROW_INT,0.025,0.400,10.4934,270.478478,0.0280,0*d38191a9
#BESTVELA,FILE,0,27.0,FINESTEERING,2319,307478.450,02000000,10a2,17139;SOL_COMPUTED,NARROW_INT,0.025,0.450,10.4928,270.581413,0.0003,0*662bf719
#BESTVELA,FILE,0,27.0,FINESTEERING,2319,307478.500,02000000,10a2,17139;SOL_COMPUTED,NARROW_INT,0.025,0.500,10.4908,270.374503,-0.0695,0*98144107
