#CORRIMUDATAA,FILE,0,29.0,FINESTEERING,2319,307456.500,02000800,e5fc,17139;2319,307456.500000000,-0.0001311598417118,-0.0001210528509050,-0.0008154527567137,-0.0002208089674784,-0.0243622872798813,-0.0063492049810722*27fb5458
#CORRIMUDATAA,FILE,0,29.0,FINESTEERING,2319,307456.550,02000800,e5fc,17139;2319,307456.550000000,0.0001262707114144,-0.0000065699983999,-0.0007133654225037,0.0031207814837786,-0.0219014984982188,-0.0094598600116162*182e6a56
#CORRIMUDATAA,FILE,0,29.0,FINESTEERING,2319,307456.600,02000800,e5fc,17139;2319,307456.600000000,0.0002980999894070,-0.0002181701561130,-0.0005279752757469,0.0068616247863527,-0.0228185198398318,-0.0035839911423382*3d133f65
#CORRIMUDATAA,FILE,0,29.0,FINESTEERING,2319,307456.650,02000800,e5fc,17139;2319,307456.650000000,0.0001277086608488,-0.0005050390306617,-0.0003675754785293,0.0017668841398540,-0.0250219590375065,0.0073168005832496*a9f3f935
#CORRIMUDATAA,FILE,0,29.0,FINESTEERING,2319,307456.700,02000800,e5fc,17139;2319,307456.700000000,-0.0001178190157721,-0.0006052826881586,-0.0003692499336894,-0.0041744143411653,-0.0250180190477211,0.0087524054816674*00728cff
#CORRIMUDATAA,FILE,0,29.0,FINESTEERING,2319,307456.750,02000800,e5fc,17139;2319,307456.750000000,-0.0002992503473112,-0.0003973690790500,-0.0004848985182031,-0.0052694790966266,-0.0206269063308775,0.0087473831687244*eabc30ba
#CORRIMUDATAA,FILE,0,29.0,FINESTEERING,2319,307456.800,02000800,e5fc,17139;2319,307456.800000000,-0.0002803063475891,-0.0002061332459672,-0.0006421025494721,-0.0018854783220476,-0.0127443841543553,-0.0006463202168262*9b52c78a
#CORRIMUDATAA,FILE,0,29.0,FINESTEERING,2319,307456.900,02000800,e5fc,17139;2319,307456.900000000,-0.0003234469738287,-0.0001710573350756,-0.0006078296000278,0.0051993623769976,-0.0118176367528812,0.0036424692258418*62dae2e7
#CORRIMUDATAA,FILE,0,29.0,FINESTEERING,2319,307457.000,02000800,e5fc,17139;2319,307457.000000000,-0.0004454438764932,-0.0000865334244746,-0.0005110767474756,-0.0026385582497620,-0.0105118296301567,0.0022459767557630*91c96165
#CORRIMUDATAA,FILE,0,29.0,FINESTEERING,2319,307457.100,02000800,e5fc,17139;2319,307457.100000000,-0.0006356203054008,-0.0002292320757992,-0.0005330057860592,-0.0027726245989936,-0.0096590240387805,0.0016379324742878*9ec651e6
#CORRIMUDATAA,FILE,0,29.5,FINESTEERING,2319,307457.200,02000800,e5fc,17139;2319,307457.200000000,-0.0004255977321082,-0.0003524576234868,-0.0002722546126906,0.0049214827355204,-0.0050211569314880,-0.0084622475698822*a50f4862
#CORRIMUDATAA,FILE,0,29.5,FINESTEERING,2319,307457.300,02000800,e5fc,17139;2319,307457.300000000,0.0002714346010623,-0.0002485190907536,0.0002246638805745,0.0037031123452238,0.0076148759594594,-0.0147231782645974*7e697d4c
#CORRIMUDATAA,FILE,0,29.5,FINESTEERING,2319,307457.400,02000800,e5fc,17139;2319,307457.400000000,0.0003334188561939,0.0001061207639484,0.0005118714453108,-0.0010805607818089,0.0036312979723389,0.0019434834862630*03660e56
#CORRIMUDATAA,FILE,0,29.5,FINESTEERING,2319,307457.500,02000800,e5fc,17139;2319,307457.500000000,-0.0001845449991450,-0.0000049517838787,0.0006375232745809,-0.0036562661210665,0.0001729171844136,0.0145028020784093*6341052d
#CORRIMUDATAA,FILE,0,29.5,FINESTEERING,2319,307457.600,02000800,e5fc,17139;2319,307457.600000000,-0.0005574099595120,-0.0000619545757606,0.0009773724478033,0.0026223971248762,0.0032082868753455,0.0036059014200319*dd95c7b7
#CORRIMUDATAA,FILE,0,29.5,FINESTEERING,2319,307457.700,02000800,e5fc,17139;2319,307457.700000000,-0.0004692792484543,-0.0003333325039323,0.0014732517852709,0.0007215785613287,0.0044948703937661,-0.0045731608796954*5fc6b1a9
#CORRIMUDATAA,FILE,0,29.5,FINESTEERING,2319,307457.800,02000800,e5fc,17139;2319,307457.800000000,-0.0003380547697140,-0.0003742700440165,0.0015812637572030,-0.0053336056928935,0.0035844710839214,-0.0033492030774150*e27cd61a
#CORRIMUDATAA,FILE,0,29.5,FINESTEERING,2319,307457.850,02000800,e5fc,17139;2319,307457.850000000,-0.0003361592935193,-0.0003372586342113,0.0015249893440565,-0.0041817175964798,0.0037964439391468,0.0001320181178544*7d2d2e19
#CORRIMUDATAA,FILE,0,29.5,FINESTEERING,2319,307457.950,02000800,e5fc,17139;2319,307457.950000000,-0.0004413757800020,-0.0003601750932761,0.0014487995164890,-0.0001526169120207,0.0044815755490885,0.0019186502649621*0e072c66
#CORRIMUDATAA,FILE,0,29.5,FINESTEERING,2319,307458.050,02000800,e5fc,17139;2319,307458.050000000,-0.0003193909002440,-0.0004058071122957,0.0014994581412386,-0.0026023696356681,0.0049836191804597,-0.0008402237672061*99fe0ccc
#CORRIMUDATAA,FILE,0,29.5,FINESTEERING,2319,307458.150,02000800,e5fc,17139;2319,307458.150000000,-0.0001097727754486,-0.0004595295790046,0.0014687933995973,-0.0019609440011776,0.0077441414810357,-0.0103140196277889*62bc744c
#CORRIMUDATAA,FILE,0,30.5,FINESTEERING,2319,307458.250,02000800,e5fc,17139;2319,307458.250000000,0.0002872415656952,-0.0004887883070701,0.0014425333028055,-0.0016171174439913,0.0095456201050241,-0.0122694295457613*3f99724a
#CORRIMUDATAA,FILE,0,30.5,FINESTEERING,2319,307458.350,02000800,e5fc,17139;2319,307458.350000000,0.0004226388465496,-0.0003414735552568,0.0013490312128538,-0.0004411118928934,0.0078713777184955,0.0009281164628761*bf8115ba
#CORRIMUDATAA,FILE,0,30.5,FINESTEERING,2319,307458.450,02000800,e5fc,17139;2319,307458.450000000,0.0001635270981917,-0.0002867692945097,0.0012494144066342,-0.0010078136537285,0.0057270299349674,0.0121143020906015*3a40b8c4
#CORRIMUDATAA,FILE,0,30.5,FINESTEERING,2319,307458.550,02000800,e5fc,17139;2319,307458.550000000,-0.0005327789526538,-0.0001115073219042,0.0010027749934903,-0.0020750049172917,0.0055954563909345,0.0098410368268049*158a7803
#CORRIMUDATAA,FILE,0,30.5,FINESTEERING,2319,307458.650,02000800,e5fc,17139;2319,307458.650000000,-0.0005711342783570,-0.0001578855081940,0.0007755343073128,-0.0023667644180568,0.0095690483547227,-0.0052918187257534*95445ff3
#CORRIMUDATAA,FILE,0,30.5,FINESTEERING,2319,307458.750,02000800,e5fc,17139;2319,307458.750000000,-0.0002807179311232,-0.0004569949960496,0.0007905059340711,-0.0002997680310811,0.0099057987408990,-0.0113141994767341*6c43bbd1
#CORRIMUDATAA,FILE,0,30.5,FINESTEERING,2319,307458.850,02000800,e5fc,17139;2319,307458.850000000,-0.0000160491796107,-0.0005900774341943,0.0005094207090835,-0.0039029454101419,0.0099762801113989,-0.0048355189837091*47f1d683
#CORRIMUDATAA,FILE,0,30.5,FINESTEERING,2319,307458.950,02000800,e5fc,17139;2319,307458.950000000,-0.0001233136812292,-0.0003508106417359,0.0002298743358453,0.0033662515315594,0.0087628681170330,0.0007484232333277*db837a84
#CORRIMUDATAA,FILE,0,30.5,FINESTEERING,2319,307459.000,02000800,e5fc,17139;2319,307459.000000000,-0.0001846224355251,-0.0003247190717505,0.0001178667008027,0.0022768311896655,0.0078317237106090,0.0044256043371665*b94d3879
#CORRIMUDATAA,FILE,0,30.5,FINESTEERING,2319,307459.100,02000800,e5fc,17139;2319,307459.100000000,-0.0000731864006284,-0.0004650047217676,-0.0002388972288831,-0.0036148205390534,0.0066925153497866,-0.0023483069752381*41419fde
#CORRIMUDATAA,FILE,0,31.0,FINESTEERING,2319,307459.200,02000800,e5fc,17139;2319,307459.200000000,-0.0002154276953576,-0.0002640755884960,-0.0005176845274028,0.0011088272662383,0.0092075168330736,-0.0015218869511742*e828240f
#CORRIMUDATAA,FILE,0,31.0,FINESTEERING,2319,307459.300,02000800,e5fc,17139;2319,307459.300000000,-0.0003618936724059,-0.0004469892855310,-0.0008891962195582,-0.0006167465000951,0.0085968941031397,-0.0029843899953533*63355613
#CORRIMUDATAA,FILE,0,31.0,FINESTEERING,2319,307459.400,02000800,e5fc,17139;2319,307459.400000000,-0.0000963360607700,-0.0001331665449730,-0.0010863881044771,0.0049457204386119,0.0074018758236498,0.0004393606331619*bdf2c4b5
#CORRIMUDATAA,FILE,0,31.0,FINESTEERING,2319,307459.500,02000800,e5fc,17139;2319,307459.500000000,-0.0001271335594045,-0.0000252704288103,-0.0011661247924388,0.0055273158012999,0.0053652501283735,0.0022842602181713*5b41ca5f
#CORRIMUDATAA,FILE,0,31.0,FINESTEERING,2319,307459.600,02000800,e5fc,17139;2319,307459.600000000,-0.0000973226817583,-0.0000341033832512,-0.0012728214626168,-0.0024071072919763,0.0081697680204407,-0.0029019380494432*a186e5c7
#CORRIMUDATAA,FILE,0,31.0,FINESTEERING,2319,307459.700,02000800,e5fc,17139;2319,307459.700000000,-0.0000382262644335,0.0004783617062656,-0.0015372349641936,0.0038270529884205,0.0069638342868510,-0.0029132562280677*07b80c31
#CORRIMUDATAA,FILE,0,31.0,FINESTEERING,2319,307459.750,02000800,e5fc,17139;2319,307459.750000000,-0.0003248421139243,0.0001907296108364,-0.0015399001882816,0.0067662952849138,-0.0003507950166313,0.0017607811367170*3f36bfa2
#CORRIMUDATAA,FILE,0,31.0,FINESTEERING,2319,307459.800,02000800,e5fc,17139;2319,307459.800000000,-0.0005609353494359,-0.0000424057765168,-0.0013996342686884,0.0047855193085510,-0.0044220962660161,0.0038878836166525*0c83eab0
#CORRIMUDATAA,FILE,0,31.0,FINESTEERING,2319,307459.850,02000800,e5fc,17139;2319,307459.850000000,-0.0005612166473800,-0.0000394224046112,-0.0012815372720895,-0.0005116659264059,-0.0049587901563556,0.0002921883772353*ec5346eb
#CORRIMUDATAA,FILE,0,31.0,FINESTEERING,2319,307459.900,02000800,e5fc,17139;2319,307459.900000000,-0.0004394771773693,0.0001238393696165,-0.0011898959316342,0.0016909642550871,-0.0030178293106324,-0.0013649578874485*a229f7ee
#CORRIMUDATAA,FILE,0,31.0,FINESTEERING,2319,307459.950,02000800,e5fc,17139;2319,307459.950000000,-0.0003331048105620,-0.0000778448227651,-0.0011939348604365,0.0007598323895711,-0.0043353857493946,-0.0027226718694365*e9037579
#CORRIMUDATAA,FILE,0,31.0,FINESTEERING,2319,307460.000,02000800,e5fc,17139;2319,307460.000000000,-0.0002370253669371,-0.0002164647978471,-0.0012912124520971,-0.0002764207330098,-0.0037984375836101,-0.0027812732114503*0a6cc39b
#CORRIMUDATAA,FILE,0,31.0,FINESTEERING,2319,307460.050,02000800,e5fc,17139;2319,307460.050000000,-0.0000616454047823,-0.0003358237898525,-0.0014457715673639,-0.0030023424388345,-0.0027071628073229,-0.0023569714690535*ab7a41c8
#CORRIMUDATAA,FILE,0,30.5,FINESTEERING,2319,307460.100,02000800,e5fc,17139;2319,307460.100000000,0.0001403866913911,-0.0002739936836413,-0.0015542006849177,-0.0006994039218733,0.0050037604964298,-0.0026039206227309*0f5842cd
#CORRIMUDATAA,FILE,0,30.5,FINESTEERING,2319,307460.150,02000800,e5fc,17139;2319,307460.150000000,0.0001625575037730,-0.0003211973274176,-0.0015429540271407,0.0053370067911598,0.0063154724641066,-0.0009720222981294*e26f53cd
#CORRIMUDATAA,FILE,0,30.5,FINESTEERING,2319,307460.200,02000800,e5fc,17139;2319,307460.200000000,0.0000089746463981,-0.0003605714264300,-0.0013907223037608,0.0070721759621598,0.0064669755910029,0.0002036982898432*2dfd196c
#CORRIMUDATAA,FILE,0,30.5,FINESTEERING,2319,307460.250,02000800,e5fc,17139;2319,307460.250000000,-0.0000637947790146,-0.0003785042731291,-0.0012765983859346,0.0035418255562486,0.0058459920331289,0.0005335603521874*418f0aa1
#CORRIMUDATAA,FILE,0,30.5,FINESTEERING,2319,307460.300,02000000,e5fc,17139;2319,307460.300000000,-0.0000701820243506,-0.0001084037247226,-0.0012519531288066,0.0020231846527186,0.0071568264371776,-0.0009192475775206*d648fd22
#CORRIMUDATAA,FILE,0,30.5,FINESTEERING,2319,307460.350,02000000,e5fc,17139;2319,307460.350000000,0.0000255695471533,-0.0001055846059837,-0.0013491101646358,0.0025882719315482,0.0078185155602921,0.0001940003217494*95432945
#CORRIMUDATAA,FILE,0,30.5,FINESTEERING,2319,307460.400,02000000,e5fc,17139;2319,307460.400000000,0.0000111507445311,-0.0001488982579813,-0.0014865408565966,0.0008440581724896,0.0067753331671164,0.0006359765641290*3f5bffac
#CORRIMUDATAA,FILE,0,30.5,FINESTEERING,2319,307460.450,02000000,e5fc,17139;2319,307460.450000000,0.0000056040952419,-0.0002001120980274,-0.0016302644630123,0.0015871243258560,0.0072353211055533,0.0000659195179955*8eaeac3b
#CORRIMUDATAA,FILE,0,30.5,FINESTEERING,2319,307460.500,02000000,e5fc,17139;2319,307460.500000000,-0.0000952865184247,-0.0002077178873422,-0.0017241573369185,0.0006970765427297,0.0077060283174818,0.0013378237307493*7dd9f713
#CORRIMUDATAA,FILE,0,30.5,FINESTEERING,2319,307460.550,02000000,e5fc,17139;2319,307460.550000000,-0.0002343385149304,-0.0002606110749786,-0.0017812027639917,0.0024709668839786,0.0070716496358538,0.0017107097089580*12907873
#CORRIMUDATAA,FILE,0,30.5,FINESTEERING,2319,307460.600,02000000,e5fc,17139;2319,307460.600000000,-0.0001163817744078,-0.0001425360849389,-0.0017708918631271,0.0057181418325520,0.0070957835700336,-0.0048215197760191*ef2b3921
#CORRIMUDATAA,FILE,0,30.5,FINESTEERING,2319,307460.650,02000000,e5fc,17139;2319,307460.650000000,0.0000368738924468,-0.0000450745486887,-0.0017917033979156,0.0068254388913224,0.0090120537989851,-0.0055509211780312*dbc5f168
#CORRIMUDATAA,FILE,0,30.5,FINESTEERING,2319,307460.700,02000000,e5fc,17139;2319,307460.700000000,0.0000514046924636,-0.0002673375464435,-0.0018940457993655,0.0039612102891899,0.0071162979369611,0.0019737606612960*994a2369
#CORRIMUDATAA,FILE,0,30.5,FINESTEERING,2319,307460.750,02000000,e5fc,17139;2319,307460.750000000,-0.0001231481128176,-0.0004045091393618,-0.0020930762681800,-0.0019538097763056,0.0053501231244687,0.0072471160729409*4a9481b0
#CORRIMUDATAA,FILE,0,30.5,FINESTEERING,2319,307460.800,02000000,e5fc,17139;2319,307460.800000000,-0.0002066412256455,-0.0002342715292371,-0.0022662247001622,-0.0019093773234301,0.0076151636949324,0.0047033407013058*11b051e6
#CORRIMUDATAA,FILE,0,30.5,FINESTEERING,2319,307460.850,02000000,e5fc,17139;2319,307460.850000000,-0.0000998003059318,0.0000208357874030,-0.0023604992558569,0.0032672658934115,0.0093090485137097,-0.0043288989704441*16f175ca
#CORRIMUDATAA,FILE,0,30.5,FINESTEERING,2319,307460.900,02000000,e5fc,17139;2319,307460.900000000,-0.0000120422744843,0.0001662392228255,-0.0023432572927111,0.0099973147942421,0.0089737129995689,-0.0046514300146214*c194291a
#CORRIMUDATAA,FILE,0,30.5,FINESTEERING,2319,307460.950,02000000,e5fc,17139;2319,307460.950000000,-0.0000033758725585,0.0001796710210508,-0.0023308238117842,0.0098929601847802,0.0091259574834848,-0.0027963383869753*6a432253
#CORRIMUDATAA,FILE,0,30.5,FINESTEERING,2319,307461.000,02000000,e5fc,17139;2319,307461.000000000,-0.0000853718009834,0.0001636373488708,-0.0023984251840667,0.0043166445975952,0.0082144530295099,0.0041309979088526*d4dd0f74
#CORRIMUDATAA,FILE,0,30.5,FINESTEERING,2319,307461.050,02000000,e5fc,17139;2319,307461.050000000,-0.0001991409720597,0.0003946239519545,-0.0025044935380694,0.0022351844859524,0.0104612766973169,0.0020579677246751*6dd08284
#CORRIMUDATAA,FILE,0,19.5,FINESTEERING,2319,307461.100,02000000,e5fc,17139;2319,307461.100000000,-0.0002992349416145,0.0003677729394604,-0.0025701901604598,0.0007874579300221,0.0117899144855086,-0.0012154648032378*00858d76
#CORRIMUDATAA,FILE,0,19.5,FINESTEERING,2319,307461.150,02000000,e5fc,17139;2319,307461.150000000,-0.0004179175850174,0.0002909716456630,-0.0025967720053611,0.0017241660128193,0.0068763660143276,0.0027333744752433*c946c09c
#CORRIMUDATAA,FILE,0,19.5,FINESTEERING,2319,307461.200,02000000,e5fc,17139;2319,307461.200000000,-0.0001785964857646,0.0002362371128659,-0.0026395139348657,0.0016967863180536,0.0095845805936700,0.0078491383251865*0ee76d84
#CORRIMUDATAA,FILE,0,19.5,FINESTEERING,2319,307461.250,02000000,e5fc,17139;2319,307461.250000000,0.0000722133019138,0.0000752327319862,-0.0025047706529756,0.0149419450295447,0.0161596566468372,-0.0078503214032285*efde222f
#CORRIMUDATAA,FILE,0,19.5,FINESTEERING,2319,307461.300,02000000,e5fc,17139;2319,307461.300000000,0.0001878234260772,-0.0005607002790400,-0.0023493071893598,0.0079402061393263,0.0178094420664315,-0.0103714158008248*528d322f
#CORRIMUDATAA,FILE,0,19.5,FINESTEERING,2319,307461.350,02000000,e5fc,17139;2319,307461.350000000,0.0000038621512429,-0.0003784741921561,-0.0023283516296072,-0.0012616527640351,0.0125769860282028,-0.0016423080932978*7e6e7ab3
#CORRIMUDATAA,FILE,0,19.5,FINESTEERING,2319,307461.400,02000000,e5fc,17139;2319,307461.400000000,-0.0000077457133201,-0.0003445309763968,-0.0024754729716413,-0.0061466796913440,0.0103938741140521,0.0033744581485595*0ee06f2d
#CORRIMUDATAA,FILE,0,19.5,FINESTEERING,2319,307461.450,02000000,e5fc,17139;2319,307461.450000000,-0.0002571035738081,0.0001410547081839,-0.0025841168440625,0.0024575465019939,0.0031639407832042,0.0015655422375266*5812ea18
#CORRIMUDATAA,FILE,0,19.5,FINESTEERING,2319,307461.500,02000000,e5fc,17139;2319,307461.500000000,-0.0001444395153440,0.0001364600031151,-0.0025410668003282,0.0104882334628458,0.0050495450998579,0.0008971747582638*a7da9c0f
#CORRIMUDATAA,FILE,0,19.5,FINESTEERING,2319,307461.550,02000000,e5fc,17139;2319,307461.550000000,-0.0000222427643350,0.0000604358171971,-0.0024250149498784,0.0115693653740397,0.0044118777150343,0.0019678998404811*4f66b466
#CORRIMUDATAA,FILE,0,19.5,FINESTEERING,2319,307461.600,02000000,e5fc,17139;2319,307461.600000000,-0.0000665294373918,0.0000872571118609,-0.0022996672825122,0.0079987785995733,0.0073464050421979,0.0053705707715474*432049a2
#CORRIMUDATAA,FILE,0,19.5,FINESTEERING,2319,307461.650,02000000,e5fc,17139;2319,307461.650000000,0.0000680052961197,0.0001235592395275,-0.0021515978356236,0.0062837560615797,0.0148382469326509,-0.0063428854509386*910a03c7
#CORRIMUDATAA,FILE,0,19.5,FINESTEERING,2319,307461.700,02000000,e5fc,17139;2319,307461.700000000,0.0002137857785597,0.0001639440554694,-0.0020090184941277,0.0051519418648043,0.0228978380351409,-0.0064388916497228*619f0404
#CORRIMUDATAA,FILE,0,19.5,FINESTEERING,2319,307461.750,02000000,e5fc,17139;2319,307461.750000000,0.0003233548459643,0.0002574640050072,-0.0018671840943374,0.0040170652343494,0.0245136981980140,-0.0040389618354548*71980408
#CORRIMUDATAA,FILE,0,19.5,FINESTEERING,2319,307461.800,02000000,e5fc,17139;2319,307461.800000000,0.0003577937753502,0.0001850722757097,-0.0018112361731902,0.0032026796775718,0.0256915842803726,0.0015915326364116*f714522d
#CORRIMUDATAA,FILE,0,19.5,FINESTEERING,2319,307461.850,02000000,e5fc,17139;2319,307461.850000000,0.0003042671304945,0.0001580564775917,-0.0017784527216212,0.0023694148606448,0.0288396504600714,0.0020184155582619*c7051d89
#CORRIMUDATAA,FILE,0,19.5,FINESTEERING,2319,307461.900,02000000,e5fc,17139;2319,307461.900000000,0.0003115251444227,-0.0000019926128458,-0.0017937763436402,0.0021860330392426,0.0328887724751997,0.0012185875393972*e636203c
#CORRIMUDATAA,FILE,0,19.5,FINESTEERING,2319,307461.950,02000000,e5fc,17139;2319,307461.950000000,0.0002090110395499,-0.0000704428475529,-0.0017372921353891,0.0048345634036542,0.0382266343501225,0.0000622929895823*f6610ce0
#CORRIMUDATAA,FILE,0,19.5,FINESTEERING,2319,307462.000,02000000,e5fc,17139;2319,307462.000000000,0.0002851211110631,-0.0001683636025547,-0.0016119591975981,0.0056700021234289,0.0407283615635330,-0.0033203663076296*aa490f32
#CORRIMUDATAA,FILE,0,19.5,FINESTEERING,2319,307462.050,02000000,e5fc,17139;2319,307462.050000000,0.0002063354638741,-0.0001789444907810,-0.0014134816511344,0.0061533532099647,0.0404275047362032,0.0016959306025594*41127a4c
#CORRIMUDATAA,FILE,0,19.5,FINESTEERING,2319,307462.100,02000000,e5fc,17139;2319,307462.100000000,0.0001457537422600,-0.0002167878536718,-0.0012448021916560,0.0048601154320659,0.0426291168641957,0.0013304584905580*451fa11c
#CORRIMUDATAA,FILE,0,19.5,FINESTEERING,2319,307462.150,02000000,e5fc,17139;2319,307462.150000000,0.0002312119513621,-0.0002340978542564,-0.0011597914411939,0.0031391992244557,0.0482490126398595,-0.0014307733876958*ae059068
#CORRIMUDATAA,FILE,0,19.5,FINESTEERING,2319,307462.200,02000000,e5fc,17139;2319,307462.200000000,0.0002557527846053,-0.0001671626343544,-0.0011467056249022,0.0025075921835133,0.0505429821455930,0.0002317845436844*07c53504
#CORRIMUDATAA,FILE,0,25.5,FINESTEERING,2319,307462.250,02000000,e5fc,17139;2319,307462.250000000,0.0002492688113654,-0.0000809797172281,-0.0011049931470860,0.0046440041154067,0.0548236352713548,0.0005866736423570*54cfbc6d
#CORRIMUDATAA,FILE,0,25.5,FINESTEERING,2319,307462.300,02000000,e5fc,17139;2319,307462.300000000,0.0004301644187812,-0.0000834661560677,-0.0010032160913857,0.0076336645313058,0.0582071022659075,-0.0042848878856947*f4a9e22d
#CORRIMUDATAA,FILE,0,25.5,FINESTEERING,2319,307462.350,02000000,e5fc,17139;2319,307462.350000000,0.0003016260576642,0.0002828014363561,-0.0008218876528977,0.0084919987433334,0.0597030167800260,-0.0067281408337662*dbca4ce6
#CORRIMUDATAA,FILE,0,25.5,FINESTEERING,2319,307462.400,02000000,e5fc,17139;2319,307462.400000000,0.0004108781136931,0.0003893334119542,-0.0007174431713276,0.0067726917815052,0.0618299587625869,-0.0037349152717486*1201a703
#CORRIMUDATAA,FILE,0,25.5,FINESTEERING,2319,307462.450,02000000,e5fc,17139;2319,307462.450000000,0.0004913779257184,0.0002227086615607,-0.0006877027152420,0.0046156248516764,0.0628651751600257,-0.0013998577077463*b4a22fb1
#CORRIMUDATAA,FILE,0,25.5,FINESTEERING,2319,307462.500,02000000,e5fc,17139;2319,307462.500000000,0.0003787575378216,0.0000671763541855,-0.0006837215365315,-0.0005310775406100,0.0618905314494526,0.0056140861195314*bfeb8492
#CORRIMUDATAA,FILE,0,25.5,FINESTEERING,2319,307462.550,02000000,e5fc,17139;2319,307462.550000000,0.0002431835449791,0.0000315872347814,-0.0007569088933718,-0.0030319912812381,0.0617389639538493,0.0083379541491838*4006fed7
#CORRIMUDATAA,FILE,0,25.5,FINESTEERING,2319,307462.600,02000000,e5fc,17139;2319,307462.600000000,0.0000350405916536,-0.0000778428961269,-0.0007902239169786,0.0021147312704033,0.0622697031906055,0.0061039070116480*9055dcac
#CORRIMUDATAA,FILE,0,25.5,FINESTEERING,2319,307462.650,02000000,e5fc,17139;2319,307462.650000000,-0.0002242586926290,0.0001713215134742,-0.0006963860168716,0.0061823711978040,0.0563990086020200,0.0109479668320029*ceb03219
#CORRIMUDATAA,FILE,0,25.5,FINESTEERING,2319,307462.700,02000000,e5fc,17139;2319,307462.700000000,-0.0002069393772302,0.0002198046996524,-0.0006174639328688,0.0110809589950872,0.0613705065307741,0.0070974082804419*e8911d93
#CORRIMUDATAA,FILE,0,25.5,FINESTEERING,2319,307462.750,02000000,e5fc,17139;2319,307462.750000000,-0.0003363987316471,-0.0000720295846864,-0.0005711605117625,0.0094720263760471,0.0607979945047815,-0.0043850113858868*26976e4a
#CORRIMUDATAA,FILE,0,25.5,FINESTEERING,2319,307462.800,02000000,e5fc,17139;2319,307462.800000000,-0.0003826253308340,-0.0001782507837047,-0.0006575254676049,0.0007845895553627,0.0605470416454563,-0.0046892184981067*dba84da8
#CORRIMUDATAA,FILE,0,25.5,FINESTEERING,2319,307462.850,02000000,e5fc,17139;2319,307462.850000000,-0.0003267115466180,0.0000474092948697,-0.0008176863993132,-0.0012801789835413,0.0612706899694511,-0.0078517808300811*5f408eda
#CORRIMUDATAA,FILE,0,25.5,FINESTEERING,2319,307462.900,02000000,e5fc,17139;2319,307462.900000000,-0.0002862151698636,0.0001213786644110,-0.0010370964375012,0.0013255616570916,0.0596513423120194,-0.0092036842494524*b4da7ae5
#CORRIMUDATAA,FILE,0,25.5,FINESTEERING,2319,307462.950,02000000,e5fc,17139;2319,307462.950000000,-0.0001698191116956,-0.0002472126418356,-0.0013287246002937,0.0010805543686821,0.0590567140887217,-0.0063566794094128*7926ab62
#CORRIMUDATAA,FILE,0,25.5,FINESTEERING,2319,307463.000,02000000,e5fc,17139;2319,307463.000000000,0.0000894130504794,-0.0000247284903987,-0.0016833223706282,-0.0007412940440736,0.0591094036488035,-0.0019510428269115*93fede62
#CORRIMUDATAA,FILE,0,25.5,FINESTEERING,2319,307463.050,02000000,e5fc,17139;2319,307463.050000000,-0.0000258069734569,-0.0001967698586930,-0.0021668704880002,0.0042980620368436,0.0561579360075911,0.0046315972120712*53d76832
#CORRIMUDATAA,FILE,0,25.5,FINESTEERING,2319,307463.100,02000000,e5fc,17139;2319,307463.100000000,-0.0003364232678752,-0.0004634198775724,-0.0024920800521908,0.0073369466919947,0.0537677262996268,0.0096417948131375*67a8ff28
#CORRIMUDATAA,FILE,0,25.5,FINESTEERING,2319,307463.150,02000000,e5fc,17139;2319,307463.150000000,-0.0003722126090492,-0.0002014832338604,-0.0025775019606454,0.0102832218484207,0.0554768930257717,0.0030795171732747*efde070f
#CORRIMUDATAA,FILE,0,25.5,FINESTEERING,2319,307463.200,02000000,e5fc,17139;2319,307463.200000000,-0.0003869757069415,0.0002961964507213,-0.0025425412620655,0.0169190274722354,0.0516785639327627,0.0019514247439607*39eb4bff
#CORRIMUDATAA,FILE,0,25.5,FINESTEERING,2319,307463.250,02000000,e5fc,17139;2319,307463.250000000,-0.0000794638427405,0.0001940526818826,-0.0023808783931715,0.0205841148134579,0.0523916324453082,-0.0107029479404234*82089c9a
#CORRIMUDATAA,FILE,0,25.5,FINESTEERING,2319,307463.300,02000000,e5fc,17139;2319,307463.300000000,0.0003031062665915,0.0003835735852679,-0.0022968345211018,0.0144691510227316,0.0483657994663468,0.0002071928333019*bdcf8c15
#CORRIMUDATAA,FILE,0,25.5,FINESTEERING,2319,307463.350,02000000,e5fc,17139;2319,307463.350000000,0.0007303537066497,0.0004416199025429,-0.0023061989823840,0.0067401910652126,0.0471152115305206,0.0024055363060240*5ef3921b
#CORRIMUDATAA,FILE,0,25.5,FINESTEERING,2319,307463.400,02000000,e5fc,17139;2319,307463.400000000,0.0012304290951085,0.0009687022065980,-0.0023932782793785,0.0067291742038528,0.0468721701022048,0.0015461792409239*aba2d4a3
#CORRIMUDATAA,FILE,0,25.5,FINESTEERING,2319,307463.450,02000000,e5fc,17139;2319,307463.450000000,0.0013482319524055,0.0014987057383193,-0.0023693567999556,0.0116477789080200,0.0445759748417326,0.0064822794599935*4ee628a2
#CORRIMUDATAA,FILE,0,25.5,FINESTEERING,2319,307463.500,02000000,e5fc,17139;2319,307463.500000000,0.0012073847706602,0.0013342497611533,-0.0023584790188483,0.0121823262156293,0.0462462767588822,-0.0000008658502117*47db1f89
#CORRIMUDATAA,FILE,0,25.5,FINESTEERING,2319,307463.550,02000000,e5fc,17139;2319,307463.550000000,0.0008009362906918,0.0009576737499983,-0.0023081334078512,0.0115475491668243,0.0480062049274401,-0.0040298477827486*890eb03a
#CORRIMUDATAA,FILE,0,25.5,FINESTEERING,2319,307463.600,02000000,e5fc,17139;2319,307463.600000000,0.0003391472849011,0.0006131382720686,-0.0021974004791792,0.0065709397814575,0.0462761102788497,-0.0106233424978827*29a539c8
#CORRIMUDATAA,FILE,0,25.5,FINESTEERING,2319,307463.650,02000000,e5fc,17139;2319,307463.650000000,-0.0000924249060238,0.0004463196524493,-0.0021138838640423,0.0044691393306387,0.0457548423297580,-0.0086007921123613*a56c9464
#CORRIMUDATAA,FILE,0,25.5,FINESTEERING,2319,307463.700,02000000,e5fc,17139;2319,307463.700000000,-0.0005119937955650,0.0003950786740424,-0.0020553450103153,0.0099382665199359,0.0442452215785012,0.0034377869979286*a6ad5ae3
#CORRIMUDATAA,FILE,0,25.5,FINESTEERING,2319,307463.750,02000000,e5fc,17139;2319,307463.750000000,-0.0005641568577405,-0.0000338755315207,-0.0020227494074446,0.0099370015130850,0.0465543077414353,-0.0085167076038857*272231ae
#CORRIMUDATAA,FILE,0,25.5,FINESTEERING,2319,307463.800,02000000,e5fc,17139;2319,307463.800000000,-0.0003491011092634,-0.0001506667066718,-0.0019225880972930,0.0087430582427116,0.0475204811873970,-0.0083013019930658*3515c87b
#CORRIMUDATAA,FILE,0,25.5,FINESTEERING,2319,307463.850,02000000,e5fc,17139;2319,307463.850000000,-0.0003006418329795,-0.0000540738078089,-0.0018050497098627,0.0111730407233809,0.0425185377676595,0.0060602171555802*78ca28c6
#CORRIMUDATAA,FILE,0,25.5,FINESTEERING,2319,307463.900,02000000,e5fc,17139;2319,307463.900000000,0.0001540288200285,-0.0007795332326913,-0.0015766991506457,0.0111445335122394,0.0426491434679719,0.0070161546518311*2812f4d6
#CORRIMUDATAA,FILE,0,25.5,FINESTEERING,2319,307463.950,02000000,e5fc,17139;2319,307463.950000000,0.0000372579699885,-0.0006809585203410,-0.0013416936589054,0.0032432587767693,0.0387003085655137,0.0256875215308342*d21fbd25
#CORRIMUDATAA,FILE,0,25.5,FINESTEERING,2319,307464.000,02000000,e5fc,17139;2319,307464.000000000,-0.0000769514064114,-0.0001615701660547,-0.0013149348994983,0.0017327651387799,0.0346997915799674,0.0358761965984375*1129f04a
#CORRIMUDATAA,FILE,0,25.5,FINESTEERING,2319,307464.050,02000000,e5fc,17139;2319,307464.050000000,-0.0004273193172882,0.0006021262496498,-0.0013523070143866,0.0071529119773054,0.0325499757568967,0.0436714200859166*be9dc227
#CORRIMUDATAA,FILE,0,25.0,FINESTEERING,2319,307464.100,02000000,e5fc,17139;2319,307464.100000000,-0.0007716059110215,0.0009314819712162,-0.0013656380366155,0.0163120379481927,0.0372384820246835,0.0218518773979768*d279bd4d
#CORRIMUDATAA,FILE,0,25.0,FINESTEERING,2319,307464.150,02000000,e5fc,17139;2319,307464.150000000,-0.0008786611937306,0.0009835067227684,-0.0012862103364952,0.0153050733992560,0.0418168990406470,-0.0174857278452587*fa19f4f7
#CORRIMUDATAA,FILE,0,25.0,FINESTEERING,2319,307464.200,02000000,e5fc,17139;2319,307464.200000000,-0.0006452660949401,0.0010666166981607,-0.0011795188991710,0.0112057415314863,0.0441284725744588,-0.0385767088631788*217c38dd
#CORRIMUDATAA,FILE,0,25.0,FINESTEERING,2319,307464.250,02000000,e5fc,17139;2319,307464.250000000,-0.0002806715362424,0.0012812165237303,-0.0009126043651087,0.0090376806686172,0.0418234738100395,-0.0479085582560031*a2a234f4
#CORRIMUDATAA,FILE,0,25.0,FINESTEERING,2319,307464.300,02000000,e5fc,17139;2319,307464.300000000,0.0003984414409692,0.0012337872711197,-0.0006956306534688,0.0074334551063874,0.0434428185871606,-0.0500155271982397*c420c963
#CORRIMUDATAA,FILE,0,25.0,FINESTEERING,2319,307464.350,02000000,e5fc,17139;2319,307464.350000000,0.0008481770211543,0.0012478942370611,-0.0005691330384598,0.0013746422855059,0.0410929445544124,-0.0361887255139778*885d0b45
#CORRIMUDATAA,FILE,0,25.0,FINESTEERING,2319,307464.400,02000000,e5fc,17139;2319,307464.400000000,0.0013119030656251,0.0016225536972492,-0.0007215210869660,-0.0032717033678528,0.0413046937644675,-0.0146092934388442*507ca8b7
#CORRIMUDATAA,FILE,0,25.0,FINESTEERING,2319,307464.450,02000000,e5fc,17139;2319,307464.450000000,0.0010873394186741,0.0019615181012436,-0.0010700063137921,-0.0051496564526741,0.0371406619553553,0.0183143238797249*b9233d26
#CORRIMUDATAA,FILE,0,25.0,FINESTEERING,2319,307464.500,02000000,e5fc,17139;2319,307464.500000000,0.0002534994771779,0.0013132512673116,-0.0014534497363766,-0.0014320147946837,0.0355113654307269,0.0454511976815294*eb857fa8
#CORRIMUDATAA,FILE,0,25.0,FINESTEERING,2319,307464.550,02000000,e5fc,17139;2319,307464.550000000,-0.0010843241105823,0.0002798322508748,-0.0015448441165446,0.0042419281829459,0.0313787439408367,0.0586707539811917*061df7e7
#CORRIMUDATAA,FILE,0,25.0,FINESTEERING,2319,307464.600,02000000,e5fc,17139;2319,307464.600000000,-0.0023686437019661,-0.0000672895149997,-0.0012724689510132,0.0096366393109984,0.0293633898553618,0.0640426331782599*15c847db
#CORRIMUDATAA,FILE,0,25.0,FINESTEERING,2319,307464.650,02000000,e5fc,17139;2319,307464.650000000,-0.0028997042039166,-0.0000694730433829,-0.0008633258128633,0.0123398429782594,0.0337347648622518,0.0348965314344465*05dca5b5
#CORRIMUDATAA,FILE,0,25.0,FINESTEERING,2319,307464.700,02000000,e5fc,17139;2319,307464.700000000,-0.0027963204044956,-0.0003381246150868,-0.0005446118858050,0.0137719590598296,0.0393587099658183,-0.0062591460582939*c7e6cdf1
#CORRIMUDATAA,FILE,0,25.0,FINESTEERING,2319,307464.750,02000000,e5fc,17139;2319,307464.750000000,-0.0018518516503591,-0.0011472748646828,-0.0004708785869495,0.0090197644225223,0.0426671443084396,-0.0458004149716290*a8804b99
#CORRIMUDATAA,FILE,0,25.0,FINESTEERING,2319,307464.800,02000000,e5fc,17139;2319,307464.800000000,-0.0003483957809907,-0.0018762260030153,-0.0005301462327284,-0.0047348144178508,0.0429152093117920,-0.0589439087881498*51873697
#CORRIMUDATAA,FILE,0,25.0,FINESTEERING,2319,307464.850,02000000,e5fc,17139;2319,307464.850000000,0.0010916676900827,-0.0021440830058883,-0.0007537726251700,-0.0120072334169563,0.0432462483439379,-0.0488229466785343*01b80c9a
#CORRIMUDATAA,FILE,0,25.0,FINESTEERING,2319,307464.900,02000000,e5fc,17139;2319,307464.900000000,0.0022435736044757,-0.0011857398579442,-0.0008869068981435,-0.0026739443500999,0.0403584360807158,-0.0428249823607382*f6e28552
#CORRIMUDATAA,FILE,0,25.0,FINESTEERING,2319,307464.950,02000000,e5fc,17139;2319,307464.950000000,0.0027630676727991,-0.0002497164060552,-0.0008045323869689,0.0185022356306740,0.0371347828224411,-0.0114201889482797*c54d7ce4
#CORRIMUDATAA,FILE,0,25.0,FINESTEERING,2319,307465.000,02000000,e5fc,17139;2319,307465.000000000,0.0025612696655490,0.0004628247149727,-0.0005545741181224,0.0273102089136989,0.0363836460036223,-0.0020638941107349*b580e426
#CORRIMUDATAA,FILE,0,25.0,FINESTEERING,2319,307465.050,02000000,e5fc,17139;2319,307465.050000000,0.0020468250030559,0.0012454496306083,-0.0003212257035187,0.0203347495100844,0.0364505708023634,0.0057281659062590*3871047b
#CORRIMUDATAA,FILE,0,25.0,FINESTEERING,2319,307465.100,02000000,e5fc,17139;2319,307465.100000000,0.0015422449186916,0.0015694954431042,-0.0002155310167153,0.0075006263126613,0.0348243021338267,0.0196952829703541*5b37ba37
#CORRIMUDATAA,FILE,0,26.0,FINESTEERING,2319,307465.150,02000000,e5fc,17139;2319,307465.150000000,0.0006442080288244,0.0020238750488228,-0.0001208536158774,-0.0002815617264794,0.0319128573139416,0.0383352479059797*cc5ac159
#CORRIMUDATAA,FILE,0,26.0,FINESTEERING,2319,307465.200,02000000,e5fc,17139;2319,307465.200000000,-0.0004414550798977,0.0017436860442958,-0.0001047474458111,-0.0044791219319744,0.0318398598599361,0.0331655412242029*a65eaa55
#CORRIMUDATAA,FILE,0,26.0,FINESTEERING,2319,307465.250,02000000,e5fc,17139;2319,307465.250000000,-0.0013065091984607,0.0009704819540541,-0.0001088079686097,-0.0098295216951195,0.0311010475609414,0.0306091007025023*67bab6d5
#CORRIMUDATAA,FILE,0,26.0,FINESTEERING,2319,307465.300,02000000,e5fc,17139;2319,307465.300000000,-0.0019813349383346,-0.0002513607412341,-0.0002041862632453,-0.0160323349269248,0.0301178397306032,0.0308161579008657*39e6f305
#CORRIMUDATAA,FILE,0,26.0,FINESTEERING,2319,307465.350,02000000,e5fc,17139;2319,307465.350000000,-0.0021514104674199,-0.0015962644541145,-0.0003145404109146,-0.0160230987393346,0.0325305064803110,0.0168449841599405*8c7253d4
#CORRIMUDATAA,FILE,0,26.0,FINESTEERING,2319,307465.400,02000000,e5fc,17139;2319,307465.400000000,-0.0021893809185149,-0.0020483523404501,-0.0001986566335480,-0.0020277422159377,0.0337996795999039,-0.0026068144120995*95ff9785
#CORRIMUDATAA,FILE,0,26.0,FINESTEERING,2319,307465.450,02000000,e5fc,17139;2319,307465.450000000,-0.0016017249168005,-0.0027037714567224,0.0001085294918804,0.0074486640529194,0.0342983322924981,-0.0247330471924149*5146bac4
#CORRIMUDATAA,FILE,0,26.0,FINESTEERING,2319,307465.500,02000000,e5fc,17139;2319,307465.500000000,-0.0009396096248153,-0.0028461623402528,0.0004528411185559,0.0061129098209502,0.0359016780319907,-0.0288883406237749*777f34fd
#CORRIMUDATAA,FILE,0,26.0,FINESTEERING,2319,307465.550,02000000,e5fc,17139;2319,307465.550000000,-0.0002463782490460,-0.0022022059529464,0.0005853360738270,-0.0013083432962642,0.0356686723974892,-0.0334159412067052*7e45d4eb
#CORRIMUDATAA,FILE,0,26.0,FINESTEERING,2319,307465.600,02000000,e5fc,17139;2319,307465.600000000,0.0003145226203963,-0.0017588729032977,0.0004956123163573,-0.0042147427270260,0.0359591606836427,-0.0284767663687981*5b7736d2
#CORRIMUDATAA,FILE,0,26.0,FINESTEERING,2319,307465.650,02000000,e5fc,17139;2319,307465.650000000,0.0007035162810359,-0.0004917924270510,0.0004328909865875,-0.0001022824775876,0.0336993217405857,-0.0225333972027637*bbdb69a5
#CORRIMUDATAA,FILE,0,26.0,FINESTEERING,2319,307465.700,02000000,e5fc,17139;2319,307465.700000000,0.0011576499828041,0.0000353995433549,0.0004046111941437,0.0108234815237036,0.0299241191117459,-0.0133094337676427*9267e2a1
#CORRIMUDATAA,FILE,0,26.0,FINESTEERING,2319,307465.750,02000000,e5fc,17139;2319,307465.750000000,0.0013950744728582,0.0001549160082848,0.0005689389397808,0.0085940860335495,0.0317282973928124,0.0056092963480832*0e9202fa
#CORRIMUDATAA,FILE,0,26.0,FINESTEERING,2319,307465.800,02000000,e5fc,17139;2319,307465.800000000,0.0013908963672953,0.0008346359393713,0.0006742462634950,0.0061417907557789,0.0275203969141739,0.0170936650188473*e8a8af71
#CORRIMUDATAA,FILE,0,26.0,FINESTEERING,2319,307465.850,02000000,e5fc,17139;2319,307465.850000000,0.0009601072309700,0.0009288892302886,0.0007242033501051,0.0037571846279016,0.0265240603076674,0.0301353144261139*b916e3bb
#CORRIMUDATAA,FILE,0,26.0,FINESTEERING,2319,307465.900,02000000,e5fc,17139;2319,307465.900000000,0.0006743692146831,0.0008310665931404,0.0007243296850953,-0.0065302263283238,0.0283560037212888,0.0211971476111547*7c1fc6e9
#CORRIMUDATAA,FILE,0,26.0,FINESTEERING,2319,307465.950,02000000,e5fc,17139;2319,307465.950000000,0.0006868216887263,0.0002062205327210,0.0003983360105683,-0.0140061263228711,0.0321485419438433,0.0111317300467272*32e78514
#CORRIMUDATAA,FILE,0,26.0,FINESTEERING,2319,307466.000,02000000,e5fc,17139;2319,307466.000000000,0.0002059413863893,0.0011162124914458,0.0001888527644971,-0.0086936863774779,0.0333023820125108,-0.0024235064506016*18a78c0f
#CORRIMUDATAA,FILE,0,26.0,FINESTEERING,2319,307466.050,02000000,e5fc,17139;2319,307466.050000000,0.0006753521794094,-0.0000008551830666,0.0001382742889151,0.0017789658385629,0.0345646097062108,-0.0140014021120189*a3552251
#CORRIMUDATAA,FILE,0,26.0,FINESTEERING,2319,307466.100,02000000,e5fc,17139;2319,307466.100000000,0.0003822668026339,-0.0002792949730221,0.0002456314783383,0.0018097902993376,0.0330842654875702,-0.0028915506131254*f6dcd974
#CORRIMUDATAA,FILE,0,26.0,FINESTEERING,2319,307466.150,02000000,e5fc,17139;2319,307466.150000000,0.0003424136815617,-0.0003647645176719,0.0003908386608120,-0.0007388638716102,0.0316021723279439,-0.0013451964909830*fc162e9d
#CORRIMUDATAA,FILE,0,26.0,FINESTEERING,2319,307466.200,02000000,e5fc,17139;2319,307466.200000000,0.0002159459609496,-0.0009658127324041,0.0003653771713853,-0.0031636601791241,0.0356018029372293,0.0087604653687178*58f0bb4a
#CORRIMUDATAA,FILE,0,26.0,FINESTEERING,2319,307466.250,02000000,e5fc,17139;2319,307466.250000000,-0.0004684086663426,-0.0006494391529131,0.0003450806827648,-0.0026851553933644,0.0334589066212068,0.0045255138479630*530dafd4
#CORRIMUDATAA,FILE,0,26.0,FINESTEERING,2319,307466.300,02000000,e5fc,17139;2319,307466.300000000,-0.0006689083129221,-0.0010124267001886,0.0000935952802543,-0.0059378174972942,0.0323353284014754,0.0223796571970465*9a3c9ec4
#CORRIMUDATAA,FILE,0,26.0,FINESTEERING,2319,307466.350,02000000,e5fc,17139;2319,307466.350000000,-0.0013480786345216,-0.0005680879092005,-0.0000529560740098,-0.0005507751849725,0.0337300685492471,0.0071383349033888*4ee7bf81
#CORRIMUDATAA,FILE,0,26.0,FINESTEERING,2319,307466.400,02000000,e5fc,17139;2319,307466.400000000,-0.0013874418518849,0.0001509591155385,-0.0000735775744520,0.0065851423845086,0.0339701003697409,0.0197744129018247*5c9679f3
#CORRIMUDATAA,FILE,0,26.0,FINESTEERING,2319,307466.450,02000000,e5fc,17139;2319,307466.450000000,-0.0013126282960550,0.0000129635681303,0.0001185338313681,0.0113564051734320,0.0316863589770334,-0.0093056785366659*4e345192
#CORRIMUDATAA,FILE,0,26.0,FINESTEERING,2319,307466.500,02000000,e5fc,17139;2319,307466.500000000,-0.0012674897240943,0.0004626039841736,0.0002305606047586,0.0058643278402574,0.0368284620610353,-0.0081247246057020*b1a04eae
#CORRIMUDATAA,FILE,0,26.0,FINESTEERING,2319,307466.550,02000000,e5fc,17139;2319,307466.550000000,-0.0009429021067172,0.0004954571019276,0.0002613146106337,0.0039895077170823,0.0323894795665454,-0.0240248589181972*55045f55
#CORRIMUDATAA,FILE,0,26.0,FINESTEERING,2319,307466.600,02000000,e5fc,17139;2319,307466.600000000,-0.0006172099533850,0.0001770455553849,0.0002049558278092,-0.0047957885263713,0.0380221411264941,-0.0107363518678875*d2907c6d
#CORRIMUDATAA,FILE,0,26.0,FINESTEERING,2319,307466.650,02000000,e5fc,17139;2319,307466.650000000,-0.0005002511281326,0.0004028533850886,0.0001120987315757,-0.0079628652837891,0.0352784509677946,-0.0233213931936223*f6b8a2bb
#CORRIMUDATAA,FILE,0,26.0,FINESTEERING,2319,307466.700,02000000,e5fc,17139;2319,307466.700000000,0.0001583676478126,0.0004458691188762,0.0000869097780551,-0.0022402849214453,0.0378528772047206,-0.0109475965634378*4e2ca163
#CORRIMUDATAA,FILE,0,26.0,FINESTEERING,2319,307466.750,02000000,e5fc,17139;2319,307466.750000000,-0.0000913439130684,0.0003645812399365,0.0002914445426708,0.0058065144723487,0.0335432790115565,-0.0100483237485221*828dd7bc
#CORRIMUDATAA,FILE,0,26.0,FINESTEERING,2319,307466.800,02000000,e5fc,17139;2319,307466.800000000,0.0003075513404818,-0.0001148765967793,0.0005788808883358,0.0069124480164704,0.0335100190776436,0.0004194772775888*f1f21b34
#CORRIMUDATAA,FILE,0,26.0,FINESTEERING,2319,307466.850,02000000,e5fc,17139;2319,307466.850000000,0.0002145587370739,-0.0006482216984720,0.0007883750629785,-0.0048881036129988,0.0337038454606466,0.0056597838964545*5e3db48a
#CORRIMUDATAA,FILE,0,26.0,FINESTEERING,2319,307466.900,02000000,e5fc,17139;2319,307466.900000000,0.0003752976145844,-0.0003496204309949,0.0007400287301104,-0.0120826253136229,0.0355208890385500,0.0079130658656876*bab63edb
#CORRIMUDATAA,FILE,0,26.0,FINESTEERING,2319,307466.950,02000000,e5fc,17139;2319,307466.950000000,0.0005219728838853,-0.0000014077809599,0.0005681221735477,-0.0079306125943417,0.0331610746622350,0.0013390137467647*37b8e8db
#CORRIMUDATAA,FILE,0,26.0,FINESTEERING,2319,307467.000,02000000,e5fc,17139;2319,307467.000000000,0.0006328751063777,-0.0004180753923103,0.0004760944455398,-0.0018695065026568,0.0334577041330419,-0.0010776806347954*437f8edf
#CORRIMUDATAA,FILE,0,26.0,FINESTEERING,2319,307467.050,02000000,e5fc,17139;2319,307467.050000000,0.0002793049972821,-0.0003581635911416,0.0005204966238771,-0.0003527146444434,0.0329107419097120,0.0118550072088051*64006ca9
#CORRIMUDATAA,FILE,0,26.0,FINESTEERING,2319,307467.100,02000000,e5fc,17139;2319,307467.100000000,0.0002668406747741,-0.0004838774688343,0.0006426575223691,0.0032228166043550,0.0327329207751396,0.0050793303389194*92f9ef83
#CORRIMUDATAA,FILE,0,27.0,FINESTEERING,2319,307467.150,02000000,e5fc,17139;2319,307467.150000000,-0.0000935009942808,-0.0003882959853191,0.0007862989143166,0.0018382787135964,0.0338393651201745,-0.0204276253094360*e632c1a5
#CORRIMUDATAA,FILE,0,27.0,FINESTEERING,2319,307467.200,02000000,e5fc,17139;2319,307467.200000000,-0.0000803614278239,-0.0003347105486981,0.0006985203372430,-0.0103285599003844,0.0328518195110848,0.0045714877975460*fcb9edcc
#CORRIMUDATAA,FILE,0,27.0,FINESTEERING,2319,307467.250,02000000,e5fc,17139;2319,307467.250000000,-0.0000033509041280,-0.0001906953251628,0.0005224911583027,-0.0105412025304788,0.0327236012400915,0.0097962532298419*b6e921c2
#CORRIMUDATAA,FILE,0,27.0,FINESTEERING,2319,307467.300,02000000,e5fc,17139;2319,307467.300000000,0.0001580900611096,0.0002969109850981,0.0004045833252689,-0.0009670301625694,0.0304422862605083,0.0076129546987973*419e9b54
#CORRIMUDATAA,FILE,0,27.0,FINESTEERING,2319,307467.350,02000000,e5fc,17139;2319,307467.350000000,-0.0000573766123385,0.0003719809771819,0.0005548147829282,0.0077872656649274,0.0299633986568890,0.0116366488273397*6fb401d4
#CORRIMUDATAA,FILE,0,27.0,FINESTEERING,2319,307467.400,02000000,e5fc,17139;2319,307467.400000000,-0.0002606282590011,0.0002430143160564,0.0006661537005144,0.0027731832117476,0.0304814985539025,0.0071830193079695*df5d5561
#CORRIMUDATAA,FILE,0,27.0,FINESTEERING,2319,307467.450,02000000,e5fc,17139;2319,307467.450000000,-0.0002019459269686,0.0000636866185211,0.0007391324176371,-0.0038855549641905,0.0310334949798144,-0.0060550044367497*d5c89796
#CORRIMUDATAA,FILE,0,27.0,FINESTEERING,2319,307467.500,02000000,e5fc,17139;2319,307467.500000000,-0.0002548698072757,0.0002240456538173,0.0005883895878146,-0.0106995503979097,0.0327840250683168,-0.0088117450886644*477f4b82
#CORRIMUDATAA,FILE,0,27.0,FINESTEERING,2319,307467.550,02000000,e5fc,17139;2319,307467.550000000,-0.0002340573922119,0.0010077537617049,0.0004548912213374,-0.0060015360896701,0.0313350212404403,-0.0107588006736937*b80c2048
#CORRIMUDATAA,FILE,0,27.0,FINESTEERING,2319,307467.600,02000000,e5fc,17139;2319,307467.600000000,-0.0004047232393069,0.0008190873427916,0.0003858529854457,0.0038523228180184,0.0272628463345074,0.0030523170975918*31146d3c
#CORRIMUDATAA,FILE,0,27.0,FINESTEERING,2319,307467.650,02000000,e5fc,17139;2319,307467.650000000,-0.0009187767832363,0.0006669239559339,0.0005408378555996,0.0024382657349510,0.0264366441240235,-0.0015009658311918*0d44b4ea
#CORRIMUDATAA,FILE,0,27.0,FINESTEERING,2319,307467.700,02000000,e5fc,17139;2319,307467.700000000,-0.0010785806563898,0.0006060706413392,0.0006511392604693,0.0005135204355468,0.0291461682544618,0.0070178053979933*832a9ad6
#CORRIMUDATAA,FILE,0,27.0,FINESTEERING,2319,307467.750,02000000,e5fc,17139;2319,307467.750000000,-0.0015714876241302,-0.0000318175635287,0.0007411937306681,-0.0030595122450675,0.0282809736319432,0.0065850951348808*1a0dddc8
#CORRIMUDATAA,FILE,0,27.0,FINESTEERING,2319,307467.800,02000000,e5fc,17139;2319,307467.800000000,-0.0013512539770175,-0.0003533829476538,0.0006243092059490,-0.0127216063317300,0.0288260611514803,0.0006226547160932*5f591ec4
#CORRIMUDATAA,FILE,0,27.0,FINESTEERING,2319,307467.850,02000000,e5fc,17139;2319,307467.850000000,-0.0013208685846881,0.0002714320222744,0.0004725425861605,-0.0105710820510191,0.0282224812941208,-0.0019751128196924*8cfd985a
#CORRIMUDATAA,FILE,0,27.0,FINESTEERING,2319,307467.900,02000000,e5fc,17139;2319,307467.900000000,-0.0008196238730019,0.0010981996085824,0.0004964711063566,0.0070811409673032,0.0308716671557450,-0.0131156561130164*f55edbac
#CORRIMUDATAA,FILE,0,27.0,FINESTEERING,2319,307467.950,02000000,e5fc,17139;2319,307467.950000000,0.0001954227141224,0.0005916050967239,0.0007216506894118,0.0113728837323627,0.0306135361029187,-0.0222502602928730*bb88da56
#CORRIMUDATAA,FILE,0,27.0,FINESTEERING,2319,307468.000,02000000,e5fc,17139;2319,307468.000000000,0.0007827293560717,0.0004996050112221,0.0008344531280588,0.0021779155329822,0.0309463563409021,-0.0234302836934231*9005a071
#CORRIMUDATAA,FILE,0,27.0,FINESTEERING,2319,307468.050,02000000,e5fc,17139;2319,307468.050000000,0.0014046156644341,0.0002881825856876,0.0007368926300083,-0.0124802146829939,0.0289205884602413,-0.0146584509251646*7192dad8
#CORRIMUDATAA,FILE,0,26.0,FINESTEERING,2319,307468.100,02000000,e5fc,17139;2319,307468.100000000,0.0018922388720356,0.0000622038319345,0.0005357698284580,-0.0144675936733331,0.0305467616141038,-0.0213569402784000*a9a9a02e
#CORRIMUDATAA,FILE,0,26.0,FINESTEERING,2319,307468.150,02000000,e5fc,17139;2319,307468.150000000,0.0018200398746750,0.0007489729318203,0.0004118539702831,-0.0083991554530720,0.0262805993120868,0.0108042333390308*971cd3c7
#CORRIMUDATAA,FILE,0,26.0,FINESTEERING,2319,307468.200,02000000,e5fc,17139;2319,307468.200000000,0.0018012795366065,0.0000322352567769,0.0005143783030126,0.0069395857639585,0.0235684030189095,0.0049628636646053*b8d64d6b
#CORRIMUDATAA,FILE,0,26.0,FINESTEERING,2319,307468.250,02000000,e5fc,17139;2319,307468.250000000,0.0013412244548428,-0.0002962616940965,0.0007790902748731,0.0038949017597499,0.0249658032032379,0.0229744591959813*1661089f
#CORRIMUDATAA,FILE,0,26.0,FINESTEERING,2319,307468.300,02000000,e5fc,17139;2319,307468.300000000,0.0007112909119839,-0.0002395041170886,0.0008061203414795,-0.0089593251556218,0.0229565005486006,0.0359416812053456*887d8ffd
#CORRIMUDATAA,FILE,0,26.0,FINESTEERING,2319,307468.350,02000000,e5fc,17139;2319,307468.350000000,0.0003199211430394,-0.0002725213207354,0.0006425171366618,-0.0102099150048384,0.0235639502571727,0.0338397786440876*d781996d
#CORRIMUDATAA,FILE,0,26.0,FINESTEERING,2319,307468.400,02000000,e5fc,17139;2319,307468.400000000,-0.0001824908724950,-0.0002543509824389,0.0005157319837077,-0.0093526297547166,0.0244793011974744,0.0111517534020925*9c41d938
#CORRIMUDATAA,FILE,0,26.0,FINESTEERING,2319,307468.450,02000000,e5fc,17139;2319,307468.450000000,-0.0004927672213457,-0.0000498838848150,0.0005563716358128,0.0024957943963537,0.0237903130066944,0.0075703256836073*8600a5e2
#CORRIMUDATAA,FILE,0,26.0,FINESTEERING,2319,307468.500,02000000,e5fc,17139;2319,307468.500000000,-0.0003069802002170,-0.0001945504081264,0.0007451786398199,0.0047435119462721,0.0238798638782434,-0.0003793547844635*3b0362a0
#CORRIMUDATAA,FILE,0,26.0,FINESTEERING,2319,307468.550,02000000,e5fc,17139;2319,307468.550000000,-0.0001786181597819,-0.0005637621076277,0.0008344638492342,-0.0034897781126270,0.0249959675174668,-0.0134436339505739*b22adb49
#CORRIMUDATAA,FILE,0,26.0,FINESTEERING,2319,307468.600,02000000,e5fc,17139;2319,307468.600000000,0.0000451140611444,-0.0006036057134931,0.0007243785562076,-0.0126193168290932,0.0254529780464497,-0.0143786777545772*aa5e16b6
#CORRIMUDATAA,FILE,0,26.0,FINESTEERING,2319,307468.650,02000000,e5fc,17139;2319,307468.650000000,0.0004199151819503,0.0002143952847351,0.0005657248319134,-0.0111400595211237,0.0225858093071146,-0.0019642568870234*8a7fa56d
#CORRIMUDATAA,FILE,0,26.0,FINESTEERING,2319,307468.700,02000000,e5fc,17139;2319,307468.700000000,0.0006781395747190,-0.0003163326580513,0.0005565493835503,0.0027231466446959,0.0243814410482166,-0.0111292227014632*cd2d17ab
#CORRIMUDATAA,FILE,0,26.0,FINESTEERING,2319,307468.750,02000000,e5fc,17139;2319,307468.750000000,0.0002934562038351,-0.0002153468538803,0.0007278895578021,0.0023340493262131,0.0214152314683609,0.0114552979136939*b57d3348
#CORRIMUDATAA,FILE,0,26.0,FINESTEERING,2319,307468.800,02000000,e5fc,17139;2319,307468.800000000,0.0002685072703735,-0.0007281661962287,0.0008044180505729,-0.0043519176454186,0.0201621845740051,-0.0011220000687456*109643b6
#CORRIMUDATAA,FILE,0,26.0,FINESTEERING,2319,307468.850,02000000,e5fc,17139;2319,307468.850000000,0.0001552759295394,-0.0002986096629043,0.0006812841088784,-0.0122981777354335,0.0225353898003518,0.0041159986332497*aabaf79d
#CORRIMUDATAA,FILE,0,26.0,FINESTEERING,2319,307468.900,02000000,e5fc,17139;2319,307468.900000000,-0.0000307468869269,-0.0000193147247767,0.0005702409260075,-0.0097469349667655,0.0223373109224135,0.0072091509920824*46786720
#CORRIMUDATAA,FILE,0,26.0,FINESTEERING,2319,307468.950,02000000,e5fc,17139;2319,307468.950000000,0.0002812041312764,0.0000933343330567,0.0005091386285881,0.0013604927389329,0.0210048499752751,0.0130479275538290*8c502104
#CORRIMUDATAA,FILE,0,26.0,FINESTEERING,2319,307469.000,02000000,e5fc,17139;2319,307469.000000000,-0.0003815708633631,-0.0001612698158247,0.0007083258629578,0.0071572519258039,0.0191932993792746,0.0120917627742067*ba129c6c
#CORRIMUDATAA,FILE,0,26.0,FINESTEERING,2319,307469.050,02000000,e5fc,17139;2319,307469.050000000,-0.0003083541730999,-0.0009420357577543,0.0008318994621184,-0.0035792865480487,0.0229938650134750,-0.0081689174944481*e9f1a055
#CORRIMUDATAA,FILE,0,26.0,FINESTEERING,2319,307469.100,02000000,e5fc,17139;2319,307469.100000000,-0.0000853264645933,-0.0005214345536435,0.0007165748049953,-0.0147852833492721,0.0242859501485610,-0.0102595425174639*7b578f42
#CORRIMUDATAA,FILE,0,27.5,FINESTEERING,2319,307469.150,02000000,e5fc,17139;2319,307469.150000000,0.0003282067703771,-0.0002185398800425,0.0006151751605146,-0.0090019695206975,0.0221056791149165,-0.0113668368663392*c1539630
#CORRIMUDATAA,FILE,0,27.5,FINESTEERING,2319,307469.200,02000000,e5fc,17139;2319,307469.200000000,0.0004729957361269,-0.0000390111175884,0.0006080606555608,-0.0013107440355986,0.0226783338835517,0.0170475486677961*61b20f6b
#CORRIMUDATAA,FILE,0,27.5,FINESTEERING,2319,307469.250,02000000,e5fc,17139;2319,307469.250000000,0.0004702169142151,0.0000244109239018,0.0007477561477728,0.0073948845909093,0.0205717575756197,-0.0128859483104893*30c905b1
#CORRIMUDATAA,FILE,0,27.5,FINESTEERING,2319,307469.300,02000000,e5fc,17139;2319,307469.300000000,0.0007466016507488,-0.0006626815635481,0.0008764009023496,0.0014200599273060,0.0224295331331919,-0.0103856549397236*5064ddf2
#CORRIMUDATAA,FILE,0,27.5,FINESTEERING,2319,307469.350,02000000,e5fc,17139;2319,307469.350000000,0.0003454698608161,-0.0004613422393327,0.0008078001675250,-0.0167645058334624,0.0208754803796902,0.0130456830093986*ba013252
#CORRIMUDATAA,FILE,0,27.5,FINESTEERING,2319,307469.400,02000000,e5fc,17139;2319,307469.400000000,0.0006543137483323,-0.0007292197406160,0.0006079111105000,-0.0153797597443936,0.0213532656762154,0.0008794764616964*7a583aa8
#CORRIMUDATAA,FILE,0,27.5,FINESTEERING,2319,307469.450,02000000,e5fc,17139;2319,307469.450000000,-0.0002230805288784,0.0002505118373993,0.0005464022426096,-0.0057508891192829,0.0186290758570494,0.0230925617205654*c512eb65
#CORRIMUDATAA,FILE,0,27.5,FINESTEERING,2319,307469.500,02000000,e5fc,17139;2319,307469.500000000,-0.0000797686913029,-0.0001790477498724,0.0006438143050728,0.0078851011790740,0.0203570240934182,-0.0111303780824316*1ce24db7
#CORRIMUDATAA,FILE,0,27.5,FINESTEERING,2319,307469.550,02000000,e5fc,17139;2319,307469.550000000,-0.0005376435768929,-0.0004828548080953,0.0008460856638782,0.0029971678402017,0.0188937901391137,0.0213154263217921*f3b64cf9
#CORRIMUDATAA,FILE,0,27.5,FINESTEERING,2319,307469.600,02000000,e5fc,17139;2319,307469.600000000,-0.0004807565901193,-0.0006033247365566,0.0007771887915631,-0.0125243447017382,0.0208754586974447,-0.0058037983335413*796d5ad6
#CORRIMUDATAA,FILE,0,27.5,FINESTEERING,2319,307469.650,02000000,e5fc,17139;2319,307469.650000000,-0.0006969515658735,-0.0002399144788078,0.0005679689002494,-0.0139946447391116,0.0224059027193641,0.0217968146127127*94f5713a
#CORRIMUDATAA,FILE,0,27.5,FINESTEERING,2319,307469.700,02000000,e5fc,17139;2319,307469.700000000,-0.0009063480851824,-0.0003039124715196,0.0005151599181089,0.0006526350352626,0.0217195745538704,-0.0229675543366731*1259ac06
#CORRIMUDATAA,FILE,0,27.5,FINESTEERING,2319,307469.750,02000000,e5fc,17139;2319,307469.750000000,-0.0006973617865245,-0.0011081137238415,0.0004897469489018,0.0016006204005336,0.0221226279696161,-0.0067048252248889*665a7961
#CORRIMUDATAA,FILE,0,27.5,FINESTEERING,2319,307469.800,02000000,e5fc,17139;2319,307469.800000000,-0.0009091326686846,-0.0010107702487147,0.0003119901381557,-0.0038217712581138,0.0232206769799440,-0.0150723852245685*2536f567
#CORRIMUDATAA,FILE,0,27.5,FINESTEERING,2319,307469.850,02000000,e5fc,17139;2319,307469.850000000,-0.0005210065766488,-0.0014696059446320,-0.0001729282458156,-0.0130566141462304,0.0250345554676847,-0.0079026626030576*67e963a9
#CORRIMUDATAA,FILE,0,27.5,FINESTEERING,2319,307469.900,02000000,e5fc,17139;2319,307469.900000000,-0.0007468048756304,-0.0005758427297488,-0.0006896957582891,-0.0069629034464046,0.0219830870679912,0.0048166361541535*bdd3abc2
#CORRIMUDATAA,FILE,0,27.5,FINESTEERING,2319,307469.950,02000000,e5fc,17139;2319,307469.950000000,-0.0002676699017116,-0.0006291229597641,-0.0009776238327985,0.0098174360664950,0.0229874954986503,-0.0107798961505982*d19b87fe
#CORRIMUDATAA,FILE,0,27.5,FINESTEERING,2319,307470.000,02000000,e5fc,17139;2319,307470.000000000,-0.0003512268522221,-0.0004988767651435,-0.0010108335587530,0.0177193502898951,0.0216948039344025,-0.0015875248959634*e0317553
#CORRIMUDATAA,FILE,0,27.5,FINESTEERING,2319,307470.050,02000000,e5fc,17139;2319,307470.050000000,0.0000678796248359,-0.0007731481862933,-0.0010179462986931,0.0103017047353969,0.0223940522218253,-0.0040152900712290*ede7fec3
#CORRIMUDATAA,FILE,0,27.5,FINESTEERING,2319,307470.100,02000000,e5fc,17139;2319,307470.100000000,0.0003630493490132,-0.0007278387604390,-0.0012632541185543,0.0052353972283806,0.0238169315359909,-0.0033148335458789*b1f631fe
#CORRIMUDATAA,FILE,0,27.5,FINESTEERING,2319,307470.150,02000000,e5fc,17139;2319,307470.150000000,0.0005123830683949,-0.0005526025921054,-0.0014770972061747,0.0055727212789578,0.0219987048108900,-0.0176449782215276*8fdd080b
#CORRIMUDATAA,FILE,0,27.5,FINESTEERING,2319,307470.200,02000000,e5fc,17139;2319,307470.200000000,0.0008782285234484,-0.0004327916375571,-0.0017819031526215,0.0133661050739647,0.0215264781986444,0.0029201319373146*44813ebd
#CORRIMUDATAA,FILE,0,27.5,FINESTEERING,2319,307470.250,02000000,e5fc,17139;2319,307470.250000000,0.0007549484864570,-0.0005107273029486,-0.0019141807529058,0.0198415939951310,0.0186978703653812,0.0060498952993818*8e35a30d
#CORRIMUDATAA,FILE,0,27.5,FINESTEERING,2319,307470.300,02000000,e5fc,17139;2319,307470.300000000,0.0007819073231081,-0.0008836677044919,-0.0021579249394002,0.0126408069914782,0.0204207631131634,0.0037522434157507*13770b88
#CORRIMUDATAA,FILE,0,27.5,FINESTEERING,2319,307470.350,02000000,e5fc,17139;2319,307470.350000000,0.0001915972154224,-0.0004266770651936,-0.0023283688983023,0.0101785812057175,0.0172735991325425,0.0191004294529804*f3fd9451
#CORRIMUDATAA,FILE,0,27.5,FINESTEERING,2319,307470.400,02000000,e5fc,17139;2319,307470.400000000,-0.0000774997966193,-0.0000918419511425,-0.0022756248794686,0.0182439627483244,0.0184349938441335,0.0082468328859309*ffc843f2
#CORRIMUDATAA,FILE,0,27.5,FINESTEERING,2319,307470.450,02000000,e5fc,17139;2319,307470.450000000,-0.0003295966542797,0.0003170733505851,-0.0019286856659058,0.0266944077595809,0.0160489580792763,0.0079402200142364*286d2668
#CORRIMUDATAA,FILE,0,27.5,FINESTEERING,2319,307470.500,02000000,e5fc,17139;2319,307470.500000000,-0.0003646976433596,0.0002602178365007,-0.0014469739566656,0.0272458735068778,0.0179524902753976,0.0104726044376857*33252366
#CORRIMUDATAA,FILE,0,27.5,FINESTEERING,2319,307470.550,02000000,e5fc,17139;2319,307470.550000000,-0.0002454287003850,-0.0001759767970359,-0.0012517007725260,0.0149787724118332,0.0183031950522174,0.0017621093863442*9e71e346
#CORRIMUDATAA,FILE,0,27.5,FINESTEERING,2319,307470.600,02000000,e5fc,17139;2319,307470.600000000,-0.0002319782662472,0.0000736080988494,-0.0012189188707937,0.0035855007966597,0.0211159417267983,-0.0062565397027439*2dd1c429
#CORRIMUDATAA,FILE,0,27.5,FINESTEERING,2319,307470.650,02000000,e5fc,17139;2319,307470.650000000,0.0000796580492072,0.0004449540118305,-0.0012996883946951,0.0083018069887975,0.0206718692848077,-0.0090877150074250*7d5f7dcd
#CORRIMUDATAA,FILE,0,27.5,FINESTEERING,2319,307470.700,02000000,e5fc,17139;2319,307470.700000000,0.0003003401183558,0.0003327109396968,-0.0010653130034976,0.0145988729149723,0.0189921159688171,-0.0128369827756705*500a28e6
#CORRIMUDATAA,FILE,0,27.5,FINESTEERING,2319,307470.750,02000000,e5fc,17139;2319,307470.750000000,0.0003546525981047,0.0001942937670373,-0.0007196643150581,0.0134819008403248,0.0177198762464692,-0.0060570421208119*aff924e3
#CORRIMUDATAA,FILE,0,27.5,FINESTEERING,2319,307470.800,02000000,e5fc,17139;2319,307470.800000000,0.0004216218670560,-0.0001636390588150,-0.0003750508177263,0.0034605655324511,0.0184378004469871,0.0014253625098157*58b57127
#CORRIMUDATAA,FILE,0,27.5,FINESTEERING,2319,307470.850,02000000,e5fc,17139;2319,307470.850000000,0.0002161055007240,0.0003315673199688,-0.0001136077259266,0.0019973580193171,0.0164883669311742,0.0076483688729924*8bdedccf
#CORRIMUDATAA,FILE,0,27.5,FINESTEERING,2319,307470.900,02000000,e5fc,17139;2319,307470.900000000,0.0000643351857379,0.0001045862356657,0.0002714881387380,0.0072609973641255,0.0151873431535825,0.0080461754245865*5bac76c3
#CORRIMUDATAA,FILE,0,27.5,FINESTEERING,2319,307470.950,02000000,e5fc,17139;2319,307470.950000000,-0.0003203156565282,0.0000595812428956,0.0007933693134995,0.0052862389945288,0.0170052586448259,0.0074640461405517*007774f0
#CORRIMUDATAA,FILE,0,27.5,FINESTEERING,2319,307471.000,02000000,e5fc,17139;2319,307471.000000000,-0.0004176208546198,0.0000754790530155,0.0011803351380122,-0.0045639921012817,0.0177746114911946,0.0057093725067703*17d54768
#CORRIMUDATAA,FILE,0,27.5,FINESTEERING,2319,307471.050,02000000,e5fc,17139;2319,307471.050000000,-0.0004198076676371,-0.0000620068088355,0.0013568374769159,-0.0147390256310764,0.0181366626884224,0.0030205688145756*2c413a39
#CORRIMUDATAA,FILE,0,26.0,FINESTEERING,2319,307471.100,02000000,e5fc,17139;2319,307471.100000000,-0.0004685918938175,0.0002256935152494,0.0013278793156142,-0.0124658173347524,0.0192885104840803,-0.0007668650599528*2a58c885
#CORRIMUDATAA,FILE,0,26.0,FINESTEERING,2319,307471.150,02000000,e5fc,17139;2319,307471.150000000,-0.0005216464215019,-0.0004049649116084,0.0013449671486517,-0.0053245879116785,0.0184691656253628,-0.0106781403117416*f5912766
#CORRIMUDATAA,FILE,0,26.0,FINESTEERING,2319,307471.200,02000000,e5fc,17139;2319,307471.200000000,-0.0007176619013006,-0.0012899609792796,0.0012186771696303,-0.0150842636776249,0.0204154383987854,-0.0046733575479974*05e8ea2c
#CORRIMUDATAA,FILE,0,26.0,FINESTEERING,2319,307471.250,02000000,e5fc,17139;2319,307471.250000000,-0.0007072569627340,-0.0010599057249929,0.0009271145952275,-0.0222703251752743,0.0205649992495548,-0.0076072486612707*86412093
