#INSPVAXA,FILE,0,29.0,FINESTEERING,2319,307456.500,02000800,46eb,17139;INS_SOLUTION_GOOD,INS_RTKFIXED,17.60108638266,78.12662885623,526.9187,-76.2000,-0.2712,-1.3295,0.0144,0.185790185,0.122414980,260.834498417,0.1324,0.0618,0.0681,0.0288,0.0241,0.0166,0.0228,0.0218,0.4969,ab000241,0*37d37c2c
#INSPVAXA,FILE,0,29.0,FINESTEERING,2319,307456.550,02000800,46eb,17139;INS_SOLUTION_GOOD,INS_RTKFIXED,17.60108622998,78.12662823095,526.9169,-76.2000,-0.2638,-1.3090,0.0051,0.188222917,0.129833557,260.871797672,0.1324,0.0618,0.0681,0.0288,0.0241,0.0166,0.0228,0.0218,0.4969,ab000241,0*898ab23c
#INSPVAXA,FILE,0,29.0,FINESTEERING,2319,307456.600,02000800,46eb,17139;INS_SOLUTION_GOOD,INS_RTKFIXED,17.60108608185,78.12662761574,526.9148,-76.2000,-0.2524,-1.2877,0.0046,0.170960326,0.146636370,260.897341747,0.1324,0.0618,0.0681,0.0288,0.0241,0.0166,0.0228,0.0218,0.4969,ab000241,0*df5e672d
#INSPVAXA,FILE,0,29.0,FINESTEERING,2319,307456.650,02000800,46eb,17139;INS_SOLUTION_GOOD,INS_RTKFIXED,17.60108593657,78.12662701195,526.9131,-76.2000,-0.2499,-1.2622,0.0148,0.134143748,0.151498488,260.916172413,0.1324,0.0618,0.0681,0.0288,0.0241,0.0166,0.0228,0.0218,0.4969,ab000241,0*b9bcbe62
#INSPVAXA,FILE,0,29.0,FINESTEERING,2319,307456.700,02000800,46eb,17139;INS_SOLUTION_GOOD,INS_RTKFIXED,17.60108579156,78.12662642002,526.9118,-76.2000,-0.2520,-1.2368,0.0243,0.104563234,0.137670012,260.938473192,0.1324,0.0618,0.0681,0.0288,0.0241,0.0166,0.0228,0.0218,0.4969,ab000241,0*3a3aa72e
#INSPVAXA,FILE,0,29.0,FINESTEERING,2319,307456.750,02000800,46eb,17139;INS_SOLUTION_GOOD,INS_RTKFIXED,17.60108564567,78.12662583834,526.9109,-76.2000,-0.2541,-1.2191,0.0286,0.084312651,0.119689024,260.969301344,0.1324,0.0618,0.0681,0.0288,0.0241,0.0166,0.0228,0.0218,0.4969,ab000241,0*47e2bd28
#INSPVAXA,FILE,0,29.0,FINESTEERING,2319,307456.800,02000800,46eb,17139;INS_SOLUTION_GOOD,INS_RTKFIXED,17.60108549959,78.12662526313,526.9101,-76.2000,-0.2527,-1.2081,0.0291,0.076069449,0.100234503,261.008474833,0.1324,0.0618,0.0681,0.0288,0.0241,0.0166,0.0228,0.0218,0.4969,ab000241,0*386de868
#INSPVAXA,FILE,0,29.0,FINESTEERING,2319,307456.900,02000800,46eb,17139;INS_SOLUTION_GOOD,INS_RTKFIXED,17.60108521515,78.12662412718,526.9087,-76.2000,-0.2402,-1.1870,0.0335,0.048694307,0.068142695,261.080176061,0.1324,0.0618,0.0681,0.0288,0.0241,0.0166,0.0228,0.0218,0.4969,ab000241,0*db7c08c2
#INSPVAXA,FILE,0,29.0,FINESTEERING,2319,307457.000,02000800,46eb,17139;INS_SOLUTION_GOOD,INS_RTKFIXED,17.60108493668,78.12662301199,526.9079,-76.2000,-0.2413,-1.1666,0.0356,0.028750484,0.029020068,261.138637131,0.1324,0.0618,0.0681,0.0288,0.0241,0.0166,0.0228,0.0218,0.4969,ab000241,0*ea75898e
#INSPVAXA,FILE,0,29.0,FINESTEERING,2319,307457.100,02000800,46eb,17139;INS_SOLUTION_GOOD,INS_RTKFIXED,17.60108469590,78.12662190340,526.9077,-76.2000,-0.2450,-1.1472,0.0384,0.004465978,-0.044103451,261.198059166,0.0822,0.0622,0.0605,0.0257,0.0233,0.0160,0.0227,0.0214,0.4969,ab000241,0*f5f672e2
#INSPVAXA,FILE,0,29.5,FINESTEERING,2319,307457.200,02000800,46eb,17139;INS_SOLUTION_GOOD,INS_RTKFIXED,17.60108447529,78.12662080542,526.9072,-76.2000,-0.2332,-1.1397,0.0211,-0.028357087,-0.095217925,261.230628449,0.0822,0.0622,0.0605,0.0257,0.0233,0.0160,0.0227,0.0214,0.4969,ab000241,0*9e2d8287
#INSPVAXA,FILE,0,29.5,FINESTEERING,2319,307457.300,02000800,46eb,17139;INS_SOLUTION_GOOD,INS_RTKFIXED,17.60108426336,78.12661970240,526.9041,-76.2000,-0.2271,-1.1559,-0.0068,-0.056162947,-0.071579941,261.208050329,0.0822,0.0622,0.0605,0.0257,0.0233,0.0160,0.0227,0.0214,0.4969,ab000241,0*7e584d6a
#INSPVAXA,FILE,0,29.5,FINESTEERING,2319,307457.400,02000800,46eb,17139;INS_SOLUTION_GOOD,INS_RTKFIXED,17.60108405127,78.12661858856,526.8998,-76.2000,-0.2296,-1.1637,-0.0054,-0.044982138,-0.035094471,261.149855186,0.0822,0.0622,0.0605,0.0257,0.0233,0.0160,0.0227,0.0214,0.4969,ab000241,0*fdff8a94
#INSPVAXA,FILE,0,29.5,FINESTEERING,2319,307457.500,02000800,46eb,17139;INS_SOLUTION_GOOD,INS_RTKFIXED,17.60108383479,78.12661747187,526.8971,-76.2000,-0.2355,-1.1637,0.0227,-0.043923595,-0.053465943,261.077274796,0.0822,0.0622,0.0605,0.0257,0.0233,0.0160,0.0227,0.0214,0.4969,ab000241,0*8c6318a7
#INSPVAXA,FILE,0,29.5,FINESTEERING,2319,307457.600,02000800,46eb,17139;INS_SOLUTION_GOOD,INS_RTKFIXED,17.60108361599,78.12661635259,526.8969,-76.2000,-0.2320,-1.1713,0.0343,-0.053304515,-0.115952390,260.968216460,0.0822,0.0622,0.0605,0.0257,0.0233,0.0160,0.0227,0.0214,0.4969,ab000241,0*01697881
#INSPVAXA,FILE,0,29.5,FINESTEERING,2319,307457.700,02000800,46eb,17139;INS_SOLUTION_GOOD,INS_RTKFIXED,17.60108340053,78.12661522591,526.8965,-76.2000,-0.2305,-1.1804,0.0229,-0.090685802,-0.171381840,260.802351883,0.0822,0.0622,0.0605,0.0257,0.0233,0.0160,0.0227,0.0214,0.4969,ab000241,0*d2b33f79
#INSPVAXA,FILE,0,29.5,FINESTEERING,2319,307457.800,02000800,46eb,17139;INS_SOLUTION_GOOD,INS_RTKFIXED,17.60108317894,78.12661409213,526.8948,-76.2000,-0.2418,-1.1868,0.0138,-0.132645457,-0.211459625,260.620597493,0.0822,0.0622,0.0605,0.0257,0.0233,0.0160,0.0227,0.0214,0.4969,ab000241,0*6d4cb770
#INSPVAXA,FILE,0,29.5,FINESTEERING,2319,307457.850,02000800,46eb,17139;INS_SOLUTION_GOOD,INS_RTKFIXED,17.60108306464,78.12661352316,526.8939,-76.2000,-0.2458,-1.1898,0.0152,-0.150899249,-0.232140176,260.534034106,0.0822,0.0622,0.0605,0.0257,0.0233,0.0160,0.0227,0.0214,0.4969,ab000241,0*c5166a29
#INSPVAXA,FILE,0,29.5,FINESTEERING,2319,307457.950,02000800,46eb,17139;INS_SOLUTION_GOOD,INS_RTKFIXED,17.60108283268,78.12661237949,526.8924,-76.2000,-0.2474,-1.2001,0.0182,-0.192945158,-0.281967729,260.366799676,0.0822,0.0622,0.0605,0.0257,0.0233,0.0160,0.0227,0.0214,0.4969,ab000241,0*cea2d9b5
#INSPVAXA,FILE,0,29.5,FINESTEERING,2319,307458.050,02000800,46eb,17139;INS_SOLUTION_GOOD,INS_RTKFIXED,17.60108261014,78.12661122593,526.8911,-76.2000,-0.2528,-1.2096,0.0159,-0.238660889,-0.319878211,260.194766367,0.0690,0.0620,0.0587,0.0251,0.0224,0.0154,0.0226,0.0214,0.4970,ab000241,0*3c7ec7f1
#INSPVAXA,FILE,0,29.5,FINESTEERING,2319,307458.150,02000800,46eb,17139;INS_SOLUTION_GOOD,INS_RTKFIXED,17.60108242106,78.12661006028,526.8897,-76.2000,-0.2573,-1.2238,-0.0041,-0.284176746,-0.334681650,260.025502030,0.0690,0.0620,0.0587,0.0251,0.0224,0.0154,0.0226,0.0214,0.4970,ab000241,0*94a37537
#INSPVAXA,FILE,0,30.5,FINESTEERING,2319,307458.250,02000800,46eb,17139;INS_SOLUTION_GOOD,INS_RTKFIXED,17.60108222724,78.12660887903,526.8861,-76.2000,-0.2624,-1.2426,-0.0255,-0.337261739,-0.308749034,259.859287737,0.0690,0.0620,0.0587,0.0251,0.0224,0.0154,0.0226,0.0214,0.4970,ab000241,0*e06300cd
#INSPVAXA,FILE,0,30.5,FINESTEERING,2319,307458.350,02000800,46eb,17139;INS_SOLUTION_GOOD,INS_RTKFIXED,17.60108202802,78.12660768153,526.8815,-76.2000,-0.2662,-1.2580,-0.0227,-0.376365014,-0.262243519,259.703123206,0.0690,0.0620,0.0587,0.0251,0.0224,0.0154,0.0226,0.0214,0.4970,ab000241,0*3bf11aba
#INSPVAXA,FILE,0,30.5,FINESTEERING,2319,307458.450,02000800,46eb,17139;INS_SOLUTION_GOOD,INS_RTKFIXED,17.60108182491,78.12660647365,526.8782,-76.2000,-0.2689,-1.2686,0.0023,-0.412943509,-0.236571447,259.558596706,0.0690,0.0620,0.0587,0.0251,0.0224,0.0154,0.0226,0.0214,0.4970,ab000241,0*98f1db68
#INSPVAXA,FILE,0,30.5,FINESTEERING,2319,307458.550,02000800,46eb,17139;INS_SOLUTION_GOOD,INS_RTKFIXED,17.60108161661,78.12660525682,526.8777,-76.2000,-0.2746,-1.2783,0.0236,-0.422876798,-0.297815310,259.441612146,0.0690,0.0620,0.0587,0.0251,0.0224,0.0154,0.0226,0.0214,0.4970,ab000241,0*14677af7
#INSPVAXA,FILE,0,30.5,FINESTEERING,2319,307458.650,02000800,46eb,17139;INS_SOLUTION_GOOD,INS_RTKFIXED,17.60108140130,78.12660402726,526.8778,-76.2000,-0.2820,-1.2955,0.0157,-0.444301867,-0.361152499,259.352390833,0.0690,0.0620,0.0587,0.0251,0.0224,0.0154,0.0226,0.0214,0.4970,ab000241,0*62cb6c73
#INSPVAXA,FILE,0,30.5,FINESTEERING,2319,307458.750,02000800,46eb,17139;INS_SOLUTION_GOOD,INS_RTKFIXED,17.60108118144,78.12660278033,526.8764,-76.2000,-0.2851,-1.3149,-0.0060,-0.490489547,-0.397942992,259.263721373,0.0690,0.0620,0.0587,0.0251,0.0224,0.0154,0.0226,0.0214,0.4970,ab000241,0*c06f7b00
#INSPVAXA,FILE,0,30.5,FINESTEERING,2319,307458.800,02000800,46eb,17139;INS_SOLUTION_GOOD,INS_RTKFIXED,17.60108106832,78.12660215039,526.8751,-76.2000,-0.2918,-1.3245,-0.0103,-0.518769938,-0.402674789,259.227788565,0.0690,0.0620,0.0587,0.0251,0.0224,0.0154,0.0226,0.0214,0.4970,ab000241,0*f35fbf60
#INSPVAXA,FILE,0,30.5,FINESTEERING,2319,307458.900,02000800,46eb,17139;INS_SOLUTION_GOOD,INS_RTKFIXED,17.60108083608,78.12660087786,526.8720,-76.2000,-0.2960,-1.3429,-0.0075,-0.578922345,-0.405586833,259.185989110,0.0690,0.0620,0.0587,0.0251,0.0224,0.0154,0.0226,0.0214,0.4970,ab000241,0*b3d77939
#INSPVAXA,FILE,0,30.5,FINESTEERING,2319,307459.000,02000800,46eb,17139;INS_SOLUTION_GOOD,INS_RTKFIXED,17.60108060430,78.12659958855,526.8695,-76.2000,-0.2932,-1.3601,-0.0040,-0.615419003,-0.424987468,259.170789477,0.0690,0.0620,0.0587,0.0251,0.0224,0.0154,0.0226,0.0214,0.4970,ab000241,0*6da02bb7
#INSPVAXA,FILE,0,30.5,FINESTEERING,2319,307459.100,02000800,46eb,17139;INS_SOLUTION_GOOD,INS_RTKFIXED,17.60108038322,78.12659828284,526.8675,-76.2000,-0.3009,-1.3734,-0.0029,-0.656554711,-0.442938737,259.194844529,0.0640,0.0617,0.0577,0.0244,0.0216,0.0148,0.0224,0.0215,0.4970,ab000241,0*8fa9d1c2
#INSPVAXA,FILE,0,31.0,FINESTEERING,2319,307459.200,02000800,46eb,17139;INS_SOLUTION_GOOD,INS_RTKFIXED,17.60108016002,78.12659696330,526.8657,-76.2000,-0.3012,-1.3918,-0.0026,-0.690019352,-0.463560843,259.252324913,0.0640,0.0617,0.0577,0.0244,0.0216,0.0148,0.0224,0.0215,0.4970,ab000241,0*d646a541
#INSPVAXA,FILE,0,31.0,FINESTEERING,2319,307459.300,02000800,46eb,17139;INS_SOLUTION_GOOD,INS_RTKFIXED,17.60107993472,78.12659562752,526.8634,-76.2000,-0.3034,-1.4077,-0.0074,-0.743265245,-0.502934171,259.351101549,0.0640,0.0617,0.0577,0.0244,0.0216,0.0148,0.0224,0.0215,0.4970,ab000241,0*724e88d5
#INSPVAXA,FILE,0,31.0,FINESTEERING,2319,307459.400,02000800,46eb,17139;INS_SOLUTION_GOOD,INS_RTKFIXED,17.60107970908,78.12659427676,526.8611,-76.2000,-0.2978,-1.4243,-0.0068,-0.761071816,-0.516721733,259.474998240,0.0640,0.0617,0.0577,0.0244,0.0216,0.0148,0.0224,0.0215,0.4970,ab000241,0*ac1de096
#INSPVAXA,FILE,0,31.0,FINESTEERING,2319,307459.500,02000800,46eb,17139;INS_SOLUTION_GOOD,INS_RTKFIXED,17.60107949063,78.12659291156,526.8592,-76.2000,-0.2882,-1.4380,0.0005,-0.760068022,-0.527047374,259.607164889,0.0640,0.0617,0.0577,0.0244,0.0216,0.0148,0.0224,0.0215,0.4970,ab000241,0*a64f7d42
#INSPVAXA,FILE,0,31.0,FINESTEERING,2319,307459.600,02000800,46eb,17139;INS_SOLUTION_GOOD,INS_RTKFIXED,17.60107927164,78.12659153548,526.8574,-76.2000,-0.2938,-1.4525,-0.0044,-0.767387192,-0.538201487,259.750724678,0.0640,0.0617,0.0577,0.0244,0.0216,0.0148,0.0224,0.0215,0.4970,ab000241,0*82cabc3b
#INSPVAXA,FILE,0,31.0,FINESTEERING,2319,307459.700,02000800,46eb,17139;INS_SOLUTION_GOOD,INS_RTKFIXED,17.60107904919,78.12659014461,526.8553,-76.2000,-0.2901,-1.4664,-0.0062,-0.718043715,-0.546151445,259.923871858,0.0640,0.0617,0.0577,0.0244,0.0216,0.0148,0.0224,0.0215,0.4970,ab000241,0*69dd450c
#INSPVAXA,FILE,0,31.0,FINESTEERING,2319,307459.750,02000800,46eb,17139;INS_SOLUTION_GOOD,INS_RTKFIXED,17.60107894123,78.12658944663,526.8543,-76.2000,-0.2817,-1.4654,-0.0035,-0.716681085,-0.568370189,260.010742322,0.0640,0.0617,0.0577,0.0244,0.0216,0.0148,0.0224,0.0215,0.4970,ab000241,0*0ef7eb9c
#INSPVAXA,FILE,0,31.0,FINESTEERING,2319,307459.800,02000800,46eb,17139;INS_SOLUTION_GOOD,INS_RTKFIXED,17.60107883577,78.12658875011,526.8534,-76.2000,-0.2775,-1.4609,0.0001,-0.724870176,-0.602314965,260.087363941,0.0640,0.0617,0.0577,0.0244,0.0216,0.0148,0.0224,0.0215,0.4970,ab000241,0*f26eaf60
#INSPVAXA,FILE,0,31.0,FINESTEERING,2319,307459.850,02000800,46eb,17139;INS_SOLUTION_GOOD,INS_RTKFIXED,17.60107873065,78.12658805591,526.8526,-76.2000,-0.2778,-1.4562,-0.0013,-0.722442475,-0.633222667,260.158591377,0.0640,0.0617,0.0577,0.0244,0.0216,0.0148,0.0224,0.0215,0.4970,ab000241,0*44b3c1b9
#INSPVAXA,FILE,0,31.0,FINESTEERING,2319,307459.900,02000800,46eb,17139;INS_SOLUTION_GOOD,INS_RTKFIXED,17.60107862647,78.12658736299,526.8518,-76.2000,-0.2737,-1.4539,-0.0029,-0.715499040,-0.656317000,260.225490829,0.0640,0.0617,0.0577,0.0244,0.0216,0.0148,0.0224,0.0215,0.4970,ab000241,0*c49da6f8
#INSPVAXA,FILE,0,31.0,FINESTEERING,2319,307459.950,02000800,46eb,17139;INS_SOLUTION_GOOD,INS_RTKFIXED,17.60107852302,78.12658667204,526.8508,-76.2000,-0.2729,-1.4494,-0.0061,-0.725376813,-0.671224989,260.294750887,0.0640,0.0617,0.0577,0.0244,0.0216,0.0148,0.0224,0.0215,0.4970,ab000241,0*a6516ddd
#INSPVAXA,FILE,0,31.0,FINESTEERING,2319,307460.000,02000800,46eb,17139;INS_SOLUTION_GOOD,INS_RTKFIXED,17.60107841989,78.12658598289,526.8497,-76.2000,-0.2719,-1.4459,-0.0106,-0.744128263,-0.682264825,260.371541880,0.0640,0.0617,0.0577,0.0244,0.0216,0.0148,0.0224,0.0215,0.4970,ab000241,0*9090c7eb
#INSPVAXA,FILE,0,31.0,FINESTEERING,2319,307460.050,02000800,46eb,17139;INS_SOLUTION_GOOD,INS_RTKFIXED,17.60107832345,78.12658529218,526.8486,-76.2000,-0.2756,-1.4457,-0.0116,-0.764654760,-0.677819570,260.457228694,0.0623,0.0615,0.0569,0.0235,0.0210,0.0142,0.0222,0.0213,0.4971,ab000241,0*9fc72d08
#INSPVAXA,FILE,0,30.5,FINESTEERING,2319,307460.100,02000800,46eb,17139;INS_SOLUTION_GOOD,INS_RTKFIXED,17.60107823078,78.12658459763,526.8477,-76.2000,-0.2743,-1.4519,-0.0132,-0.777548284,-0.669408578,260.547176738,0.0623,0.0615,0.0569,0.0235,0.0210,0.0142,0.0222,0.0213,0.4971,ab000241,0*b3916943
#INSPVAXA,FILE,0,30.5,FINESTEERING,2319,307460.150,02000800,46eb,17139;INS_SOLUTION_GOOD,INS_RTKFIXED,17.60107813980,78.12658389992,526.8467,-76.2000,-0.2671,-1.4606,-0.0142,-0.799508643,-0.657947043,260.632902494,0.0623,0.0615,0.0569,0.0235,0.0210,0.0142,0.0222,0.0213,0.4971,ab000241,0*7a852374
#INSPVAXA,FILE,0,30.5,FINESTEERING,2319,307460.200,02000800,46eb,17139;INS_SOLUTION_GOOD,INS_RTKFIXED,17.60107805138,78.12658319858,526.8457,-76.2000,-0.2606,-1.4678,-0.0132,-0.819760285,-0.659264331,260.708617996,0.0623,0.0615,0.0569,0.0235,0.0210,0.0142,0.0222,0.0213,0.4971,ab000241,0*168abac4
#INSPVAXA,FILE,0,30.5,FINESTEERING,2319,307460.250,02000800,46eb,17139;INS_SOLUTION_GOOD,INS_RTKFIXED,17.60107796421,78.12658249430,526.8448,-76.2000,-0.2589,-1.4744,-0.0136,-0.839276815,-0.662959551,260.779555464,0.0623,0.0615,0.0569,0.0235,0.0210,0.0142,0.0222,0.0213,0.4971,ab000241,0*64680274
#INSPVAXA,FILE,0,30.5,FINESTEERING,2319,307460.300,02000000,46eb,17139;INS_SOLUTION_GOOD,INS_RTKFIXED,17.60107787754,78.12658178650,526.8438,-76.2000,-0.2570,-1.4819,-0.0141,-0.842135396,-0.664626505,260.851689257,0.0623,0.0615,0.0569,0.0235,0.0210,0.0142,0.0222,0.0213,0.4971,ab000241,0*0365cf25
#INSPVAXA,FILE,0,30.5,FINESTEERING,2319,307460.350,02000000,46eb,17139;INS_SOLUTION_GOOD,INS_RTKFIXED,17.60107779144,78.12658107487,526.8429,-76.2000,-0.2549,-1.4912,-0.0145,-0.851691379,-0.660726608,260.930818865,0.0623,0.0615,0.0569,0.0235,0.0210,0.0142,0.0222,0.0213,0.4971,ab000241,0*fad2e42c
#INSPVAXA,FILE,0,30.5,FINESTEERING,2319,307460.400,02000000,46eb,17139;INS_SOLUTION_GOOD,INS_RTKFIXED,17.60107770525,78.12658036001,526.8419,-76.2000,-0.2549,-1.4969,-0.0146,-0.861413791,-0.660960099,261.019177222,0.0623,0.0615,0.0569,0.0235,0.0210,0.0142,0.0222,0.0213,0.4971,ab000241,0*9900f4fc
#INSPVAXA,FILE,0,30.5,FINESTEERING,2319,307460.450,02000000,46eb,17139;INS_SOLUTION_GOOD,INS_RTKFIXED,17.60107761939,78.12657964172,526.8410,-76.2000,-0.2538,-1.5059,-0.0147,-0.874488941,-0.661111884,261.114732142,0.0623,0.0615,0.0569,0.0235,0.0210,0.0142,0.0222,0.0213,0.4971,ab000241,0*5dfdbd8b
#INSPVAXA,FILE,0,30.5,FINESTEERING,2319,307460.500,02000000,46eb,17139;INS_SOLUTION_GOOD,INS_RTKFIXED,17.60107753331,78.12657891983,526.8401,-76.2000,-0.2531,-1.5139,-0.0129,-0.888048653,-0.666519111,261.214954641,0.0623,0.0615,0.0569,0.0235,0.0210,0.0142,0.0222,0.0213,0.4971,ab000241,0*eeee0dfd
#INSPVAXA,FILE,0,30.5,FINESTEERING,2319,307460.550,02000000,46eb,17139;INS_SOLUTION_GOOD,INS_RTKFIXED,17.60107744769,78.12657819446,526.8393,-76.2000,-0.2504,-1.5206,-0.0115,-0.902779579,-0.681252295,261.317005882,0.0623,0.0615,0.0569,0.0235,0.0210,0.0142,0.0222,0.0213,0.4971,ab000241,0*8b003e47
#INSPVAXA,FILE,0,30.5,FINESTEERING,2319,307460.600,02000000,46eb,17139;INS_SOLUTION_GOOD,INS_RTKFIXED,17.60107736405,78.12657746543,526.8383,-76.2000,-0.2441,-1.5300,-0.0191,-0.908763805,-0.681454117,261.418084959,0.0623,0.0615,0.0569,0.0235,0.0210,0.0142,0.0222,0.0213,0.4971,ab000241,0*1ae4c063
#INSPVAXA,FILE,0,30.5,FINESTEERING,2319,307460.650,02000000,46eb,17139;INS_SOLUTION_GOOD,INS_RTKFIXED,17.60107728278,78.12657673174,526.8370,-76.2000,-0.2374,-1.5405,-0.0232,-0.913631297,-0.672617530,261.520809594,0.0623,0.0615,0.0569,0.0235,0.0210,0.0142,0.0222,0.0213,0.4971,ab000241,0*1d80c3c1
#INSPVAXA,FILE,0,30.5,FINESTEERING,2319,307460.700,02000000,46eb,17139;INS_SOLUTION_GOOD,INS_RTKFIXED,17.60107720291,78.12657599441,526.8358,-76.2000,-0.2364,-1.5466,-0.0176,-0.935285131,-0.672907974,261.632533390,0.0623,0.0615,0.0569,0.0235,0.0210,0.0142,0.0222,0.0213,0.4971,ab000241,0*c260b703
#INSPVAXA,FILE,0,30.5,FINESTEERING,2319,307460.750,02000000,46eb,17139;INS_SOLUTION_GOOD,INS_RTKFIXED,17.60107712210,78.12657525449,526.8349,-76.2000,-0.2399,-1.5519,-0.0105,-0.958475780,-0.681196312,261.756739135,0.0623,0.0615,0.0569,0.0235,0.0210,0.0142,0.0222,0.0213,0.4971,ab000241,0*2c66668a
#INSPVAXA,FILE,0,30.5,FINESTEERING,2319,307460.800,02000000,46eb,17139;INS_SOLUTION_GOOD,INS_RTKFIXED,17.60107703997,78.12657451126,526.8343,-76.2000,-0.2408,-1.5613,-0.0092,-0.970863509,-0.690564366,261.889358714,0.0623,0.0615,0.0569,0.0235,0.0210,0.0142,0.0222,0.0213,0.4971,ab000241,0*4bb6d20e
#INSPVAXA,FILE,0,30.5,FINESTEERING,2319,307460.850,02000000,46eb,17139;INS_SOLUTION_GOOD,INS_RTKFIXED,17.60107695843,78.12657376367,526.8334,-76.2000,-0.2354,-1.5710,-0.0142,-0.963265209,-0.693182251,262.024933002,0.0623,0.0615,0.0569,0.0235,0.0210,0.0142,0.0222,0.0213,0.4971,ab000241,0*b76a1110
#INSPVAXA,FILE,0,30.5,FINESTEERING,2319,307460.900,02000000,46eb,17139;INS_SOLUTION_GOOD,INS_RTKFIXED,17.60107688053,78.12657301123,526.8324,-76.2000,-0.2241,-1.5822,-0.0187,-0.952758820,-0.688625160,262.158081260,0.0623,0.0615,0.0569,0.0235,0.0210,0.0142,0.0222,0.0213,0.4971,ab000241,0*5efb2730
#INSPVAXA,FILE,0,30.5,FINESTEERING,2319,307460.950,02000000,46eb,17139;INS_SOLUTION_GOOD,INS_RTKFIXED,17.60107680647,78.12657225392,526.8312,-76.2000,-0.2152,-1.5923,-0.0201,-0.943847228,-0.685934285,262.291291472,0.0623,0.0615,0.0569,0.0235,0.0210,0.0142,0.0222,0.0213,0.4971,ab000241,0*60c8e166
#INSPVAXA,FILE,0,30.5,FINESTEERING,2319,307461.000,02000000,46eb,17139;INS_SOLUTION_GOOD,INS_RTKFIXED,17.60107673406,78.12657149251,526.8302,-76.2000,-0.2142,-1.6014,-0.0164,-0.937617690,-0.691839548,262.430708609,0.0623,0.0615,0.0569,0.0235,0.0210,0.0142,0.0222,0.0213,0.4971,ab000241,0*5f73e8bd
#INSPVAXA,FILE,0,30.5,FINESTEERING,2319,307461.050,02000000,46eb,17139;INS_SOLUTION_GOOD,INS_RTKFIXED,17.60107666881,78.12657072261,526.8293,-76.2000,-0.2131,-1.6134,-0.0132,-0.910676534,-0.704937371,262.575969224,0.0620,0.0613,0.0562,0.0224,0.0205,0.0134,0.0218,0.0210,0.4971,ab000241,0*bbc38cac
#INSPVAXA,FILE,0,19.5,FINESTEERING,2319,307461.100,02000000,46eb,17139;INS_SOLUTION_GOOD,INS_RTKFIXED,17.60107660607,78.12656994517,526.8284,-76.2000,-0.2143,-1.6251,-0.0149,-0.891734333,-0.724445672,262.723997548,0.0620,0.0613,0.0562,0.0224,0.0205,0.0134,0.0218,0.0210,0.4971,ab000241,0*9bcb1b33
#INSPVAXA,FILE,0,19.5,FINESTEERING,2319,307461.150,02000000,46eb,17139;INS_SOLUTION_GOOD,INS_RTKFIXED,17.60107654352,78.12656916412,526.8277,-76.2000,-0.2123,-1.6295,-0.0088,-0.881773750,-0.745110981,262.872811138,0.0620,0.0613,0.0562,0.0224,0.0205,0.0134,0.0218,0.0210,0.4971,ab000241,0*ffc29a3e
#INSPVAXA,FILE,0,19.5,FINESTEERING,2319,307461.200,02000000,46eb,17139;INS_SOLUTION_GOOD,INS_RTKFIXED,17.60107648095,78.12656837880,526.8273,-76.2000,-0.2072,-1.6447,-0.0060,-0.868849411,-0.743694455,263.023714245,0.0620,0.0613,0.0562,0.0224,0.0205,0.0134,0.0218,0.0210,0.4971,ab000241,0*e5ae0684
#INSPVAXA,FILE,0,19.5,FINESTEERING,2319,307461.250,02000000,46eb,17139;INS_SOLUTION_GOOD,INS_RTKFIXED,17.60107642371,78.12656758529,526.8266,-76.2000,-0.1920,-1.6641,-0.0115,-0.869069653,-0.735689768,263.162339130,0.0620,0.0613,0.0562,0.0224,0.0205,0.0134,0.0218,0.0210,0.4971,ab000241,0*c1182a5c
#INSPVAXA,FILE,0,19.5,FINESTEERING,2319,307461.300,02000000,46eb,17139;INS_SOLUTION_GOOD,INS_RTKFIXED,17.60107636951,78.12656678309,526.8254,-76.2000,-0.1884,-1.6820,-0.0262,-0.917945344,-0.717759547,263.293294526,0.0620,0.0613,0.0562,0.0224,0.0205,0.0134,0.0218,0.0210,0.4971,ab000241,0*922fa070
#INSPVAXA,FILE,0,19.5,FINESTEERING,2319,307461.350,02000000,46eb,17139;INS_SOLUTION_GOOD,INS_RTKFIXED,17.60107631466,78.12656597470,526.8241,-76.2000,-0.1937,-1.6909,-0.0227,-0.937365425,-0.721749508,263.428287217,0.0620,0.0613,0.0562,0.0224,0.0205,0.0134,0.0218,0.0210,0.4971,ab000241,0*661e6fa2
#INSPVAXA,FILE,0,19.5,FINESTEERING,2319,307461.400,02000000,46eb,17139;INS_SOLUTION_GOOD,INS_RTKFIXED,17.60107625672,78.12656516167,526.8230,-76.2000,-0.2001,-1.7008,-0.0230,-0.948914818,-0.730758179,263.572904414,0.0620,0.0613,0.0562,0.0224,0.0205,0.0134,0.0218,0.0210,0.4971,ab000241,0*ed12fa8e
#INSPVAXA,FILE,0,19.5,FINESTEERING,2319,307461.450,02000000,46eb,17139;INS_SOLUTION_GOOD,INS_RTKFIXED,17.60107619920,78.12656434664,526.8219,-76.2000,-0.1917,-1.7028,-0.0195,-0.939133929,-0.736111279,263.721876307,0.0620,0.0613,0.0562,0.0224,0.0205,0.0134,0.0218,0.0210,0.4971,ab000241,0*d2394b8e
#INSPVAXA,FILE,0,19.5,FINESTEERING,2319,307461.500,02000000,46eb,17139;INS_SOLUTION_GOOD,INS_RTKFIXED,17.60107614581,78.12656352884,526.8208,-76.2000,-0.1797,-1.7099,-0.0184,-0.929134017,-0.745095039,263.864813380,0.0620,0.0613,0.0562,0.0224,0.0205,0.0134,0.0218,0.0210,0.4971,ab000241,0*ab64dcfe
#INSPVAXA,FILE,0,19.5,FINESTEERING,2319,307461.550,02000000,46eb,17139;INS_SOLUTION_GOOD,INS_RTKFIXED,17.60107609728,78.12656270839,526.8199,-76.2000,-0.1681,-1.7162,-0.0169,-0.930793273,-0.739138590,264.000473304,0.0620,0.0613,0.0562,0.0224,0.0205,0.0134,0.0218,0.0210,0.4971,ab000241,0*2553e768
#INSPVAXA,FILE,0,19.5,FINESTEERING,2319,307461.600,02000000,46eb,17139;INS_SOLUTION_GOOD,INS_RTKFIXED,17.60107605217,78.12656188428,526.8192,-76.2000,-0.1626,-1.7271,-0.0127,-0.929791178,-0.740427098,264.129004628,0.0620,0.0613,0.0562,0.0224,0.0205,0.0134,0.0218,0.0210,0.4971,ab000241,0*403f7500
#INSPVAXA,FILE,0,19.5,FINESTEERING,2319,307461.650,02000000,46eb,17139;INS_SOLUTION_GOOD,INS_RTKFIXED,17.60107600937,78.12656105336,526.8182,-76.2000,-0.1576,-1.7463,-0.0206,-0.917976598,-0.733439088,264.247909533,0.0620,0.0613,0.0562,0.0224,0.0205,0.0134,0.0218,0.0210,0.4971,ab000241,0*896bf33a
#INSPVAXA,FILE,0,19.5,FINESTEERING,2319,307461.700,02000000,46eb,17139;INS_SOLUTION_GOOD,INS_RTKFIXED,17.60107596802,78.12656021184,526.8169,-76.2000,-0.1546,-1.7715,-0.0275,-0.911493199,-0.715696184,264.359157353,0.0620,0.0613,0.0562,0.0224,0.0205,0.0134,0.0218,0.0210,0.4971,ab000241,0*748a4a76
#INSPVAXA,FILE,0,19.5,FINESTEERING,2319,307461.750,02000000,46eb,17139;INS_SOLUTION_GOOD,INS_RTKFIXED,17.60107592758,78.12655935884,526.8154,-76.2000,-0.1526,-1.7969,-0.0284,-0.895851827,-0.694517625,264.462650925,0.0620,0.0613,0.0562,0.0224,0.0205,0.0134,0.0218,0.0210,0.4971,ab000241,0*0a61b171
#INSPVAXA,FILE,0,19.5,FINESTEERING,2319,307461.800,02000000,46eb,17139;INS_SOLUTION_GOOD,INS_RTKFIXED,17.60107588739,78.12655849375,526.8139,-76.2000,-0.1508,-1.8240,-0.0279,-0.889296479,-0.672018490,264.564810667,0.0620,0.0613,0.0562,0.0224,0.0205,0.0134,0.0218,0.0210,0.4971,ab000241,0*564ec63c
#INSPVAXA,FILE,0,19.5,FINESTEERING,2319,307461.850,02000000,46eb,17139;INS_SOLUTION_GOOD,INS_RTKFIXED,17.60107584705,78.12655761511,526.8125,-76.2000,-0.1508,-1.8541,-0.0251,-0.880454280,-0.654166047,264.665474043,0.0620,0.0613,0.0562,0.0224,0.0205,0.0134,0.0218,0.0210,0.4971,ab000241,0*a2e952ee
#INSPVAXA,FILE,0,19.5,FINESTEERING,2319,307461.900,02000000,46eb,17139;INS_SOLUTION_GOOD,INS_RTKFIXED,17.60107580636,78.12655672124,526.8112,-76.2000,-0.1512,-1.8908,-0.0257,-0.883887632,-0.633760308,264.767715273,0.0620,0.0613,0.0562,0.0224,0.0205,0.0134,0.0218,0.0210,0.4971,ab000241,0*2cda197c
#INSPVAXA,FILE,0,19.5,FINESTEERING,2319,307461.950,02000000,46eb,17139;INS_SOLUTION_GOOD,INS_RTKFIXED,17.60107576612,78.12655580940,526.8098,-76.2000,-0.1484,-1.9302,-0.0255,-0.894833103,-0.624026341,264.864189144,0.0620,0.0613,0.0562,0.0224,0.0205,0.0134,0.0218,0.0210,0.4971,ab000241,0*8ba9770f
#INSPVAXA,FILE,0,19.5,FINESTEERING,2319,307462.000,02000000,46eb,17139;INS_SOLUTION_GOOD,INS_RTKFIXED,17.60107572676,78.12655487838,526.8083,-76.2000,-0.1448,-1.9723,-0.0275,-0.900690210,-0.606315555,264.951985487,0.0620,0.0613,0.0562,0.0224,0.0205,0.0134,0.0218,0.0210,0.4971,ab000241,0*d5c52a7d
#INSPVAXA,FILE,0,19.5,FINESTEERING,2319,307462.050,02000000,46eb,17139;INS_SOLUTION_GOOD,INS_RTKFIXED,17.60107569220,78.12655392638,526.8069,-76.2000,-0.1416,-2.0139,-0.0275,-0.914611146,-0.590159324,265.028207574,0.0620,0.0610,0.0556,0.0213,0.0202,0.0128,0.0214,0.0206,0.4972,ab000241,0*cd776e20
#INSPVAXA,FILE,0,19.5,FINESTEERING,2319,307462.100,02000000,46eb,17139;INS_SOLUTION_GOOD,INS_RTKFIXED,17.60107565781,78.12655295413,526.8058,-76.2000,-0.1410,-2.0580,-0.0273,-0.928551689,-0.583280110,265.095926576,0.0620,0.0610,0.0556,0.0213,0.0202,0.0128,0.0214,0.0206,0.4972,ab000241,0*e2d666b8
#INSPVAXA,FILE,0,19.5,FINESTEERING,2319,307462.150,02000000,46eb,17139;INS_SOLUTION_GOOD,INS_RTKFIXED,17.60107562312,78.12655195939,526.8045,-76.2000,-0.1415,-2.1078,-0.0294,-0.940713782,-0.572500040,265.160652669,0.0620,0.0610,0.0556,0.0213,0.0202,0.0128,0.0214,0.0206,0.4972,ab000241,0*f53d5e9f
#INSPVAXA,FILE,0,19.5,FINESTEERING,2319,307462.200,02000000,46eb,17139;INS_SOLUTION_GOOD,INS_RTKFIXED,17.60107558759,78.12655094106,526.8033,-76.2000,-0.1420,-2.1615,-0.0302,-0.952856575,-0.547002738,265.225210187,0.0620,0.0610,0.0556,0.0213,0.0202,0.0128,0.0214,0.0206,0.4972,ab000241,0*0b4841f4
#INSPVAXA,FILE,0,25.5,FINESTEERING,2319,307462.250,02000000,46eb,17139;INS_SOLUTION_GOOD,INS_RTKFIXED,17.60107555209,78.12654989689,526.8020,-76.2000,-0.1411,-2.2167,-0.0280,-0.954743578,-0.540545211,265.286872829,0.0620,0.0610,0.0556,0.0213,0.0202,0.0128,0.0214,0.0206,0.4972,ab000241,0*0e110885
#INSPVAXA,FILE,0,25.5,FINESTEERING,2319,307462.300,02000000,46eb,17139;INS_SOLUTION_GOOD,INS_RTKFIXED,17.60107551773,78.12654882544,526.8006,-76.2000,-0.1366,-2.2779,-0.0354,-0.954652014,-0.510093542,265.339755416,0.0620,0.0610,0.0556,0.0213,0.0202,0.0128,0.0214,0.0206,0.4972,ab000241,0*73dfd978
#INSPVAXA,FILE,0,25.5,FINESTEERING,2319,307462.350,02000000,46eb,17139;INS_SOLUTION_GOOD,INS_RTKFIXED,17.60107548499,78.12654772566,526.7988,-76.2000,-0.1325,-2.3383,-0.0417,-0.932616619,-0.490362808,265.382711600,0.0620,0.0610,0.0556,0.0213,0.0202,0.0128,0.0214,0.0206,0.4972,ab000241,0*41be14b8
#INSPVAXA,FILE,0,25.5,FINESTEERING,2319,307462.400,02000000,46eb,17139;INS_SOLUTION_GOOD,INS_RTKFIXED,17.60107545319,78.12654659668,526.7967,-76.2000,-0.1308,-2.4009,-0.0457,-0.910883880,-0.469436435,265.421747196,0.0620,0.0610,0.0556,0.0213,0.0202,0.0128,0.0214,0.0206,0.4972,ab000241,0*4eccda66
#INSPVAXA,FILE,0,25.5,FINESTEERING,2319,307462.450,02000000,46eb,17139;INS_SOLUTION_GOOD,INS_RTKFIXED,17.60107542135,78.12654543814,526.7946,-76.2000,-0.1319,-2.4654,-0.0451,-0.903566814,-0.437181363,265.459826804,0.0620,0.0610,0.0556,0.0213,0.0202,0.0128,0.0214,0.0206,0.4972,ab000241,0*1f8632fa
#INSPVAXA,FILE,0,25.5,FINESTEERING,2319,307462.500,02000000,46eb,17139;INS_SOLUTION_GOOD,INS_RTKFIXED,17.60107538733,78.12654425048,526.7927,-76.2000,-0.1388,-2.5266,-0.0371,-0.901485717,-0.416063605,265.498903465,0.0620,0.0610,0.0556,0.0213,0.0202,0.0128,0.0214,0.0206,0.4972,ab000241,0*8940816f
#INSPVAXA,FILE,0,25.5,FINESTEERING,2319,307462.550,02000000,46eb,17139;INS_SOLUTION_GOOD,INS_RTKFIXED,17.60107534979,78.12654303384,526.7911,-76.2000,-0.1453,-2.5876,-0.0303,-0.899897902,-0.408968397,265.543762506,0.0620,0.0610,0.0556,0.0213,0.0202,0.0128,0.0214,0.0206,0.4972,ab000241,0*0d49d84e
#INSPVAXA,FILE,0,25.5,FINESTEERING,2319,307462.600,02000000,46eb,17139;INS_SOLUTION_GOOD,INS_RTKFIXED,17.60107531073,78.12654178795,526.7899,-76.2000,-0.1454,-2.6503,-0.0265,-0.908528693,-0.411430969,265.588035857,0.0620,0.0610,0.0556,0.0213,0.0202,0.0128,0.0214,0.0206,0.4972,ab000241,0*835c4ee9
#INSPVAXA,FILE,0,25.5,FINESTEERING,2319,307462.650,02000000,46eb,17139;INS_SOLUTION_GOOD,INS_RTKFIXED,17.60107527220,78.12654051514,526.7891,-76.2000,-0.1420,-2.7073,-0.0090,-0.885922579,-0.422784267,265.625046737,0.0620,0.0610,0.0556,0.0213,0.0202,0.0128,0.0214,0.0206,0.4972,ab000241,0*88d31222
#INSPVAXA,FILE,0,25.5,FINESTEERING,2319,307462.700,02000000,46eb,17139;INS_SOLUTION_GOOD,INS_RTKFIXED,17.60107523616,78.12653921321,526.7887,-76.2000,-0.1324,-2.7700,-0.0114,-0.879848143,-0.440754484,265.658768581,0.0620,0.0610,0.0556,0.0213,0.0202,0.0128,0.0214,0.0206,0.4972,ab000241,0*ec152004
#INSPVAXA,FILE,0,25.5,FINESTEERING,2319,307462.750,02000000,46eb,17139;INS_SOLUTION_GOOD,INS_RTKFIXED,17.60107520256,78.12653788241,526.7882,-76.2000,-0.1300,-2.8315,-0.0155,-0.892433895,-0.458677447,265.691939055,0.0620,0.0610,0.0556,0.0213,0.0202,0.0128,0.0214,0.0206,0.4972,ab000241,0*9cc45e04
#INSPVAXA,FILE,0,25.5,FINESTEERING,2319,307462.800,02000000,46eb,17139;INS_SOLUTION_GOOD,INS_RTKFIXED,17.60107516769,78.12653652312,526.7873,-76.2000,-0.1357,-2.8917,-0.0211,-0.895844923,-0.482043039,265.731928485,0.0620,0.0610,0.0556,0.0213,0.0202,0.0128,0.0214,0.0206,0.4972,ab000241,0*d0d371f2
#INSPVAXA,FILE,0,25.5,FINESTEERING,2319,307462.850,02000000,46eb,17139;INS_SOLUTION_GOOD,INS_RTKFIXED,17.60107513033,78.12653513516,526.7861,-76.2000,-0.1404,-2.9536,-0.0315,-0.892080579,-0.495867055,265.782986565,0.0620,0.0610,0.0556,0.0213,0.0202,0.0128,0.0214,0.0206,0.4972,ab000241,0*3e5b9638
#INSPVAXA,FILE,0,25.5,FINESTEERING,2319,307462.900,02000000,46eb,17139;INS_SOLUTION_GOOD,INS_RTKFIXED,17.60107509144,78.12653371902,526.7844,-76.2000,-0.1400,-3.0121,-0.0403,-0.886721143,-0.510509637,265.847267910,0.0620,0.0610,0.0556,0.0213,0.0202,0.0128,0.0214,0.0206,0.4972,ab000241,0*7304ebc7
#INSPVAXA,FILE,0,25.5,FINESTEERING,2319,307462.950,02000000,46eb,17139;INS_SOLUTION_GOOD,INS_RTKFIXED,17.60107505117,78.12653227508,526.7824,-76.2000,-0.1422,-3.0700,-0.0493,-0.906600069,-0.519539752,265.930105942,0.0620,0.0610,0.0556,0.0213,0.0202,0.0128,0.0214,0.0206,0.4972,ab000241,0*c96bed3e
#INSPVAXA,FILE,0,25.5,FINESTEERING,2319,307463.000,02000000,46eb,17139;INS_SOLUTION_GOOD,INS_RTKFIXED,17.60107500887,78.12653080365,526.7802,-76.2000,-0.1481,-3.1306,-0.0484,-0.906596461,-0.505228369,266.036864496,0.0620,0.0610,0.0556,0.0213,0.0202,0.0128,0.0214,0.0206,0.4972,ab000241,0*dc7701b9
#INSPVAXA,FILE,0,25.5,FINESTEERING,2319,307463.050,02000000,46eb,17139;INS_SOLUTION_GOOD,INS_RTKFIXED,17.60107496732,78.12652930534,526.7782,-76.2000,-0.1459,-3.1875,-0.0422,-0.924653251,-0.504191484,266.169336970,0.0615,0.0605,0.0549,0.0209,0.0200,0.0123,0.0209,0.0202,0.4972,ab000241,0*adb65c2c
#INSPVAXA,FILE,0,25.5,FINESTEERING,2319,307463.100,02000000,46eb,17139;INS_SOLUTION_GOOD,INS_RTKFIXED,17.60107492416,78.12652778244,526.7767,-76.2000,-0.1408,-3.2395,-0.0322,-0.953507145,-0.535890040,266.317737639,0.0615,0.0605,0.0549,0.0209,0.0200,0.0123,0.0209,0.0202,0.4972,ab000241,0*306afeb0
#INSPVAXA,FILE,0,25.5,FINESTEERING,2319,307463.150,02000000,46eb,17139;INS_SOLUTION_GOOD,INS_RTKFIXED,17.60107488382,78.12652623326,526.7753,-76.2000,-0.1313,-3.2965,-0.0320,-0.954743992,-0.558525502,266.465547617,0.0615,0.0605,0.0549,0.0209,0.0200,0.0123,0.0209,0.0202,0.4972,ab000241,0*4654e0b4
#INSPVAXA,FILE,0,25.5,FINESTEERING,2319,307463.200,02000000,46eb,17139;INS_SOLUTION_GOOD,INS_RTKFIXED,17.60107484931,78.12652465909,526.7740,-76.2000,-0.1145,-3.3494,-0.0266,-0.934894920,-0.566829077,266.609333724,0.0615,0.0605,0.0549,0.0209,0.0200,0.0123,0.0209,0.0202,0.4972,ab000241,0*16bafd48
#INSPVAXA,FILE,0,25.5,FINESTEERING,2319,307463.250,02000000,46eb,17139;INS_SOLUTION_GOOD,INS_RTKFIXED,17.60107482270,78.12652305965,526.7722,-76.2000,-0.0972,-3.4012,-0.0447,-0.923135041,-0.564280592,266.741927061,0.0615,0.0605,0.0549,0.0209,0.0200,0.0123,0.0209,0.0202,0.4972,ab000241,0*34798d19
#INSPVAXA,FILE,0,25.5,FINESTEERING,2319,307463.300,02000000,46eb,17139;INS_SOLUTION_GOOD,INS_RTKFIXED,17.60107480164,78.12652143703,526.7703,-76.2000,-0.0873,-3.4509,-0.0385,-0.903480024,-0.531486706,266.871839968,0.0615,0.0605,0.0549,0.0209,0.0200,0.0123,0.0209,0.0202,0.4972,ab000241,0*fdee913f
#INSPVAXA,FILE,0,25.5,FINESTEERING,2319,307463.350,02000000,46eb,17139;INS_SOLUTION_GOOD,INS_RTKFIXED,17.60107478275,78.12651979183,526.7686,-76.2000,-0.0851,-3.4967,-0.0371,-0.869288674,-0.484267868,267.004663047,0.0615,0.0605,0.0549,0.0209,0.0200,0.0123,0.0209,0.0202,0.4972,ab000241,0*cfae063a
#INSPVAXA,FILE,0,25.5,FINESTEERING,2319,307463.400,02000000,46eb,17139;INS_SOLUTION_GOOD,INS_RTKFIXED,17.60107476567,78.12651812446,526.7669,-76.2000,-0.0788,-3.5440,-0.0359,-0.804687623,-0.401005105,267.141084187,0.0615,0.0605,0.0549,0.0209,0.0200,0.0123,0.0209,0.0202,0.4972,ab000241,0*e2cc92dd
#INSPVAXA,FILE,0,25.5,FINESTEERING,2319,307463.450,02000000,46eb,17139;INS_SOLUTION_GOOD,INS_RTKFIXED,17.60107475256,78.12651643583,526.7654,-76.2000,-0.0687,-3.5900,-0.0247,-0.712035347,-0.317347652,267.274672301,0.0615,0.0605,0.0549,0.0209,0.0200,0.0123,0.0209,0.0202,0.4972,ab000241,0*9df07834
#INSPVAXA,FILE,0,25.5,FINESTEERING,2319,307463.500,02000000,46eb,17139;INS_SOLUTION_GOOD,INS_RTKFIXED,17.60107474390,78.12651472502,526.7641,-76.2000,-0.0574,-3.6369,-0.0305,-0.639986137,-0.256935923,267.408564211,0.0615,0.0605,0.0549,0.0209,0.0200,0.0123,0.0209,0.0202,0.4972,ab000241,0*30e85541
#INSPVAXA,FILE,0,25.5,FINESTEERING,2319,307463.550,02000000,46eb,17139;INS_SOLUTION_GOOD,INS_RTKFIXED,17.60107473957,78.12651299137,526.7625,-76.2000,-0.0478,-3.6849,-0.0365,-0.601310147,-0.222900482,267.538509453,0.0615,0.0605,0.0549,0.0209,0.0200,0.0123,0.0209,0.0202,0.4972,ab000241,0*6502ce26
#INSPVAXA,FILE,0,25.5,FINESTEERING,2319,307463.600,02000000,46eb,17139;INS_SOLUTION_GOOD,INS_RTKFIXED,17.60107473755,78.12651123600,526.7605,-76.2000,-0.0441,-3.7320,-0.0466,-0.566805233,-0.210974317,267.661059788,0.0615,0.0605,0.0549,0.0209,0.0200,0.0123,0.0209,0.0202,0.4972,ab000241,0*8719f487
#INSPVAXA,FILE,0,25.5,FINESTEERING,2319,307463.650,02000000,46eb,17139;INS_SOLUTION_GOOD,INS_RTKFIXED,17.60107473677,78.12650945887,526.7580,-76.2000,-0.0407,-3.7784,-0.0556,-0.545562208,-0.218544855,267.781680066,0.0615,0.0605,0.0549,0.0209,0.0200,0.0123,0.0209,0.0202,0.4972,ab000241,0*6bcc7ca4
#INSPVAXA,FILE,0,25.5,FINESTEERING,2319,307463.700,02000000,46eb,17139;INS_SOLUTION_GOOD,INS_RTKFIXED,17.60107473938,78.12650766076,526.7556,-76.2000,-0.0321,-3.8264,-0.0468,-0.532915685,-0.251179012,267.897195303,0.0615,0.0605,0.0549,0.0209,0.0200,0.0123,0.0209,0.0202,0.4972,ab000241,0*efac5068
#INSPVAXA,FILE,0,25.5,FINESTEERING,2319,307463.750,02000000,46eb,17139;INS_SOLUTION_GOOD,INS_RTKFIXED,17.60107474521,78.12650584050,526.7528,-76.2000,-0.0221,-3.8706,-0.0563,-0.529543713,-0.295179336,268.011918128,0.0615,0.0605,0.0549,0.0209,0.0200,0.0123,0.0209,0.0202,0.4972,ab000241,0*d0a786b0
#INSPVAXA,FILE,0,25.5,FINESTEERING,2319,307463.800,02000000,46eb,17139;INS_SOLUTION_GOOD,INS_RTKFIXED,17.60107475434,78.12650399786,526.7496,-76.2000,-0.0130,-3.9174,-0.0662,-0.549492236,-0.301758805,268.120447107,0.0615,0.0605,0.0549,0.0209,0.0200,0.0123,0.0209,0.0202,0.4972,ab000241,0*f127e523
#INSPVAXA,FILE,0,25.5,FINESTEERING,2319,307463.850,02000000,46eb,17139;INS_SOLUTION_GOOD,INS_RTKFIXED,17.60107476786,78.12650213479,526.7467,-76.2000,-0.0020,-3.9596,-0.0520,-0.555315950,-0.310339569,268.219359350,0.0615,0.0605,0.0549,0.0209,0.0200,0.0123,0.0209,0.0202,0.4972,ab000241,0*d75862d5
#INSPVAXA,FILE,0,25.5,FINESTEERING,2319,307463.900,02000000,46eb,17139;INS_SOLUTION_GOOD,INS_RTKFIXED,17.60107478581,78.12650025127,526.7441,-76.2000,0.0080,-4.0009,-0.0505,-0.607791880,-0.303062744,268.303867481,0.0615,0.0605,0.0549,0.0209,0.0200,0.0123,0.0209,0.0202,0.4972,ab000241,0*0526a1bf
#INSPVAXA,FILE,0,25.5,FINESTEERING,2319,307463.950,02000000,46eb,17139;INS_SOLUTION_GOOD,INS_RTKFIXED,17.60107480505,78.12649834930,526.7427,-76.2000,0.0068,-4.0386,-0.0167,-0.647132055,-0.297969140,268.377236950,0.0615,0.0605,0.0549,0.0209,0.0200,0.0123,0.0209,0.0202,0.4972,ab000241,0*c9afe4b0
#INSPVAXA,FILE,0,25.5,FINESTEERING,2319,307464.000,02000000,46eb,17139;INS_SOLUTION_GOOD,INS_RTKFIXED,17.60107482460,78.12649643085,526.7430,-76.2000,0.0087,-4.0734,0.0216,-0.635802528,-0.310789837,268.452955720,0.0615,0.0605,0.0549,0.0209,0.0200,0.0123,0.0209,0.0202,0.4972,ab000241,0*52d88d7d
#INSPVAXA,FILE,0,25.5,FINESTEERING,2319,307464.050,02000000,46eb,17139;INS_SOLUTION_GOOD,INS_RTKFIXED,17.60107484795,78.12649449642,526.7456,-76.2000,0.0177,-4.1064,0.0645,-0.587013683,-0.341398813,268.532114305,0.0614,0.0603,0.0543,0.0208,0.0200,0.0120,0.0203,0.0198,0.4972,ab000241,0*91787b38
#INSPVAXA,FILE,0,25.0,FINESTEERING,2319,307464.100,02000000,46eb,17139;INS_SOLUTION_GOOD,INS_RTKFIXED,17.60107487681,78.12649254544,526.7497,-76.2000,0.0350,-4.1467,0.0727,-0.533470043,-0.391942568,268.609518732,0.0614,0.0603,0.0543,0.0208,0.0200,0.0120,0.0203,0.0198,0.4972,ab000241,0*65a0f625
#INSPVAXA,FILE,0,25.0,FINESTEERING,2319,307464.150,02000000,46eb,17139;INS_SOLUTION_GOOD,INS_RTKFIXED,17.60107491228,78.12649057496,526.7531,-76.2000,0.0477,-4.1901,0.0423,-0.475834953,-0.441954093,268.682106092,0.0614,0.0603,0.0543,0.0208,0.0200,0.0120,0.0203,0.0198,0.4972,ab000241,0*7ee2ccab
#INSPVAXA,FILE,0,25.0,FINESTEERING,2319,307464.200,02000000,46eb,17139;INS_SOLUTION_GOOD,INS_RTKFIXED,17.60107495270,78.12648858391,526.7546,-76.2000,0.0576,-4.2346,-0.0011,-0.411706112,-0.468375134,268.745500734,0.0614,0.0603,0.0543,0.0208,0.0200,0.0120,0.0203,0.0198,0.4972,ab000241,0*1f8ad761
#INSPVAXA,FILE,0,25.0,FINESTEERING,2319,307464.250,02000000,46eb,17139;INS_SOLUTION_GOOD,INS_RTKFIXED,17.60107499706,78.12648657308,526.7538,-76.2000,0.0662,-4.2758,-0.0520,-0.335119729,-0.470676405,268.791940382,0.0614,0.0603,0.0543,0.0208,0.0200,0.0120,0.0203,0.0198,0.4972,ab000241,0*040bf129
#INSPVAXA,FILE,0,25.0,FINESTEERING,2319,307464.300,02000000,46eb,17139;INS_SOLUTION_GOOD,INS_RTKFIXED,17.60107504468,78.12648454193,526.7504,-76.2000,0.0724,-4.3192,-0.1032,-0.266992602,-0.436570491,268.827082845,0.0614,0.0603,0.0543,0.0208,0.0200,0.0120,0.0203,0.0198,0.4972,ab000241,0*f952ebc0
#INSPVAXA,FILE,0,25.0,FINESTEERING,2319,307464.350,02000000,46eb,17139;INS_SOLUTION_GOOD,INS_RTKFIXED,17.60107509304,78.12648249145,526.7452,-76.2000,0.0691,-4.3591,-0.1289,-0.191675066,-0.381221873,268.858918273,0.0614,0.0603,0.0543,0.0208,0.0200,0.0120,0.0203,0.0198,0.4972,ab000241,0*981f6732
#INSPVAXA,FILE,0,25.0,FINESTEERING,2319,307464.400,02000000,46eb,17139;INS_SOLUTION_GOOD,INS_RTKFIXED,17.60107513965,78.12648042161,526.7390,-76.2000,0.0649,-4.4002,-0.1334,-0.087711182,-0.298956341,268.905369438,0.0614,0.0603,0.0543,0.0208,0.0200,0.0120,0.0203,0.0198,0.4972,ab000241,0*402d1c12
#INSPVAXA,FILE,0,25.0,FINESTEERING,2319,307464.450,02000000,46eb,17139;INS_SOLUTION_GOOD,INS_RTKFIXED,17.60107518361,78.12647833419,526.7336,-76.2000,0.0600,-4.4374,-0.1030,0.022641948,-0.238938054,268.975938640,0.0614,0.0603,0.0543,0.0208,0.0200,0.0120,0.0203,0.0198,0.4972,ab000241,0*82bfd000
#INSPVAXA,FILE,0,25.0,FINESTEERING,2319,307464.500,02000000,46eb,17139;INS_SOLUTION_GOOD,INS_RTKFIXED,17.60107522645,78.12647622976,526.7303,-76.2000,0.0609,-4.4714,-0.0502,0.077707483,-0.257877217,269.065447561,0.0614,0.0603,0.0543,0.0208,0.0200,0.0120,0.0203,0.0198,0.4972,ab000241,0*b2b0434f
#INSPVAXA,FILE,0,25.0,FINESTEERING,2319,307464.550,02000000,46eb,17139;INS_SOLUTION_GOOD,INS_RTKFIXED,17.60107527079,78.12647411015,526.7299,-76.2000,0.0668,-4.5015,0.0109,0.075311190,-0.350803716,269.152032327,0.0614,0.0603,0.0543,0.0208,0.0200,0.0120,0.0203,0.0198,0.4972,ab000241,0*62ed5d27
#INSPVAXA,FILE,0,25.0,FINESTEERING,2319,307464.600,02000000,46eb,17139;INS_SOLUTION_GOOD,INS_RTKFIXED,17.60107531919,78.12647197637,526.7326,-76.2000,0.0769,-4.5322,0.0742,0.068367881,-0.508647480,269.216024535,0.0614,0.0603,0.0543,0.0208,0.0200,0.0120,0.0203,0.0198,0.4972,ab000241,0*23eaf79f
#INSPVAXA,FILE,0,25.0,FINESTEERING,2319,307464.650,02000000,46eb,17139;INS_SOLUTION_GOOD,INS_RTKFIXED,17.60107537276,78.12646982673,526.7372,-76.2000,0.0912,-4.5690,0.0925,0.062584507,-0.682712965,269.256430502,0.0614,0.0603,0.0543,0.0208,0.0200,0.0120,0.0203,0.0198,0.4972,ab000241,0*0ec7c16f
#INSPVAXA,FILE,0,25.0,FINESTEERING,2319,307464.700,02000000,46eb,17139;INS_SOLUTION_GOOD,INS_RTKFIXED,17.60107543230,78.12646765873,526.7417,-76.2000,0.1036,-4.6105,0.0716,0.033014647,-0.829000620,269.282462446,0.0614,0.0603,0.0543,0.0208,0.0200,0.0120,0.0203,0.0198,0.4972,ab000241,0*9923d16a
#INSPVAXA,FILE,0,25.0,FINESTEERING,2319,307464.750,02000000,46eb,17139;INS_SOLUTION_GOOD,INS_RTKFIXED,17.60107549586,78.12646547096,526.7442,-76.2000,0.1090,-4.6527,0.0124,-0.053558399,-0.910348802,269.309109820,0.0614,0.0603,0.0543,0.0208,0.0200,0.0120,0.0203,0.0198,0.4972,ab000241,0*c93d128b
#INSPVAXA,FILE,0,25.0,FINESTEERING,2319,307464.800,02000000,46eb,17139;INS_SOLUTION_GOOD,INS_RTKFIXED,17.60107555780,78.12646326364,526.7437,-76.2000,0.0994,-4.6948,-0.0465,-0.174923811,-0.892116046,269.342722272,0.0614,0.0603,0.0543,0.0208,0.0200,0.0120,0.0203,0.0198,0.4972,ab000241,0*4d70f192
#INSPVAXA,FILE,0,25.0,FINESTEERING,2319,307464.850,02000000,46eb,17139;INS_SOLUTION_GOOD,INS_RTKFIXED,17.60107561442,78.12646103643,526.7407,-76.2000,0.0873,-4.7380,-0.0957,-0.297113378,-0.799797457,269.390375311,0.0614,0.0603,0.0543,0.0208,0.0200,0.0120,0.0203,0.0198,0.4972,ab000241,0*d98bd888
#INSPVAXA,FILE,0,25.0,FINESTEERING,2319,307464.900,02000000,46eb,17139;INS_SOLUTION_GOOD,INS_RTKFIXED,17.60107566920,78.12645879016,526.7354,-76.2000,0.0914,-4.7759,-0.1300,-0.330835594,-0.655008312,269.441382968,0.0614,0.0603,0.0543,0.0208,0.0200,0.0120,0.0203,0.0198,0.4972,ab000241,0*fb6a673a
#INSPVAXA,FILE,0,25.0,FINESTEERING,2319,307464.950,02000000,46eb,17139;INS_SOLUTION_GOOD,INS_RTKFIXED,17.60107573125,78.12645652624,526.7294,-76.2000,0.1171,-4.8119,-0.1308,-0.331308170,-0.493667860,269.481996965,0.0614,0.0603,0.0543,0.0208,0.0200,0.0120,0.0203,0.0198,0.4972,ab000241,0*87e65eb7
#INSPVAXA,FILE,0,25.0,FINESTEERING,2319,307465.000,02000000,46eb,17139;INS_SOLUTION_GOOD,INS_RTKFIXED,17.60107580507,78.12645424515,526.7232,-76.2000,0.1449,-4.8494,-0.1312,-0.288358637,-0.350103660,269.507092053,0.0614,0.0603,0.0543,0.0208,0.0200,0.0120,0.0203,0.0198,0.4972,ab000241,0*d198a97f
#INSPVAXA,FILE,0,25.0,FINESTEERING,2319,307465.050,02000000,46eb,17139;INS_SOLUTION_GOOD,INS_RTKFIXED,17.60107588693,78.12645195127,526.7175,-76.2000,0.1622,-4.8853,-0.1251,-0.206920585,-0.244024885,269.521125218,0.0611,0.0600,0.0538,0.0207,0.0199,0.0118,0.0197,0.0193,0.4972,ab000241,0*633b104c
#INSPVAXA,FILE,0,25.0,FINESTEERING,2319,307465.100,02000000,46eb,17139;INS_SOLUTION_GOOD,INS_RTKFIXED,17.60107596923,78.12644964608,526.7127,-76.2000,0.1633,-4.9196,-0.0966,-0.107970270,-0.175397156,269.532151142,0.0611,0.0600,0.0538,0.0207,0.0199,0.0118,0.0197,0.0193,0.4972,ab000241,0*e74dd600
#INSPVAXA,FILE,0,26.0,FINESTEERING,2319,307465.150,02000000,46eb,17139;INS_SOLUTION_GOOD,INS_RTKFIXED,17.60107605176,78.12644732591,526.7097,-76.2000,0.1611,-4.9516,-0.0522,0.015550491,-0.158562183,269.537661049,0.0611,0.0600,0.0538,0.0207,0.0199,0.0118,0.0197,0.0193,0.4972,ab000241,0*c19d32f7
#INSPVAXA,FILE,0,26.0,FINESTEERING,2319,307465.200,02000000,46eb,17139;INS_SOLUTION_GOOD,INS_RTKFIXED,17.60107613228,78.12644499053,526.7084,-76.2000,0.1555,-4.9824,-0.0238,0.106701864,-0.204831904,269.544619471,0.0611,0.0600,0.0538,0.0207,0.0199,0.0118,0.0197,0.0193,0.4972,ab000241,0*a23fa4ad
#INSPVAXA,FILE,0,26.0,FINESTEERING,2319,307465.250,02000000,46eb,17139;INS_SOLUTION_GOOD,INS_RTKFIXED,17.60107620851,78.12644264049,526.7087,-76.2000,0.1433,-5.0138,0.0053,0.135599054,-0.295040091,269.551454513,0.0611,0.0600,0.0538,0.0207,0.0199,0.0118,0.0197,0.0193,0.4972,ab000241,0*17c94e3e
#INSPVAXA,FILE,0,26.0,FINESTEERING,2319,307465.300,02000000,46eb,17139;INS_SOLUTION_GOOD,INS_RTKFIXED,17.60107627765,78.12644027612,526.7105,-76.2000,0.1250,-5.0424,0.0379,0.089843608,-0.425694556,269.566654816,0.0611,0.0600,0.0538,0.0207,0.0199,0.0118,0.0197,0.0193,0.4972,ab000241,0*aaf194d7
#INSPVAXA,FILE,0,26.0,FINESTEERING,2319,307465.350,02000000,46eb,17139;INS_SOLUTION_GOOD,INS_RTKFIXED,17.60107633943,78.12643789652,526.7132,-76.2000,0.1106,-5.0763,0.0452,-0.020497944,-0.546503433,269.585574100,0.0611,0.0600,0.0538,0.0207,0.0199,0.0118,0.0197,0.0193,0.4972,ab000241,0*a913d214
#INSPVAXA,FILE,0,26.0,FINESTEERING,2319,307465.400,02000000,46eb,17139;INS_SOLUTION_GOOD,INS_RTKFIXED,17.60107639939,78.12643550118,526.7159,-76.2000,0.1157,-5.1104,0.0328,-0.157045716,-0.666464307,269.592883112,0.0611,0.0600,0.0538,0.0207,0.0199,0.0118,0.0197,0.0193,0.4972,ab000241,0*5d7829e9
#INSPVAXA,FILE,0,26.0,FINESTEERING,2319,307465.450,02000000,46eb,17139;INS_SOLUTION_GOOD,INS_RTKFIXED,17.60107646226,78.12643308971,526.7174,-76.2000,0.1232,-5.1443,0.0053,-0.311090963,-0.749062526,269.579464003,0.0611,0.0600,0.0538,0.0207,0.0199,0.0118,0.0197,0.0193,0.4972,ab000241,0*e6a91a9a
#INSPVAXA,FILE,0,26.0,FINESTEERING,2319,307465.500,02000000,46eb,17139;INS_SOLUTION_GOOD,INS_RTKFIXED,17.60107652793,78.12643066162,526.7176,-76.2000,0.1275,-5.1801,-0.0280,-0.478795370,-0.780638268,269.548131721,0.0611,0.0600,0.0538,0.0207,0.0199,0.0118,0.0197,0.0193,0.4972,ab000241,0*94d5687c
#INSPVAXA,FILE,0,26.0,FINESTEERING,2319,307465.550,02000000,46eb,17139;INS_SOLUTION_GOOD,INS_RTKFIXED,17.60107659340,78.12642821693,526.7159,-76.2000,0.1234,-5.2150,-0.0543,-0.582724657,-0.783638112,269.515015501,0.0611,0.0600,0.0538,0.0207,0.0199,0.0118,0.0197,0.0193,0.4972,ab000241,0*4767495a
#INSPVAXA,FILE,0,26.0,FINESTEERING,2319,307465.600,02000000,46eb,17139;INS_SOLUTION_GOOD,INS_RTKFIXED,17.60107665702,78.12642575547,526.7129,-76.2000,0.1203,-5.2495,-0.0908,-0.672921797,-0.752987895,269.488883269,0.0611,0.0600,0.0538,0.0207,0.0199,0.0118,0.0197,0.0193,0.4972,ab000241,0*b8bbd342
#INSPVAXA,FILE,0,26.0,FINESTEERING,2319,307465.650,02000000,46eb,17139;INS_SOLUTION_GOOD,INS_RTKFIXED,17.60107672046,78.12642327832,526.7087,-76.2000,0.1228,-5.2827,-0.1042,-0.672208281,-0.706636560,269.465759857,0.0611,0.0600,0.0538,0.0207,0.0199,0.0118,0.0197,0.0193,0.4972,ab000241,0*9681eba2
#INSPVAXA,FILE,0,26.0,FINESTEERING,2319,307465.700,02000000,46eb,17139;INS_SOLUTION_GOOD,INS_RTKFIXED,17.60107678812,78.12642078682,526.7037,-76.2000,0.1389,-5.3114,-0.1164,-0.665040092,-0.629076346,269.440767277,0.0611,0.0600,0.0538,0.0207,0.0199,0.0118,0.0197,0.0193,0.4972,ab000241,0*779215d7
#INSPVAXA,FILE,0,26.0,FINESTEERING,2319,307465.750,02000000,46eb,17139;INS_SOLUTION_GOOD,INS_RTKFIXED,17.60107685984,78.12641828022,526.6989,-76.2000,0.1429,-5.3431,-0.1036,-0.648026377,-0.552121044,269.404389125,0.0611,0.0600,0.0538,0.0207,0.0199,0.0118,0.0197,0.0193,0.4972,ab000241,0*5e793eb0
#INSPVAXA,FILE,0,26.0,FINESTEERING,2319,307465.800,02000000,46eb,17139;INS_SOLUTION_GOOD,INS_RTKFIXED,17.60107693420,78.12641576045,526.6949,-76.2000,0.1480,-5.3705,-0.0749,-0.579648529,-0.472418126,269.363063520,0.0611,0.0600,0.0538,0.0207,0.0199,0.0118,0.0197,0.0193,0.4972,ab000241,0*2709623a
#INSPVAXA,FILE,0,26.0,FINESTEERING,2319,307465.850,02000000,46eb,17139;INS_SOLUTION_GOOD,INS_RTKFIXED,17.60107701010,78.12641322791,526.6923,-76.2000,0.1521,-5.3958,-0.0560,-0.545500759,-0.421276175,269.321722611,0.0611,0.0600,0.0538,0.0207,0.0199,0.0118,0.0197,0.0193,0.4972,ab000241,0*88f9d8ff
#INSPVAXA,FILE,0,26.0,FINESTEERING,2319,307465.900,02000000,46eb,17139;INS_SOLUTION_GOOD,INS_RTKFIXED,17.60107708366,78.12641068208,526.6907,-76.2000,0.1372,-5.4246,-0.0259,-0.486275546,-0.409491782,269.283493900,0.0611,0.0600,0.0538,0.0207,0.0199,0.0118,0.0197,0.0193,0.4972,ab000241,0*4f0eac3f
#INSPVAXA,FILE,0,26.0,FINESTEERING,2319,307465.950,02000000,46eb,17139;INS_SOLUTION_GOOD,INS_RTKFIXED,17.60107715090,78.12640812148,526.6898,-76.2000,0.1217,-5.4597,-0.0261,-0.482171035,-0.352216358,269.266636369,0.0611,0.0600,0.0538,0.0207,0.0199,0.0118,0.0197,0.0193,0.4972,ab000241,0*d1b8ea37
#INSPVAXA,FILE,0,26.0,FINESTEERING,2319,307466.000,02000000,46eb,17139;INS_SOLUTION_GOOD,INS_RTKFIXED,17.60107721309,78.12640554529,526.6888,-76.2000,0.1219,-5.4906,-0.0311,-0.420600528,-0.337989922,269.260532673,0.0611,0.0600,0.0538,0.0207,0.0199,0.0118,0.0197,0.0193,0.4972,ab000241,0*4bdf2df6
#INSPVAXA,FILE,0,26.0,FINESTEERING,2319,307466.050,02000000,46eb,17139;INS_SOLUTION_GOOD,INS_RTKFIXED,17.60107727481,78.12640295374,526.6873,-76.2000,0.1227,-5.5254,-0.0512,-0.427965901,-0.309500632,269.251210791,0.0609,0.0598,0.0534,0.0205,0.0195,0.0118,0.0192,0.0189,0.4972,ab000241,0*ccae8bdc
#INSPVAXA,FILE,0,26.0,FINESTEERING,2319,307466.100,02000000,46eb,17139;INS_SOLUTION_GOOD,INS_RTKFIXED,17.60107733498,78.12640034648,526.6857,-76.2000,0.1246,-5.5592,-0.0565,-0.469097799,-0.279287929,269.234613059,0.0609,0.0598,0.0534,0.0205,0.0195,0.0118,0.0192,0.0189,0.4972,ab000241,0*458461d1
#INSPVAXA,FILE,0,26.0,FINESTEERING,2319,307466.150,02000000,46eb,17139;INS_SOLUTION_GOOD,INS_RTKFIXED,17.60107739497,78.12639772415,526.6838,-76.2000,0.1208,-5.5897,-0.0388,-0.471720039,-0.275576593,269.210720001,0.0609,0.0598,0.0534,0.0205,0.0195,0.0118,0.0192,0.0189,0.4972,ab000241,0*f9244b59
#INSPVAXA,FILE,0,26.0,FINESTEERING,2319,307466.200,02000000,46eb,17139;INS_SOLUTION_GOOD,INS_RTKFIXED,17.60107745329,78.12639508524,526.6825,-76.2000,0.1183,-5.6256,-0.0499,-0.552051106,-0.262388943,269.190482978,0.0609,0.0598,0.0534,0.0205,0.0195,0.0118,0.0192,0.0189,0.4972,ab000241,0*17e590fd
#INSPVAXA,FILE,0,26.0,FINESTEERING,2319,307466.250,02000000,46eb,17139;INS_SOLUTION_GOOD,INS_RTKFIXED,17.60107751065,78.12639243057,526.6813,-76.2000,0.1121,-5.6610,-0.0244,-0.575437860,-0.304125807,269.174923988,0.0609,0.0598,0.0534,0.0205,0.0195,0.0118,0.0192,0.0189,0.4972,ab000241,0*78d5cbbb
#INSPVAXA,FILE,0,26.0,FINESTEERING,2319,307466.300,02000000,46eb,17139;INS_SOLUTION_GOOD,INS_RTKFIXED,17.60107756491,78.12638976040,526.6811,-76.2000,0.1089,-5.6906,-0.0034,-0.626055363,-0.349545570,269.175040905,0.0609,0.0598,0.0534,0.0205,0.0195,0.0118,0.0192,0.0189,0.4972,ab000241,0*e0628fa1
#INSPVAXA,FILE,0,26.0,FINESTEERING,2319,307466.350,02000000,46eb,17139;INS_SOLUTION_GOOD,INS_RTKFIXED,17.60107761830,78.12638707419,526.6814,-76.2000,0.1105,-5.7243,-0.0065,-0.668570680,-0.427917404,269.182401036,0.0609,0.0598,0.0534,0.0205,0.0195,0.0118,0.0192,0.0189,0.4972,ab000241,0*51207d17
#INSPVAXA,FILE,0,26.0,FINESTEERING,2319,307466.400,02000000,46eb,17139;INS_SOLUTION_GOOD,INS_RTKFIXED,17.60107767413,78.12638437221,526.6826,-76.2000,0.1169,-5.7609,0.0165,-0.633724005,-0.526858555,269.184296544,0.0609,0.0598,0.0534,0.0205,0.0195,0.0118,0.0192,0.0189,0.4972,ab000241,0*e4ba0a27
#INSPVAXA,FILE,0,26.0,FINESTEERING,2319,307466.450,02000000,46eb,17139;INS_SOLUTION_GOOD,INS_RTKFIXED,17.60107773449,78.12638165511,526.6834,-76.2000,0.1304,-5.7899,-0.0027,-0.627634191,-0.589526395,269.176604061,0.0609,0.0598,0.0534,0.0205,0.0195,0.0118,0.0192,0.0189,0.4972,ab000241,0*da753431
#INSPVAXA,FILE,0,26.0,FINESTEERING,2319,307466.500,02000000,46eb,17139;INS_SOLUTION_GOOD,INS_RTKFIXED,17.60107779736,78.12637892066,526.6839,-76.2000,0.1318,-5.8282,-0.0093,-0.613375545,-0.657020213,269.161423510,0.0609,0.0598,0.0534,0.0205,0.0195,0.0118,0.0192,0.0189,0.4972,ab000241,0*e82b77e4
#INSPVAXA,FILE,0,26.0,FINESTEERING,2319,307466.550,02000000,46eb,17139;INS_SOLUTION_GOOD,INS_RTKFIXED,17.60107786215,78.12637617103,526.6831,-76.2000,0.1349,-5.8597,-0.0331,-0.570851903,-0.710174779,269.147466977,0.0609,0.0598,0.0534,0.0205,0.0195,0.0118,0.0192,0.0189,0.4972,ab000241,0*75edb4ca
#INSPVAXA,FILE,0,26.0,FINESTEERING,2319,307466.600,02000000,46eb,17139;INS_SOLUTION_GOOD,INS_RTKFIXED,17.60107792512,78.12637340414,526.6818,-76.2000,0.1270,-5.8999,-0.0459,-0.572159617,-0.732462077,269.138773942,0.0609,0.0598,0.0534,0.0205,0.0195,0.0118,0.0192,0.0189,0.4972,ab000241,0*516b2ff3
#INSPVAXA,FILE,0,26.0,FINESTEERING,2319,307466.650,02000000,46eb,17139;INS_SOLUTION_GOOD,INS_RTKFIXED,17.60107798438,78.12637062053,526.6794,-76.2000,0.1193,-5.9314,-0.0714,-0.537163283,-0.754430700,269.134233837,0.0609,0.0598,0.0534,0.0205,0.0195,0.0118,0.0192,0.0189,0.4972,ab000241,0*88f92824
#INSPVAXA,FILE,0,26.0,FINESTEERING,2319,307466.700,02000000,46eb,17139;INS_SOLUTION_GOOD,INS_RTKFIXED,17.60107804180,78.12636781928,526.6764,-76.2000,0.1220,-5.9707,-0.0814,-0.521566240,-0.740235464,269.128267931,0.0609,0.0598,0.0534,0.0205,0.0195,0.0118,0.0192,0.0189,0.4972,ab000241,0*461ccbd3
#INSPVAXA,FILE,0,26.0,FINESTEERING,2319,307466.750,02000000,46eb,17139;INS_SOLUTION_GOOD,INS_RTKFIXED,17.60107810142,78.12636500206,526.6728,-76.2000,0.1291,-6.0017,-0.0938,-0.506742820,-0.745785166,269.106078996,0.0609,0.0598,0.0534,0.0205,0.0195,0.0118,0.0192,0.0189,0.4972,ab000241,0*fc07b5d7
#INSPVAXA,FILE,0,26.0,FINESTEERING,2319,307466.800,02000000,46eb,17139;INS_SOLUTION_GOOD,INS_RTKFIXED,17.60107816401,78.12636216921,526.6691,-76.2000,0.1320,-6.0375,-0.0832,-0.518127896,-0.731230808,269.066342984,0.0609,0.0598,0.0534,0.0205,0.0195,0.0118,0.0192,0.0189,0.4972,ab000241,0*5bc04f46
#INSPVAXA,FILE,0,26.0,FINESTEERING,2319,307466.850,02000000,46eb,17139;INS_SOLUTION_GOOD,INS_RTKFIXED,17.60107822464,78.12635932029,526.6657,-76.2000,0.1218,-6.0700,-0.0804,-0.562885154,-0.707410950,269.019706547,0.0609,0.0598,0.0534,0.0205,0.0195,0.0118,0.0192,0.0189,0.4972,ab000241,0*f8fc19ac
#INSPVAXA,FILE,0,26.0,FINESTEERING,2319,307466.900,02000000,46eb,17139;INS_SOLUTION_GOOD,INS_RTKFIXED,17.60107828024,78.12635645495,526.6626,-76.2000,0.1070,-6.1066,-0.0723,-0.579702471,-0.687903376,268.980561363,0.0609,0.0598,0.0534,0.0205,0.0195,0.0118,0.0192,0.0189,0.4972,ab000241,0*6a00d144
#INSPVAXA,FILE,0,26.0,FINESTEERING,2319,307466.950,02000000,46eb,17139;INS_SOLUTION_GOOD,INS_RTKFIXED,17.60107833165,78.12635357391,526.6596,-76.2000,0.1035,-6.1385,-0.0702,-0.564749151,-0.659348643,268.951485584,0.0609,0.0598,0.0534,0.0205,0.0195,0.0118,0.0192,0.0189,0.4972,ab000241,0*7caf1677
#INSPVAXA,FILE,0,26.0,FINESTEERING,2319,307467.000,02000000,46eb,17139;INS_SOLUTION_GOOD,INS_RTKFIXED,17.60107838168,78.12635067712,526.6565,-76.2000,0.1023,-6.1724,-0.0739,-0.598883532,-0.613419006,268.925109799,0.0609,0.0598,0.0534,0.0205,0.0195,0.0118,0.0192,0.0189,0.4972,ab000241,0*62fe6b97
#INSPVAXA,FILE,0,26.0,FINESTEERING,2319,307467.050,02000000,46eb,17139;INS_SOLUTION_GOOD,INS_RTKFIXED,17.60107842618,78.12634776669,526.6540,-76.2000,0.1012,-6.2027,-0.0586,-0.622311339,-0.611380394,268.892956163,0.0608,0.0598,0.0531,0.0202,0.0191,0.0119,0.0186,0.0185,0.4971,ab000241,0*9638abae
#INSPVAXA,FILE,0,26.0,FINESTEERING,2319,307467.100,02000000,46eb,17139;INS_SOLUTION_GOOD,INS_RTKFIXED,17.60107846632,78.12634484307,526.6517,-76.2000,0.1031,-6.2400,-0.0577,-0.648724826,-0.601156268,268.852641576,0.0608,0.0598,0.0531,0.0202,0.0191,0.0119,0.0186,0.0185,0.4971,ab000241,0*833204bf
#INSPVAXA,FILE,0,27.0,FINESTEERING,2319,307467.150,02000000,46eb,17139;INS_SOLUTION_GOOD,INS_RTKFIXED,17.60107850721,78.12634190350,526.6484,-76.2000,0.1042,-6.2696,-0.0796,-0.664744372,-0.608315600,268.804838296,0.0608,0.0598,0.0531,0.0202,0.0191,0.0119,0.0186,0.0185,0.4971,ab000241,0*215fe4f1
#INSPVAXA,FILE,0,27.0,FINESTEERING,2319,307467.200,02000000,46eb,17139;INS_SOLUTION_GOOD,INS_RTKFIXED,17.60107854360,78.12633894857,526.6453,-76.2000,0.0891,-6.3035,-0.0717,-0.688160994,-0.608584391,268.770030652,0.0608,0.0598,0.0531,0.0202,0.0191,0.0119,0.0186,0.0185,0.4971,ab000241,0*3f8b2489
#INSPVAXA,FILE,0,27.0,FINESTEERING,2319,307467.250,02000000,46eb,17139;INS_SOLUTION_GOOD,INS_RTKFIXED,17.60107857488,78.12633597830,526.6426,-76.2000,0.0781,-6.3352,-0.0646,-0.689230160,-0.616933353,268.743217849,0.0608,0.0598,0.0531,0.0202,0.0191,0.0119,0.0186,0.0185,0.4971,ab000241,0*310be721
#INSPVAXA,FILE,0,27.0,FINESTEERING,2319,307467.300,02000000,46eb,17139;INS_SOLUTION_GOOD,INS_RTKFIXED,17.60107860493,78.12633299349,526.6403,-76.2000,0.0817,-6.3643,-0.0505,-0.658313375,-0.605998489,268.720047129,0.0608,0.0598,0.0531,0.0202,0.0191,0.0119,0.0186,0.0185,0.4971,ab000241,0*0a99b466
#INSPVAXA,FILE,0,27.0,FINESTEERING,2319,307467.350,02000000,46eb,17139;INS_SOLUTION_GOOD,INS_RTKFIXED,17.60107863763,78.12632999425,526.6385,-76.2000,0.0895,-6.3940,-0.0406,-0.647849759,-0.605245545,268.683582212,0.0608,0.0598,0.0531,0.0202,0.0191,0.0119,0.0186,0.0185,0.4971,ab000241,0*d31596b0
#INSPVAXA,FILE,0,27.0,FINESTEERING,2319,307467.400,02000000,46eb,17139;INS_SOLUTION_GOOD,INS_RTKFIXED,17.60107867152,78.12632698061,526.6371,-76.2000,0.0894,-6.4266,-0.0377,-0.635652502,-0.628240428,268.643533579,0.0608,0.0598,0.0531,0.0202,0.0191,0.0119,0.0186,0.0185,0.4971,ab000241,0*67d29c6b
#INSPVAXA,FILE,0,27.0,FINESTEERING,2319,307467.450,02000000,46eb,17139;INS_SOLUTION_GOOD,INS_RTKFIXED,17.60107870383,78.12632395251,526.6355,-76.2000,0.0813,-6.4571,-0.0463,-0.623330871,-0.647440860,268.601656159,0.0608,0.0598,0.0531,0.0202,0.0191,0.0119,0.0186,0.0185,0.4971,ab000241,0*ed08d589
#INSPVAXA,FILE,0,27.0,FINESTEERING,2319,307467.500,02000000,46eb,17139;INS_SOLUTION_GOOD,INS_RTKFIXED,17.60107873118,78.12632090923,526.6334,-76.2000,0.0679,-6.4890,-0.0614,-0.612402461,-0.653981561,268.571970647,0.0608,0.0598,0.0531,0.0202,0.0191,0.0119,0.0186,0.0185,0.4971,ab000241,0*aa77d896
#INSPVAXA,FILE,0,27.0,FINESTEERING,2319,307467.550,02000000,46eb,17139;INS_SOLUTION_GOOD,INS_RTKFIXED,17.60107875531,78.12631785136,526.6307,-76.2000,0.0640,-6.5184,-0.0663,-0.538057534,-0.673887778,268.548639379,0.0608,0.0598,0.0531,0.0202,0.0191,0.0119,0.0186,0.0185,0.4971,ab000241,0*dd658e09
#INSPVAXA,FILE,0,27.0,FINESTEERING,2319,307467.600,02000000,46eb,17139;INS_SOLUTION_GOOD,INS_RTKFIXED,17.60107878030,78.12631478043,526.6281,-76.2000,0.0703,-6.5457,-0.0588,-0.499862870,-0.697688816,268.525559006,0.0608,0.0598,0.0531,0.0202,0.0191,0.0119,0.0186,0.0185,0.4971,ab000241,0*2efd456d
#INSPVAXA,FILE,0,27.0,FINESTEERING,2319,307467.650,02000000,46eb,17139;INS_SOLUTION_GOOD,INS_RTKFIXED,17.60107880618,78.12631169668,526.6254,-76.2000,0.0724,-6.5715,-0.0590,-0.455763690,-0.755318251,268.491535179,0.0608,0.0598,0.0531,0.0202,0.0191,0.0119,0.0186,0.0185,0.4971,ab000241,0*31ce058f
#INSPVAXA,FILE,0,27.0,FINESTEERING,2319,307467.700,02000000,46eb,17139;INS_SOLUTION_GOOD,INS_RTKFIXED,17.60107883208,78.12630859955,526.6231,-76.2000,0.0714,-6.6022,-0.0562,-0.425834542,-0.825865424,268.452202663,0.0608,0.0598,0.0531,0.0202,0.0191,0.0119,0.0186,0.0185,0.4971,ab000241,0*062bb739
#INSPVAXA,FILE,0,27.0,FINESTEERING,2319,307467.750,02000000,46eb,17139;INS_SOLUTION_GOOD,INS_RTKFIXED,17.60107885686,78.12630548918,526.6210,-76.2000,0.0613,-6.6287,-0.0565,-0.456496769,-0.931493633,268.410663711,0.0608,0.0598,0.0531,0.0202,0.0191,0.0119,0.0186,0.0185,0.4971,ab000241,0*bcc21ad0
#INSPVAXA,FILE,0,27.0,FINESTEERING,2319,307467.800,02000000,46eb,17139;INS_SOLUTION_GOOD,INS_RTKFIXED,17.60107887592,78.12630236549,526.6189,-76.2000,0.0450,-6.6574,-0.0446,-0.458954839,-1.012068676,268.377591365,0.0608,0.0598,0.0531,0.0202,0.0191,0.0119,0.0186,0.0185,0.4971,ab000241,0*01c99425
#INSPVAXA,FILE,0,27.0,FINESTEERING,2319,307467.850,02000000,46eb,17139;INS_SOLUTION_GOOD,INS_RTKFIXED,17.60107888903,78.12629922845,526.6168,-76.2000,0.0402,-6.6848,-0.0586,-0.435341214,-1.054788103,268.354375318,0.0608,0.0598,0.0531,0.0202,0.0191,0.0119,0.0186,0.0185,0.4971,ab000241,0*19f222c8
#INSPVAXA,FILE,0,27.0,FINESTEERING,2319,307467.900,02000000,46eb,17139;INS_SOLUTION_GOOD,INS_RTKFIXED,17.60107890388,78.12629607682,526.6141,-76.2000,0.0523,-6.7180,-0.0708,-0.360007543,-1.104165419,268.321488731,0.0608,0.0598,0.0531,0.0202,0.0191,0.0119,0.0186,0.0185,0.4971,ab000241,0*09b7d816
