#BESTVELA,FILE,0,34.0,FINESTEERING,2319,303858.200,02000800,10a2,17139;SOL_COMPUTED,NARROW_INT,0.025,1.200,0.0068,251.966872,-0.0096,0*97189cc3
#BESTVELA,FILE,0,34.0,FINESTEERING,2319,303858.300,02000800,10a2,17139;SOL_COMPUTED,NARROW_INT,0.025,1.300,0.0169,88.210510,0.0285,0*37d5a037
#BESTVELA,FILE,0,34.0,FINESTEERING,2319,303858.400,02000800,10a2,17139;SOL_COMPUTED,NARROW_INT,0.025,0.400,0.0130,1.349526,0.0026,0*eaebe89f
#BESTVELA,FILE,0,34.0,FINESTEERING,2319,303858.500,02000800,10a2,17139;SOL_COMPUTED,NARROW_INT,0.025,0.500,0.0100,175.212681,0.0153,0*4451a7cb
#BESTVELA,FILE,0,34.0,FINESTEERING,2319,303858.650,02000800,10a2,17139;SOL_COMPUTED,NARROW_INT,0.025,0.650,0.0036,90.161674,-0.0069,0*2f0e8ae2
#BESTVELA,FILE,0,34.0,FINESTEERING,2319,303858.750,02000800,10a2,17139;SOL_COMPUTED,NARROW_INT,0.025,0.750,0.0193,100.634723,0.0087,0*7d98d381
#BESTVELA,FILE,0,34.0,FINESTEERING,2319,303858.850,02000800,10a2,17139;SOL_COMPUTED,NARROW_INT,0.025,0.850,0.0267,181.078287,-0.0155,0*0a6f7fb5
#BESTVELA,FILE,0,34.0,FINESTEERING,2319,303858.900,02000800,10a2,17139;SOL_COMPUTED,NARROW_INT,0.025,0.900,0.0457,182.913975,-0.0024,0*09c280da
#BESTVELA,FILE,0,34.0,FINESTEERING,2319,303859.000,02000800,10a2,17139;SOL_COMPUTED,NARROW_INT,0.025,1.000,0.0738,178.937087,-0.0175,0*cff82edf
#BESTVELA,FILE,0,33.0,FINESTEERING,2319,303859.100,02000800,10a2,17139;SOL_COMPUTED,NARROW_INT,0.025,1.100,0.0709,165.852492,-0.0032,0*b898d17b
#BESTVELA,FILE,0,33.0,FINESTEERING,2319,303859.200,02000800,10a2,17139;SOL_COMPUTED,NARROW_INT,0.025,1.200,0.0565,161.838958,0.0254,0*ee84fa3e
#BESTVELA,FILE,0,33.0,FINESTEERING,2319,303859.300,02000800,10a2,17139;SOL_COMPUTED,NARROW_INT,0.025,0.300,0.0193,317.928055,0.0055,0*967e9b96
#BESTVELA,FILE,0,33.0,FINESTEERING,2319,303859.400,02000800,10a2,17139;SOL_COMPUTED,NARROW_INT,0.025,0.400,0.0410,357.894875,-0.0106,0*0299e456
#BESTVELA,FILE,0,33.0,FINESTEERING,2319,303859.450,02000800,10a2,17139;SOL_COMPUTED,NARROW_INT,0.025,0.450,0.0178,282.443822,-0.0412,0*a0bd36bd
#BESTVELA,FILE,0,33.0,FINESTEERING,2319,303859.600,02000800,10a2,17139;SOL_COMPUTED,NARROW_INT,0.025,0.600,0.0149,71.096637,-0.0186,0*61881dcc
#BESTVELA,FILE,0,33.0,FINESTEERING,2319,303859.700,02000800,10a2,17139;SOL_COMPUTED,NARROW_INT,0.025,0.700,0.0090,313.676842,-0.0034,0*e9d32755
#BESTVELA,FILE,0,33.0,FINESTEERING,2319,303859.800,02000800,10a2,17139;SOL_COMPUTED,NARROW_INT,0.025,0.800,0.0091,329.935545,-0.0284,0*332e13bb
#BESTVELA,FILE,0,33.0,FINESTEERING,2319,303859.850,02000800,10a2,17139;SOL_COMPUTED,NARROW_INT,0.025,0.850,0.0112,79.453578,0.0034,0*6b5cd098
#BESTVELA,FILE,0,33.0,FINESTEERING,2319,303859.950,02000800,10a2,17139;SOL_COMPUTED,NARROW_INT,0.025,0.950,0.0084,336.956896,-0.0155,0*9bb55e91
#BESTVELA,FILE,0,33.0,FINESTEERING,2319,303860.050,02000800,10a2,17139;SOL_COMPUTED,NARROW_INT,0.025,1.050,0.0243,346.169681,-0.0127,0*0f719d58
#BESTVELA,FILE,0,33.0,FINESTEERING,2319,303860.150,02000800,10a2,17139;SOL_COMPUTED,NARROW_INT,0.025,1.150,0.0083,282.943845,-0.0002,0*2c867e46
#BESTVELA,FILE,0,35.0,FINESTEERING,2319,303860.250,02000800,10a2,17139;SOL_COMPUTED,NARROW_INT,0.025,1.250,0.0180,221.514824,-0.0183,0*1e8a8b22
#BESTVELA,FILE,0,35.0,FINESTEERING,2319,303860.350,02000800,10a2,17139;SOL_COMPUTED,NARROW_INT,0.025,1.350,0.0046,17.358630,-0.0157,0*916379e1
#BESTVELA,FILE,0,35.0,FINESTEERING,2319,303860.450,02000800,10a2,17139;SOL_COMPUTED,NARROW_INT,0.025,0.450,0.0322,252.932460,0.0040,0*871db706
#BESTVELA,FILE,0,35.0,FINESTEERING,2319,303860.550,02000800,10a2,17139;SOL_COMPUTED,NARROW_INT,0.025,0.550,0.0305,178.222789,0.0013,0*5d4ec010
#BESTVELA,FILE,0,35.0,FINESTEERING,2319,303860.650,02000800,10a2,17139;SOL_COMPUTED,NARROW_INT,0.025,0.650,0.0787,181.755573,0.0248,0*a5c3b79c
#BESTVELA,FILE,0,35.0,FINESTEERING,2319,303860.750,02000800,10a2,17139;SOL_COMPUTED,NARROW_INT,0.025,0.750,0.1262,176.778568,-0.0102,0*21c8776f
#BESTVELA,FILE,0,35.0,FINESTEERING,2319,303860.800,02000800,10a2,17139;SOL_COMPUTED,NARROW_INT,0.025,0.800,0.1661,178.688987,0.0024,0*d25020dd
#BESTVELA,FILE,0,35.0,FINESTEERING,2319,303860.900,02000800,10a2,17139;SOL_COMPUTED,NARROW_INT,0.025,0.900,0.2142,174.349088,0.0330,0*ca26c15d
#BESTVELA,FILE,0,35.0,FINESTEERING,2319,303861.000,02000800,10a2,17139;SOL_COMPUTED,NARROW_INT,0.025,1.000,0.2385,173.349235,-0.0191,0*2d65805f
#BESTVELA,FILE,0,33.0,FINESTEERING,2319,303861.100,02000800,10a2,17139;SOL_COMPUTED,NARROW_INT,0.025,1.100,0.2984,172.793346,-0.0075,0*6830645e
#BESTVELA,FILE,0,33.0,FINESTEERING,2319,303861.250,02000800,10a2,17139;SOL_COMPUTED,NARROW_INT,0.025,1.250,0.3471,171.426437,-0.0024,0*c336f148
#BESTVELA,FILE,0,33.0,FINESTEERING,2319,303861.300,02000800,10a2,17139;SOL_COMPUTED,NARROW_INT,0.025,0.300,0.3827,172.135447,-0.0223,0*0a4dca3c
#BESTVELA,FILE,0,33.0,FINESTEERING,2319,303861.400,02000800,10a2,17139;SOL_COMPUTED,NARROW_INT,0.025,0.400,0.4381,172.083053,-0.0052,0*8b3862f8
#BESTVELA,FILE,0,33.0,FINESTEERING,2319,303861.500,02000800,10a2,17139;SOL_COMPUTED,NARROW_INT,0.025,0.500,0.5093,171.279193,0.0090,0*704a52b1
#BESTVELA,FILE,0,33.0,FINESTEERING,2319,303861.600,02000800,10a2,17139;SOL_COMPUTED,NARROW_INT,0.025,0.600,0.5214,172.974186,-0.0043,0*85bf7810
#BESTVELA,FILE,0,33.0,FINESTEERING,2319,303861.700,02000800,10a2,17139;SOL_COMPUTED,NARROW_INT,0.025,0.700,0.5654,171.743509,-0.0562,0*c72dbd6b
#BESTVELA,FILE,0,33.0,FINESTEERING,2319,303861.800,02000800,10a2,17139;SOL_COMPUTED,NARROW_INT,0.025,0.800,0.6250,174.416475,0.0479,0*e97879bd
#BESTVELA,FILE,0,33.0,FINESTEERING,2319,303861.850,02000800,10a2,17139;SOL_COMPUTED,NARROW_INT,0.025,0.850,0.6302,173.488799,0.0331,0*b40efc98
#BESTVELA,FILE,0,33.0,FINESTEERING,2319,303861.900,02000800,10a2,17139;SOL_COMPUTED,NARROW_INT,0.025,0.900,0.6591,171.492316,-0.0055,0*bae48031
#BESTVELA,FILE,0,33.0,FINESTEERING,2319,303861.950,02000800,10a2,17139;SOL_COMPUTED,NARROW_INT,0.025,0.950,0.7075,169.956342,-0.0912,0*2c6d7af1
#BESTVELA,FILE,0,33.0,FINESTEERING,2319,303862.000,02000800,10a2,17139;SOL_COMPUTED,NARROW_INT,0.025,1.000,0.7075,172.759533,0.0184,0*2f700000
#BESTVELA,FILE,0,33.0,FINESTEERING,2319,303862.050,02000800,10a2,17139;SOL_COMPUTED,NARROW_INT,0.025,1.050,0.7431,173.439215,-0.0330,0*0fcb4ac4
#BESTVELA,FILE,0,33.0,FINESTEERING,2319,303862.100,02000800,10a2,17139;SOL_COMPUTED,NARROW_INT,0.025,1.100,0.7714,172.388542,-0.0369,0*a7702b23
#BESTVELA,FILE,0,33.0,FINESTEERING,2319,303862.150,02000800,10a2,17139;SOL_COMPUTED,NARROW_INT,0.025,1.150,0.7826,171.852294,-0.0169,0*a3098ea3
#BESTVELA,FILE,0,33.0,FINESTEERING,2319,303862.200,02000800,10a2,17139;SOL_COMPUTED,NARROW_INT,0.025,1.200,0.8129,173.162087,-0.0333,0*4beaf367
#BESTVELA,FILE,0,32.5,FINESTEERING,2319,303862.250,02000800,10a2,17139;SOL_COMPUTED,NARROW_INT,0.025,1.250,0.8553,172.628235,-0.0251,0*d76d99b4
#BESTVELA,FILE,0,32.5,FINESTEERING,2319,303862.300,02000800,10a2,17139;SOL_COMPUTED,NARROW_INT,0.025,0.300,0.8818,171.296162,0.0019,0*2e1d21b7
#BESTVELA,FILE,0,32.5,FINESTEERING,2319,303862.350,02000800,10a2,17139;SOL_COMPUTED,NARROW_INT,0.025,0.350,0.8851,170.656394,-0.0101,0*85e4867b
#BESTVELA,FILE,0,32.5,FINESTEERING,2319,303862.400,02000800,10a2,17139;SOL_COMPUTED,NARROW_INT,0.025,0.400,0.9094,170.548358,0.0259,0*21e70205
#BESTVELA,FILE,0,32.5,FINESTEERING,2319,303862.450,02000800,10a2,17139;SOL_COMPUTED,NARROW_INT,0.025,0.450,0.9652,170.640662,-0.0387,0*d94f8760
#BESTVELA,FILE,0,32.5,FINESTEERING,2319,303862.500,02000000,10a2,17139;SOL_COMPUTED,NARROW_INT,0.025,0.500,0.9814,170.317172,-0.0381,0*74480fe5
#BESTVELA,FILE,0,32.5,FINESTEERING,2319,303862.550,02000000,10a2,17139;SOL_COMPUTED,NARROW_INT,0.025,0.550,0.9885,170.673366,-0.0667,0*8e23d456
#BESTVELA,FILE,0,32.5,FINESTEERING,2319,303862.600,02000000,10a2,17139;SOL_COMPUTED,NARROW_INT,0.025,0.600,1.0186,171.224177,-0.0253,0*da57b4cb
#BESTVELA,FILE,0,32.5,FINESTEERING,2319,303862.650,02000000,10a2,17139;SOL_COMPUTED,NARROW_INT,0.025,0.650,1.0486,171.652392,0.0187,0*cb7dc426
#BESTVELA,FILE,0,32.5,FINESTEERING,2319,303862.700,02000000,10a2,17139;SOL_COMPUTED,NARROW_INT,0.025,0.700,1.0611,171.851578,0.0154,0*5ca01b55
#BESTVELA,FILE,0,32.5,FINESTEERING,2319,303862.750,02000000,10a2,17139;SOL_COMPUTED,NARROW_INT,0.025,0.750,1.0978,171.364164,-0.0393,0*17032d65
#BESTVELA,FILE,0,32.5,FINESTEERING,2319,303862.800,02000000,10a2,17139;SOL_COMPUTED,NARROW_INT,0.025,0.800,1.0867,171.453720,-0.0330,0*b1744038
#BESTVELA,FILE,0,32.5,FINESTEERING,2319,303862.850,02000000,10a2,17139;SOL_COMPUTED,NARROW_INT,0.025,0.850,1.1278,172.350486,-0.0241,0*7d177924
#BESTVELA,FILE,0,32.5,FINESTEERING,2319,303862.900,02000000,10a2,17139;SOL_COMPUTED,NARROW_INT,0.025,0.900,1.1260,171.698206,-0.0088,0*d37436ae
#BESTVELA,FILE,0,32.5,FINESTEERING,2319,303862.950,02000000,10a2,17139;SOL_COMPUTED,NARROW_INT,0.025,0.950,1.1449,171.768488,0.0004,0*b4f1b8c1
#BESTVELA,FILE,0,32.5,FINESTEERING,2319,303863.000,02000000,10a2,17139;SOL_COMPUTED,NARROW_INT,0.025,1.000,1.1587,173.117947,0.0009,0*e7679ae4
#BESTVELA,FILE,0,32.5,FINESTEERING,2319,303863.050,02000000,10a2,17139;SOL_COMPUTED,NARROW_INT,0.025,1.050,1.1709,171.937095,-0.0118,0*5ab9dd4f
#BESTVELA,FILE,0,19.5,FINESTEERING,2319,303863.100,02000000,10a2,17139;SOL_COMPUTED,NARROW_INT,0.025,1.100,1.2051,171.978695,-0.0216,0*36a65c53
#BESTVELA,FILE,0,19.5,FINESTEERING,2319,303863.150,02000000,10a2,17139;SOL_COMPUTED,NARROW_INT,0.025,1.150,1.2168,171.655852,-0.0189,0*49ac5c85
#BESTVELA,FILE,0,19.5,FINESTEERING,2319,303863.200,02000000,10a2,17139;SOL_COMPUTED,NARROW_INT,0.025,1.200,1.2366,171.974953,-0.0093,0*1a5ff316
#BESTVELA,FILE,0,19.5,FINESTEERING,2319,303863.250,02000000,10a2,17139;SOL_COMPUTED,NARROW_INT,0.025,1.250,1.2391,172.566673,-0.0526,0*9ec21828
#BESTVELA,FILE,0,19.5,FINESTEERING,2319,303863.300,02000000,10a2,17139;SOL_COMPUTED,NARROW_INT,0.025,0.300,1.2564,171.853693,-0.0383,0*af9f2351
#BESTVELA,FILE,0,19.5,FINESTEERING,2319,303863.350,02000000,10a2,17139;SOL_COMPUTED,NARROW_INT,0.025,0.350,1.2755,172.164883,-0.0205,0*992a02bd
#BESTVELA,FILE,0,19.5,FINESTEERING,2319,303863.400,02000000,10a2,17139;SOL_COMPUTED,NARROW_INT,0.025,0.400,1.3010,172.460127,-0.0455,0*cfce88d3
#BESTVELA,FILE,0,19.5,FINESTEERING,2319,303863.450,02000000,10a2,17139;SOL_COMPUTED,NARROW_INT,0.025,0.450,1.3184,172.389738,-0.0088,0*c0c2dc55
#BESTVELA,FILE,0,19.5,FINESTEERING,2319,303863.500,02000000,10a2,17139;SOL_COMPUTED,NARROW_INT,0.025,0.500,1.3005,171.322015,-0.0279,0*1e74b340
#BESTVELA,FILE,0,19.5,FINESTEERING,2319,303863.550,02000000,10a2,17139;SOL_COMPUTED,NARROW_INT,0.025,0.550,1.3577,171.890015,0.0215,0*2eca53c9
#BESTVELA,FILE,0,19.5,FINESTEERING,2319,303863.600,02000000,10a2,17139;SOL_COMPUTED,NARROW_INT,0.025,0.600,1.3461,173.110380,-0.0569,0*d1881697
#BESTVELA,FILE,0,19.5,FINESTEERING,2319,303863.650,02000000,10a2,17139;SOL_COMPUTED,NARROW_INT,0.025,0.650,1.3715,173.026663,0.0484,0*a99f0673
#BESTVELA,FILE,0,19.5,FINESTEERING,2319,303863.700,02000000,10a2,17139;SOL_COMPUTED,NARROW_INT,0.025,0.700,1.3577,174.625135,-0.0487,0*24842fca
#BESTVELA,FILE,0,19.5,FINESTEERING,2319,303863.750,02000000,10a2,17139;SOL_COMPUTED,NARROW_INT,0.025,0.750,1.3684,173.678947,-0.0652,0*fe3360c2
#BESTVELA,FILE,0,19.5,FINESTEERING,2319,303863.800,02000000,10a2,17139;SOL_COMPUTED,NARROW_INT,0.025,0.800,1.3856,174.067914,0.0115,0*56d7bbe2
#BESTVELA,FILE,0,19.5,FINESTEERING,2319,303863.850,02000000,10a2,17139;SOL_COMPUTED,NARROW_INT,0.025,0.850,1.3940,173.110660,-0.0148,0*8f64dd93
#BESTVELA,FILE,0,19.5,FINESTEERING,2319,303863.900,02000000,10a2,17139;SOL_COMPUTED,NARROW_INT,0.025,0.900,1.4151,173.821383,-0.0549,0*24db9637
#BESTVELA,FILE,0,19.5,FINESTEERING,2319,303863.950,02000000,10a2,17139;SOL_COMPUTED,NARROW_INT,0.025,0.950,1.4065,174.541199,-0.0650,0*fcabdc51
#BESTVELA,FILE,0,19.5,FINESTEERING,2319,303864.000,02000000,10a2,17139;SOL_COMPUTED,NARROW_INT,0.025,1.000,1.4319,176.031359,0.0374,0*bb24de7c
#BESTVELA,FILE,0,19.5,FINESTEERING,2319,303864.050,02000000,10a2,17139;SOL_COMPUTED,NARROW_INT,0.025,1.050,1.4390,176.695837,0.0210,0*01388355
#BESTVELA,FILE,0,19.5,FINESTEERING,2319,303864.100,02000000,10a2,17139;SOL_COMPUTED,NARROW_INT,0.025,1.100,1.4342,174.757716,0.0027,0*2f635f36
#BESTVELA,FILE,0,29.5,FINESTEERING,2319,303864.150,02000000,10a2,17139;SOL_COMPUTED,NARROW_INT,0.025,1.150,1.4514,175.571810,-0.0236,0*4433f032
#BESTVELA,FILE,0,29.5,FINESTEERING,2319,303864.200,02000000,10a2,17139;SOL_COMPUTED,NARROW_INT,0.025,1.200,1.4462,175.494458,0.0065,0*11a25ee6
#BESTVELA,FILE,0,29.5,FINESTEERING,2319,303864.250,02000000,10a2,17139;SOL_COMPUTED,NARROW_INT,0.025,1.250,1.4672,174.336354,-0.0403,0*21127513
#BESTVELA,FILE,0,29.5,FINESTEERING,2319,303864.300,02000000,10a2,17139;SOL_COMPUTED,NARROW_INT,0.025,1.300,1.4482,175.923182,-0.0322,0*5433911a
#BESTVELA,FILE,0,29.5,FINESTEERING,2319,303864.350,02000000,10a2,17139;SOL_COMPUTED,NARROW_INT,0.025,0.350,1.4701,174.650793,-0.0448,0*b5c069fc
#BESTVELA,FILE,0,29.5,FINESTEERING,2319,303864.400,02000000,10a2,17139;SOL_COMPUTED,NARROW_INT,0.025,0.400,1.4712,173.901903,-0.0340,0*82491a92
#BESTVELA,FILE,0,29.5,FINESTEERING,2319,303864.450,02000000,10a2,17139;SOL_COMPUTED,NARROW_INT,0.025,0.450,1.4745,172.886609,-0.0414,0*80fdb9c4
#BESTVELA,FILE,0,29.5,FINESTEERING,2319,303864.500,02000000,10a2,17139;SOL_COMPUTED,NARROW_INT,0.025,0.500,1.4954,172.955107,-0.0726,0*ca0bf9fa
#BESTVELA,FILE,0,29.5,FINESTEERING,2319,303864.550,02000000,10a2,17139;SOL_COMPUTED,NARROW_INT,0.025,0.550,1.5324,172.265558,-0.0296,0*ddbe3f37
#BESTVELA,FILE,0,29.5,FINESTEERING,2319,303864.600,02000000,10a2,17139;SOL_COMPUTED,NARROW_INT,0.025,0.600,1.5566,172.215194,-0.0221,0*ab23cbbd
#BESTVELA,FILE,0,29.5,FINESTEERING,2319,303864.650,02000000,10a2,17139;SOL_COMPUTED,NARROW_INT,0.025,0.650,1.5411,171.747487,-0.0630,0*78d2dee0
#BESTVELA,FILE,0,29.5,FINESTEERING,2319,303864.700,02000000,10a2,17139;SOL_COMPUTED,NARROW_INT,0.025,0.700,1.6032,172.212305,-0.0244,0*686fed99
#BESTVELA,FILE,0,29.5,FINESTEERING,2319,303864.750,02000000,10a2,17139;SOL_COMPUTED,NARROW_INT,0.025,0.750,1.6180,172.667199,-0.0065,0*0c25643d
#BESTVELA,FILE,0,29.5,FINESTEERING,2319,303864.800,02000000,10a2,17139;SOL_COMPUTED,NARROW_INT,0.025,0.800,1.6357,173.089879,0.0110,0*b83b0625
#BESTVELA,FILE,0,29.5,FINESTEERING,2319,303864.850,02000000,10a2,17139;SOL_COMPUTED,NARROW_INT,0.025,0.850,1.6537,173.732727,-0.0365,0*833ef6bc
#BESTVELA,FILE,0,29.5,FINESTEERING,2319,303864.900,02000000,10a2,17139;SOL_COMPUTED,NARROW_INT,0.025,0.900,1.6482,174.695942,-0.0367,0*e64cc993
#BESTVELA,FILE,0,29.5,FINESTEERING,2319,303864.950,02000000,10a2,17139;SOL_COMPUTED,NARROW_INT,0.025,0.950,1.6522,173.981019,0.0016,0*f1152495
#BESTVELA,FILE,0,29.5,FINESTEERING,2319,303865.000,02000000,10a2,17139;SOL_COMPUTED,NARROW_INT,0.025,1.000,1.6615,173.878500,-0.0544,0*55cb21c9
#BESTVELA,FILE,0,29.5,FINESTEERING,2319,303865.050,02000000,10a2,17139;SOL_COMPUTED,NARROW_INT,0.025,1.050,1.6980,173.171197,-0.0525,0*15266bea
#BESTVELA,FILE,0,29.0,FINESTEERING,2319,303865.100,02000000,10a2,17139;SOL_COMPUTED,NARROW_INT,0.025,1.100,1.6872,172.629559,-0.0342,0*48e38801
#BESTVELA,FILE,0,29.0,FINESTEERING,2319,303865.150,02000000,10a2,17139;SOL_COMPUTED,NARROW_INT,0.025,1.150,1.6880,172.596122,-0.0290,0*ba818384
#BESTVELA,FILE,0,29.0,FINESTEERING,2319,303865.200,02000000,10a2,17139;SOL_COMPUTED,NARROW_INT,0.025,1.200,1.7102,171.597122,-0.0048,0*fdb1c323
#BESTVELA,FILE,0,29.0,FINESTEERING,2319,303865.250,02000000,10a2,17139;SOL_COMPUTED,NARROW_INT,0.025,1.250,1.7126,170.811286,0.0183,0*a405ef89
#BESTVELA,FILE,0,29.0,FINESTEERING,2319,303865.300,02000000,10a2,17139;SOL_COMPUTED,NARROW_INT,0.025,0.300,1.7315,172.087290,-0.0234,0*1cd5a7ce
#BESTVELA,FILE,0,29.0,FINESTEERING,2319,303865.350,02000000,10a2,17139;SOL_COMPUTED,NARROW_INT,0.025,0.350,1.7549,172.844566,-0.0533,0*988b1f7f
#BESTVELA,FILE,0,29.0,FINESTEERING,2319,303865.400,02000000,10a2,17139;SOL_COMPUTED,NARROW_INT,0.025,0.400,1.7712,171.670070,0.0150,0*2f13f283
#BESTVELA,FILE,0,29.0,FINESTEERING,2319,303865.450,02000000,10a2,17139;SOL_COMPUTED,NARROW_INT,0.025,0.450,1.7580,173.353992,-0.0283,0*bdca7e9e
#BESTVELA,FILE,0,29.0,FINESTEERING,2319,303865.500,02000000,10a2,17139;SOL_COMPUTED,NARROW_INT,0.025,0.500,1.7675,174.309892,-0.0195,0*0dca6784
#BESTVELA,FILE,0,29.0,FINESTEERING,2319,303865.550,02000000,10a2,17139;SOL_COMPUTED,NARROW_INT,0.025,0.550,1.7661,174.233399,-0.0477,0*187db5c0
#BESTVELA,FILE,0,29.0,FINESTEERING,2319,303865.600,02000000,10a2,17139;SOL_COMPUTED,NARROW_INT,0.025,0.600,1.7766,174.690727,-0.0298,0*da0a3f5a
#BESTVELA,FILE,0,29.0,FINESTEERING,2319,303865.650,02000000,10a2,17139;SOL_COMPUTED,NARROW_INT,0.025,0.650,1.7926,174.307101,-0.0080,0*e990e00b
#BESTVELA,FILE,0,29.0,FINESTEERING,2319,303865.700,02000000,10a2,17139;SOL_COMPUTED,NARROW_INT,0.025,0.700,1.7951,175.415539,-0.0595,0*38b32e65
#BESTVELA,FILE,0,29.0,FINESTEERING,2319,303865.750,02000000,10a2,17139;SOL_COMPUTED,NARROW_INT,0.025,0.750,1.7853,175.484970,0.0005,0*67f430c4
#BESTVELA,FILE,0,29.0,FINESTEERING,2319,303865.800,02000000,10a2,17139;SOL_COMPUTED,NARROW_INT,0.025,0.800,1.7964,175.497997,0.0171,0*7a1b4211
#BESTVELA,FILE,0,29.0,FINESTEERING,2319,303865.850,02000000,10a2,17139;SOL_COMPUTED,NARROW_INT,0.025,0.850,1.8184,176.260767,0.0177,0*672905bc
#BESTVELA,FILE,0,29.0,FINESTEERING,2319,303865.900,02000000,10a2,17139;SOL_COMPUTED,NARROW_INT,0.025,0.900,1.8161,175.904291,-0.0189,0*5e224a30
#BESTVELA,FILE,0,29.0,FINESTEERING,2319,303865.950,02000000,10a2,17139;SOL_COMPUTED,NARROW_INT,0.025,0.950,1.8318,176.466008,-0.0221,0*8f31374f
#BESTVELA,FILE,0,29.0,FINESTEERING,2319,303866.000,02000000,10a2,17139;SOL_COMPUTED,NARROW_INT,0.025,1.000,1.8268,177.437707,0.0109,0*e08eb59e
#BESTVELA,FILE,0,29.0,FINESTEERING,2319,303866.050,02000000,10a2,17139;SOL_COMPUTED,NARROW_INT,0.025,1.050,1.8039,176.514292,-0.0012,0*add2a2c0
#BESTVELA,FILE,0,29.0,FINESTEERING,2319,303866.100,02000000,10a2,17139;SOL_COMPUTED,NARROW_INT,0.025,1.100,1.8262,175.921136,-0.0293,0*1d1b086f
#BESTVELA,FILE,0,30.5,FINESTEERING,2319,303866.150,02000000,10a2,17139;SOL_COMPUTED,NARROW_INT,0.025,1.150,1.8429,176.556850,-0.0569,0*57154a63
#BESTVELA,FILE,0,30.5,FINESTEERING,2319,303866.200,02000000,10a2,17139;SOL_COMPUTED,NARROW_INT,0.025,1.200,1.8090,177.825812,-0.0096,0*49a38dbc
#BESTVELA,FILE,0,30.5,FINESTEERING,2319,303866.250,02000000,10a2,17139;SOL_COMPUTED,NARROW_INT,0.025,1.250,1.8104,177.816439,-0.0468,0*c038385e
#BESTVELA,FILE,0,30.5,FINESTEERING,2319,303866.300,02000000,10a2,17139;SOL_COMPUTED,NARROW_INT,0.025,0.300,1.8431,177.862578,-0.0289,0*2365823b
#BESTVELA,FILE,0,30.5,FINESTEERING,2319,303866.350,02000000,10a2,17139;SOL_COMPUTED,NARROW_INT,0.025,0.350,1.8728,178.785545,-0.0155,0*ee86a857
#BESTVELA,FILE,0,30.5,FINESTEERING,2319,303866.400,02000000,10a2,17139;SOL_COMPUTED,NARROW_INT,0.025,0.400,1.8485,178.508382,0.0113,0*92aaef50
#BESTVELA,FILE,0,30.5,FINESTEERING,2319,303866.450,02000000,10a2,17139;SOL_COMPUTED,NARROW_INT,0.025,0.450,1.8752,178.637851,-0.0114,0*a388adb1
#BESTVELA,FILE,0,30.5,FINESTEERING,2319,303866.500,02000000,10a2,17139;SOL_COMPUTED,NARROW_INT,0.025,0.500,1.8762,179.245741,-0.0626,0*78abd11b
#BESTVELA,FILE,0,30.5,FINESTEERING,2319,303866.550,02000000,10a2,17139;SOL_COMPUTED,NARROW_INT,0.025,0.550,1.8805,178.071258,-0.0076,0*66c3ba4a
#BESTVELA,FILE,0,30.5,FINESTEERING,2319,303866.600,02000000,10a2,17139;SOL_COMPUTED,NARROW_INT,0.025,0.600,1.8451,178.055429,-0.0329,0*abf73fac
#BESTVELA,FILE,0,30.5,FINESTEERING,2319,303866.650,02000000,10a2,17139;SOL_COMPUTED,NARROW_INT,0.025,0.650,1.8658,178.329124,-0.0010,0*98f0152a
#BESTVELA,FILE,0,30.5,FINESTEERING,2319,303866.700,02000000,10a2,17139;SOL_COMPUTED,NARROW_INT,0.025,0.700,1.8601,179.087200,-0.0346,0*a16f0b27
#BESTVELA,FILE,0,30.5,FINESTEERING,2319,303866.750,02000000,10a2,17139;SOL_COMPUTED,NARROW_INT,0.025,0.750,1.8727,177.795429,-0.0293,0*ad2ac0b8
#BESTVELA,FILE,0,30.5,FINESTEERING,2319,303866.800,02000000,10a2,17139;SOL_COMPUTED,NARROW_INT,0.025,0.800,1.8735,176.494530,-0.0385,0*688092be
#BESTVELA,FILE,0,30.5,FINESTEERING,2319,303866.850,02000000,10a2,17139;SOL_COMPUTED,NARROW_INT,0.025,0.850,1.9192,178.089732,-0.0607,0*5029ea80
#BESTVELA,FILE,0,30.5,FINESTEERING,2319,303866.900,02000000,10a2,17139;SOL_COMPUTED,NARROW_INT,0.025,0.900,1.9020,178.114050,-0.0076,0*cc993d42
#BESTVELA,FILE,0,30.5,FINESTEERING,2319,303866.950,02000000,10a2,17139;SOL_COMPUTED,NARROW_INT,0.025,0.950,1.8488,178.779173,-0.0061,0*d7418643
#BESTVELA,FILE,0,30.5,FINESTEERING,2319,303867.000,02000000,10a2,17139;SOL_COMPUTED,NARROW_INT,0.025,1.000,1.8036,181.170079,-0.0257,0*af720625
#BESTVELA,FILE,0,30.5,FINESTEERING,2319,303867.050,02000000,10a2,17139;SOL_COMPUTED,NARROW_INT,0.025,1.050,1.7709,181.607433,0.0275,0*b7db2253
#BESTVELA,FILE,0,28.5,FINESTEERING,2319,303867.100,02000000,10a2,17139;SOL_COMPUTED,NARROW_INT,0.025,1.100,1.7083,182.120757,-0.0162,0*381432d5
#BESTVELA,FILE,0,28.5,FINESTEERING,2319,303867.150,02000000,10a2,17139;SOL_COMPUTED,NARROW_INT,0.025,1.150,1.7102,182.603595,0.0354,0*a701ca4f
#BESTVELA,FILE,0,28.5,FINESTEERING,2319,303867.200,02000000,10a2,17139;SOL_COMPUTED,NARROW_INT,0.025,1.200,1.7076,182.398116,0.0053,0*00b489f3
#BESTVELA,FILE,0,28.5,FINESTEERING,2319,303867.250,02000000,10a2,17139;SOL_COMPUTED,NARROW_INT,0.025,1.250,1.6944,182.432441,0.0065,0*b8715cbb
#BESTVELA,FILE,0,28.5,FINESTEERING,2319,303867.300,02000000,10a2,17139;SOL_COMPUTED,NARROW_INT,0.025,0.300,1.7085,182.596460,0.0090,0*dc340cef
#BESTVELA,FILE,0,28.5,FINESTEERING,2319,303867.350,02000000,10a2,17139;SOL_COMPUTED,NARROW_INT,0.025,0.350,1.6941,182.211363,-0.0354,0*d51c0583
#BESTVELA,FILE,0,28.5,FINESTEERING,2319,303867.400,02000000,10a2,17139;SOL_COMPUTED,NARROW_INT,0.025,0.400,1.6879,181.747712,-0.0193,0*0f419184
#BESTVELA,FILE,0,28.5,FINESTEERING,2319,303867.450,02000000,10a2,17139;SOL_COMPUTED,NARROW_INT,0.025,0.450,1.6995,181.076076,0.0225,0*c9cab9db
#BESTVELA,FILE,0,28.5,FINESTEERING,2319,303867.500,02000000,10a2,17139;SOL_COMPUTED,NARROW_INT,0.025,0.500,1.6959,182.531803,-0.0685,0*bd47ce1f
#BESTVELA,FILE,0,28.5,FINESTEERING,2319,303867.550,02000000,10a2,17139;SOL_COMPUTED,NARROW_INT,0.025,0.550,1.6794,182.470408,0.0253,0*c91a6105
#BESTVELA,FILE,0,28.5,FINESTEERING,2319,303867.600,02000000,10a2,17139;SOL_COMPUTED,NARROW_INT,0.025,0.600,1.6523,183.076800,0.0157,0*17f871e7
#BESTVELA,FILE,0,28.5,FINESTEERING,2319,303867.650,02000000,10a2,17139;SOL_COMPUTED,NARROW_INT,0.025,0.650,1.6321,183.704692,-0.0258,0*431ef6be
#BESTVELA,FILE,0,28.5,FINESTEERING,2319,303867.700,02000000,10a2,17139;SOL_COMPUTED,NARROW_INT,0.025,0.700,1.6300,185.024819,-0.0007,0*8824e71f
#BESTVELA,FILE,0,28.5,FINESTEERING,2319,303867.750,02000000,10a2,17139;SOL_COMPUTED,NARROW_INT,0.025,0.750,1.6276,184.772107,-0.0314,0*37afabfb
#BESTVELA,FILE,0,28.5,FINESTEERING,2319,303867.800,02000000,10a2,17139;SOL_COMPUTED,NARROW_INT,0.025,0.800,1.6148,185.358309,0.0150,0*4859fe55
#BESTVELA,FILE,0,28.5,FINESTEERING,2319,303867.850,02000000,10a2,17139;SOL_COMPUTED,NARROW_INT,0.025,0.850,1.6066,185.706398,-0.0742,0*77e17f8a
#BESTVELA,FILE,0,28.5,FINESTEERING,2319,303867.900,02000000,10a2,17139;SOL_COMPUTED,NARROW_INT,0.025,0.900,1.6020,185.504255,-0.0009,0*b293527e
#BESTVELA,FILE,0,28.5,FINESTEERING,2319,303867.950,02000000,10a2,17139;SOL_COMPUTED,NARROW_INT,0.025,0.950,1.5869,186.646112,-0.0199,0*d49349bf
#BESTVELA,FILE,0,28.5,FINESTEERING,2319,303868.000,02000000,10a2,17139;SOL_COMPUTED,NARROW_INT,0.025,1.000,1.5971,185.271471,-0.0050,0*83ae66ce
#BESTVELA,FILE,0,28.5,FINESTEERING,2319,303868.050,02000000,10a2,17139;SOL_COMPUTED,NARROW_INT,0.025,1.050,1.5897,187.287839,0.0276,0*b01d7ece
#BESTVELA,FILE,0,28.5,FINESTEERING,2319,303868.100,02000000,10a2,17139;SOL_COMPUTED,NARROW_INT,0.025,1.100,1.5884,187.384101,-0.0161,0*a02f1a13
#BESTVELA,FILE,0,28.5,FINESTEERING,2319,303868.150,02000000,10a2,17139;SOL_COMPUTED,NARROW_INT,0.025,1.150,1.5872,186.636778,-0.0766,0*7b64e764
#BESTVELA,FILE,0,28.5,FINESTEERING,2319,303868.200,02000000,10a2,17139;SOL_COMPUTED,NARROW_INT,0.025,1.200,1.5708,186.229430,0.0210,0*d4da8110
#BESTVELA,FILE,0,28.5,FINESTEERING,2319,303868.250,02000000,10a2,17139;SOL_COMPUTED,NARROW_INT,0.025,1.250,1.5766,186.748133,0.0273,0*2661c37e
#BESTVELA,FILE,0,28.5,FINESTEERING,2319,303868.300,02000000,10a2,17139;SOL_COMPUTED,NARROW_INT,0.025,0.300,1.5844,189.128912,0.0096,0*edd8ff9b
#BESTVELA,FILE,0,28.5,FINESTEERING,2319,303868.350,02000000,10a2,17139;SOL_COMPUTED,NARROW_INT,0.025,0.350,1.6137,191.494758,-0.0257,0*fd63a3d7
#BESTVELA,FILE,0,28.5,FINESTEERING,2319,303868.400,02000000,10a2,17139;SOL_COMPUTED,NARROW_INT,0.025,0.400,1.5933,193.310509,0.0994,0*dd3366cd
#BESTVELA,FILE,0,28.5,FINESTEERING,2319,303868.450,02000000,10a2,17139;SOL_COMPUTED,NARROW_INT,0.025,0.450,1.6446,195.229305,0.1095,0*301ab6cf
#BESTVELA,FILE,0,28.5,FINESTEERING,2319,303868.500,02000000,10a2,17139;SOL_COMPUTED,NARROW_INT,0.025,0.500,1.6435,197.202377,0.1001,0*1cb2075f
#BESTVELA,FILE,0,28.5,FINESTEERING,2319,303868.550,02000000,10a2,17139;SOL_COMPUTED,NARROW_INT,0.025,0.550,1.6414,197.828244,0.1395,0*d4388b47
#BESTVELA,FILE,0,28.5,FINESTEERING,2319,303868.600,02000000,10a2,17139;SOL_COMPUTED,NARROW_INT,0.025,0.600,1.5862,197.467437,0.1003,0*56f92a89
#BESTVELA,FILE,0,28.5,FINESTEERING,2319,303868.650,02000000,10a2,17139;SOL_COMPUTED,NARROW_INT,0.025,0.650,1.5665,196.829509,0.1015,0*422468fb
#BESTVELA,FILE,0,28.5,FINESTEERING,2319,303868.700,02000000,10a2,17139;SOL_COMPUTED,NARROW_INT,0.025,0.700,1.5485,197.039717,0.0317,0*ba1fe9c5
#BESTVELA,FILE,0,28.5,FINESTEERING,2319,303868.750,02000000,10a2,17139;SOL_COMPUTED,NARROW_INT,0.025,0.750,1.5393,196.984052,0.0259,0*5f684006
#BESTVELA,FILE,0,28.5,FINESTEERING,2319,303868.800,02000000,10a2,17139;SOL_COMPUTED,NARROW_INT,0.025,0.800,1.5630,196.567764,-0.0147,0*0fb36fea
#BESTVELA,FILE,0,28.5,FINESTEERING,2319,303868.850,02000000,10a2,17139;SOL_COMPUTED,NARROW_INT,0.025,0.850,1.5376,196.758356,0.0194,0*522cecbc
#BESTVELA,FILE,0,28.5,FINESTEERING,2319,303868.900,02000000,10a2,17139;SOL_COMPUTED,NARROW_INT,0.025,0.900,1.5614,197.633691,-0.0081,0*5c41c829
#BESTVELA,FILE,0,28.5,FINESTEERING,2319,303868.950,02000000,10a2,17139;SOL_COMPUTED,NARROW_INT,0.025,0.950,1.5441,201.020032,0.0911,0*681903dc
#BESTVELA,FILE,0,28.5,FINESTEERING,2319,303869.000,02000000,10a2,17139;SOL_COMPUTED,NARROW_INT,0.025,1.000,1.5626,201.480317,0.0190,0*dcda0b0f
#BESTVELA,FILE,0,28.5,FINESTEERING,2319,303869.050,02000000,10a2,17139;SOL_COMPUTED,NARROW_INT,0.025,1.050,1.5910,202.676257,0.0398,0*26b2d17a
#BESTVELA,FILE,0,28.5,FINESTEERING,2319,303869.100,02000000,10a2,17139;SOL_COMPUTED,NARROW_INT,0.025,1.100,1.5528,203.450387,0.0666,0*2961810d
#BESTVELA,FILE,0,28.5,FINESTEERING,2319,303869.150,02000000,10a2,17139;SOL_COMPUTED,NARROW_INT,0.025,1.150,1.5545,205.496709,0.0539,0*13a49e00
#BESTVELA,FILE,0,28.5,FINESTEERING,2319,303869.200,02000000,10a2,17139;SOL_COMPUTED,NARROW_INT,0.025,1.200,1.5669,206.210010,0.0740,0*1ee000a9
#BESTVELA,FILE,0,28.5,FINESTEERING,2319,303869.250,02000000,10a2,17139;SOL_COMPUTED,NARROW_INT,0.025,1.250,1.5738,206.476921,0.0411,0*a0c71cb1
#BESTVELA,FILE,0,28.5,FINESTEERING,2319,303869.300,02000000,10a2,17139;SOL_COMPUTED,NARROW_INT,0.025,0.300,1.5752,207.585323,0.0814,0*ad1b50a7
#BESTVELA,FILE,0,28.5,FINESTEERING,2319,303869.350,02000000,10a2,17139;SOL_COMPUTED,NARROW_INT,0.025,0.350,1.5786,209.198228,-0.0083,0*adf87f5a
#BESTVELA,FILE,0,28.5,FINESTEERING,2319,303869.400,02000000,10a2,17139;SOL_COMPUTED,NARROW_INT,0.025,0.400,1.5686,209.762212,0.0961,0*0424ddc9
#BESTVELA,FILE,0,28.5,FINESTEERING,2319,303869.450,02000000,10a2,17139;SOL_COMPUTED,NARROW_INT,0.025,0.450,1.5880,211.442192,0.0266,0*4816bfa9
#BESTVELA,FILE,0,28.5,FINESTEERING,2319,303869.500,02000000,10a2,17139;SOL_COMPUTED,NARROW_INT,0.025,0.500,1.6269,213.147785,0.0753,0*d1e3aa47
#BESTVELA,FILE,0,28.5,FINESTEERING,2319,303869.550,02000000,10a2,17139;SOL_COMPUTED,NARROW_INT,0.025,0.550,1.6137,213.185742,0.0385,0*8fa7d20d
#BESTVELA,FILE,0,28.5,FINESTEERING,2319,303869.600,02000000,10a2,17139;SOL_COMPUTED,NARROW_INT,0.025,0.600,1.6481,212.892806,-0.0054,0*e16a762e
#BESTVELA,FILE,0,28.5,FINESTEERING,2319,303869.650,02000000,10a2,17139;SOL_COMPUTED,NARROW_INT,0.025,0.650,1.7124,215.234444,0.0631,0*143719ed
#BESTVELA,FILE,0,28.5,FINESTEERING,2319,303869.700,02000000,10a2,17139;SOL_COMPUTED,NARROW_INT,0.025,0.700,1.7125,214.940122,0.0323,0*ce2002e5
#BESTVELA,FILE,0,28.5,FINESTEERING,2319,303869.750,02000000,10a2,17139;SOL_COMPUTED,NARROW_INT,0.025,0.750,1.7190,217.265481,0.0883,0*2aaed4d6
#BESTVELA,FILE,0,28.5,FINESTEERING,2319,303869.800,02000000,10a2,17139;SOL_COMPUTED,NARROW_INT,0.025,0.800,1.7636,218.696503,0.0540,0*eed827fc
#BESTVELA,FILE,0,28.5,FINESTEERING,2319,303869.850,02000000,10a2,17139;SOL_COMPUTED,NARROW_INT,0.025,0.850,1.7566,219.004599,0.0705,0*360b015b
#BESTVELA,FILE,0,28.5,FINESTEERING,2319,303869.900,02000000,10a2,17139;SOL_COMPUTED,NARROW_INT,0.025,0.900,1.7776,220.034791,0.0460,0*17333788
#BESTVELA,FILE,0,28.5,FINESTEERING,2319,303869.950,02000000,10a2,17139;SOL_COMPUTED,NARROW_INT,0.025,0.950,1.8341,220.770642,0.0183,0*6661b55c
#BESTVELA,FILE,0,28.5,FINESTEERING,2319,303870.000,02000000,10a2,17139;SOL_COMPUTED,NARROW_INT,0.025,1.000,1.8961,223.195350,0.0988,0*f3676fce
#BESTVELA,FILE,0,28.5,FINESTEERING,2319,303870.050,02000000,10a2,17139;SOL_COMPUTED,NARROW_INT,0.025,1.050,1.8887,224.129454,-0.0308,0*a7ac1fa0
#BESTVELA,FILE,0,28.5,FINESTEERING,2319,303870.100,02000000,10a2,17139;SOL_COMPUTED,NARROW_INT,0.025,1.100,1.9186,225.742301,-0.0413,0*f66641ff
#BESTVELA,FILE,0,30.0,FINESTEERING,2319,303870.150,02000000,10a2,17139;SOL_COMPUTED,NARROW_INT,0.025,1.150,1.9642,226.625096,0.0250,0*4bbc9bb6
#BESTVELA,FILE,0,30.0,FINESTEERING,2319,303870.200,02000000,10a2,17139;SOL_COMPUTED,NARROW_INT,0.025,1.200,1.9642,229.618138,0.0174,0*1af3b38e
#BESTVELA,FILE,0,30.0,FINESTEERING,2319,303870.250,02000000,10a2,17139;SOL_COMPUTED,NARROW_INT,0.025,1.250,2.0098,230.719543,0.0364,0*8e7d6871
#BESTVELA,FILE,0,30.0,FINESTEERING,2319,303870.300,02000000,10a2,17139;SOL_COMPUTED,NARROW_INT,0.025,1.300,2.0706,233.037636,0.0090,0*410e2853
#BESTVELA,FILE,0,30.0,FINESTEERING,2319,303870.350,02000000,10a2,17139;SOL_COMPUTED,NARROW_INT,0.025,0.350,2.0898,234.508944,0.0411,0*8c372188
#BESTVELA,FILE,0,30.0,FINESTEERING,2319,303870.400,02000000,10a2,17139;SOL_COMPUTED,NARROW_INT,0.025,0.400,2.0935,234.994164,0.0540,0*dba01686
#BESTVELA,FILE,0,30.0,FINESTEERING,2319,303870.450,02000000,10a2,17139;SOL_COMPUTED,NARROW_INT,0.025,0.450,2.1402,235.226880,-0.0348,0*39b2c0e1
#BESTVELA,FILE,0,30.0,FINESTEERING,2319,303870.500,02000000,10a2,17139;SOL_COMPUTED,NARROW_INT,0.025,0.500,2.1569,238.045086,0.0134,0*ab48ed6a
#BESTVELA,FILE,0,30.0,FINESTEERING,2319,303870.550,02000000,10a2,17139;SOL_COMPUTED,NARROW_INT,0.025,0.550,2.1925,238.640215,0.0270,0*5db7bdc1
#BESTVELA,FILE,0,30.0,FINESTEERING,2319,303870.600,02000000,10a2,17139;SOL_COMPUTED,NARROW_INT,0.025,0.600,2.1820,239.092944,-0.0837,0*593095d4
#BESTVELA,FILE,0,30.0,FINESTEERING,2319,303870.650,02000000,10a2,17139;SOL_COMPUTED,NARROW_INT,0.025,0.650,2.2453,241.125852,0.0068,0*b7fecec8
#BESTVELA,FILE,0,30.0,FINESTEERING,2319,303870.700,02000000,10a2,17139;SOL_COMPUTED,NARROW_INT,0.025,0.700,2.3035,243.862717,0.0296,0*cfb8d648
#BESTVELA,FILE,0,30.0,FINESTEERING,2319,303870.750,02000000,10a2,17139;SOL_COMPUTED,NARROW_INT,0.025,0.750,2.3111,245.133732,0.0144,0*f9f5f7be
#BESTVELA,FILE,0,30.0,FINESTEERING,2319,303870.800,02000000,10a2,17139;SOL_COMPUTED,NARROW_INT,0.025,0.800,2.3458,247.086611,0.0056,0*f4f705dd
#BESTVELA,FILE,0,30.0,FINESTEERING,2319,303870.850,02000000,10a2,17139;SOL_COMPUTED,NARROW_INT,0.025,0.850,2.3561,247.537926,0.0644,0*61c02590
#BESTVELA,FILE,0,30.0,FINESTEERING,2319,303870.900,02000000,10a2,17139;SOL_COMPUTED,NARROW_INT,0.025,0.900,2.3819,249.583792,0.0203,0*7fb5a40a
#BESTVELA,FILE,0,30.0,FINESTEERING,2319,303870.950,02000000,10a2,17139;SOL_COMPUTED,NARROW_INT,0.025,0.950,2.4273,251.303792,-0.0309,0*926bc1b4
#BESTVELA,FILE,0,30.0,FINESTEERING,2319,303871.000,02000000,10a2,17139;SOL_COMPUTED,NARROW_INT,0.025,1.000,2.4157,253.078066,-0.0433,0*281ade68
#BESTVELA,FILE,0,30.0,FINESTEERING,2319,303871.050,02000000,10a2,17139;SOL_COMPUTED,NARROW_INT,0.025,1.050,2.4857,255.069183,-0.0205,0*dd261fe6
#BESTVELA,FILE,0,26.0,FINESTEERING,2319,303871.100,02000000,10a2,17139;SOL_COMPUTED,NARROW_INT,0.025,1.100,2.4685,255.450427,-0.0018,0*b4200821
#BESTVELA,FILE,0,26.0,FINESTEERING,2319,303871.150,02000000,10a2,17139;SOL_COMPUTED,NARROW_INT,0.025,1.150,2.5202,256.718891,-0.0233,0*e8b35446
#BESTVELA,FILE,0,26.0,FINESTEERING,2319,303871.200,02000000,10a2,17139;SOL_COMPUTED,NARROW_INT,0.025,1.200,2.5174,257.885396,-0.0243,0*29bafeb1
#BESTVELA,FILE,0,26.0,FINESTEERING,2319,303871.250,02000000,10a2,17139;SOL_COMPUTED,NARROW_INT,0.025,1.250,2.5756,259.928367,0.0124,0*49c05b3e
#BESTVELA,FILE,0,26.0,FINESTEERING,2319,303871.300,02000000,10a2,17139;SOL_COMPUTED,NARROW_INT,0.025,0.300,2.6111,260.876038,0.0096,0*dd1aebe6
#BESTVELA,FILE,0,26.0,FINESTEERING,2319,303871.350,02000000,10a2,17139;SOL_COMPUTED,NARROW_INT,0.025,0.350,2.6520,261.923131,0.0505,0*1dc4a508
#BESTVELA,FILE,0,26.0,FINESTEERING,2319,303871.400,02000000,10a2,17139;SOL_COMPUTED,NARROW_INT,0.025,0.400,2.6688,263.250254,-0.0204,0*dade2d47
#BESTVELA,FILE,0,26.0,FINESTEERING,2319,303871.450,02000000,10a2,17139;SOL_COMPUTED,NARROW_INT,0.025,0.450,2.6981,265.088449,-0.0221,0*dd29db6e
#BESTVELA,FILE,0,26.0,FINESTEERING,2319,303871.500,02000000,10a2,17139;SOL_COMPUTED,NARROW_INT,0.025,0.500,2.7411,266.313397,0.0520,0*44736221
#BESTVELA,FILE,0,26.0,FINESTEERING,2319,303871.550,02000000,10a2,17139;SOL_COMPUTED,NARROW_INT,0.025,0.550,2.7758,266.188178,-0.0269,0*e2d58fb5
#BESTVELA,FILE,0,26.0,FINESTEERING,2319,303871.600,02000000,10a2,17139;SOL_COMPUTED,NARROW_INT,0.025,0.600,2.8109,267.807619,-0.0034,0*efccf4cd
#BESTVELA,FILE,0,26.0,FINESTEERING,2319,303871.650,02000000,10a2,17139;SOL_COMPUTED,NARROW_INT,0.025,0.650,2.8233,268.677581,-0.0297,0*c657f2ef
#BESTVELA,FILE,0,26.0,FINESTEERING,2319,303871.700,02000000,10a2,17139;SOL_COMPUTED,NARROW_INT,0.025,0.700,2.8622,269.022025,0.0314,0*22f0e3ce
#BESTVELA,FILE,0,26.0,FINESTEERING,2319,303871.750,02000000,10a2,17139;SOL_COMPUTED,NARROW_INT,0.025,0.750,2.8910,271.055040,0.0261,0*21bf0609
#BESTVELA,FILE,0,26.0,FINESTEERING,2319,303871.800,02000000,10a2,17139;SOL_COMPUTED,NARROW_INT,0.025,0.800,2.9525,271.644761,-0.0333,0*112bea12
#BESTVELA,FILE,0,26.0,FINESTEERING,2319,303871.850,02000000,10a2,17139;SOL_COMPUTED,NARROW_INT,0.025,0.850,2.9780,271.846064,0.0315,0*0aca5398
#BESTVELA,FILE,0,26.0,FINESTEERING,2319,303871.900,02000000,10a2,17139;SOL_COMPUTED,NARROW_INT,0.025,0.900,3.0063,271.955982,-0.0054,0*881cf1a6
#BESTVELA,FILE,0,26.0,FINESTEERING,2319,303871.950,02000000,10a2,17139;SOL_COMPUTED,NARROW_INT,0.025,0.950,3.0448,272.524746,-0.0546,0*abe44777
#BESTVELA,FILE,0,26.0,FINESTEERING,2319,303872.000,02000000,10a2,17139;SOL_COMPUTED,NARROW_INT,0.025,1.000,3.0511,273.265001,-0.0632,0*e154f94f
#BESTVELA,FILE,0,26.0,FINESTEERING,2319,303872.050,02000000,10a2,17139;SOL_COMPUTED,NARROW_INT,0.025,1.050,3.1045,272.127778,0.0279,0*a041a17d
#BESTVELA,FILE,0,26.0,FINESTEERING,2319,303872.100,02000000,10a2,17139;SOL_COMPUTED,NARROW_INT,0.025,1.100,3.1076,273.620570,-0.0076,0*f2090258
#BESTVELA,FILE,0,29.5,FINESTEERING,2319,303872.150,02000000,10a2,17139;SOL_COMPUTED,NARROW_INT,0.025,1.150,3.1258,274.075949,-0.0120,0*95a33b9e
#BESTVELA,FILE,0,29.5,FINESTEERING,2319,303872.200,02000000,10a2,17139;SOL_COMPUTED,NARROW_INT,0.025,1.200,3.1959,275.565610,0.0479,0*c5a7bec0
#BESTVELA,FILE,0,29.5,FINESTEERING,2319,303872.250,02000000,10a2,17139;SOL_COMPUTED,NARROW_INT,0.025,1.250,3.2019,275.387816,-0.0381,0*e151797c
#BESTVELA,FILE,0,29.5,FINESTEERING,2319,303872.300,02000000,10a2,17139;SOL_COMPUTED,NARROW_INT,0.025,1.300,3.2273,275.275813,-0.0158,0*5c1fe8d4
#BESTVELA,FILE,0,29.5,FINESTEERING,2319,303872.350,02000000,10a2,17139;SOL_COMPUTED,NARROW_INT,0.025,0.350,3.2721,275.390816,-0.0318,0*24e8104d
#BESTVELA,FILE,0,29.5,FINESTEERING,2319,303872.400,02000000,10a2,17139;SOL_COMPUTED,NARROW_INT,0.025,0.400,3.3127,275.484888,-0.0020,0*056a0cd4
#BESTVELA,FILE,0,29.5,FINESTEERING,2319,303872.450,02000000,10a2,17139;SOL_COMPUTED,NARROW_INT,0.025,0.450,3.3139,274.710915,0.0131,0*6417eed6
#BESTVELA,FILE,0,29.5,FINESTEERING,2319,303872.500,02000000,10a2,17139;SOL_COMPUTED,NARROW_INT,0.025,0.500,3.3331,275.420438,0.0067,0*ccfce215
#BESTVELA,FILE,0,29.5,FINESTEERING,2319,303872.550,02000000,10a2,17139;SOL_COMPUTED,NARROW_INT,0.025,0.550,3.4022,275.246978,-0.0178,0*ae3de274
#BESTVELA,FILE,0,29.5,FINESTEERING,2319,303872.600,02000000,10a2,17139;SOL_COMPUTED,NARROW_INT,0.025,0.600,3.4135,274.881379,-0.0040,0*5e36d7a9
#BESTVELA,FILE,0,29.5,FINESTEERING,2319,303872.650,02000000,10a2,17139;SOL_COMPUTED,NARROW_INT,0.025,0.650,3.4085,274.456316,-0.0300,0*73bde119
#BESTVELA,FILE,0,29.5,FINESTEERING,2319,303872.700,02000000,10a2,17139;SOL_COMPUTED,NARROW_INT,0.025,0.700,3.4434,273.523787,-0.0230,0*6b6ed80a
#BESTVELA,FILE,0,29.5,FINESTEERING,2319,303872.750,02000000,10a2,17139;SOL_COMPUTED,NARROW_INT,0.025,0.750,3.4961,273.471559,-0.0256,0*20106a18
#BESTVELA,FILE,0,29.5,FINESTEERING,2319,303872.800,02000000,10a2,17139;SOL_COMPUTED,NARROW_INT,0.025,0.800,3.5231,273.289119,-0.0533,0*65eb8b79
#BESTVELA,FILE,0,29.5,FINESTEERING,2319,303872.850,02000000,10a2,17139;SOL_COMPUTED,NARROW_INT,0.025,0.850,3.5115,272.731550,-0.0433,0*21e26972
#BESTVELA,FILE,0,29.5,FINESTEERING,2319,303872.900,02000000,10a2,17139;SOL_COMPUTED,NARROW_INT,0.025,0.900,3.5585,272.753183,-0.0205,0*bd382f89
#BESTVELA,FILE,0,29.5,FINESTEERING,2319,303872.950,02000000,10a2,17139;SOL_COMPUTED,NARROW_INT,0.025,0.950,3.5704,273.184708,-0.0401,0*0b072e9b
#BESTVELA,FILE,0,29.5,FINESTEERING,2319,303873.000,02000000,10a2,17139;SOL_COMPUTED,NARROW_INT,0.025,1.000,3.6347,273.181385,-0.0447,0*d5e4dfbb
#BESTVELA,FILE,0,29.5,FINESTEERING,2319,303873.050,02000000,10a2,17139;SOL_COMPUTED,NARROW_INT,0.025,1.050,3.6521,272.463247,0.0453,0*6a1c1cbf
#BESTVELA,FILE,0,29.0,FINESTEERING,2319,303873.100,02000000,10a2,17139;SOL_COMPUTED,NARROW_INT,0.025,1.100,3.6930,272.243415,-0.0221,0*1fbf5895
#BESTVELA,FILE,0,29.0,FINESTEERING,2319,303873.150,02000000,10a2,17139;SOL_COMPUTED,NARROW_INT,0.025,1.150,3.7396,271.999483,-0.0213,0*8481b956
#BESTVELA,FILE,0,29.0,FINESTEERING,2319,303873.200,02000000,10a2,17139;SOL_COMPUTED,NARROW_INT,0.025,1.200,3.7410,272.003281,-0.0675,0*16cc8ffa
#BESTVELA,FILE,0,29.0,FINESTEERING,2319,303873.250,02000000,10a2,17139;SOL_COMPUTED,NARROW_INT,0.025,1.250,3.7270,271.497392,-0.0120,0*16a2254a
#BESTVELA,FILE,0,29.0,FINESTEERING,2319,303873.300,02000000,10a2,17139;SOL_COMPUTED,NARROW_INT,0.025,1.300,3.7640,270.898850,-0.0383,0*493f5fc5
#BESTVELA,FILE,0,29.0,FINESTEERING,2319,303873.350,02000000,10a2,17139;SOL_COMPUTED,NARROW_INT,0.025,0.350,3.8221,270.322874,-0.0193,0*96e03825
#BESTVELA,FILE,0,29.0,FINESTEERING,2319,303873.400,02000000,10a2,17139;SOL_COMPUTED,NARROW_INT,0.025,0.400,3.8484,269.771671,-0.0880,0*87a4e477
#BESTVELA,FILE,0,29.0,FINESTEERING,2319,303873.450,02000000,10a2,17139;SOL_COMPUTED,NARROW_INT,0.025,0.450,3.8436,268.765092,0.0122,0*1184a238
#BESTVELA,FILE,0,29.0,FINESTEERING,2319,303873.500,02000000,10a2,17139;SOL_COMPUTED,NARROW_INT,0.025,0.500,3.8406,268.218664,0.0109,0*5926b954
#BESTVELA,FILE,0,29.0,FINESTEERING,2319,303873.550,02000000,10a2,17139;SOL_COMPUTED,NARROW_INT,0.025,0.550,3.8769,267.791389,-0.0350,0*9791c958
#BESTVELA,FILE,0,29.0,FINESTEERING,2319,303873.600,02000000,10a2,17139;SOL_COMPUTED,NARROW_INT,0.025,0.600,3.9135,267.557830,-0.0593,0*82f1069e
#BESTVELA,FILE,0,29.0,FINESTEERING,2319,303873.650,02000000,10a2,17139;SOL_COMPUTED,NARROW_INT,0.025,0.650,3.9415,266.445052,0.0218,0*b098bc94
#BESTVELA,FILE,0,29.0,FINESTEERING,2319,303873.700,02000000,10a2,17139;SOL_COMPUTED,NARROW_INT,0.025,0.700,3.9738,265.954213,0.0163,0*7dc83cb8
#BESTVELA,FILE,0,29.0,FINESTEERING,2319,303873.750,02000000,10a2,17139;SOL_COMPUTED,NARROW_INT,0.025,0.750,4.0024,265.637041,-0.0699,0*8c10f3b9
#BESTVELA,FILE,0,29.0,FINESTEERING,2319,303873.800,02000000,10a2,17139;SOL_COMPUTED,NARROW_INT,0.025,0.800,4.0190,264.569154,-0.0081,0*80f66777
#BESTVELA,FILE,0,29.0,FINESTEERING,2319,303873.850,02000000,10a2,17139;SOL_COMPUTED,NARROW_INT,0.025,0.850,4.0485,264.748361,-0.0852,0*fcdb8c0a
#BESTVELA,FILE,0,29.0,FINESTEERING,2319,303873.900,02000000,10a2,17139;SOL_COMPUTED,NARROW_INT,0.025,0.900,4.0600,264.441620,-0.0305,0*80a675d7
#BESTVELA,FILE,0,29.0,FINESTEERING,2319,303873.950,02000000,10a2,17139;SOL_COMPUTED,NARROW_INT,0.025,0.950,4.0798,264.478528,-0.0003,0*88111ffb
#BESTVELA,FILE,0,29.0,FINESTEERING,2319,303874.000,02000000,10a2,17139;SOL_COMPUTED,NARROW_INT,0.025,1.000,4.1273,264.418552,-0.0863,0*339ed51c
#BESTVELA,FILE,0,29.0,FINESTEERING,2319,303874.050,02000000,10a2,17139;SOL_COMPUTED,NARROW_INT,0.025,1.050,4.1519,265.262283,-0.0337,0*b8eb5ab5
#BESTVELA,FILE,0,27.0,FINESTEERING,2319,303874.100,02000000,10a2,17139;SOL_COMPUTED,NARROW_INT,0.025,1.100,4.1862,265.746033,-0.0224,0*d3fca774
#BESTVELA,FILE,0,27.0,FINESTEERING,2319,303874.150,02000000,10a2,17139;SOL_COMPUTED,NARROW_INT,0.025,1.150,4.2184,266.230728,-0.0436,0*783c724b
#BESTVELA,FILE,0,27.0,FINESTEERING,2319,303874.200,02000000,10a2,17139;SOL_COMPUTED,NARROW_INT,0.025,1.200,4.2212,267.288948,-0.0087,0*93342119
#BESTVELA,FILE,0,27.0,FINESTEERING,2319,303874.250,02000000,10a2,17139;SOL_COMPUTED,NARROW_INT,0.025,1.250,4.2866,267.490346,0.0525,0*99b3e63d
#BESTVELA,FILE,0,27.0,FINESTEERING,2319,303874.300,02000000,10a2,17139;SOL_COMPUTED,NARROW_INT,0.025,0.300,4.2921,267.488393,0.0122,0*6b19dc14
#BESTVELA,FILE,0,27.0,FINESTEERING,2319,303874.350,02000000,10a2,17139;SOL_COMPUTED,NARROW_INT,0.025,0.350,4.3098,266.442185,-0.0052,0*f6ef6e66
#BESTVELA,FILE,0,27.0,FINESTEERING,2319,303874.400,02000000,10a2,17139;SOL_COMPUTED,NARROW_INT,0.025,0.400,4.3401,266.131832,-0.0855,0*52c0b72d
#BESTVELA,FILE,0,27.0,FINESTEERING,2319,303874.450,02000000,10a2,17139;SOL_COMPUTED,NARROW_INT,0.025,0.450,4.3505,265.726567,-0.0274,0*f5d21bbc
#BESTVELA,FILE,0,27.0,FINESTEERING,2319,303874.500,02000000,10a2,17139;SOL_COMPUTED,NARROW_INT,0.025,0.500,4.3994,265.634596,-0.0806,0*a03104f0
#BESTVELA,FILE,0,27.0,FINESTEERING,2319,303874.550,02000000,10a2,17139;SOL_COMPUTED,NARROW_INT,0.025,0.550,4.4450,265.572066,-0.0829,0*cd87e9f1
#BESTVELA,FILE,0,27.0,FINESTEERING,2319,303874.600,02000000,10a2,17139;SOL_COMPUTED,NARROW_INT,0.025,0.600,4.4497,265.348318,-0.0258,0*1babeded
#BESTVELA,FILE,0,27.0,FINESTEERING,2319,303874.650,02000000,10a2,17139;SOL_COMPUTED,NARROW_INT,0.025,0.650,4.4860,264.754454,-0.0792,0*b0ce9eb0
#BESTVELA,FILE,0,27.0,FINESTEERING,2319,303874.700,02000000,10a2,17139;SOL_COMPUTED,NARROW_INT,0.025,0.700,4.5158,264.901312,-0.0358,0*c9624f11
#BESTVELA,FILE,0,27.0,FINESTEERING,2319,303874.750,02000000,10a2,17139;SOL_COMPUTED,NARROW_INT,0.025,0.750,4.5167,265.114709,-0.0049,0*14f3ba51
#BESTVELA,FILE,0,27.0,FINESTEERING,2319,303874.800,02000000,10a2,17139;SOL_COMPUTED,NARROW_INT,0.025,0.800,4.5502,266.224756,0.0526,0*f93abfb4
#BESTVELA,FILE,0,27.0,FINESTEERING,2319,303874.850,02000000,10a2,17139;SOL_COMPUTED,NARROW_INT,0.025,0.850,4.5475,266.849133,0.0144,0*95b72743
#BESTVELA,FILE,0,27.0,FINESTEERING,2319,303874.900,02000000,10a2,17139;SOL_COMPUTED,NARROW_INT,0.025,0.900,4.4918,266.155287,0.0101,0*4725b554
#BESTVELA,FILE,0,27.0,FINESTEERING,2319,303874.950,02000000,10a2,17139;SOL_COMPUTED,NARROW_INT,0.025,0.950,4.4721,265.364294,-0.0451,0*0349bc4e
#BESTVELA,FILE,0,27.0,FINESTEERING,2319,303875.000,02000000,10a2,17139;SOL_COMPUTED,NARROW_INT,0.025,1.000,4.5205,265.997162,-0.0592,0*c8d6db0e
#BESTVELA,FILE,0,27.0,FINESTEERING,2319,303875.050,02000000,10a2,17139;SOL_COMPUTED,NARROW_INT,0.025,1.050,4.5238,266.239517,-0.0565,0*987e5a1b
#BESTVELA,FILE,0,27.0,FINESTEERING,2319,303875.100,02000000,10a2,17139;SOL_COMPUTED,NARROW_INT,0.025,1.100,4.5433,266.754755,-0.0774,0*4ca7d9ff
#BESTVELA,FILE,0,29.0,FINESTEERING,2319,303875.150,02000000,10a2,17139;SOL_COMPUTED,NARROW_INT,0.025,1.150,4.6013,266.880718,-0.0655,0*912dba5a
#BESTVELA,FILE,0,29.0,FINESTEERING,2319,303875.200,02000000,10a2,17139;SOL_COMPUTED,NARROW_INT,0.025,1.200,4.6420,266.861803,-0.1285,0*fac21f5a
#BESTVELA,FILE,0,29.0,FINESTEERING,2319,303875.250,02000000,10a2,17139;SOL_COMPUTED,NARROW_INT,0.025,1.250,4.6741,266.748766,-0.0598,0*f012301e
#BESTVELA,FILE,0,29.0,FINESTEERING,2319,303875.300,02000000,10a2,17139;SOL_COMPUTED,NARROW_INT,0.025,0.300,4.7186,266.891322,-0.0872,0*ff680a83
#BESTVELA,FILE,0,29.0,FINESTEERING,2319,303875.350,02000000,10a2,17139;SOL_COMPUTED,NARROW_INT,0.025,0.350,4.7619,266.926989,-0.0122,0*05e21480
#BESTVELA,FILE,0,29.0,FINESTEERING,2319,303875.400,02000000,10a2,17139;SOL_COMPUTED,NARROW_INT,0.025,0.400,4.8029,267.000930,0.0027,0*5011ad1d
#BESTVELA,FILE,0,29.0,FINESTEERING,2319,303875.450,02000000,10a2,17139;SOL_COMPUTED,NARROW_INT,0.025,0.450,4.8329,266.432369,0.1186,0*d9caa04f
#BESTVELA,FILE,0,29.0,FINESTEERING,2319,303875.500,02000000,10a2,17139;SOL_COMPUTED,NARROW_INT,0.025,0.500,4.8350,266.439857,0.0814,0*18b0b7da
#BESTVELA,FILE,0,29.0,FINESTEERING,2319,303875.550,02000000,10a2,17139;SOL_COMPUTED,NARROW_INT,0.025,0.550,4.8381,266.660192,0.0480,0*01944ca5
#BESTVELA,FILE,0,29.0,FINESTEERING,2319,303875.600,02000000,10a2,17139;SOL_COMPUTED,NARROW_INT,0.025,0.600,4.8273,266.614950,0.0236,0*7201259a
#BESTVELA,FILE,0,29.0,FINESTEERING,2319,303875.650,02000000,10a2,17139;SOL_COMPUTED,NARROW_INT,0.025,0.650,4.7842,267.012481,-0.0396,0*53fb9640
#BESTVELA,FILE,0,29.0,FINESTEERING,2319,303875.700,02000000,10a2,17139;SOL_COMPUTED,NARROW_INT,0.025,0.700,4.7949,266.752345,-0.0939,0*dfcd9eff
#BESTVELA,FILE,0,29.0,FINESTEERING,2319,303875.750,02000000,10a2,17139;SOL_COMPUTED,NARROW_INT,0.025,0.750,4.8093,267.655934,-0.0728,0*9fdfbf5b
#BESTVELA,FILE,0,29.0,FINESTEERING,2319,303875.800,02000000,10a2,17139;SOL_COMPUTED,NARROW_INT,0.025,0.800,4.8030,267.983073,-0.0768,0*74576428
#BESTVELA,FILE,0,29.0,FINESTEERING,2319,303875.850,02000000,10a2,17139;SOL_COMPUTED,NARROW_INT,0.025,0.850,4.8088,268.525771,-0.1188,0*a41009b5
#BESTVELA,FILE,0,29.0,FINESTEERING,2319,303875.900,02000000,10a2,17139;SOL_COMPUTED,NARROW_INT,0.025,0.900,4.8477,268.512180,-0.0848,0*7f574f17
#BESTVELA,FILE,0,29.0,FINESTEERING,2319,303875.950,02000000,10a2,17139;SOL_COMPUTED,NARROW_INT,0.025,0.950,4.8726,269.229050,-0.0669,0*e0768c27
#BESTVELA,FILE,0,29.0,FINESTEERING,2319,303876.000,02000000,10a2,17139;SOL_COMPUTED,NARROW_INT,0.025,1.000,4.8613,268.987568,0.0168,0*9ace8cdf
#BESTVELA,FILE,0,29.0,FINESTEERING,2319,303876.050,02000000,10a2,17139;SOL_COMPUTED,NARROW_INT,0.025,1.050,4.9047,269.261687,0.0106,0*77844ac4
#BESTVELA,FILE,0,29.0,FINESTEERING,2319,303876.100,02000000,10a2,17139;SOL_COMPUTED,NARROW_INT,0.025,1.100,4.9220,269.904899,-0.0010,0*71a90ff4
#BESTVELA,FILE,0,29.5,FINESTEERING,2319,303876.150,02000000,10a2,17139;SOL_COMPUTED,NARROW_INT,0.025,1.150,4.9089,269.567487,-0.0031,0*e7b3519b
#BESTVELA,FILE,0,29.5,FINESTEERING,2319,303876.200,02000000,10a2,17139;SOL_COMPUTED,NARROW_INT,0.025,1.200,4.9369,269.132360,-0.0126,0*626b289c
#BESTVELA,FILE,0,29.5,FINESTEERING,2319,303876.250,02000000,10a2,17139;SOL_COMPUTED,NARROW_INT,0.025,1.250,4.9420,269.452094,-0.0265,0*40f0b896
#BESTVELA,FILE,0,29.5,FINESTEERING,2319,303876.300,02000000,10a2,17139;SOL_COMPUTED,NARROW_INT,0.025,0.300,4.9598,269.327050,-0.0575,0*962247a1
#BESTVELA,FILE,0,29.5,FINESTEERING,2319,303876.350,02000000,10a2,17139;SOL_COMPUTED,NARROW_INT,0.025,0.350,4.9772,269.061469,-0.0115,0*229a2e83
#BESTVELA,FILE,0,29.5,FINESTEERING,2319,303876.400,02000000,10a2,17139;SOL_COMPUTED,NARROW_INT,0.025,0.400,4.9762,268.906431,-0.0123,0*771dfa83
#BESTVELA,FILE,0,29.5,FINESTEERING,2319,303876.450,02000000,10a2,17139;SOL_COMPUTED,NARROW_INT,0.025,0.450,5.0196,269.873466,-0.0652,0*9baccc80
#BESTVELA,FILE,0,29.5,FINESTEERING,2319,303876.500,02000000,10a2,17139;SOL_COMPUTED,NARROW_INT,0.025,0.500,5.0520,269.678950,-0.0152,0*00945153
#BESTVELA,FILE,0,29.5,FINESTEERING,2319,303876.550,02000000,10a2,17139;SOL_COMPUTED,NARROW_INT,0.025,0.550,5.0454,270.181266,0.0124,0*4fb38864
#BESTVELA,FILE,0,29.5,FINESTEERING,2319,303876.600,02000000,10a2,17139;SOL_COMPUTED,NARROW_INT,0.025,0.600,5.0925,269.957443,-0.0199,0*bd5807c8
#BESTVELA,FILE,0,29.5,FINESTEERING,2319,303876.650,02000000,10a2,17139;SOL_COMPUTED,NARROW_INT,0.025,0.650,5.1133,270.088232,0.0319,0*58dcbdde
#BESTVELA,FILE,0,29.5,FINESTEERING,2319,303876.700,02000000,10a2,17139;SOL_COMPUTED,NARROW_INT,0.025,0.700,5.0775,270.428830,-0.0062,0*12f577b6
#BESTVELA,FILE,0,29.5,FINESTEERING,2319,303876.750,02000000,10a2,17139;SOL_COMPUTED,NARROW_INT,0.025,0.750,5.0826,270.741661,0.0353,0*531ee9ec
#BESTVELA,FILE,0,29.5,FINESTEERING,2319,303876.800,02000000,10a2,17139;SOL_COMPUTED,NARROW_INT,0.025,0.800,5.1624,270.240230,-0.0231,0*4a4ee003
#BESTVELA,FILE,0,29.5,FINESTEERING,2319,303876.850,02000000,10a2,17139;SOL_COMPUTED,NARROW_INT,0.025,0.850,5.1065,270.561631,-0.0631,0*81d4522d
#BESTVELA,FILE,0,29.5,FINESTEERING,2319,303876.900,02000000,10a2,17139;SOL_COMPUTED,NARROW_INT,0.025,0.900,5.1335,270.238458,-0.0166,0*a55e57f9
#BESTVELA,FILE,0,29.5,FINESTEERING,2319,303876.950,02000000,10a2,17139;SOL_COMPUTED,NARROW_INT,0.025,0.950,5.1521,270.351548,-0.0680,0*b0201a0c
#BESTVELA,FILE,0,29.5,FINESTEERING,2319,303877.000,02000000,10a2,17139;SOL_COMPUTED,NARROW_INT,0.025,1.000,5.1664,270.487877,-0.0619,0*320c17ed
#BESTVELA,FILE,0,29.5,FINESTEERING,2319,303877.050,02000000,10a2,17139;SOL_COMPUTED,NARROW_INT,0.025,1.050,5.1635,270.040206,-0.0951,0*967ee8b7
#BESTVELA,FILE,0,28.0,FINESTEERING,2319,303877.100,02000000,10a2,17139;SOL_COMPUTED,NARROW_INT,0.025,1.100,5.1806,270.102689,-0.0457,0*7805de3b
#BESTVELA,FILE,0,28.0,FINESTEERING,2319,303877.150,02000000,10a2,17139;SOL_COMPUTED,NARROW_INT,0.025,1.150,5.1897,269.913530,-0.0672,0*bde21f01
#BESTVELA,FILE,0,28.0,FINESTEERING,2319,303877.200,02000000,10a2,17139;SOL_COMPUTED,NARROW_INT,0.025,1.200,5.2425,269.897667,-0.0264,0*38ec3ce8
#BESTVELA,FILE,0,28.0,FINESTEERING,2319,303877.250,02000000,10a2,17139;SOL_COMPUTED,NARROW_INT,0.025,1.250,5.2118,270.405652,-0.0235,0*2bfecd4c
#BESTVELA,FILE,0,28.0,FINESTEERING,2319,303877.300,02000000,10a2,17139;SOL_COMPUTED,NARROW_INT,0.025,0.300,5.2614,269.863216,-0.0613,0*406171ef
#BESTVELA,FILE,0,28.0,FINESTEERING,2319,303877.350,02000000,10a2,17139;SOL_COMPUTED,NARROW_INT,0.025,0.350,5.2653,269.597558,-0.0718,0*2ca8aeba
#BESTVELA,FILE,0,28.0,FINESTEERING,2319,303877.400,02000000,10a2,17139;SOL_COMPUTED,NARROW_INT,0.025,0.400,5.2751,269.946777,-0.0492,0*5a50f784
#BESTVELA,FILE,0,28.0,FINESTEERING,2319,303877.450,02000000,10a2,17139;SOL_COMPUTED,NARROW_INT,0.025,0.450,5.3176,269.721707,-0.0881,0*fb9a1371
#BESTVELA,FILE,0,28.0,FINESTEERING,2319,303877.500,02000000,10a2,17139;SOL_COMPUTED,NARROW_INT,0.025,0.500,5.3332,269.797875,-0.0420,0*0b6fa800
#BESTVELA,FILE,0,28.0,FINESTEERING,2319,303877.550,02000000,10a2,17139;SOL_COMPUTED,NARROW_INT,0.025,0.550,5.3565,269.378124,-0.0376,0*25ad03d2
#BESTVELA,FILE,0,28.0,FINESTEERING,2319,303877.600,02000000,10a2,17139;SOL_COMPUTED,NARROW_INT,0.025,0.600,5.3701,269.420868,-0.0274,0*6efdcd66
#BESTVELA,FILE,0,28.0,FINESTEERING,2319,303877.650,02000000,10a2,17139;SOL_COMPUTED,NARROW_INT,0.025,0.650,5.3984,268.815240,-0.0311,0*b8204501
#BESTVELA,FILE,0,28.0,FINESTEERING,2319,303877.700,02000000,10a2,17139;SOL_COMPUTED,NARROW_INT,0.025,0.700,5.4022,269.996116,0.0562,0*a5a883ba
#BESTVELA,FILE,0,28.0,FINESTEERING,2319,303877.750,02000000,10a2,17139;SOL_COMPUTED,NARROW_INT,0.025,0.750,5.4345,270.061132,-0.1067,0*7c04fb2c
#BESTVELA,FILE,0,28.0,FINESTEERING,2319,303877.800,02000000,10a2,17139;SOL_COMPUTED,NARROW_INT,0.025,0.800,5.4857,269.621501,-0.0415,0*ac419536
#BESTVELA,FILE,0,28.0,FINESTEERING,2319,303877.850,02000000,10a2,17139;SOL_COMPUTED,NARROW_INT,0.025,0.850,5.4501,269.717634,0.0153,0*47510839
#BESTVELA,FILE,0,28.0,FINESTEERING,2319,303877.900,02000000,10a2,17139;SOL_COMPUTED,NARROW_INT,0.025,0.900,5.5208,269.526299,-0.0316,0*4029d3dc
#BESTVELA,FILE,0,28.0,FINESTEERING,2319,303877.950,02000000,10a2,17139;SOL_COMPUTED,NARROW_INT,0.025,0.950,5.4990,269.964922,-0.0490,0*177fa13d
#BESTVELA,FILE,0,28.0,FINESTEERING,2319,303878.000,02000000,10a2,17139;SOL_COMPUTED,NARROW_INT,0.025,1.000,5.6054,269.569718,-0.0528,0*beb07fb9
#BESTVELA,FILE,0,28.0,FINESTEERING,2319,303878.050,02000000,10a2,17139;SOL_COMPUTED,NARROW_INT,0.025,1.050,5.6014,269.644006,-0.1052,0*ff10b5b0
#BESTVELA,FILE,0,28.0,FINESTEERING,2319,303878.100,02000000,10a2,17139;SOL_COMPUTED,NARROW_INT,0.025,1.100,5.6497,269.425797,-0.0065,0*997e1625
#BESTVELA,FILE,0,29.5,FINESTEERING,2319,303878.150,02000000,10a2,17139;SOL_COMPUTED,NARROW_INT,0.025,1.150,5.6558,269.138327,-0.0880,0*dbd5b79b
#BESTVELA,FILE,0,29.5,FINESTEERING,2319,303878.200,02000000,10a2,17139;SOL_COMPUTED,NARROW_INT,0.025,1.200,5.7229,269.138372,-0.0246,0*ad8209f2
#BESTVELA,FILE,0,29.5,FINESTEERING,2319,303878.250,02000000,10a2,17139;SOL_COMPUTED,NARROW_INT,0.025,1.250,5.7375,269.213835,-0.0286,0*4b2a1cd2
#BESTVELA,FILE,0,29.5,FINESTEERING,2319,303878.300,02000000,10a2,17139;SOL_COMPUTED,NARROW_INT,0.025,0.300,5.7625,269.441372,-0.0415,0*4158f07c
#BESTVELA,FILE,0,29.5,FINESTEERING,2319,303878.350,02000000,10a2,17139;SOL_COMPUTED,NARROW_INT,0.025,0.350,5.7592,269.324570,-0.0231,0*dbbe3227
#BESTVELA,FILE,0,29.5,FINESTEERING,2319,303878.400,02000000,10a2,17139;SOL_COMPUTED,NARROW_INT,0.025,0.400,5.8040,269.578640,-0.1138,0*e828b0f7
#BESTVELA,FILE,0,29.5,FINESTEERING,2319,303878.450,02000000,10a2,17139;SOL_COMPUTED,NARROW_INT,0.025,0.450,5.8205,269.958983,-0.0453,0*b46cc486
#BESTVELA,FILE,0,29.5,FINESTEERING,2319,303878.500,02000000,10a2,17139;SOL_COMPUTED,NARROW_INT,0.025,0.500,5.8171,269.994324,-0.0992,0*10b39ebf
#BESTVELA,FILE,0,29.5,FINESTEERING,2319,303878.550,02000000,10a2,17139;SOL_COMPUTED,NARROW_INT,0.025,0.550,5.8111,269.675548,-0.0709,0*d8541a25
#BESTVELA,FILE,0,29.5,FINESTEERING,2319,303878.600,02000000,10a2,17139;SOL_COMPUTED,NARROW_INT,0.025,0.600,5.8807,269.434292,-0.1661,0*40501c5a
#BESTVELA,FILE,0,29.5,FINESTEERING,2319,303878.650,02000000,10a2,17139;SOL_COMPUTED,NARROW_INT,0.025,0.650,5.9377,269.106867,-0.1184,0*ae87505a
#BESTVELA,FILE,0,29.5,FINESTEERING,2319,303878.700,02000000,10a2,17139;SOL_COMPUTED,NARROW_INT,0.025,0.700,5.9504,269.144575,-0.1199,0*fde6bd40
#BESTVELA,FILE,0,29.5,FINESTEERING,2319,303878.750,02000000,10a2,17139;SOL_COMPUTED,NARROW_INT,0.025,0.750,6.0088,269.312960,-0.0450,0*e0885127
#BESTVELA,FILE,0,29.5,FINESTEERING,2319,303878.800,02000000,10a2,17139;SOL_COMPUTED,NARROW_INT,0.025,0.800,6.0213,269.445327,-0.0606,0*4733cfa1
#BESTVELA,FILE,0,29.5,FINESTEERING,2319,303878.850,02000000,10a2,17139;SOL_COMPUTED,NARROW_INT,0.025,0.850,6.0826,269.517084,-0.0092,0*66a2742b
#BESTVELA,FILE,0,29.5,FINESTEERING,2319,303878.900,02000000,10a2,17139;SOL_COMPUTED,NARROW_INT,0.025,0.900,6.1255,269.678322,0.0285,0*a8f42383
#BESTVELA,FILE,0,29.5,FINESTEERING,2319,303878.950,02000000,10a2,17139;SOL_COMPUTED,NARROW_INT,0.025,0.950,6.1539,269.534170,0.0008,0*3606afb5
#BESTVELA,FILE,0,29.5,FINESTEERING,2319,303879.000,02000000,10a2,17139;SOL_COMPUTED,NARROW_INT,0.025,1.000,6.1396,269.589343,0.0047,0*35db6473
#BESTVELA,FILE,0,29.5,FINESTEERING,2319,303879.050,02000000,10a2,17139;SOL_COMPUTED,NARROW_INT,0.025,1.050,6.1877,269.423053,-0.0513,0*18da2d00
#BESTVELA,FILE,0,29.0,FINESTEERING,2319,303879.100,02000000,10a2,17139;SOL_COMPUTED,NARROW_INT,0.025,1.100,6.2064,269.715251,-0.0050,0*4ed615b5
#BESTVELA,FILE,0,29.0,FINESTEERING,2319,303879.150,02000000,10a2,17139;SOL_COMPUTED,NARROW_INT,0.025,1.150,6.2224,269.524562,-0.1083,0*64084fe4
#BESTVELA,FILE,0,29.0,FINESTEERING,2319,303879.200,02000000,10a2,17139;SOL_COMPUTED,NARROW_INT,0.025,1.200,6.2465,269.441719,-0.0668,0*3a497339
#BESTVELA,FILE,0,29.0,FINESTEERING,2319,303879.250,02000000,10a2,17139;SOL_COMPUTED,NARROW_INT,0.025,1.250,6.2508,270.016737,0.0308,0*ac0a49a0
#BESTVELA,FILE,0,29.0,FINESTEERING,2319,303879.300,02000000,10a2,17139;SOL_COMPUTED,NARROW_INT,0.025,1.300,6.3308,269.225839,-0.0449,0*60472b24
#BESTVELA,FILE,0,29.0,FINESTEERING,2319,303879.350,02000000,10a2,17139;SOL_COMPUTED,NARROW_INT,0.025,0.350,6.3343,269.335855,-0.0235,0*6fff460e
#BESTVELA,FILE,0,29.0,FINESTEERING,2319,303879.400,02000000,10a2,17139;SOL_COMPUTED,NARROW_INT,0.025,0.400,6.3735,269.603976,-0.0375,0*04a8c48a
#BESTVELA,FILE,0,29.0,FINESTEERING,2319,303879.450,02000000,10a2,17139;SOL_COMPUTED,NARROW_INT,0.025,0.450,6.3851,269.723515,-0.0176,0*94cf0733
#BESTVELA,FILE,0,29.0,FINESTEERING,2319,303879.500,02000000,10a2,17139;SOL_COMPUTED,NARROW_INT,0.025,0.500,6.4347,269.506920,0.0106,0*5de15bde
#BESTVELA,FILE,0,29.0,FINESTEERING,2319,303879.550,02000000,10a2,17139;SOL_COMPUTED,NARROW_INT,0.025,0.550,6.4280,269.804614,0.0044,0*943163e6
#BESTVELA,FILE,0,29.0,FINESTEERING,2319,303879.600,02000000,10a2,17139;SOL_COMPUTED,NARROW_INT,0.025,0.600,6.4641,269.743107,-0.0353,0*99045c49
#BESTVELA,FILE,0,29.0,FINESTEERING,2319,303879.650,02000000,10a2,17139;SOL_COMPUTED,NARROW_INT,0.025,0.650,6.4893,269.478502,-0.0230,0*c2c886e8
#BESTVELA,FILE,0,29.0,FINESTEERING,2319,303879.700,02000000,10a2,17139;SOL_COMPUTED,NARROW_INT,0.025,0.700,6.4974,269.891021,-0.0584,0*d6902ae2
#BESTVELA,FILE,0,29.0,FINESTEERING,2319,303879.750,02000000,10a2,17139;SOL_COMPUTED,NARROW_INT,0.025,0.750,6.5355,269.589081,0.0187,0*e8846a41
#BESTVELA,FILE,0,29.0,FINESTEERING,2319,303879.800,02000000,10a2,17139;SOL_COMPUTED,NARROW_INT,0.025,0.800,6.5585,269.524986,-0.0348,0*b517fcef
#BESTVELA,FILE,0,29.0,FINESTEERING,2319,303879.850,02000000,10a2,17139;SOL_COMPUTED,NARROW_INT,0.025,0.850,6.5594,269.839129,-0.0524,0*eeee99ea
#BESTVELA,FILE,0,29.0,FINESTEERING,2319,303879.900,02000000,10a2,17139;SOL_COMPUTED,NARROW_INT,0.025,0.900,6.6106,269.944516,-0.0365,0*533d31a8
#BESTVELA,FILE,0,29.0,FINESTEERING,2319,303879.950,02000000,10a2,17139;SOL_COMPUTED,NARROW_INT,0.025,0.950,6.5856,269.903008,0.0223,0*961ec8b3
#BESTVELA,FILE,0,29.0,FINESTEERING,2319,303880.000,02000000,10a2,17139;SOL_COMPUTED,NARROW_INT,0.025,1.000,6.6342,269.831907,-0.0174,0*ab319805
#BESTVELA,FILE,0,29.0,FINESTEERING,2319,303880.050,02000000,10a2,17139;SOL_COMPUTED,NARROW_INT,0.025,1.050,6.6517,269.750228,0.0129,0*29d193dc
#BESTVELA,FILE,0,28.0,FINESTEERING,2319,303880.100,02000000,10a2,17139;SOL_COMPUTED,NARROW_INT,0.025,1.100,6.7059,269.682795,-0.0687,0*ba5ffa8b
#BESTVELA,FILE,0,28.0,FINESTEERING,2319,303880.150,02000000,10a2,17139;SOL_COMPUTED,NARROW_INT,0.025,1.150,6.7199,269.928507,-0.0003,0*b83d600f
#BESTVELA,FILE,0,28.0,FINESTEERING,2319,303880.200,02000000,10a2,17139;SOL_COMPUTED,NARROW_INT,0.025,1.200,6.7252,269.931604,0.0286,0*61df103b
#BESTVELA,FILE,0,28.0,FINESTEERING,2319,303880.250,02000000,10a2,17139;SOL_COMPUTED,NARROW_INT,0.025,1.250,6.7673,269.954422,0.0273,0*c3ea93c7
#BESTVELA,FILE,0,28.0,FINESTEERING,2319,303880.300,02000000,10a2,17139;SOL_COMPUTED,NARROW_INT,0.025,1.300,6.7911,269.954439,-0.0657,0*e8871bbf
#BESTVELA,FILE,0,28.0,FINESTEERING,2319,303880.350,02000000,10a2,17139;SOL_COMPUTED,NARROW_INT,0.025,1.350,6.8117,269.500614,0.0190,0*4c8b1985
#BESTVELA,FILE,0,28.0,FINESTEERING,2319,303880.400,02000000,10a2,17139;SOL_COMPUTED,NARROW_INT,0.025,0.400,6.8718,269.855008,-0.0066,0*f62accbc
#BESTVELA,FILE,0,28.0,FINESTEERING,2319,303880.450,02000000,10a2,17139;SOL_COMPUTED,NARROW_INT,0.025,0.450,6.8331,270.108538,-0.0345,0*7f7c68b9
#BESTVELA,FILE,0,28.0,FINESTEERING,2319,303880.500,02000000,10a2,17139;SOL_COMPUTED,NARROW_INT,0.025,0.500,6.8805,269.953798,0.0105,0*9885455c
#BESTVELA,FILE,0,28.0,FINESTEERING,2319,303880.550,02000000,10a2,17139;SOL_COMPUTED,NARROW_INT,0.025,0.550,6.8908,270.147374,-0.0315,0*4d116092
#BESTVELA,FILE,0,28.0,FINESTEERING,2319,303880.600,02000000,10a2,17139;SOL_COMPUTED,NARROW_INT,0.025,0.600,6.9347,269.909583,-0.0630,0*d35dbb5f
