#BESTPOSA,FILE,0,34.0,FINESTEERING,2319,303858.300,02000800,cdba,17139;SOL_COMPUTED,NARROW_INT,17.60121450934,78.12661698373,528.2726,-76.2000,WGS84,0.0062,0.0071,0.0154,"0",1.300,0.000,52,52,52,49,00,21,3f,37*e5021fee
#BESTPOSA,FILE,0,34.0,FINESTEERING,2319,303858.400,02000800,cdba,17139;SOL_COMPUTED,NARROW_INT,17.60121450345,78.12661701459,528.2757,-76.2000,WGS84,0.0058,0.0068,0.0146,"0",0.400,0.000,52,52,52,49,00,21,3f,37*4650baf6
#BESTPOSA,FILE,0,34.0,FINESTEERING,2319,303858.450,02000800,cdba,17139;SOL_COMPUTED,NARROW_INT,17.60121450275,78.12661701034,528.2741,-76.2000,WGS84,0.0058,0.0068,0.0147,"0",0.450,0.000,52,52,52,49,00,21,3f,37*31f3a3f4
#BESTPOSA,FILE,0,34.0,FINESTEERING,2319,303858.550,02000800,cdba,17139;SOL_COMPUTED,NARROW_INT,17.60121450157,78.12661701588,528.2747,-76.2000,WGS84,0.0059,0.0068,0.0147,"0",0.550,0.000,52,52,52,49,00,21,3f,37*d2017a96
#BESTPOSA,FILE,0,34.0,FINESTEERING,2319,303858.700,02000800,cdba,17139;SOL_COMPUTED,NARROW_INT,17.60121450125,78.12661700421,528.2747,-76.2000,WGS84,0.0059,0.0069,0.0149,"0",0.700,0.000,52,52,52,49,00,21,3f,37*41b98b6d
#BESTPOSA,FILE,0,34.0,FINESTEERING,2319,303858.800,02000800,cdba,17139;SOL_COMPUTED,NARROW_INT,17.60121448838,78.12661701596,528.2759,-76.2000,WGS84,0.0060,0.0069,0.0149,"0",0.800,0.000,52,52,52,49,00,21,3f,37*0c077b6b
#BESTPOSA,FILE,0,34.0,FINESTEERING,2319,303858.900,02000800,cdba,17139;SOL_COMPUTED,NARROW_INT,17.60121445568,78.12661701463,528.2750,-76.2000,WGS84,0.0060,0.0069,0.0150,"0",0.900,0.000,52,52,52,49,00,21,3f,37*ad6a4f4d
#BESTPOSA,FILE,0,34.0,FINESTEERING,2319,303858.950,02000800,cdba,17139;SOL_COMPUTED,NARROW_INT,17.60121442313,78.12661701457,528.2766,-76.2000,WGS84,0.0060,0.0070,0.0150,"0",0.950,0.000,52,52,52,49,00,21,3f,37*bf69e00e
#BESTPOSA,FILE,0,34.0,FINESTEERING,2319,303859.050,02000800,cdba,17139;SOL_COMPUTED,NARROW_INT,17.60121435365,78.12661701895,528.2769,-76.2000,WGS84,0.0061,0.0070,0.0152,"0",1.050,0.000,52,52,52,49,00,21,3f,37*0b7470b9
#BESTPOSA,FILE,0,33.0,FINESTEERING,2319,303859.150,02000800,cdba,17139;SOL_COMPUTED,NARROW_INT,17.60121427825,78.12661702784,528.2762,-76.2000,WGS84,0.0062,0.0071,0.0153,"0",1.150,0.000,52,52,52,49,00,21,3f,37*2889b778
#BESTPOSA,FILE,0,33.0,FINESTEERING,2319,303859.250,02000800,cdba,17139;SOL_COMPUTED,NARROW_INT,17.60121424986,78.12661704340,528.2789,-76.2000,WGS84,0.0062,0.0071,0.0153,"0",1.250,0.000,52,52,52,49,00,21,3f,37*b8f9b080
#BESTPOSA,FILE,0,33.0,FINESTEERING,2319,303859.350,02000800,cdba,17139;SOL_COMPUTED,NARROW_INT,17.60121427658,78.12661700039,528.2800,-76.2000,WGS84,0.0058,0.0068,0.0146,"0",0.350,0.000,52,52,52,49,00,21,3f,37*0d9556cb
#BESTPOSA,FILE,0,33.0,FINESTEERING,2319,303859.450,02000800,cdba,17139;SOL_COMPUTED,NARROW_INT,17.60121429680,78.12661699151,528.2775,-76.2000,WGS84,0.0058,0.0068,0.0147,"0",0.450,0.000,52,52,52,49,00,21,3f,37*81fd9a9a
#BESTPOSA,FILE,0,33.0,FINESTEERING,2319,303859.550,02000800,cdba,17139;SOL_COMPUTED,NARROW_INT,17.60121429037,78.12661699986,528.2779,-76.2000,WGS84,0.0059,0.0068,0.0147,"0",0.550,0.000,52,52,52,49,00,21,3f,37*518894b9
#BESTPOSA,FILE,0,33.0,FINESTEERING,2319,303859.650,02000800,cdba,17139;SOL_COMPUTED,NARROW_INT,17.60121428218,78.12661700084,528.2785,-76.2000,WGS84,0.0059,0.0069,0.0148,"0",0.650,0.000,52,52,52,49,00,21,3f,37*c7470d63
#BESTPOSA,FILE,0,33.0,FINESTEERING,2319,303859.750,02000800,cdba,17139;SOL_COMPUTED,NARROW_INT,17.60121428662,78.12661699697,528.2792,-76.2000,WGS84,0.0060,0.0069,0.0149,"0",0.750,0.000,52,52,52,49,00,21,3f,37*4516df66
#BESTPOSA,FILE,0,33.0,FINESTEERING,2319,303859.850,02000800,cdba,17139;SOL_COMPUTED,NARROW_INT,17.60121429110,78.12661700000,528.2779,-76.2000,WGS84,0.0060,0.0069,0.0150,"0",0.850,0.000,52,52,52,49,00,21,3f,37*833c6b1c
#BESTPOSA,FILE,0,33.0,FINESTEERING,2319,303859.950,02000800,cdba,17139;SOL_COMPUTED,NARROW_INT,17.60121428645,78.12661700398,528.2775,-76.2000,WGS84,0.0060,0.0070,0.0150,"0",0.950,0.000,52,52,52,49,00,21,3f,37*0ca782aa
#BESTPOSA,FILE,0,33.0,FINESTEERING,2319,303860.000,02000800,cdba,17139;SOL_COMPUTED,NARROW_INT,17.60121428441,78.12661700363,528.2794,-76.2000,WGS84,0.0061,0.0070,0.0151,"0",1.000,0.000,52,52,52,49,00,21,3f,37*065942c8
#BESTPOSA,FILE,0,33.0,FINESTEERING,2319,303860.150,02000800,cdba,17139;SOL_COMPUTED,NARROW_INT,17.60121428959,78.12661700030,528.2785,-76.2000,WGS84,0.0062,0.0071,0.0153,"0",1.150,0.000,52,52,52,49,00,21,3f,37*f0721744
#BESTPOSA,FILE,0,35.0,FINESTEERING,2319,303860.200,02000800,cdba,17139;SOL_COMPUTED,NARROW_INT,17.60121429429,78.12661700776,528.2790,-76.2000,WGS84,0.0062,0.0071,0.0153,"0",1.200,0.000,52,52,52,49,00,21,3f,37*369f6176
#BESTPOSA,FILE,0,35.0,FINESTEERING,2319,303860.300,02000800,cdba,17139;SOL_COMPUTED,NARROW_INT,17.60121428668,78.12661699886,528.2789,-76.2000,WGS84,0.0062,0.0071,0.0154,"0",1.300,0.000,52,52,52,49,00,21,3f,37*283fd95b
#BESTPOSA,FILE,0,35.0,FINESTEERING,2319,303860.400,02000800,cdba,17139;SOL_COMPUTED,NARROW_INT,17.60121427185,78.12661699460,528.2723,-76.2000,WGS84,0.0058,0.0068,0.0146,"0",0.400,0.000,52,52,52,49,00,21,3f,37*711949eb
#BESTPOSA,FILE,0,35.0,FINESTEERING,2319,303860.500,02000800,cdba,17139;SOL_COMPUTED,NARROW_INT,17.60121426450,78.12661698000,528.2711,-76.2000,WGS84,0.0059,0.0068,0.0147,"0",0.500,0.000,52,52,52,49,00,21,3f,37*15b2e566
#BESTPOSA,FILE,0,35.0,FINESTEERING,2319,303860.600,02000800,cdba,17139;SOL_COMPUTED,NARROW_INT,17.60121422270,78.12661698472,528.2695,-76.2000,WGS84,0.0059,0.0068,0.0148,"0",0.600,0.000,52,52,52,49,00,21,3f,37*2d525a02
#BESTPOSA,FILE,0,35.0,FINESTEERING,2319,303860.700,02000800,cdba,17139;SOL_COMPUTED,NARROW_INT,17.60121413450,78.12661699002,528.2711,-76.2000,WGS84,0.0059,0.0069,0.0149,"0",0.700,0.000,52,52,52,49,00,21,3f,37*7c2e8226
#BESTPOSA,FILE,0,35.0,FINESTEERING,2319,303860.800,02000800,cdba,17139;SOL_COMPUTED,NARROW_INT,17.60121400257,78.12661699515,528.2708,-76.2000,WGS84,0.0060,0.0069,0.0149,"0",0.800,0.000,52,52,52,49,00,21,3f,37*c77875bc
#BESTPOSA,FILE,0,35.0,FINESTEERING,2319,303860.900,02000800,cdba,17139;SOL_COMPUTED,NARROW_INT,17.60121382177,78.12661702238,528.2736,-76.2000,WGS84,0.0060,0.0069,0.0150,"0",0.900,0.000,52,52,52,49,00,21,3f,37*88f5beba
#BESTPOSA,FILE,0,35.0,FINESTEERING,2319,303861.000,02000800,cdba,17139;SOL_COMPUTED,NARROW_INT,17.60121360986,78.12661703953,528.2716,-76.2000,WGS84,0.0061,0.0070,0.0151,"0",1.000,0.000,52,52,52,49,00,21,3f,37*c5e2e6d7
#BESTPOSA,FILE,0,33.0,FINESTEERING,2319,303861.100,02000800,cdba,17139;SOL_COMPUTED,NARROW_INT,17.60121335178,78.12661707565,528.2697,-76.2000,WGS84,0.0062,0.0071,0.0152,"0",1.100,0.000,52,52,52,49,00,21,3f,37*8c4c2614
#BESTPOSA,FILE,0,33.0,FINESTEERING,2319,303861.200,02000800,cdba,17139;SOL_COMPUTED,NARROW_INT,17.60121305740,78.12661710701,528.2695,-76.2000,WGS84,0.0062,0.0071,0.0153,"0",1.200,0.000,52,52,52,49,00,21,3f,37*5caf7649
#BESTPOSA,FILE,0,33.0,FINESTEERING,2319,303861.250,02000800,cdba,17139;SOL_COMPUTED,NARROW_INT,17.60121290238,78.12661713138,528.2694,-76.2000,WGS84,0.0062,0.0071,0.0153,"0",1.250,0.000,52,52,52,49,00,21,3f,37*8ed8b3d7
#BESTPOSA,FILE,0,33.0,FINESTEERING,2319,303861.350,02000800,cdba,17139;SOL_COMPUTED,NARROW_INT,17.60121257463,78.12661718681,528.2700,-76.2000,WGS84,0.0061,0.0068,0.0154,"0",0.350,0.000,52,52,52,49,00,21,3f,37*e6308f6c
#BESTPOSA,FILE,0,33.0,FINESTEERING,2319,303861.450,02000800,cdba,17139;SOL_COMPUTED,NARROW_INT,17.60121218070,78.12661724252,528.2684,-76.2000,WGS84,0.0061,0.0068,0.0155,"0",0.450,0.000,52,52,52,49,00,21,3f,37*8c158431
#BESTPOSA,FILE,0,33.0,FINESTEERING,2319,303861.600,02000800,cdba,17139;SOL_COMPUTED,NARROW_INT,17.60121148751,78.12661734333,528.2682,-76.2000,WGS84,0.0062,0.0069,0.0156,"0",0.600,0.000,52,52,52,49,00,21,3f,37*8e4d5f32
#BESTPOSA,FILE,0,33.0,FINESTEERING,2319,303861.700,02000800,cdba,17139;SOL_COMPUTED,NARROW_INT,17.60121099496,78.12661742243,528.2665,-76.2000,WGS84,0.0062,0.0069,0.0156,"0",0.700,0.000,52,52,52,49,00,21,3f,37*53abc377
#BESTPOSA,FILE,0,33.0,FINESTEERING,2319,303861.800,02000800,cdba,17139;SOL_COMPUTED,NARROW_INT,17.60121043318,78.12661749249,528.2659,-76.2000,WGS84,0.0062,0.0069,0.0157,"0",0.800,0.000,52,52,52,49,00,21,3f,37*33d30f81
#BESTPOSA,FILE,0,33.0,FINESTEERING,2319,303861.850,02000800,cdba,17139;SOL_COMPUTED,NARROW_INT,17.60121015034,78.12661752615,528.2676,-76.2000,WGS84,0.0063,0.0070,0.0158,"0",0.850,0.000,52,52,52,49,00,21,3f,37*7d59dba0
#BESTPOSA,FILE,0,33.0,FINESTEERING,2319,303861.900,02000800,cdba,17139;SOL_COMPUTED,NARROW_INT,17.60120985586,78.12661757209,528.2673,-76.2000,WGS84,0.0063,0.0070,0.0158,"0",0.900,0.000,52,52,52,49,00,21,3f,37*d75e6bd0
#BESTPOSA,FILE,0,33.0,FINESTEERING,2319,303861.950,02000800,cdba,17139;SOL_COMPUTED,NARROW_INT,17.60120954114,78.12661763021,528.2628,-76.2000,WGS84,0.0063,0.0070,0.0158,"0",0.950,0.000,52,52,52,49,00,21,3f,37*a9a5d11b
#BESTPOSA,FILE,0,33.0,FINESTEERING,2319,303862.000,02000800,cdba,17139;SOL_COMPUTED,NARROW_INT,17.60120922407,78.12661767221,528.2637,-76.2000,WGS84,0.0063,0.0070,0.0159,"0",1.000,0.000,52,52,52,49,00,21,3f,37*cb0f6c3b
#BESTPOSA,FILE,0,33.0,FINESTEERING,2319,303862.050,02000800,cdba,17139;SOL_COMPUTED,NARROW_INT,17.60120889060,78.12661771221,528.2620,-76.2000,WGS84,0.0064,0.0071,0.0160,"0",1.050,0.000,52,52,52,49,00,21,3f,37*86d0b702
#BESTPOSA,FILE,0,33.0,FINESTEERING,2319,303862.100,02000800,cdba,17139;SOL_COMPUTED,NARROW_INT,17.60120854522,78.12661776033,528.2602,-76.2000,WGS84,0.0064,0.0071,0.0160,"0",1.100,0.000,52,52,52,49,00,21,3f,37*b3bc7ed5
#BESTPOSA,FILE,0,33.0,FINESTEERING,2319,303862.150,02000800,cdba,17139;SOL_COMPUTED,NARROW_INT,17.60120819525,78.12661781258,528.2593,-76.2000,WGS84,0.0064,0.0071,0.0161,"0",1.150,0.000,52,52,52,49,00,21,3f,37*a550111a
#BESTPOSA,FILE,0,33.0,FINESTEERING,2319,303862.200,02000800,cdba,17139;SOL_COMPUTED,NARROW_INT,17.60120783062,78.12661785817,528.2577,-76.2000,WGS84,0.0064,0.0071,0.0161,"0",1.200,0.000,52,52,52,49,00,21,3f,37*c259dd37
#BESTPOSA,FILE,0,32.5,FINESTEERING,2319,303862.250,02000800,cdba,17139;SOL_COMPUTED,NARROW_INT,17.60120744746,78.12661790986,528.2564,-76.2000,WGS84,0.0065,0.0071,0.0161,"0",1.250,0.000,52,52,52,49,00,21,3f,37*5b17e377
#BESTPOSA,FILE,0,32.5,FINESTEERING,2319,303862.300,02000800,cdba,17139;SOL_COMPUTED,NARROW_INT,17.60120705670,78.12661793595,528.2544,-76.2000,WGS84,0.0061,0.0068,0.0157,"0",0.300,0.000,52,52,52,49,00,21,3f,37*f0f66f94
#BESTPOSA,FILE,0,32.5,FINESTEERING,2319,303862.350,02000800,cdba,17139;SOL_COMPUTED,NARROW_INT,17.60120666216,78.12661800364,528.2539,-76.2000,WGS84,0.0061,0.0068,0.0157,"0",0.350,0.000,52,52,52,49,00,21,3f,37*9d27eadf
#BESTPOSA,FILE,0,32.5,FINESTEERING,2319,303862.400,02000800,cdba,17139;SOL_COMPUTED,NARROW_INT,17.60120625692,78.12661807399,528.2552,-76.2000,WGS84,0.0061,0.0068,0.0158,"0",0.400,0.000,52,52,52,49,00,21,3f,37*5dd0d6c8
#BESTPOSA,FILE,0,32.5,FINESTEERING,2319,303862.450,02000800,cdba,17139;SOL_COMPUTED,NARROW_INT,17.60120582671,78.12661814793,528.2532,-76.2000,WGS84,0.0061,0.0068,0.0158,"0",0.450,0.000,52,52,52,49,00,21,3f,37*b4e7a08f
#BESTPOSA,FILE,0,32.5,FINESTEERING,2319,303862.500,02000000,cdba,17139;SOL_COMPUTED,NARROW_INT,17.60120538968,78.12661822568,528.2513,-76.2000,WGS84,0.0062,0.0069,0.0158,"0",0.500,0.000,52,52,52,49,00,21,3f,37*a0408319
#BESTPOSA,FILE,0,32.5,FINESTEERING,2319,303862.550,02000000,cdba,17139;SOL_COMPUTED,NARROW_INT,17.60120494905,78.12661830114,528.2480,-76.2000,WGS84,0.0062,0.0069,0.0159,"0",0.550,0.000,52,52,52,49,00,21,3f,37*0fe118bd
#BESTPOSA,FILE,0,32.5,FINESTEERING,2319,303862.600,02000000,cdba,17139;SOL_COMPUTED,NARROW_INT,17.60120449431,78.12661837434,528.2467,-76.2000,WGS84,0.0062,0.0069,0.0159,"0",0.600,0.000,52,52,52,49,00,21,3f,37*3d4b3540
#BESTPOSA,FILE,0,32.5,FINESTEERING,2319,303862.650,02000000,cdba,17139;SOL_COMPUTED,NARROW_INT,17.60120402565,78.12661844605,528.2477,-76.2000,WGS84,0.0062,0.0069,0.0159,"0",0.650,0.000,52,52,52,49,00,21,3f,37*9c58214d
#BESTPOSA,FILE,0,32.5,FINESTEERING,2319,303862.700,02000000,cdba,17139;SOL_COMPUTED,NARROW_INT,17.60120355115,78.12661851689,528.2484,-76.2000,WGS84,0.0063,0.0069,0.0160,"0",0.700,0.000,52,52,52,49,00,21,3f,37*5279b486
#BESTPOSA,FILE,0,32.5,FINESTEERING,2319,303862.750,02000000,cdba,17139;SOL_COMPUTED,NARROW_INT,17.60120306086,78.12661859454,528.2465,-76.2000,WGS84,0.0063,0.0069,0.0160,"0",0.750,0.000,52,52,52,49,00,21,3f,37*48059e0b
#BESTPOSA,FILE,0,32.5,FINESTEERING,2319,303862.800,02000000,cdba,17139;SOL_COMPUTED,NARROW_INT,17.60120257540,78.12661867061,528.2448,-76.2000,WGS84,0.0063,0.0070,0.0161,"0",0.800,0.000,52,52,52,49,00,21,3f,37*126287b1
#BESTPOSA,FILE,0,32.5,FINESTEERING,2319,303862.850,02000000,cdba,17139;SOL_COMPUTED,NARROW_INT,17.60120207047,78.12661874132,528.2436,-76.2000,WGS84,0.0063,0.0070,0.0161,"0",0.850,0.000,52,52,52,49,00,21,3f,37*2d3596a2
#BESTPOSA,FILE,0,32.5,FINESTEERING,2319,303862.900,02000000,cdba,17139;SOL_COMPUTED,NARROW_INT,17.60120156715,78.12661881790,528.2432,-76.2000,WGS84,0.0063,0.0070,0.0161,"0",0.900,0.000,52,52,52,49,00,21,3f,37*4cb34cb7
#BESTPOSA,FILE,0,32.5,FINESTEERING,2319,303862.950,02000000,cdba,17139;SOL_COMPUTED,NARROW_INT,17.60120105528,78.12661889511,528.2432,-76.2000,WGS84,0.0064,0.0070,0.0162,"0",0.950,0.000,52,52,52,49,00,21,3f,37*2140ee4e
#BESTPOSA,FILE,0,32.5,FINESTEERING,2319,303863.000,02000000,cdba,17139;SOL_COMPUTED,NARROW_INT,17.60120053563,78.12661896051,528.2432,-76.2000,WGS84,0.0064,0.0070,0.0162,"0",1.000,0.000,52,52,52,49,00,21,3f,37*1a10e6b3
#BESTPOSA,FILE,0,32.5,FINESTEERING,2319,303863.050,02000000,cdba,17139;SOL_COMPUTED,NARROW_INT,17.60120001193,78.12661903787,528.2427,-76.2000,WGS84,0.0064,0.0071,0.0163,"0",1.050,0.000,52,52,52,49,00,21,3f,37*519076bc
#BESTPOSA,FILE,0,19.5,FINESTEERING,2319,303863.100,02000000,cdba,17139;SOL_COMPUTED,NARROW_INT,17.60119947285,78.12661911708,528.2416,-76.2000,WGS84,0.0065,0.0071,0.0164,"0",1.100,0.000,52,52,52,49,00,21,3f,37*e78bb06a
#BESTPOSA,FILE,0,19.5,FINESTEERING,2319,303863.150,02000000,cdba,17139;SOL_COMPUTED,NARROW_INT,17.60119892901,78.12661920026,528.2406,-76.2000,WGS84,0.0065,0.0071,0.0164,"0",1.150,0.000,52,52,52,49,00,21,3f,37*f4f54119
#BESTPOSA,FILE,0,19.5,FINESTEERING,2319,303863.200,02000000,cdba,17139;SOL_COMPUTED,NARROW_INT,17.60119837588,78.12661928157,528.2402,-76.2000,WGS84,0.0065,0.0071,0.0164,"0",1.200,0.000,52,52,52,49,00,21,3f,37*7dfef395
#BESTPOSA,FILE,0,19.5,FINESTEERING,2319,303863.250,02000000,cdba,17139;SOL_COMPUTED,NARROW_INT,17.60119782082,78.12661935709,528.2375,-76.2000,WGS84,0.0065,0.0072,0.0165,"0",1.250,0.000,52,52,52,49,00,21,3f,37*5e2dda31
#BESTPOSA,FILE,0,19.5,FINESTEERING,2319,303863.300,02000000,cdba,17139;SOL_COMPUTED,NARROW_INT,17.60119727376,78.12661944968,528.2408,-76.2000,WGS84,0.0061,0.0068,0.0158,"0",0.300,0.000,52,52,52,49,00,21,3f,37*96d8b78a
#BESTPOSA,FILE,0,19.5,FINESTEERING,2319,303863.350,02000000,cdba,17139;SOL_COMPUTED,NARROW_INT,17.60119670294,78.12661953159,528.2397,-76.2000,WGS84,0.0061,0.0068,0.0158,"0",0.350,0.000,52,52,52,49,00,21,3f,37*c065ac9b
#BESTPOSA,FILE,0,19.5,FINESTEERING,2319,303863.400,02000000,cdba,17139;SOL_COMPUTED,NARROW_INT,17.60119612033,78.12661961200,528.2375,-76.2000,WGS84,0.0061,0.0068,0.0158,"0",0.400,0.000,53,52,52,49,00,21,3f,37*50c3b027
#BESTPOSA,FILE,0,19.5,FINESTEERING,2319,303863.450,02000000,cdba,17139;SOL_COMPUTED,NARROW_INT,17.60119553000,78.12661969424,528.2370,-76.2000,WGS84,0.0062,0.0069,0.0159,"0",0.450,0.000,53,52,52,49,00,21,3f,37*7f42159d
#BESTPOSA,FILE,0,19.5,FINESTEERING,2319,303863.500,02000000,cdba,17139;SOL_COMPUTED,NARROW_INT,17.60119494924,78.12661978667,528.2356,-76.2000,WGS84,0.0062,0.0069,0.0159,"0",0.500,0.000,53,52,52,49,00,21,3f,37*51506ce3
#BESTPOSA,FILE,0,19.5,FINESTEERING,2319,303863.550,02000000,cdba,17139;SOL_COMPUTED,NARROW_INT,17.60119434206,78.12661987689,528.2367,-76.2000,WGS84,0.0062,0.0069,0.0159,"0",0.550,0.000,53,52,52,49,00,21,3f,37*9a70c890
#BESTPOSA,FILE,0,19.5,FINESTEERING,2319,303863.600,02000000,cdba,17139;SOL_COMPUTED,NARROW_INT,17.60119373836,78.12661995295,528.2339,-76.2000,WGS84,0.0062,0.0069,0.0160,"0",0.600,0.000,53,52,52,49,00,21,3f,37*cadb7d49
#BESTPOSA,FILE,0,19.5,FINESTEERING,2319,303863.650,02000000,cdba,17139;SOL_COMPUTED,NARROW_INT,17.60119312341,78.12662003138,528.2363,-76.2000,WGS84,0.0062,0.0069,0.0160,"0",0.650,0.000,53,52,52,49,00,21,3f,37*dc3cb161
#BESTPOSA,FILE,0,19.5,FINESTEERING,2319,303863.700,02000000,cdba,17139;SOL_COMPUTED,NARROW_INT,17.60119251279,78.12662009129,528.2338,-76.2000,WGS84,0.0063,0.0069,0.0161,"0",0.700,0.000,53,52,52,49,00,21,3f,37*f8f6959b
#BESTPOSA,FILE,0,19.5,FINESTEERING,2319,303863.750,02000000,cdba,17139;SOL_COMPUTED,NARROW_INT,17.60119189841,78.12662016225,528.2306,-76.2000,WGS84,0.0063,0.0070,0.0161,"0",0.750,0.000,53,52,52,49,00,21,3f,37*027c5e4e
#BESTPOSA,FILE,0,19.5,FINESTEERING,2319,303863.800,02000000,cdba,17139;SOL_COMPUTED,NARROW_INT,17.60119127583,78.12662022971,528.2312,-76.2000,WGS84,0.0063,0.0070,0.0161,"0",0.800,0.000,53,52,52,49,00,21,3f,37*b49cdf0b
#BESTPOSA,FILE,0,19.5,FINESTEERING,2319,303863.850,02000000,cdba,17139;SOL_COMPUTED,NARROW_INT,17.60119065065,78.12662030847,528.2304,-76.2000,WGS84,0.0063,0.0070,0.0162,"0",0.850,0.000,53,52,52,49,00,21,3f,37*9c0613cd
#BESTPOSA,FILE,0,19.5,FINESTEERING,2319,303863.900,02000000,cdba,17139;SOL_COMPUTED,NARROW_INT,17.60119001510,78.12662038021,528.2277,-76.2000,WGS84,0.0063,0.0070,0.0162,"0",0.900,0.000,53,52,52,49,00,21,3f,37*ee23b8ca
#BESTPOSA,FILE,0,19.5,FINESTEERING,2319,303863.950,02000000,cdba,17139;SOL_COMPUTED,NARROW_INT,17.60118938263,78.12662044324,528.2244,-76.2000,WGS84,0.0064,0.0070,0.0162,"0",0.950,0.000,53,52,52,49,00,21,3f,37*e7948e74
#BESTPOSA,FILE,0,19.5,FINESTEERING,2319,303864.000,02000000,cdba,17139;SOL_COMPUTED,NARROW_INT,17.60118873734,78.12662048992,528.2263,-76.2000,WGS84,0.0064,0.0070,0.0163,"0",1.000,0.000,53,52,52,49,00,21,3f,37*1b3bea16
#BESTPOSA,FILE,0,19.5,FINESTEERING,2319,303864.050,02000000,cdba,17139;SOL_COMPUTED,NARROW_INT,17.60118808836,78.12662052899,528.2274,-76.2000,WGS84,0.0065,0.0071,0.0164,"0",1.050,0.000,53,52,52,49,00,21,3f,37*c54468de
#BESTPOSA,FILE,0,19.5,FINESTEERING,2319,303864.100,02000000,cdba,17139;SOL_COMPUTED,NARROW_INT,17.60118744318,78.12662059071,528.2275,-76.2000,WGS84,0.0065,0.0071,0.0165,"0",1.100,0.000,53,52,52,49,00,21,3f,37*dca72c40
#BESTPOSA,FILE,0,29.5,FINESTEERING,2319,303864.150,02000000,cdba,17139;SOL_COMPUTED,NARROW_INT,17.60118678947,78.12662064350,528.2263,-76.2000,WGS84,0.0065,0.0072,0.0165,"0",1.150,0.000,53,52,52,49,00,21,3f,37*74e5c41a
#BESTPOSA,FILE,0,29.5,FINESTEERING,2319,303864.200,02000000,cdba,17139;SOL_COMPUTED,NARROW_INT,17.60118613820,78.12662069701,528.2266,-76.2000,WGS84,0.0065,0.0072,0.0165,"0",1.200,0.000,53,52,52,49,00,21,3f,37*661b1e4f
#BESTPOSA,FILE,0,29.5,FINESTEERING,2319,303864.250,02000000,cdba,17139;SOL_COMPUTED,NARROW_INT,17.60118547864,78.12662076522,528.2246,-76.2000,WGS84,0.0065,0.0072,0.0166,"0",1.250,0.000,53,52,52,49,00,21,3f,37*f2a724d4
#BESTPOSA,FILE,0,29.5,FINESTEERING,2319,303864.300,02000000,cdba,17139;SOL_COMPUTED,NARROW_INT,17.60118482611,78.12662081371,528.2230,-76.2000,WGS84,0.0066,0.0072,0.0166,"0",1.300,0.000,53,52,52,49,00,21,3f,37*520c0d9a
#BESTPOSA,FILE,0,29.5,FINESTEERING,2319,303864.350,02000000,cdba,17139;SOL_COMPUTED,NARROW_INT,17.60118414903,78.12662088355,528.2183,-76.2000,WGS84,0.0061,0.0068,0.0158,"0",0.350,0.000,53,52,52,49,00,21,3f,37*a169f115
#BESTPOSA,FILE,0,29.5,FINESTEERING,2319,303864.400,02000000,cdba,17139;SOL_COMPUTED,NARROW_INT,17.60118348819,78.12662095716,528.2166,-76.2000,WGS84,0.0061,0.0068,0.0158,"0",0.400,0.000,53,52,52,49,00,21,3f,37*f792440f
#BESTPOSA,FILE,0,29.5,FINESTEERING,2319,303864.450,02000000,cdba,17139;SOL_COMPUTED,NARROW_INT,17.60118282724,78.12662104317,528.2145,-76.2000,WGS84,0.0062,0.0069,0.0158,"0",0.450,0.000,53,52,52,49,00,21,3f,37*7d039e72
#BESTPOSA,FILE,0,29.5,FINESTEERING,2319,303864.500,02000000,cdba,17139;SOL_COMPUTED,NARROW_INT,17.60118215680,78.12662112956,528.2109,-76.2000,WGS84,0.0062,0.0069,0.0159,"0",0.500,0.000,53,52,52,49,00,21,3f,37*73a818fc
#BESTPOSA,FILE,0,29.5,FINESTEERING,2319,303864.550,02000000,cdba,17139;SOL_COMPUTED,NARROW_INT,17.60118147087,78.12662122671,528.2094,-76.2000,WGS84,0.0062,0.0069,0.0159,"0",0.550,0.000,53,52,52,49,00,21,3f,37*56302c08
#BESTPOSA,FILE,0,29.5,FINESTEERING,2319,303864.600,02000000,cdba,17139;SOL_COMPUTED,NARROW_INT,17.60118077419,78.12662132602,528.2083,-76.2000,WGS84,0.0062,0.0069,0.0160,"0",0.600,0.000,53,52,52,49,00,21,3f,37*b6b83e95
#BESTPOSA,FILE,0,29.5,FINESTEERING,2319,303864.650,02000000,cdba,17139;SOL_COMPUTED,NARROW_INT,17.60118008520,78.12662143022,528.2051,-76.2000,WGS84,0.0063,0.0069,0.0160,"0",0.650,0.000,53,52,52,49,00,21,3f,37*292b3c44
#BESTPOSA,FILE,0,29.5,FINESTEERING,2319,303864.700,02000000,cdba,17139;SOL_COMPUTED,NARROW_INT,17.60117936764,78.12662153255,528.2039,-76.2000,WGS84,0.0063,0.0070,0.0160,"0",0.700,0.000,53,52,52,49,00,21,3f,37*bba3b061
#BESTPOSA,FILE,0,29.5,FINESTEERING,2319,303864.750,02000000,cdba,17139;SOL_COMPUTED,NARROW_INT,17.60117864270,78.12662162983,528.2036,-76.2000,WGS84,0.0063,0.0070,0.0161,"0",0.750,0.000,53,52,52,49,00,21,3f,37*fc86dc39
#BESTPOSA,FILE,0,29.5,FINESTEERING,2319,303864.800,02000000,cdba,17139;SOL_COMPUTED,NARROW_INT,17.60117790916,78.12662172252,528.2042,-76.2000,WGS84,0.0063,0.0070,0.0161,"0",0.800,0.000,53,52,52,49,00,21,3f,37*3e61d0ff
#BESTPOSA,FILE,0,29.5,FINESTEERING,2319,303864.850,02000000,cdba,17139;SOL_COMPUTED,NARROW_INT,17.60117716659,78.12662180756,528.2023,-76.2000,WGS84,0.0063,0.0070,0.0161,"0",0.850,0.000,52,52,52,49,00,21,3f,37*fa1af4ad
#BESTPOSA,FILE,0,29.5,FINESTEERING,2319,303864.900,02000000,cdba,17139;SOL_COMPUTED,NARROW_INT,17.60117642521,78.12662187933,528.2005,-76.2000,WGS84,0.0064,0.0070,0.0162,"0",0.900,0.000,52,52,52,49,00,21,3f,37*a3b29c1c
#BESTPOSA,FILE,0,29.5,FINESTEERING,2319,303864.950,02000000,cdba,17139;SOL_COMPUTED,NARROW_INT,17.60117568297,78.12662196093,528.2006,-76.2000,WGS84,0.0064,0.0070,0.0162,"0",0.950,0.000,52,52,52,49,00,21,3f,37*8e46db14
#BESTPOSA,FILE,0,29.5,FINESTEERING,2319,303865.000,02000000,cdba,17139;SOL_COMPUTED,NARROW_INT,17.60117493667,78.12662204440,528.1979,-76.2000,WGS84,0.0064,0.0070,0.0162,"0",1.000,0.000,52,52,52,49,00,21,3f,37*5cc21055
#BESTPOSA,FILE,0,29.5,FINESTEERING,2319,303865.050,02000000,cdba,17139;SOL_COMPUTED,NARROW_INT,17.60117417504,78.12662213950,528.1952,-76.2000,WGS84,0.0065,0.0071,0.0164,"0",1.050,0.000,52,52,52,49,00,21,3f,37*19a7f20c
#BESTPOSA,FILE,0,29.0,FINESTEERING,2319,303865.100,02000000,cdba,17139;SOL_COMPUTED,NARROW_INT,17.60117341916,78.12662224145,528.1935,-76.2000,WGS84,0.0065,0.0071,0.0164,"0",1.100,0.000,52,52,52,49,00,21,3f,37*6724f936
#BESTPOSA,FILE,0,29.0,FINESTEERING,2319,303865.150,02000000,cdba,17139;SOL_COMPUTED,NARROW_INT,17.60117266301,78.12662234391,528.1921,-76.2000,WGS84,0.0065,0.0072,0.0165,"0",1.150,0.000,52,52,52,49,00,21,3f,37*d6fbebcd
#BESTPOSA,FILE,0,29.0,FINESTEERING,2319,303865.200,02000000,cdba,17139;SOL_COMPUTED,NARROW_INT,17.60117189874,78.12662246163,528.1918,-76.2000,WGS84,0.0065,0.0072,0.0165,"0",1.200,0.000,52,52,52,49,00,21,3f,37*d279c7fe
#BESTPOSA,FILE,0,29.0,FINESTEERING,2319,303865.250,02000000,cdba,17139;SOL_COMPUTED,NARROW_INT,17.60117113503,78.12662259045,528.1927,-76.2000,WGS84,0.0066,0.0072,0.0166,"0",1.250,0.000,52,52,52,49,00,21,3f,37*5c9a236f
#BESTPOSA,FILE,0,29.0,FINESTEERING,2319,303865.300,02000000,cdba,17139;SOL_COMPUTED,NARROW_INT,17.60117035843,78.12662271679,528.1910,-76.2000,WGS84,0.0061,0.0068,0.0157,"0",0.300,0.000,52,52,52,49,00,21,3f,37*ee32990f
#BESTPOSA,FILE,0,29.0,FINESTEERING,2319,303865.350,02000000,cdba,17139;SOL_COMPUTED,NARROW_INT,17.60116957184,78.12662281976,528.1883,-76.2000,WGS84,0.0061,0.0068,0.0157,"0",0.350,0.000,52,52,52,49,00,21,3f,37*0bfec6ad
#BESTPOSA,FILE,0,29.0,FINESTEERING,2319,303865.400,02000000,cdba,17139;SOL_COMPUTED,NARROW_INT,17.60116878017,78.12662294062,528.1891,-76.2000,WGS84,0.0061,0.0068,0.0157,"0",0.400,0.000,52,52,52,49,00,21,3f,37*f66ad582
#BESTPOSA,FILE,0,29.0,FINESTEERING,2319,303865.450,02000000,cdba,17139;SOL_COMPUTED,NARROW_INT,17.60116799135,78.12662303646,528.1877,-76.2000,WGS84,0.0062,0.0069,0.0158,"0",0.450,0.000,52,52,52,49,00,21,3f,37*89d92fd5
#BESTPOSA,FILE,0,29.0,FINESTEERING,2319,303865.500,02000000,cdba,17139;SOL_COMPUTED,NARROW_INT,17.60116719682,78.12662311901,528.1867,-76.2000,WGS84,0.0062,0.0069,0.0158,"0",0.500,0.000,52,52,52,49,00,21,3f,37*9ed07d64
#BESTPOSA,FILE,0,29.0,FINESTEERING,2319,303865.550,02000000,cdba,17139;SOL_COMPUTED,NARROW_INT,17.60116640303,78.12662320260,528.1843,-76.2000,WGS84,0.0062,0.0069,0.0159,"0",0.550,0.000,51,51,51,48,00,21,3f,37*2fa367c0
#BESTPOSA,FILE,0,29.0,FINESTEERING,2319,303865.600,02000000,cdba,17139;SOL_COMPUTED,NARROW_INT,17.60116560390,78.12662328004,528.1828,-76.2000,WGS84,0.0062,0.0069,0.0159,"0",0.600,0.000,51,51,51,48,00,21,3f,37*cb32bba2
#BESTPOSA,FILE,0,29.0,FINESTEERING,2319,303865.650,02000000,cdba,17139;SOL_COMPUTED,NARROW_INT,17.60116479813,78.12662336380,528.1824,-76.2000,WGS84,0.0062,0.0069,0.0159,"0",0.650,0.000,51,51,51,48,00,21,3f,37*0da742bf
#BESTPOSA,FILE,0,29.0,FINESTEERING,2319,303865.700,02000000,cdba,17139;SOL_COMPUTED,NARROW_INT,17.60116398982,78.12662343138,528.1794,-76.2000,WGS84,0.0063,0.0070,0.0160,"0",0.700,0.000,51,51,51,48,00,21,3f,37*e49bec8d
#BESTPOSA,FILE,0,29.0,FINESTEERING,2319,303865.750,02000000,cdba,17139;SOL_COMPUTED,NARROW_INT,17.60116318585,78.12662349758,528.1795,-76.2000,WGS84,0.0063,0.0070,0.0160,"0",0.750,0.000,51,51,51,48,00,21,3f,37*fdacfbc2
#BESTPOSA,FILE,0,29.0,FINESTEERING,2319,303865.800,02000000,cdba,17139;SOL_COMPUTED,NARROW_INT,17.60116237686,78.12662356400,528.1803,-76.2000,WGS84,0.0063,0.0070,0.0160,"0",0.800,0.000,51,51,51,48,00,21,3f,37*b154259a
#BESTPOSA,FILE,0,29.0,FINESTEERING,2319,303865.850,02000000,cdba,17139;SOL_COMPUTED,NARROW_INT,17.60116155718,78.12662361986,528.1812,-76.2000,WGS84,0.0063,0.0070,0.0161,"0",0.850,0.000,51,51,51,48,00,21,3f,37*22448f3e
#BESTPOSA,FILE,0,29.0,FINESTEERING,2319,303865.900,02000000,cdba,17139;SOL_COMPUTED,NARROW_INT,17.60116073889,78.12662368095,528.1803,-76.2000,WGS84,0.0063,0.0070,0.0161,"0",0.900,0.000,51,51,51,48,00,21,3f,37*69d101cf
#BESTPOSA,FILE,0,29.0,FINESTEERING,2319,303865.950,02000000,cdba,17139;SOL_COMPUTED,NARROW_INT,17.60115991296,78.12662373414,528.1792,-76.2000,WGS84,0.0064,0.0070,0.0161,"0",0.950,0.000,51,51,51,48,00,21,3f,37*6dcd47a3
#BESTPOSA,FILE,0,29.0,FINESTEERING,2319,303866.000,02000000,cdba,17139;SOL_COMPUTED,NARROW_INT,17.60115908855,78.12662377261,528.1797,-76.2000,WGS84,0.0064,0.0070,0.0162,"0",1.000,0.000,51,51,51,48,00,21,3f,37*968eb9c8
#BESTPOSA,FILE,0,29.0,FINESTEERING,2319,303866.050,02000000,cdba,17139;SOL_COMPUTED,NARROW_INT,17.60115827518,78.12662382427,528.1796,-76.2000,WGS84,0.0065,0.0071,0.0163,"0",1.050,0.000,51,51,51,48,00,21,3f,37*126b9fdb
#BESTPOSA,FILE,0,29.0,FINESTEERING,2319,303866.100,02000000,cdba,17139;SOL_COMPUTED,NARROW_INT,17.60115745232,78.12662388546,528.1782,-76.2000,WGS84,0.0065,0.0071,0.0164,"0",1.100,0.000,51,51,51,48,00,21,3f,37*9bd450d2
#BESTPOSA,FILE,0,30.5,FINESTEERING,2319,303866.150,02000000,cdba,17139;SOL_COMPUTED,NARROW_INT,17.60115662131,78.12662393759,528.1753,-76.2000,WGS84,0.0065,0.0072,0.0164,"0",1.150,0.000,51,51,51,48,00,21,3f,37*9a1ade8d
#BESTPOSA,FILE,0,30.5,FINESTEERING,2319,303866.200,02000000,cdba,17139;SOL_COMPUTED,NARROW_INT,17.60115580471,78.12662396992,528.1748,-76.2000,WGS84,0.0065,0.0072,0.0165,"0",1.200,0.000,51,51,51,48,00,21,3f,37*3445e22c
#BESTPOSA,FILE,0,30.5,FINESTEERING,2319,303866.250,02000000,cdba,17139;SOL_COMPUTED,NARROW_INT,17.60115498750,78.12662400241,528.1725,-76.2000,WGS84,0.0065,0.0072,0.0165,"0",1.250,0.000,51,51,51,48,00,21,3f,37*c77d9d0b
#BESTPOSA,FILE,0,30.5,FINESTEERING,2319,303866.300,02000000,cdba,17139;SOL_COMPUTED,NARROW_INT,17.60115413481,78.12662405130,528.1698,-76.2000,WGS84,0.0061,0.0068,0.0157,"0",0.300,0.000,51,51,51,48,00,21,3f,37*1088c98f
#BESTPOSA,FILE,0,30.5,FINESTEERING,2319,303866.350,02000000,cdba,17139;SOL_COMPUTED,NARROW_INT,17.60115328896,78.12662406999,528.1690,-76.2000,WGS84,0.0061,0.0068,0.0157,"0",0.350,0.000,51,51,51,48,00,21,3f,37*ee1a3dec
#BESTPOSA,FILE,0,30.5,FINESTEERING,2319,303866.400,02000000,cdba,17139;SOL_COMPUTED,NARROW_INT,17.60115245421,78.12662409266,528.1695,-76.2000,WGS84,0.0061,0.0068,0.0157,"0",0.400,0.000,51,51,51,48,00,21,3f,37*c289311f
#BESTPOSA,FILE,0,30.5,FINESTEERING,2319,303866.450,02000000,cdba,17139;SOL_COMPUTED,NARROW_INT,17.60115160733,78.12662411366,528.1690,-76.2000,WGS84,0.0062,0.0069,0.0158,"0",0.450,0.000,52,51,51,48,00,21,3f,37*45d3b58f
#BESTPOSA,FILE,0,30.5,FINESTEERING,2319,303866.500,02000000,cdba,17139;SOL_COMPUTED,NARROW_INT,17.60115075983,78.12662412529,528.1658,-76.2000,WGS84,0.0062,0.0069,0.0158,"0",0.500,0.000,52,51,51,48,00,21,3f,37*5819acb5
#BESTPOSA,FILE,0,30.5,FINESTEERING,2319,303866.550,02000000,cdba,17139;SOL_COMPUTED,NARROW_INT,17.60114991084,78.12662415510,528.1655,-76.2000,WGS84,0.0062,0.0069,0.0158,"0",0.550,0.000,52,51,51,48,00,21,3f,37*8fc74783
#BESTPOSA,FILE,0,30.5,FINESTEERING,2319,303866.600,02000000,cdba,17139;SOL_COMPUTED,NARROW_INT,17.60114907781,78.12662418459,528.1638,-76.2000,WGS84,0.0062,0.0069,0.0159,"0",0.600,0.000,52,51,51,48,00,21,3f,37*44e5324c
#BESTPOSA,FILE,0,30.5,FINESTEERING,2319,303866.650,02000000,cdba,17139;SOL_COMPUTED,NARROW_INT,17.60114823529,78.12662421022,528.1638,-76.2000,WGS84,0.0062,0.0069,0.0159,"0",0.650,0.000,52,51,51,48,00,21,3f,37*175981c4
#BESTPOSA,FILE,0,30.5,FINESTEERING,2319,303866.700,02000000,cdba,17139;SOL_COMPUTED,NARROW_INT,17.60114739514,78.12662422418,528.1620,-76.2000,WGS84,0.0063,0.0070,0.0160,"0",0.700,0.000,52,51,51,48,00,21,3f,37*96f6bb3d
#BESTPOSA,FILE,0,30.5,FINESTEERING,2319,303866.750,02000000,cdba,17139;SOL_COMPUTED,NARROW_INT,17.60114654981,78.12662425811,528.1606,-76.2000,WGS84,0.0063,0.0070,0.0160,"0",0.750,0.000,52,51,51,48,00,21,3f,37*888d341b
#BESTPOSA,FILE,0,30.5,FINESTEERING,2319,303866.800,02000000,cdba,17139;SOL_COMPUTED,NARROW_INT,17.60114570506,78.12662431207,528.1587,-76.2000,WGS84,0.0063,0.0070,0.0160,"0",0.800,0.000,52,51,51,48,00,21,3f,37*59a8a566
#BESTPOSA,FILE,0,30.5,FINESTEERING,2319,303866.850,02000000,cdba,17139;SOL_COMPUTED,NARROW_INT,17.60114483859,78.12662434220,528.1556,-76.2000,WGS84,0.0063,0.0070,0.0161,"0",0.850,0.000,52,51,51,48,00,21,3f,37*d3a4ac73
#BESTPOSA,FILE,0,30.5,FINESTEERING,2319,303866.900,02000000,cdba,17139;SOL_COMPUTED,NARROW_INT,17.60114397983,78.12662437169,528.1552,-76.2000,WGS84,0.0063,0.0070,0.0161,"0",0.900,0.000,52,51,51,48,00,21,3f,37*df16f2c4
#BESTPOSA,FILE,0,30.5,FINESTEERING,2319,303866.950,02000000,cdba,17139;SOL_COMPUTED,NARROW_INT,17.60114314484,78.12662439024,528.1549,-76.2000,WGS84,0.0064,0.0070,0.0161,"0",0.950,0.000,52,51,51,48,00,21,3f,37*0da066d3
#BESTPOSA,FILE,0,30.5,FINESTEERING,2319,303867.000,02000000,cdba,17139;SOL_COMPUTED,NARROW_INT,17.60114233024,78.12662437290,528.1536,-76.2000,WGS84,0.0064,0.0070,0.0162,"0",1.000,0.000,52,51,51,48,00,21,3f,37*b4f9e87b
#BESTPOSA,FILE,0,30.5,FINESTEERING,2319,303867.050,02000000,cdba,17139;SOL_COMPUTED,NARROW_INT,17.60114153058,78.12662434950,528.1550,-76.2000,WGS84,0.0065,0.0071,0.0164,"0",1.050,0.000,52,52,52,49,00,21,3f,37*e2a93922
#BESTPOSA,FILE,0,28.5,FINESTEERING,2319,303867.100,02000000,cdba,17139;SOL_COMPUTED,NARROW_INT,17.60114075941,78.12662431972,528.1542,-76.2000,WGS84,0.0065,0.0071,0.0164,"0",1.100,0.000,52,52,52,49,00,21,3f,37*e5ab9af5
#BESTPOSA,FILE,0,28.5,FINESTEERING,2319,303867.150,02000000,cdba,17139;SOL_COMPUTED,NARROW_INT,17.60113998765,78.12662428312,528.1560,-76.2000,WGS84,0.0065,0.0072,0.0164,"0",1.150,0.000,52,52,52,49,00,21,3f,37*4fc40360
#BESTPOSA,FILE,0,28.5,FINESTEERING,2319,303867.200,02000000,cdba,17139;SOL_COMPUTED,NARROW_INT,17.60113921693,78.12662424947,528.1562,-76.2000,WGS84,0.0065,0.0072,0.0165,"0",1.200,0.000,52,52,52,49,00,21,3f,37*c1d10917
#BESTPOSA,FILE,0,28.5,FINESTEERING,2319,303867.250,02000000,cdba,17139;SOL_COMPUTED,NARROW_INT,17.60113845220,78.12662421559,528.1566,-76.2000,WGS84,0.0065,0.0072,0.0165,"0",1.250,0.000,52,52,52,49,00,21,3f,37*b836efb9
#BESTPOSA,FILE,0,28.5,FINESTEERING,2319,303867.300,02000000,cdba,17139;SOL_COMPUTED,NARROW_INT,17.60113766551,78.12662416911,528.1518,-76.2000,WGS84,0.0061,0.0068,0.0157,"0",0.300,0.000,52,52,52,49,00,21,3f,37*84192e6d
#BESTPOSA,FILE,0,28.5,FINESTEERING,2319,303867.350,02000000,cdba,17139;SOL_COMPUTED,NARROW_INT,17.60113690079,78.12662413831,528.1500,-76.2000,WGS84,0.0061,0.0068,0.0157,"0",0.350,0.000,52,52,52,49,00,21,3f,37*aacaa6be
#BESTPOSA,FILE,0,28.5,FINESTEERING,2319,303867.400,02000000,cdba,17139;SOL_COMPUTED,NARROW_INT,17.60113613866,78.12662411407,528.1491,-76.2000,WGS84,0.0061,0.0069,0.0157,"0",0.400,0.000,52,52,52,49,00,21,3f,37*810638f1
#BESTPOSA,FILE,0,28.5,FINESTEERING,2319,303867.450,02000000,cdba,17139;SOL_COMPUTED,NARROW_INT,17.60113537109,78.12662409903,528.1502,-76.2000,WGS84,0.0062,0.0069,0.0158,"0",0.450,0.000,52,52,52,49,00,21,3f,37*15da0743
#BESTPOSA,FILE,0,28.5,FINESTEERING,2319,303867.500,02000000,cdba,17139;SOL_COMPUTED,NARROW_INT,17.60113460573,78.12662406374,528.1468,-76.2000,WGS84,0.0062,0.0069,0.0158,"0",0.500,0.000,52,52,52,49,00,21,3f,37*fb90e367
#BESTPOSA,FILE,0,28.5,FINESTEERING,2319,303867.550,02000000,cdba,17139;SOL_COMPUTED,NARROW_INT,17.60113384777,78.12662402965,528.1480,-76.2000,WGS84,0.0062,0.0069,0.0158,"0",0.550,0.000,52,52,52,49,00,21,3f,37*780fb728
#BESTPOSA,FILE,0,28.5,FINESTEERING,2319,303867.600,02000000,cdba,17139;SOL_COMPUTED,NARROW_INT,17.60113310245,78.12662398787,528.1488,-76.2000,WGS84,0.0062,0.0069,0.0159,"0",0.600,0.000,52,52,52,49,00,21,3f,37*d27aae72
#BESTPOSA,FILE,0,28.5,FINESTEERING,2319,303867.650,02000000,cdba,17139;SOL_COMPUTED,NARROW_INT,17.60113236673,78.12662393820,528.1475,-76.2000,WGS84,0.0062,0.0069,0.0159,"0",0.650,0.000,52,52,52,49,00,21,3f,37*4ef0733a
#BESTPOSA,FILE,0,28.5,FINESTEERING,2319,303867.700,02000000,cdba,17139;SOL_COMPUTED,NARROW_INT,17.60113163324,78.12662387095,528.1475,-76.2000,WGS84,0.0063,0.0070,0.0160,"0",0.700,0.000,52,52,52,49,00,21,3f,37*2e54790e
#BESTPOSA,FILE,0,28.5,FINESTEERING,2319,303867.750,02000000,cdba,17139;SOL_COMPUTED,NARROW_INT,17.60113090052,78.12662380717,528.1459,-76.2000,WGS84,0.0063,0.0070,0.0160,"0",0.750,0.000,52,52,52,49,00,21,3f,37*bf97ce62
#BESTPOSA,FILE,0,28.5,FINESTEERING,2319,303867.800,02000000,cdba,17139;SOL_COMPUTED,NARROW_INT,17.60113017425,78.12662373614,528.1467,-76.2000,WGS84,0.0063,0.0070,0.0160,"0",0.800,0.000,52,52,52,49,00,21,3f,37*36df8c19
#BESTPOSA,FILE,0,28.5,FINESTEERING,2319,303867.850,02000000,cdba,17139;SOL_COMPUTED,NARROW_INT,17.60112945211,78.12662366089,528.1430,-76.2000,WGS84,0.0063,0.0070,0.0161,"0",0.850,0.000,52,52,52,49,00,21,3f,37*59c73b72
#BESTPOSA,FILE,0,28.5,FINESTEERING,2319,303867.900,02000000,cdba,17139;SOL_COMPUTED,NARROW_INT,17.60112873175,78.12662358851,528.1429,-76.2000,WGS84,0.0063,0.0070,0.0161,"0",0.900,0.000,52,52,52,49,00,21,3f,37*480c63d4
#BESTPOSA,FILE,0,28.5,FINESTEERING,2319,303867.950,02000000,cdba,17139;SOL_COMPUTED,NARROW_INT,17.60112801972,78.12662350200,528.1419,-76.2000,WGS84,0.0064,0.0070,0.0161,"0",0.950,0.000,52,52,52,49,00,21,3f,37*86a5ea15
#BESTPOSA,FILE,0,28.5,FINESTEERING,2319,303868.000,02000000,cdba,17139;SOL_COMPUTED,NARROW_INT,17.60112730130,78.12662343288,528.1417,-76.2000,WGS84,0.0064,0.0071,0.0162,"0",1.000,0.000,52,52,52,49,00,21,3f,37*3d61bdbd
#BESTPOSA,FILE,0,28.5,FINESTEERING,2319,303868.050,02000000,cdba,17139;SOL_COMPUTED,NARROW_INT,17.60112658897,78.12662333789,528.1431,-76.2000,WGS84,0.0065,0.0071,0.0163,"0",1.050,0.000,52,52,52,49,00,21,3f,37*93e996be
#BESTPOSA,FILE,0,28.5,FINESTEERING,2319,303868.100,02000000,cdba,17139;SOL_COMPUTED,NARROW_INT,17.60112587738,78.12662324173,528.1422,-76.2000,WGS84,0.0065,0.0071,0.0164,"0",1.100,0.000,52,52,52,49,00,21,3f,37*0efd31b0
#BESTPOSA,FILE,0,28.5,FINESTEERING,2319,303868.150,02000000,cdba,17139;SOL_COMPUTED,NARROW_INT,17.60112516519,78.12662315532,528.1384,-76.2000,WGS84,0.0065,0.0072,0.0164,"0",1.150,0.000,52,52,52,49,00,21,3f,37*010d4575
#BESTPOSA,FILE,0,28.5,FINESTEERING,2319,303868.200,02000000,cdba,17139;SOL_COMPUTED,NARROW_INT,17.60112445980,78.12662307504,528.1395,-76.2000,WGS84,0.0065,0.0072,0.0164,"0",1.200,0.000,52,52,52,49,00,21,3f,37*9d67b026
#BESTPOSA,FILE,0,28.5,FINESTEERING,2319,303868.250,02000000,cdba,17139;SOL_COMPUTED,NARROW_INT,17.60112375253,78.12662298777,528.1408,-76.2000,WGS84,0.0065,0.0072,0.0165,"0",1.250,0.000,52,52,52,49,00,21,3f,37*bdb13762
#BESTPOSA,FILE,0,28.5,FINESTEERING,2319,303868.300,02000000,cdba,17139;SOL_COMPUTED,NARROW_INT,17.60112302725,78.12662288361,528.1382,-76.2000,WGS84,0.0061,0.0068,0.0157,"0",0.300,0.000,52,52,52,49,00,21,3f,37*285645c4
#BESTPOSA,FILE,0,28.5,FINESTEERING,2319,303868.350,02000000,cdba,17139;SOL_COMPUTED,NARROW_INT,17.60112231289,78.12662273213,528.1369,-76.2000,WGS84,0.0061,0.0068,0.0157,"0",0.350,0.000,52,52,52,49,00,21,3f,37*ee3bd35d
#BESTPOSA,FILE,0,28.5,FINESTEERING,2319,303868.400,02000000,cdba,17139;SOL_COMPUTED,NARROW_INT,17.60112161248,78.12662255935,528.1419,-76.2000,WGS84,0.0061,0.0069,0.0157,"0",0.400,0.000,52,52,52,49,00,21,3f,37*197a9f31
#BESTPOSA,FILE,0,28.5,FINESTEERING,2319,303868.450,02000000,cdba,17139;SOL_COMPUTED,NARROW_INT,17.60112089562,78.12662235585,528.1473,-76.2000,WGS84,0.0062,0.0069,0.0158,"0",0.450,0.000,52,52,52,49,00,21,3f,37*c1841391
#BESTPOSA,FILE,0,28.5,FINESTEERING,2319,303868.500,02000000,cdba,17139;SOL_COMPUTED,NARROW_INT,17.60112018641,78.12662212689,528.1523,-76.2000,WGS84,0.0062,0.0069,0.0158,"0",0.500,0.000,52,52,52,49,00,21,3f,37*5d6e1b43
#BESTPOSA,FILE,0,28.5,FINESTEERING,2319,303868.550,02000000,cdba,17139;SOL_COMPUTED,NARROW_INT,17.60111948053,78.12662189017,528.1593,-76.2000,WGS84,0.0062,0.0069,0.0159,"0",0.550,0.000,52,52,52,49,00,21,3f,37*c769ddb6
#BESTPOSA,FILE,0,28.5,FINESTEERING,2319,303868.600,02000000,cdba,17139;SOL_COMPUTED,NARROW_INT,17.60111879704,78.12662166591,528.1643,-76.2000,WGS84,0.0062,0.0069,0.0159,"0",0.600,0.000,52,52,52,49,00,21,3f,37*ce10cefd
#BESTPOSA,FILE,0,28.5,FINESTEERING,2319,303868.650,02000000,cdba,17139;SOL_COMPUTED,NARROW_INT,17.60111811972,78.12662145228,528.1694,-76.2000,WGS84,0.0063,0.0070,0.0159,"0",0.650,0.000,52,52,52,49,00,21,3f,37*359df30c
#BESTPOSA,FILE,0,28.5,FINESTEERING,2319,303868.700,02000000,cdba,17139;SOL_COMPUTED,NARROW_INT,17.60111745092,78.12662123854,528.1710,-76.2000,WGS84,0.0063,0.0070,0.0160,"0",0.700,0.000,52,52,52,49,00,21,3f,37*e1ec4d1d
#BESTPOSA,FILE,0,28.5,FINESTEERING,2319,303868.750,02000000,cdba,17139;SOL_COMPUTED,NARROW_INT,17.60111678589,78.12662102674,528.1723,-76.2000,WGS84,0.0063,0.0070,0.0160,"0",0.750,0.000,52,52,52,49,00,21,3f,37*8189ecd6
#BESTPOSA,FILE,0,28.5,FINESTEERING,2319,303868.800,02000000,cdba,17139;SOL_COMPUTED,NARROW_INT,17.60111610915,78.12662081681,528.1715,-76.2000,WGS84,0.0063,0.0070,0.0160,"0",0.800,0.000,52,52,52,49,00,21,3f,37*2c0d48ac
#BESTPOSA,FILE,0,28.5,FINESTEERING,2319,303868.850,02000000,cdba,17139;SOL_COMPUTED,NARROW_INT,17.60111544407,78.12662060798,528.1725,-76.2000,WGS84,0.0063,0.0070,0.0161,"0",0.850,0.000,52,52,52,49,00,21,3f,37*23826f50
#BESTPOSA,FILE,0,28.5,FINESTEERING,2319,303868.900,02000000,cdba,17139;SOL_COMPUTED,NARROW_INT,17.60111477188,78.12662038518,528.1721,-76.2000,WGS84,0.0064,0.0070,0.0161,"0",0.900,0.000,52,52,52,49,00,21,3f,37*1784fce0
#BESTPOSA,FILE,0,28.5,FINESTEERING,2319,303868.950,02000000,cdba,17139;SOL_COMPUTED,NARROW_INT,17.60111412076,78.12662012429,528.1767,-76.2000,WGS84,0.0064,0.0071,0.0162,"0",0.950,0.000,52,52,52,49,00,21,3f,37*ac9c5027
#BESTPOSA,FILE,0,28.5,FINESTEERING,2319,303869.000,02000000,cdba,17139;SOL_COMPUTED,NARROW_INT,17.60111346391,78.12661985477,528.1776,-76.2000,WGS84,0.0064,0.0071,0.0162,"0",1.000,0.000,52,52,52,49,00,21,3f,37*965e2ef6
#BESTPOSA,FILE,0,28.5,FINESTEERING,2319,303869.050,02000000,cdba,17139;SOL_COMPUTED,NARROW_INT,17.60111280075,78.12661956584,528.1796,-76.2000,WGS84,0.0065,0.0072,0.0164,"0",1.050,0.000,52,52,52,49,00,21,3f,37*56b1504b
#BESTPOSA,FILE,0,28.5,FINESTEERING,2319,303869.100,02000000,cdba,17139;SOL_COMPUTED,NARROW_INT,17.60111215721,78.12661927476,528.1829,-76.2000,WGS84,0.0065,0.0072,0.0164,"0",1.100,0.000,52,52,52,49,00,21,3f,37*d9b7bf51
#BESTPOSA,FILE,0,28.5,FINESTEERING,2319,303869.150,02000000,cdba,17139;SOL_COMPUTED,NARROW_INT,17.60111152337,78.12661895956,528.1856,-76.2000,WGS84,0.0065,0.0072,0.0164,"0",1.150,0.000,52,52,52,49,00,21,3f,37*67225dd8
#BESTPOSA,FILE,0,28.5,FINESTEERING,2319,303869.200,02000000,cdba,17139;SOL_COMPUTED,NARROW_INT,17.60111088833,78.12661863358,528.1893,-76.2000,WGS84,0.0066,0.0072,0.0165,"0",1.200,0.000,52,52,52,49,00,21,3f,37*db9cda84
#BESTPOSA,FILE,0,28.5,FINESTEERING,2319,303869.250,02000000,cdba,17139;SOL_COMPUTED,NARROW_INT,17.60111025195,78.12661830307,528.1914,-76.2000,WGS84,0.0066,0.0072,0.0165,"0",1.250,0.000,52,52,52,49,00,21,3f,37*28284b3c
#BESTPOSA,FILE,0,28.5,FINESTEERING,2319,303869.300,02000000,cdba,17139;SOL_COMPUTED,NARROW_INT,17.60110965293,78.12661794358,528.1971,-76.2000,WGS84,0.0061,0.0069,0.0157,"0",0.300,0.000,52,52,52,49,00,21,3f,37*333ba49f
#BESTPOSA,FILE,0,28.5,FINESTEERING,2319,303869.350,02000000,cdba,17139;SOL_COMPUTED,NARROW_INT,17.60110903043,78.12661758084,528.1967,-76.2000,WGS84,0.0061,0.0069,0.0157,"0",0.350,0.000,52,52,52,49,00,21,3f,37*b411beae
#BESTPOSA,FILE,0,28.5,FINESTEERING,2319,303869.400,02000000,cdba,17139;SOL_COMPUTED,NARROW_INT,17.60110841532,78.12661721407,528.2015,-76.2000,WGS84,0.0061,0.0069,0.0158,"0",0.400,0.000,52,52,52,49,00,21,3f,37*45b70cbf
#BESTPOSA,FILE,0,28.5,FINESTEERING,2319,303869.450,02000000,cdba,17139;SOL_COMPUTED,NARROW_INT,17.60110780329,78.12661682388,528.2028,-76.2000,WGS84,0.0062,0.0069,0.0158,"0",0.450,0.000,53,52,52,49,00,21,3f,37*dd4ea90b
#BESTPOSA,FILE,0,28.5,FINESTEERING,2319,303869.500,02000000,cdba,17139;SOL_COMPUTED,NARROW_INT,17.60110718796,78.12661640485,528.2066,-76.2000,WGS84,0.0062,0.0069,0.0158,"0",0.500,0.000,53,52,52,49,00,21,3f,37*6da14a6b
#BESTPOSA,FILE,0,28.5,FINESTEERING,2319,303869.550,02000000,cdba,17139;SOL_COMPUTED,NARROW_INT,17.60110657788,78.12661598879,528.2085,-76.2000,WGS84,0.0062,0.0069,0.0159,"0",0.550,0.000,53,52,52,49,00,21,3f,37*215ebb93
#BESTPOSA,FILE,0,28.5,FINESTEERING,2319,303869.600,02000000,cdba,17139;SOL_COMPUTED,NARROW_INT,17.60110595272,78.12661556719,528.2082,-76.2000,WGS84,0.0062,0.0070,0.0159,"0",0.600,0.000,53,52,52,49,00,21,3f,37*1a73b9b2
#BESTPOSA,FILE,0,28.5,FINESTEERING,2319,303869.650,02000000,cdba,17139;SOL_COMPUTED,NARROW_INT,17.60110532088,78.12661510184,528.2114,-76.2000,WGS84,0.0063,0.0070,0.0159,"0",0.650,0.000,53,52,52,49,00,21,3f,37*933f9a09
#BESTPOSA,FILE,0,28.5,FINESTEERING,2319,303869.700,02000000,cdba,17139;SOL_COMPUTED,NARROW_INT,17.60110468671,78.12661463984,528.2130,-76.2000,WGS84,0.0063,0.0070,0.0160,"0",0.700,0.000,53,52,52,49,00,21,3f,37*9d9aa259
#BESTPOSA,FILE,0,28.5,FINESTEERING,2319,303869.750,02000000,cdba,17139;SOL_COMPUTED,NARROW_INT,17.60110406870,78.12661414954,528.2174,-76.2000,WGS84,0.0063,0.0070,0.0160,"0",0.750,0.000,53,52,52,49,00,21,3f,37*87dd2ee8
#BESTPOSA,FILE,0,28.5,FINESTEERING,2319,303869.800,02000000,cdba,17139;SOL_COMPUTED,NARROW_INT,17.60110344692,78.12661363017,528.2201,-76.2000,WGS84,0.0063,0.0070,0.0161,"0",0.800,0.000,53,52,52,49,00,21,3f,37*f6396e2f
#BESTPOSA,FILE,0,28.5,FINESTEERING,2319,303869.850,02000000,cdba,17139;SOL_COMPUTED,NARROW_INT,17.60110283027,78.12661310940,528.2236,-76.2000,WGS84,0.0063,0.0070,0.0161,"0",0.850,0.000,53,52,52,49,00,21,3f,37*a0bf081b
#BESTPOSA,FILE,0,28.5,FINESTEERING,2319,303869.900,02000000,cdba,17139;SOL_COMPUTED,NARROW_INT,17.60110221546,78.12661257081,528.2259,-76.2000,WGS84,0.0064,0.0071,0.0161,"0",0.900,0.000,53,52,52,49,00,21,3f,37*ba7514c0
#BESTPOSA,FILE,0,28.5,FINESTEERING,2319,303869.950,02000000,cdba,17139;SOL_COMPUTED,NARROW_INT,17.60110158799,78.12661200663,528.2269,-76.2000,WGS84,0.0064,0.0071,0.0162,"0",0.950,0.000,53,52,52,49,00,21,3f,37*1d2e7a89
#BESTPOSA,FILE,0,28.5,FINESTEERING,2319,303870.000,02000000,cdba,17139;SOL_COMPUTED,NARROW_INT,17.60110096356,78.12661139529,528.2318,-76.2000,WGS84,0.0064,0.0071,0.0162,"0",1.000,0.000,53,52,52,49,00,21,3f,37*18c0c52a
#BESTPOSA,FILE,0,28.5,FINESTEERING,2319,303870.050,02000000,cdba,17139;SOL_COMPUTED,NARROW_INT,17.60110035115,78.12661077583,528.2302,-76.2000,WGS84,0.0065,0.0072,0.0164,"0",1.050,0.000,53,52,52,49,00,21,3f,37*8d327438
#BESTPOSA,FILE,0,28.5,FINESTEERING,2319,303870.100,02000000,cdba,17139;SOL_COMPUTED,NARROW_INT,17.60109974627,78.12661012855,528.2282,-76.2000,WGS84,0.0065,0.0072,0.0164,"0",1.100,0.000,53,52,52,49,00,21,3f,37*0a9702a0
#BESTPOSA,FILE,0,30.0,FINESTEERING,2319,303870.150,02000000,cdba,17139;SOL_COMPUTED,NARROW_INT,17.60109913690,78.12660945603,528.2294,-76.2000,WGS84,0.0065,0.0072,0.0165,"0",1.150,0.000,53,52,52,49,00,21,3f,37*4d4a8bf9
#BESTPOSA,FILE,0,30.0,FINESTEERING,2319,303870.200,02000000,cdba,17139;SOL_COMPUTED,NARROW_INT,17.60109856204,78.12660875126,528.2303,-76.2000,WGS84,0.0066,0.0072,0.0165,"0",1.200,0.000,53,52,52,49,00,21,3f,37*e333d485
#BESTPOSA,FILE,0,30.0,FINESTEERING,2319,303870.250,02000000,cdba,17139;SOL_COMPUTED,NARROW_INT,17.60109798723,78.12660801846,528.2321,-76.2000,WGS84,0.0066,0.0072,0.0165,"0",1.250,0.000,53,52,52,49,00,21,3f,37*fd495a88
#BESTPOSA,FILE,0,30.0,FINESTEERING,2319,303870.300,02000000,cdba,17139;SOL_COMPUTED,NARROW_INT,17.60109742481,78.12660723915,528.2326,-76.2000,WGS84,0.0066,0.0073,0.0166,"0",1.300,0.000,53,52,52,49,00,21,3f,37*f606f4f4
#BESTPOSA,FILE,0,30.0,FINESTEERING,2319,303870.350,02000000,cdba,17139;SOL_COMPUTED,NARROW_INT,17.60109687228,78.12660648147,528.2338,-76.2000,WGS84,0.0061,0.0069,0.0158,"0",0.350,0.000,53,52,52,49,00,21,3f,37*395c5a65
#BESTPOSA,FILE,0,30.0,FINESTEERING,2319,303870.400,02000000,cdba,17139;SOL_COMPUTED,NARROW_INT,17.60109632975,78.12660567372,528.2365,-76.2000,WGS84,0.0061,0.0069,0.0158,"0",0.400,0.000,53,52,52,49,00,21,3f,37*e4cd18cf
#BESTPOSA,FILE,0,30.0,FINESTEERING,2319,303870.450,02000000,cdba,17139;SOL_COMPUTED,NARROW_INT,17.60109577835,78.12660484563,528.2348,-76.2000,WGS84,0.0062,0.0069,0.0159,"0",0.450,0.000,53,52,52,49,00,21,3f,37*b2907608
#BESTPOSA,FILE,0,30.0,FINESTEERING,2319,303870.500,02000000,cdba,17139;SOL_COMPUTED,NARROW_INT,17.60109526266,78.12660398359,528.2354,-76.2000,WGS84,0.0062,0.0069,0.0159,"0",0.500,0.000,52,52,52,49,00,21,3f,37*b3b7e5ab
#BESTPOSA,FILE,0,30.0,FINESTEERING,2319,303870.550,02000000,cdba,17139;SOL_COMPUTED,NARROW_INT,17.60109474722,78.12660310169,528.2368,-76.2000,WGS84,0.0062,0.0070,0.0159,"0",0.550,0.000,52,52,52,49,00,21,3f,37*fc523280
#BESTPOSA,FILE,0,30.0,FINESTEERING,2319,303870.600,02000000,cdba,17139;SOL_COMPUTED,NARROW_INT,17.60109424092,78.12660221982,528.2326,-76.2000,WGS84,0.0062,0.0070,0.0160,"0",0.600,0.000,52,52,52,49,00,21,3f,37*372d3148
#BESTPOSA,FILE,0,30.0,FINESTEERING,2319,303870.650,02000000,cdba,17139;SOL_COMPUTED,NARROW_INT,17.60109375113,78.12660129367,528.2329,-76.2000,WGS84,0.0063,0.0070,0.0160,"0",0.650,0.000,52,52,52,49,00,21,3f,37*353428a5
#BESTPOSA,FILE,0,30.0,FINESTEERING,2319,303870.700,02000000,cdba,17139;SOL_COMPUTED,NARROW_INT,17.60109329274,78.12660031960,528.2344,-76.2000,WGS84,0.0063,0.0070,0.0161,"0",0.700,0.000,52,52,52,49,00,21,3f,37*9a66bb94
#BESTPOSA,FILE,0,30.0,FINESTEERING,2319,303870.750,02000000,cdba,17139;SOL_COMPUTED,NARROW_INT,17.60109285373,78.12659933191,528.2351,-76.2000,WGS84,0.0063,0.0070,0.0161,"0",0.750,0.000,52,52,52,49,00,21,3f,37*c27eb9a9
#BESTPOSA,FILE,0,30.0,FINESTEERING,2319,303870.800,02000000,cdba,17139;SOL_COMPUTED,NARROW_INT,17.60109244116,78.12659831413,528.2354,-76.2000,WGS84,0.0063,0.0070,0.0161,"0",0.800,0.000,52,52,52,49,00,21,3f,37*7732fb4e
#BESTPOSA,FILE,0,30.0,FINESTEERING,2319,303870.850,02000000,cdba,17139;SOL_COMPUTED,NARROW_INT,17.60109203451,78.12659728852,528.2386,-76.2000,WGS84,0.0063,0.0071,0.0162,"0",0.850,0.000,52,52,52,49,00,21,3f,37*f5bfcf9e
#BESTPOSA,FILE,0,30.0,FINESTEERING,2319,303870.900,02000000,cdba,17139;SOL_COMPUTED,NARROW_INT,17.60109165916,78.12659623703,528.2396,-76.2000,WGS84,0.0064,0.0071,0.0162,"0",0.900,0.000,52,52,52,49,00,21,3f,37*9d0e4055
#BESTPOSA,FILE,0,30.0,FINESTEERING,2319,303870.950,02000000,cdba,17139;SOL_COMPUTED,NARROW_INT,17.60109130767,78.12659515400,528.2381,-76.2000,WGS84,0.0064,0.0071,0.0162,"0",0.950,0.000,52,52,52,49,00,21,3f,37*8cbf4f05
#BESTPOSA,FILE,0,30.0,FINESTEERING,2319,303871.000,02000000,cdba,17139;SOL_COMPUTED,NARROW_INT,17.60109099004,78.12659406538,528.2359,-76.2000,WGS84,0.0064,0.0071,0.0163,"0",1.000,0.000,52,52,52,49,00,21,3f,37*ee86bf5d
#BESTPOSA,FILE,0,30.0,FINESTEERING,2319,303871.050,02000000,cdba,17139;SOL_COMPUTED,NARROW_INT,17.60109070072,78.12659293402,528.2349,-76.2000,WGS84,0.0065,0.0072,0.0165,"0",1.050,0.000,52,52,52,49,00,21,3f,37*cdf16823
#BESTPOSA,FILE,0,26.0,FINESTEERING,2319,303871.100,02000000,cdba,17139;SOL_COMPUTED,NARROW_INT,17.60109042059,78.12659180855,528.2348,-76.2000,WGS84,0.0065,0.0072,0.0165,"0",1.100,0.000,52,52,52,49,00,21,3f,37*9b1dfaf4
#BESTPOSA,FILE,0,26.0,FINESTEERING,2319,303871.150,02000000,cdba,17139;SOL_COMPUTED,NARROW_INT,17.60109015905,78.12659065320,528.2337,-76.2000,WGS84,0.0066,0.0072,0.0165,"0",1.150,0.000,52,52,52,49,00,21,3f,37*43998439
#BESTPOSA,FILE,0,26.0,FINESTEERING,2319,303871.200,02000000,cdba,17139;SOL_COMPUTED,NARROW_INT,17.60108992039,78.12658949382,528.2324,-76.2000,WGS84,0.0066,0.0073,0.0166,"0",1.200,0.000,52,52,52,49,00,21,3f,37*f64eba4d
#BESTPOSA,FILE,0,26.0,FINESTEERING,2319,303871.250,02000000,cdba,17139;SOL_COMPUTED,NARROW_INT,17.60108971692,78.12658829931,528.2331,-76.2000,WGS84,0.0066,0.0073,0.0166,"0",1.250,0.000,52,52,52,49,00,21,3f,37*32889284
#BESTPOSA,FILE,0,26.0,FINESTEERING,2319,303871.300,02000000,cdba,17139;SOL_COMPUTED,NARROW_INT,17.60108958168,78.12658706338,528.2406,-76.2000,WGS84,0.0061,0.0069,0.0160,"0",0.300,0.000,52,52,52,49,00,21,3f,37*445be6ac
#BESTPOSA,FILE,0,26.0,FINESTEERING,2319,303871.350,02000000,cdba,17139;SOL_COMPUTED,NARROW_INT,17.60108941335,78.12658582656,528.2431,-76.2000,WGS84,0.0062,0.0069,0.0160,"0",0.350,0.000,52,52,52,49,00,21,3f,37*c1eefaaf
#BESTPOSA,FILE,0,26.0,FINESTEERING,2319,303871.400,02000000,cdba,17139;SOL_COMPUTED,NARROW_INT,17.60108927165,78.12658457814,528.2421,-76.2000,WGS84,0.0062,0.0069,0.0161,"0",0.400,0.000,52,52,52,49,00,21,3f,37*64d11362
#BESTPOSA,FILE,0,26.0,FINESTEERING,2319,303871.450,02000000,cdba,17139;SOL_COMPUTED,NARROW_INT,17.60108916730,78.12658331190,528.2410,-76.2000,WGS84,0.0062,0.0069,0.0161,"0",0.450,0.000,52,52,52,49,00,21,3f,37*8ca06452
#BESTPOSA,FILE,0,26.0,FINESTEERING,2319,303871.500,02000000,cdba,17139;SOL_COMPUTED,NARROW_INT,17.60108908768,78.12658202342,528.2436,-76.2000,WGS84,0.0062,0.0070,0.0161,"0",0.500,0.000,52,52,52,49,00,21,3f,37*20cb3569
#BESTPOSA,FILE,0,26.0,FINESTEERING,2319,303871.550,02000000,cdba,17139;SOL_COMPUTED,NARROW_INT,17.60108900432,78.12658071882,528.2423,-76.2000,WGS84,0.0062,0.0070,0.0162,"0",0.550,0.000,52,52,52,49,00,21,3f,37*3aebcfdb
#BESTPOSA,FILE,0,26.0,FINESTEERING,2319,303871.600,02000000,cdba,17139;SOL_COMPUTED,NARROW_INT,17.60108895575,78.12657939573,528.2421,-76.2000,WGS84,0.0063,0.0070,0.0162,"0",0.600,0.000,52,52,52,49,00,21,3f,37*674c9087
#BESTPOSA,FILE,0,26.0,FINESTEERING,2319,303871.650,02000000,cdba,17139;SOL_COMPUTED,NARROW_INT,17.60108892631,78.12657806620,528.2406,-76.2000,WGS84,0.0063,0.0070,0.0163,"0",0.650,0.000,52,52,52,49,00,21,3f,37*22b9bf60
#BESTPOSA,FILE,0,26.0,FINESTEERING,2319,303871.700,02000000,cdba,17139;SOL_COMPUTED,NARROW_INT,17.60108890424,78.12657671819,528.2422,-76.2000,WGS84,0.0063,0.0070,0.0163,"0",0.700,0.000,52,52,52,49,00,21,3f,37*f8e732d3
#BESTPOSA,FILE,0,26.0,FINESTEERING,2319,303871.750,02000000,cdba,17139;SOL_COMPUTED,NARROW_INT,17.60108892829,78.12657535665,528.2435,-76.2000,WGS84,0.0063,0.0070,0.0163,"0",0.750,0.000,52,52,52,49,00,21,3f,37*06754430
#BESTPOSA,FILE,0,26.0,FINESTEERING,2319,303871.800,02000000,cdba,17139;SOL_COMPUTED,NARROW_INT,17.60108896657,78.12657396648,528.2418,-76.2000,WGS84,0.0063,0.0071,0.0164,"0",0.800,0.000,52,52,52,49,00,21,3f,37*04a4d9aa
#BESTPOSA,FILE,0,26.0,FINESTEERING,2319,303871.850,02000000,cdba,17139;SOL_COMPUTED,NARROW_INT,17.60108900991,78.12657256446,528.2434,-76.2000,WGS84,0.0064,0.0071,0.0164,"0",0.850,0.000,52,52,52,49,00,21,3f,37*e0a54f78
#BESTPOSA,FILE,0,26.0,FINESTEERING,2319,303871.900,02000000,cdba,17139;SOL_COMPUTED,NARROW_INT,17.60108905626,78.12657114922,528.2431,-76.2000,WGS84,0.0064,0.0071,0.0164,"0",0.900,0.000,52,52,52,49,00,21,3f,37*58e7b4fa
#BESTPOSA,FILE,0,26.0,FINESTEERING,2319,303871.950,02000000,cdba,17139;SOL_COMPUTED,NARROW_INT,17.60108911685,78.12656971641,528.2404,-76.2000,WGS84,0.0064,0.0071,0.0165,"0",0.950,0.000,52,52,52,49,00,21,3f,37*5b027680
#BESTPOSA,FILE,0,26.0,FINESTEERING,2319,303872.000,02000000,cdba,17139;SOL_COMPUTED,NARROW_INT,17.60108919535,78.12656828157,528.2372,-76.2000,WGS84,0.0064,0.0071,0.0165,"0",1.000,0.000,52,52,52,49,00,21,3f,37*96e0f273
#BESTPOSA,FILE,0,26.0,FINESTEERING,2319,303872.050,02000000,cdba,17139;SOL_COMPUTED,NARROW_INT,17.60108924742,78.12656682023,528.2386,-76.2000,WGS84,0.0065,0.0072,0.0167,"0",1.050,0.000,52,52,52,49,00,21,3f,37*098a0066
#BESTPOSA,FILE,0,26.0,FINESTEERING,2319,303872.100,02000000,cdba,17139;SOL_COMPUTED,NARROW_INT,17.60108933607,78.12656535935,528.2382,-76.2000,WGS84,0.0065,0.0072,0.0167,"0",1.100,0.000,52,52,52,49,00,21,3f,37*07cf23e7
#BESTPOSA,FILE,0,29.5,FINESTEERING,2319,303872.150,02000000,cdba,17139;SOL_COMPUTED,NARROW_INT,17.60108943643,78.12656389068,528.2376,-76.2000,WGS84,0.0066,0.0072,0.0168,"0",1.150,0.000,52,52,52,49,00,21,3f,37*d3c0775c
#BESTPOSA,FILE,0,29.5,FINESTEERING,2319,303872.200,02000000,cdba,17139;SOL_COMPUTED,NARROW_INT,17.60108957645,78.12656239238,528.2400,-76.2000,WGS84,0.0066,0.0073,0.0168,"0",1.200,0.000,52,52,52,49,00,21,3f,37*2249706f
#BESTPOSA,FILE,0,29.5,FINESTEERING,2319,303872.250,02000000,cdba,17139;SOL_COMPUTED,NARROW_INT,17.60108971226,78.12656089083,528.2381,-76.2000,WGS84,0.0066,0.0073,0.0168,"0",1.250,0.000,52,52,52,49,00,21,3f,37*e40d3b6e
#BESTPOSA,FILE,0,29.5,FINESTEERING,2319,303872.300,02000000,cdba,17139;SOL_COMPUTED,NARROW_INT,17.60108984632,78.12655937708,528.2373,-76.2000,WGS84,0.0066,0.0073,0.0169,"0",1.300,0.000,52,52,52,49,00,21,3f,37*26b4eeec
#BESTPOSA,FILE,0,29.5,FINESTEERING,2319,303872.350,02000000,cdba,17139;SOL_COMPUTED,NARROW_INT,17.60108994695,78.12655782565,528.2345,-76.2000,WGS84,0.0062,0.0069,0.0161,"0",0.350,0.000,52,52,52,49,00,21,3f,37*2ff15411
#BESTPOSA,FILE,0,29.5,FINESTEERING,2319,303872.400,02000000,cdba,17139;SOL_COMPUTED,NARROW_INT,17.60109008998,78.12655627239,528.2344,-76.2000,WGS84,0.0062,0.0069,0.0161,"0",0.400,0.000,52,52,52,49,00,21,3f,37*0209afa1
#BESTPOSA,FILE,0,29.5,FINESTEERING,2319,303872.450,02000000,cdba,17139;SOL_COMPUTED,NARROW_INT,17.60109021293,78.12655471669,528.2350,-76.2000,WGS84,0.0062,0.0069,0.0161,"0",0.450,0.000,52,52,52,49,00,21,3f,37*c7f15d90
#BESTPOSA,FILE,0,29.5,FINESTEERING,2319,303872.500,02000000,cdba,17139;SOL_COMPUTED,NARROW_INT,17.60109035516,78.12655315368,528.2353,-76.2000,WGS84,0.0062,0.0069,0.0162,"0",0.500,0.000,52,52,52,49,00,21,3f,37*1ad0c2a2
#BESTPOSA,FILE,0,29.5,FINESTEERING,2319,303872.550,02000000,cdba,17139;SOL_COMPUTED,NARROW_INT,17.60109049571,78.12655155782,528.2345,-76.2000,WGS84,0.0062,0.0070,0.0162,"0",0.550,0.000,52,52,52,49,00,21,3f,37*491499dd
#BESTPOSA,FILE,0,29.5,FINESTEERING,2319,303872.600,02000000,cdba,17139;SOL_COMPUTED,NARROW_INT,17.60109062692,78.12654995575,528.2343,-76.2000,WGS84,0.0063,0.0070,0.0163,"0",0.600,0.000,52,52,52,49,00,21,3f,37*4ac27cec
#BESTPOSA,FILE,0,29.5,FINESTEERING,2319,303872.650,02000000,cdba,17139;SOL_COMPUTED,NARROW_INT,17.60109074656,78.12654835509,528.2328,-76.2000,WGS84,0.0063,0.0070,0.0163,"0",0.650,0.000,52,52,52,49,00,21,3f,37*3039ffa1
#BESTPOSA,FILE,0,29.5,FINESTEERING,2319,303872.700,02000000,cdba,17139;SOL_COMPUTED,NARROW_INT,17.60109084216,78.12654673617,528.2316,-76.2000,WGS84,0.0063,0.0070,0.0163,"0",0.700,0.000,52,52,52,49,00,21,3f,37*5b0f87fa
#BESTPOSA,FILE,0,29.5,FINESTEERING,2319,303872.750,02000000,cdba,17139;SOL_COMPUTED,NARROW_INT,17.60109093780,78.12654509238,528.2303,-76.2000,WGS84,0.0063,0.0070,0.0164,"0",0.750,0.000,52,52,52,49,00,21,3f,37*d71cf449
#BESTPOSA,FILE,0,29.5,FINESTEERING,2319,303872.800,02000000,cdba,17139;SOL_COMPUTED,NARROW_INT,17.60109102911,78.12654343562,528.2277,-76.2000,WGS84,0.0063,0.0070,0.0164,"0",0.800,0.000,52,52,52,49,00,21,3f,37*1d2d3c39
#BESTPOSA,FILE,0,29.5,FINESTEERING,2319,303872.850,02000000,cdba,17139;SOL_COMPUTED,NARROW_INT,17.60109110470,78.12654178345,528.2255,-76.2000,WGS84,0.0064,0.0070,0.0164,"0",0.850,0.000,52,52,52,49,00,21,3f,37*27bd6a8d
#BESTPOSA,FILE,0,29.5,FINESTEERING,2319,303872.900,02000000,cdba,17139;SOL_COMPUTED,NARROW_INT,17.60109118191,78.12654010920,528.2245,-76.2000,WGS84,0.0064,0.0071,0.0164,"0",0.900,0.000,52,52,52,49,00,21,3f,37*4c5c123f
#BESTPOSA,FILE,0,29.5,FINESTEERING,2319,303872.950,02000000,cdba,17139;SOL_COMPUTED,NARROW_INT,17.60109127152,78.12653842997,528.2225,-76.2000,WGS84,0.0064,0.0071,0.0165,"0",0.950,0.000,52,52,52,49,00,21,3f,37*5d6b374f
#BESTPOSA,FILE,0,29.5,FINESTEERING,2319,303873.000,02000000,cdba,17139;SOL_COMPUTED,NARROW_INT,17.60109136264,78.12653672054,528.2202,-76.2000,WGS84,0.0064,0.0071,0.0165,"0",1.000,0.000,52,52,52,49,00,21,3f,37*56f312fc
#BESTPOSA,FILE,0,29.5,FINESTEERING,2319,303873.050,02000000,cdba,17139;SOL_COMPUTED,NARROW_INT,17.60109143354,78.12653500182,528.2225,-76.2000,WGS84,0.0065,0.0072,0.0167,"0",1.050,0.000,52,52,52,49,00,21,3f,37*8c479573
#BESTPOSA,FILE,0,29.0,FINESTEERING,2319,303873.100,02000000,cdba,17139;SOL_COMPUTED,NARROW_INT,17.60109149885,78.12653326359,528.2214,-76.2000,WGS84,0.0065,0.0072,0.0167,"0",1.100,0.000,52,52,52,49,00,21,3f,37*5d46a282
#BESTPOSA,FILE,0,29.0,FINESTEERING,2319,303873.150,02000000,cdba,17139;SOL_COMPUTED,NARROW_INT,17.60109155779,78.12653150314,528.2203,-76.2000,WGS84,0.0066,0.0072,0.0168,"0",1.150,0.000,52,52,52,49,00,21,3f,37*a29932b7
#BESTPOSA,FILE,0,29.0,FINESTEERING,2319,303873.200,02000000,cdba,17139;SOL_COMPUTED,NARROW_INT,17.60109161686,78.12652974207,528.2170,-76.2000,WGS84,0.0066,0.0072,0.0168,"0",1.200,0.000,52,52,52,49,00,21,3f,37*495d99b9
#BESTPOSA,FILE,0,29.0,FINESTEERING,2319,303873.250,02000000,cdba,17139;SOL_COMPUTED,NARROW_INT,17.60109166086,78.12652798710,528.2164,-76.2000,WGS84,0.0066,0.0072,0.0168,"0",1.250,0.000,52,52,52,49,00,21,3f,37*05b8010b
#BESTPOSA,FILE,0,29.0,FINESTEERING,2319,303873.300,02000000,cdba,17139;SOL_COMPUTED,NARROW_INT,17.60109168753,78.12652621432,528.2144,-76.2000,WGS84,0.0066,0.0073,0.0169,"0",1.300,0.000,52,52,52,49,00,21,3f,37*d2d05987
#BESTPOSA,FILE,0,29.0,FINESTEERING,2319,303873.350,02000000,cdba,17139;SOL_COMPUTED,NARROW_INT,17.60109170719,78.12652441181,528.2151,-76.2000,WGS84,0.0062,0.0069,0.0160,"0",0.350,0.000,52,52,52,49,00,21,3f,37*2e187967
#BESTPOSA,FILE,0,29.0,FINESTEERING,2319,303873.400,02000000,cdba,17139;SOL_COMPUTED,NARROW_INT,17.60109170026,78.12652259906,528.2107,-76.2000,WGS84,0.0062,0.0069,0.0161,"0",0.400,0.000,52,52,52,49,00,21,3f,37*e3b6cdd4
#BESTPOSA,FILE,0,29.0,FINESTEERING,2319,303873.450,02000000,cdba,17139;SOL_COMPUTED,NARROW_INT,17.60109166284,78.12652078901,528.2113,-76.2000,WGS84,0.0062,0.0069,0.0161,"0",0.450,0.000,52,52,52,49,00,21,3f,37*13799277
#BESTPOSA,FILE,0,29.0,FINESTEERING,2319,303873.500,02000000,cdba,17139;SOL_COMPUTED,NARROW_INT,17.60109160891,78.12651898083,528.2118,-76.2000,WGS84,0.0062,0.0069,0.0162,"0",0.500,0.000,52,52,52,49,00,21,3f,37*063140ba
#BESTPOSA,FILE,0,29.0,FINESTEERING,2319,303873.550,02000000,cdba,17139;SOL_COMPUTED,NARROW_INT,17.60109154141,78.12651715601,528.2101,-76.2000,WGS84,0.0062,0.0069,0.0162,"0",0.550,0.000,52,52,52,49,00,21,3f,37*c1cabec2
