#BESTVELA,FILE,0,32.0,FINESTEERING,2319,307271.300,02000800,10a2,17139;SOL_COMPUTED,NARROW_INT,0.025,4.300,4.3896,295.132716,0.1013,0*17d76b64
#BESTVELA,FILE,0,32.0,FINESTEERING,2319,307271.350,02000800,10a2,17139;SOL_COMPUTED,NARROW_INT,0.025,4.350,4.4075,295.355631,0.0033,0*ea42fda0
#BESTVELA,FILE,0,32.0,FINESTEERING,2319,307271.450,02000800,10a2,17139;SOL_COMPUTED,NARROW_INT,0.025,4.450,4.4946,295.838605,0.0216,0*d2335310
#BESTVELA,FILE,0,32.0,FINESTEERING,2319,307271.550,02000800,10a2,17139;SOL_COMPUTED,NARROW_INT,0.025,4.550,4.5461,295.843919,0.0537,0*1b2a6b1c
#BESTVELA,FILE,0,32.0,FINESTEERING,2319,307271.650,02000800,10a2,17139;SOL_COMPUTED,NARROW_INT,0.025,4.650,4.6032,295.647451,0.0351,0*fd3ef5d6
#BESTVELA,FILE,0,32.0,FINESTEERING,2319,307271.700,02000800,10a2,17139;SOL_COMPUTED,NARROW_INT,0.025,4.700,4.6576,295.842231,0.0700,0*ab3a1538
#BESTVELA,FILE,0,32.0,FINESTEERING,2319,307271.850,02000800,10a2,17139;SOL_COMPUTED,NARROW_INT,0.025,4.850,4.7342,295.314482,-0.0050,0*a575b446
#BESTVELA,FILE,0,32.0,FINESTEERING,2319,307271.950,02000800,10a2,17139;SOL_COMPUTED,NARROW_INT,0.025,4.950,4.7794,295.770897,0.0339,0*0a2e196c
#BESTVELA,FILE,0,32.0,FINESTEERING,2319,307272.050,02000800,10a2,17139;SOL_COMPUTED,NARROW_INT,0.025,5.050,4.8581,295.332362,0.0689,0*ef387a53
#BESTVELA,FILE,0,30.5,FINESTEERING,2319,307272.150,02000800,10a2,17139;SOL_COMPUTED,NARROW_INT,0.025,5.150,4.8952,295.824842,0.0711,0*c0f2ffc7
#BESTVELA,FILE,0,30.5,FINESTEERING,2319,307272.200,02000800,10a2,17139;SOL_COMPUTED,NARROW_INT,0.025,5.200,4.8765,296.063347,0.0750,0*bd2a097e
#BESTVELA,FILE,0,30.5,FINESTEERING,2319,307272.300,02000800,10a2,17139;SOL_COMPUTED,NARROW_INT,0.025,5.300,4.9678,295.882036,0.0174,0*a7689fc0
#BESTVELA,FILE,0,30.5,FINESTEERING,2319,307272.400,02000800,10a2,17139;SOL_COMPUTED,NARROW_INT,0.025,5.400,5.0048,295.468412,0.0333,0*177eef6c
#BESTVELA,FILE,0,30.5,FINESTEERING,2319,307272.500,02000800,10a2,17139;SOL_COMPUTED,NARROW_INT,0.025,5.500,5.0370,295.230320,0.0567,0*7187380a
#BESTVELA,FILE,0,30.5,FINESTEERING,2319,307272.600,02000800,10a2,17139;SOL_COMPUTED,NARROW_INT,0.025,5.600,5.1178,294.984908,0.0470,0*ff068797
#BESTVELA,FILE,0,30.5,FINESTEERING,2319,307272.700,02000800,10a2,17139;SOL_COMPUTED,NARROW_INT,0.025,5.700,5.1314,295.018855,0.0301,0*05bfadc5
#BESTVELA,FILE,0,30.5,FINESTEERING,2319,307272.800,02000800,10a2,17139;SOL_COMPUTED,NARROW_INT,0.025,5.800,5.1919,295.450046,0.0670,0*01efe7f4
#BESTVELA,FILE,0,30.5,FINESTEERING,2319,307272.900,02000800,10a2,17139;SOL_COMPUTED,NARROW_INT,0.025,5.900,5.2438,295.511305,0.1003,0*5f05ea23
#BESTVELA,FILE,0,30.5,FINESTEERING,2319,307273.000,02000800,10a2,17139;SOL_COMPUTED,NARROW_INT,0.025,6.000,5.2181,295.099046,0.1190,0*c445181d
#BESTVELA,FILE,0,30.5,FINESTEERING,2319,307273.100,02000800,10a2,17139;SOL_COMPUTED,NARROW_INT,0.025,6.100,5.1946,294.857770,0.0315,0*bc881f78
#BESTVELA,FILE,0,30.5,FINESTEERING,2319,307273.200,02000800,10a2,17139;SOL_COMPUTED,NARROW_INT,0.025,6.200,5.1443,295.030046,0.0113,0*c9867fea
#BESTVELA,FILE,0,30.5,FINESTEERING,2319,307273.300,02000800,10a2,17139;SOL_COMPUTED,NARROW_INT,0.025,6.300,5.0845,295.104061,0.0477,0*4dbe62b1
#BESTVELA,FILE,0,30.5,FINESTEERING,2319,307273.400,02000800,10a2,17139;SOL_COMPUTED,NARROW_INT,0.025,6.400,5.0611,295.287365,0.0797,0*7995fdd2
#BESTVELA,FILE,0,30.5,FINESTEERING,2319,307273.500,02000800,10a2,17139;SOL_COMPUTED,NARROW_INT,0.025,6.500,5.0178,295.219053,0.0378,0*c8f0c5fe
#BESTVELA,FILE,0,30.5,FINESTEERING,2319,307273.550,02000800,10a2,17139;SOL_COMPUTED,NARROW_INT,0.025,6.550,5.0115,295.033876,0.0946,0*9a5a8979
#BESTVELA,FILE,0,30.5,FINESTEERING,2319,307273.700,02000800,10a2,17139;SOL_COMPUTED,NARROW_INT,0.025,6.700,4.9853,294.907734,0.0752,0*133f26c1
#BESTVELA,FILE,0,30.5,FINESTEERING,2319,307273.750,02000800,10a2,17139;SOL_COMPUTED,NARROW_INT,0.025,6.750,4.9886,295.455303,0.1537,0*086a5cc8
#BESTVELA,FILE,0,30.5,FINESTEERING,2319,307273.850,02000800,10a2,17139;SOL_COMPUTED,NARROW_INT,0.025,6.850,4.9199,295.021515,-0.0006,0*3db57927
#BESTVELA,FILE,0,30.5,FINESTEERING,2319,307274.000,02000800,10a2,17139;SOL_COMPUTED,NARROW_INT,0.025,7.000,4.8762,295.316113,0.1066,0*90f8f6c1
#BESTVELA,FILE,0,30.5,FINESTEERING,2319,307274.050,02000800,10a2,17139;SOL_COMPUTED,NARROW_INT,0.025,7.050,4.8435,295.351162,0.0851,0*9b6c7de5
#BESTVELA,FILE,0,30.5,FINESTEERING,2319,307274.100,02000800,10a2,17139;SOL_COMPUTED,NARROW_INT,0.025,7.100,4.8197,295.135958,0.0390,0*e05ae854
#BESTVELA,FILE,0,30.5,FINESTEERING,2319,307274.250,02000800,10a2,17139;SOL_COMPUTED,NARROW_INT,0.025,7.250,4.7706,295.073308,0.0484,0*6890ec8a
#BESTVELA,FILE,0,30.5,FINESTEERING,2319,307274.350,02000800,10a2,17139;SOL_COMPUTED,NARROW_INT,0.025,7.350,4.7254,295.259988,0.0610,0*d9a42e1a
#BESTVELA,FILE,0,30.5,FINESTEERING,2319,307274.500,02000800,10a2,17139;SOL_COMPUTED,NARROW_INT,0.025,7.500,4.6874,294.488141,0.0432,0*0677dad5
#BESTVELA,FILE,0,30.5,FINESTEERING,2319,307274.550,02000800,10a2,17139;SOL_COMPUTED,NARROW_INT,0.025,7.550,4.6818,295.204598,0.0629,0*a473a6c2
#BESTVELA,FILE,0,30.5,FINESTEERING,2319,307274.600,02000800,10a2,17139;SOL_COMPUTED,NARROW_INT,0.025,7.600,4.6289,294.738823,-0.0150,0*2aaeab95
#BESTVELA,FILE,0,30.5,FINESTEERING,2319,307274.700,02000800,10a2,17139;SOL_COMPUTED,NARROW_INT,0.025,7.700,4.5815,294.559823,0.0613,0*56efad63
#BESTVELA,FILE,0,30.5,FINESTEERING,2319,307274.750,02000800,10a2,17139;SOL_COMPUTED,NARROW_INT,0.025,7.750,4.5730,295.305164,0.0577,0*83583aa3
#BESTVELA,FILE,0,30.5,FINESTEERING,2319,307274.800,02000800,10a2,17139;SOL_COMPUTED,NARROW_INT,0.025,7.800,4.5779,295.139477,0.0805,0*1e878244
#BESTVELA,FILE,0,30.5,FINESTEERING,2319,307274.850,02000800,10a2,17139;SOL_COMPUTED,NARROW_INT,0.025,7.850,4.5334,294.960466,0.0211,0*6b142b53
#BESTVELA,FILE,0,30.5,FINESTEERING,2319,307274.900,02000800,10a2,17139;SOL_COMPUTED,NARROW_INT,0.025,7.900,4.5090,295.081748,0.0526,0*5c185397
#BESTVELA,FILE,0,30.5,FINESTEERING,2319,307274.950,02000800,10a2,17139;SOL_COMPUTED,NARROW_INT,0.025,7.950,4.5102,295.071809,0.0526,0*e730dcb5
#BESTVELA,FILE,0,30.5,FINESTEERING,2319,307275.000,02000800,10a2,17139;SOL_COMPUTED,NARROW_INT,0.025,8.000,4.4893,294.862575,0.0946,0*64392f61
#BESTVELA,FILE,0,30.5,FINESTEERING,2319,307275.050,02000800,10a2,17139;SOL_COMPUTED,NARROW_INT,0.025,8.050,4.4941,295.041353,0.1046,0*9023726d
#BESTVELA,FILE,0,30.5,FINESTEERING,2319,307275.100,02000800,10a2,17139;SOL_COMPUTED,NARROW_INT,0.025,8.100,4.4599,294.796129,0.0284,0*0c07cee0
#BESTVELA,FILE,0,30.5,FINESTEERING,2319,307275.150,02000800,10a2,17139;SOL_COMPUTED,NARROW_INT,0.025,8.150,4.4562,294.981901,0.0962,0*4ca40245
#BESTVELA,FILE,0,30.5,FINESTEERING,2319,307275.200,02000800,10a2,17139;SOL_COMPUTED,NARROW_INT,0.025,3.200,4.4209,294.782809,0.0603,0*63dacd98
#BESTVELA,FILE,0,30.5,FINESTEERING,2319,307275.250,02000800,10a2,17139;SOL_COMPUTED,NARROW_INT,0.025,3.250,4.4303,295.075526,0.0114,0*272b0292
#BESTVELA,FILE,0,30.5,FINESTEERING,2319,307275.300,02000800,10a2,17139;SOL_COMPUTED,NARROW_INT,0.025,3.300,4.3532,294.574909,0.0104,0*9706c9b6
#BESTVELA,FILE,0,30.5,FINESTEERING,2319,307275.350,02000800,10a2,17139;SOL_COMPUTED,NARROW_INT,0.025,3.350,4.4005,294.948194,0.0601,0*e33b631a
#BESTVELA,FILE,0,30.5,FINESTEERING,2319,307275.400,02000800,10a2,17139;SOL_COMPUTED,NARROW_INT,0.025,3.400,4.3864,295.006086,0.0674,0*3fce07ce
#BESTVELA,FILE,0,30.5,FINESTEERING,2319,307275.450,02000800,10a2,17139;SOL_COMPUTED,NARROW_INT,0.025,3.450,4.3568,294.945837,0.1046,0*48ccefea
#BESTVELA,FILE,0,30.5,FINESTEERING,2319,307275.500,02000000,10a2,17139;SOL_COMPUTED,NARROW_INT,0.025,3.500,4.3580,295.416626,0.0460,0*bd9ca4cb
#BESTVELA,FILE,0,30.5,FINESTEERING,2319,307275.550,02000000,10a2,17139;SOL_COMPUTED,NARROW_INT,0.025,3.550,4.3248,295.213375,0.0961,0*de9e3c55
#BESTVELA,FILE,0,30.5,FINESTEERING,2319,307275.600,02000000,10a2,17139;SOL_COMPUTED,NARROW_INT,0.025,3.600,4.3102,295.155050,0.0729,0*4ba11cb0
#BESTVELA,FILE,0,30.5,FINESTEERING,2319,307275.650,02000000,10a2,17139;SOL_COMPUTED,NARROW_INT,0.025,3.650,4.2757,295.095986,0.1026,0*4a066be4
#BESTVELA,FILE,0,30.5,FINESTEERING,2319,307275.700,02000000,10a2,17139;SOL_COMPUTED,NARROW_INT,0.025,3.700,4.2815,294.374874,0.0228,0*04240e67
#BESTVELA,FILE,0,30.5,FINESTEERING,2319,307275.750,02000000,10a2,17139;SOL_COMPUTED,NARROW_INT,0.025,3.750,4.2701,294.629922,0.0229,0*703cea21
#BESTVELA,FILE,0,30.5,FINESTEERING,2319,307275.800,02000000,10a2,17139;SOL_COMPUTED,NARROW_INT,0.025,3.800,4.2729,295.200278,-0.0076,0*2a1e5941
#BESTVELA,FILE,0,30.5,FINESTEERING,2319,307275.850,02000000,10a2,17139;SOL_COMPUTED,NARROW_INT,0.025,3.850,4.2462,294.902465,0.0426,0*e592ca1f
#BESTVELA,FILE,0,30.5,FINESTEERING,2319,307275.900,02000000,10a2,17139;SOL_COMPUTED,NARROW_INT,0.025,3.900,4.2165,294.750233,0.0360,0*03564e51
#BESTVELA,FILE,0,30.5,FINESTEERING,2319,307275.950,02000000,10a2,17139;SOL_COMPUTED,NARROW_INT,0.025,3.950,4.2117,295.002759,0.0394,0*53a2ee73
#BESTVELA,FILE,0,30.5,FINESTEERING,2319,307276.000,02000000,10a2,17139;SOL_COMPUTED,NARROW_INT,0.025,4.000,4.2119,294.973840,0.0234,0*1520797e
#BESTVELA,FILE,0,30.5,FINESTEERING,2319,307276.050,02000000,10a2,17139;SOL_COMPUTED,NARROW_INT,0.025,4.050,4.2094,295.478060,0.0645,0*25ba1314
#BESTVELA,FILE,0,20.5,FINESTEERING,2319,307276.100,02000000,10a2,17139;SOL_COMPUTED,NARROW_INT,0.025,4.100,4.1906,294.713757,0.0981,0*539bb3e4
#BESTVELA,FILE,0,20.5,FINESTEERING,2319,307276.150,02000000,10a2,17139;SOL_COMPUTED,NARROW_INT,0.025,4.150,4.1711,294.755035,-0.0234,0*c554d25a
#BESTVELA,FILE,0,20.5,FINESTEERING,2319,307276.200,02000000,10a2,17139;SOL_COMPUTED,NARROW_INT,0.025,4.200,4.1786,294.970019,0.0801,0*bd8045b3
#BESTVELA,FILE,0,20.5,FINESTEERING,2319,307276.250,02000000,10a2,17139;SOL_COMPUTED,NARROW_INT,0.025,4.250,4.1736,294.738233,0.0761,0*86c6e01a
#BESTVELA,FILE,0,20.5,FINESTEERING,2319,307276.300,02000000,10a2,17139;SOL_COMPUTED,NARROW_INT,0.025,4.300,4.1497,294.836949,0.0624,0*1afde34e
#BESTVELA,FILE,0,20.5,FINESTEERING,2319,307276.350,02000000,10a2,17139;SOL_COMPUTED,NARROW_INT,0.025,4.350,4.1321,295.214292,0.0510,0*7acc48b9
#BESTVELA,FILE,0,20.5,FINESTEERING,2319,307276.400,02000000,10a2,17139;SOL_COMPUTED,NARROW_INT,0.025,4.400,4.1283,294.072250,0.0240,0*b95de32d
#BESTVELA,FILE,0,20.5,FINESTEERING,2319,307276.450,02000000,10a2,17139;SOL_COMPUTED,NARROW_INT,0.025,4.450,4.1368,294.737611,0.0439,0*78460ddb
#BESTVELA,FILE,0,20.5,FINESTEERING,2319,307276.500,02000000,10a2,17139;SOL_COMPUTED,NARROW_INT,0.025,4.500,4.1204,294.799679,0.0544,0*6a28aa96
#BESTVELA,FILE,0,20.5,FINESTEERING,2319,307276.550,02000000,10a2,17139;SOL_COMPUTED,NARROW_INT,0.025,4.550,4.1217,294.738961,-0.0125,0*7a4ff6a4
#BESTVELA,FILE,0,20.5,FINESTEERING,2319,307276.600,02000000,10a2,17139;SOL_COMPUTED,NARROW_INT,0.025,4.600,4.1562,294.966247,0.0067,0*d044f540
#BESTVELA,FILE,0,20.5,FINESTEERING,2319,307276.650,02000000,10a2,17139;SOL_COMPUTED,NARROW_INT,0.025,4.650,4.1532,294.289052,0.0739,0*fcc1ba88
#BESTVELA,FILE,0,20.5,FINESTEERING,2319,307276.700,02000000,10a2,17139;SOL_COMPUTED,NARROW_INT,0.025,4.700,4.1360,294.632935,0.0141,0*a0b46c7a
#BESTVELA,FILE,0,20.5,FINESTEERING,2319,307276.750,02000000,10a2,17139;SOL_COMPUTED,NARROW_INT,0.025,4.750,4.1708,294.913422,0.0644,0*87628e76
#BESTVELA,FILE,0,20.5,FINESTEERING,2319,307276.800,02000000,10a2,17139;SOL_COMPUTED,NARROW_INT,0.025,4.800,4.1640,296.078203,0.0913,0*d1873c1b
#BESTVELA,FILE,0,20.5,FINESTEERING,2319,307276.850,02000000,10a2,17139;SOL_COMPUTED,NARROW_INT,0.025,4.850,4.1191,296.359617,0.0136,0*a19591ae
#BESTVELA,FILE,0,20.5,FINESTEERING,2319,307276.900,02000000,10a2,17139;SOL_COMPUTED,NARROW_INT,0.025,4.900,4.1819,296.405144,0.0014,0*eed8c02f
#BESTVELA,FILE,0,20.5,FINESTEERING,2319,307276.950,02000000,10a2,17139;SOL_COMPUTED,NARROW_INT,0.025,4.950,4.1356,296.510674,0.0280,0*4dbf015f
#BESTVELA,FILE,0,20.5,FINESTEERING,2319,307277.000,02000000,10a2,17139;SOL_COMPUTED,NARROW_INT,0.025,5.000,4.1903,297.033208,-0.0123,0*58c5b3c8
#BESTVELA,FILE,0,20.5,FINESTEERING,2319,307277.050,02000000,10a2,17139;SOL_COMPUTED,NARROW_INT,0.025,5.050,4.1712,297.704996,0.0103,0*e3524a6f
#BESTVELA,FILE,0,20.5,FINESTEERING,2319,307277.100,02000000,10a2,17139;SOL_COMPUTED,NARROW_INT,0.025,5.100,4.1932,297.344651,0.0530,0*7bbb3d61
#BESTVELA,FILE,0,23.5,FINESTEERING,2319,307277.150,02000000,10a2,17139;SOL_COMPUTED,NARROW_INT,0.025,5.150,4.1894,296.879027,0.0379,0*f3c5ab04
#BESTVELA,FILE,0,23.5,FINESTEERING,2319,307277.200,02000000,10a2,17139;SOL_COMPUTED,NARROW_INT,0.025,5.200,4.2029,297.121596,-0.0097,0*7250fb2e
#BESTVELA,FILE,0,23.5,FINESTEERING,2319,307277.250,02000000,10a2,17139;SOL_COMPUTED,NARROW_INT,0.025,2.250,4.2278,297.451220,0.0238,0*f6cda08d
#BESTVELA,FILE,0,23.5,FINESTEERING,2319,307277.300,02000000,10a2,17139;SOL_COMPUTED,NARROW_INT,0.025,2.300,4.2258,297.293408,0.0361,0*a61ce353
#BESTVELA,FILE,0,23.5,FINESTEERING,2319,307277.350,02000000,10a2,17139;SOL_COMPUTED,NARROW_INT,0.025,2.350,4.2382,297.435901,0.0278,0*a7e34bf6
#BESTVELA,FILE,0,23.5,FINESTEERING,2319,307277.400,02000000,10a2,17139;SOL_COMPUTED,NARROW_INT,0.025,2.400,4.2527,297.734088,0.0410,0*3496c6d3
#BESTVELA,FILE,0,23.5,FINESTEERING,2319,307277.450,02000000,10a2,17139;SOL_COMPUTED,NARROW_INT,0.025,0.450,4.2671,297.817709,-0.0130,0*2ccaf52f
#BESTVELA,FILE,0,23.5,FINESTEERING,2319,307277.500,02000000,10a2,17139;SOL_COMPUTED,NARROW_INT,0.025,0.500,4.3029,298.154737,0.0320,0*79dfd25d
#BESTVELA,FILE,0,23.5,FINESTEERING,2319,307277.550,02000000,10a2,17139;SOL_COMPUTED,NARROW_INT,0.025,0.550,4.3342,298.551791,0.0700,0*15a3bffd
#BESTVELA,FILE,0,23.5,FINESTEERING,2319,307277.600,02000000,10a2,17139;SOL_COMPUTED,NARROW_INT,0.025,0.600,4.3141,298.324868,0.0186,0*abd0a2c1
#BESTVELA,FILE,0,23.5,FINESTEERING,2319,307277.650,02000000,10a2,17139;SOL_COMPUTED,NARROW_INT,0.025,0.650,4.3751,298.368032,-0.0191,0*5e349162
#BESTVELA,FILE,0,23.5,FINESTEERING,2319,307277.700,02000000,10a2,17139;SOL_COMPUTED,NARROW_INT,0.025,0.700,4.3766,298.489723,0.0046,0*e4787af2
#BESTVELA,FILE,0,23.5,FINESTEERING,2319,307277.750,02000000,10a2,17139;SOL_COMPUTED,NARROW_INT,0.025,0.750,4.4220,298.775439,0.0993,0*70ec07be
#BESTVELA,FILE,0,23.5,FINESTEERING,2319,307277.800,02000000,10a2,17139;SOL_COMPUTED,NARROW_INT,0.025,0.800,4.4281,298.707479,-0.0274,0*368d746f
#BESTVELA,FILE,0,23.5,FINESTEERING,2319,307277.850,02000000,10a2,17139;SOL_COMPUTED,NARROW_INT,0.025,0.850,4.4582,298.650090,0.0285,0*16581d37
#BESTVELA,FILE,0,23.5,FINESTEERING,2319,307277.900,02000000,10a2,17139;SOL_COMPUTED,NARROW_INT,0.025,0.900,4.5025,298.409026,-0.0051,0*a71aae36
#BESTVELA,FILE,0,23.5,FINESTEERING,2319,307277.950,02000000,10a2,17139;SOL_COMPUTED,NARROW_INT,0.025,0.950,4.5100,298.561643,0.0028,0*0ec3ca08
#BESTVELA,FILE,0,23.5,FINESTEERING,2319,307278.000,02000000,10a2,17139;SOL_COMPUTED,NARROW_INT,0.025,1.000,4.5438,298.957735,0.0459,0*19804614
#BESTVELA,FILE,0,23.5,FINESTEERING,2319,307278.050,02000000,10a2,17139;SOL_COMPUTED,NARROW_INT,0.025,1.050,4.5856,299.177256,-0.0045,0*f98e0fdd
#BESTVELA,FILE,0,23.5,FINESTEERING,2319,307278.100,02000000,10a2,17139;SOL_COMPUTED,NARROW_INT,0.025,1.100,4.6294,299.646530,0.0929,0*567a3797
#BESTVELA,FILE,0,27.0,FINESTEERING,2319,307278.150,02000000,10a2,17139;SOL_COMPUTED,NARROW_INT,0.025,1.150,4.6334,299.576731,0.0116,0*d93c0a1d
#BESTVELA,FILE,0,27.0,FINESTEERING,2319,307278.200,02000000,10a2,17139;SOL_COMPUTED,NARROW_INT,0.025,1.200,4.6928,299.430101,0.0314,0*3afa5c89
#BESTVELA,FILE,0,27.0,FINESTEERING,2319,307278.250,02000000,10a2,17139;SOL_COMPUTED,NARROW_INT,0.025,1.250,4.7182,299.083441,0.0138,0*758bdc2e
#BESTVELA,FILE,0,27.0,FINESTEERING,2319,307278.300,02000000,10a2,17139;SOL_COMPUTED,NARROW_INT,0.025,1.300,4.7613,299.408396,0.0647,0*a22f995f
#BESTVELA,FILE,0,27.0,FINESTEERING,2319,307278.350,02000000,10a2,17139;SOL_COMPUTED,NARROW_INT,0.025,1.350,4.7970,299.366506,0.0477,0*a90fa033
#BESTVELA,FILE,0,27.0,FINESTEERING,2319,307278.400,02000000,10a2,17139;SOL_COMPUTED,NARROW_INT,0.025,0.400,4.8304,299.513398,-0.0139,0*a4ea5c6b
#BESTVELA,FILE,0,27.0,FINESTEERING,2319,307278.450,02000000,10a2,17139;SOL_COMPUTED,NARROW_INT,0.025,0.450,4.8717,299.458494,0.0083,0*d818e394
#BESTVELA,FILE,0,27.0,FINESTEERING,2319,307278.500,02000000,10a2,17139;SOL_COMPUTED,NARROW_INT,0.025,0.500,4.9337,299.843148,0.0700,0*c3e04dbc
#BESTVELA,FILE,0,27.0,FINESTEERING,2319,307278.550,02000000,10a2,17139;SOL_COMPUTED,NARROW_INT,0.025,0.550,4.9343,299.529547,0.0911,0*6fffee6a
#BESTVELA,FILE,0,27.0,FINESTEERING,2319,307278.600,02000000,10a2,17139;SOL_COMPUTED,NARROW_INT,0.025,0.600,4.9706,299.620164,-0.0522,0*c61c5958
#BESTVELA,FILE,0,27.0,FINESTEERING,2319,307278.650,02000000,10a2,17139;SOL_COMPUTED,NARROW_INT,0.025,0.650,5.0284,299.004791,0.0181,0*0ebc00c3
#BESTVELA,FILE,0,27.0,FINESTEERING,2319,307278.700,02000000,10a2,17139;SOL_COMPUTED,NARROW_INT,0.025,0.700,5.0703,298.976684,0.0298,0*4a8692b8
#BESTVELA,FILE,0,27.0,FINESTEERING,2319,307278.750,02000000,10a2,17139;SOL_COMPUTED,NARROW_INT,0.025,0.750,5.1032,299.094596,0.0340,0*23b815a0
#BESTVELA,FILE,0,27.0,FINESTEERING,2319,307278.800,02000000,10a2,17139;SOL_COMPUTED,NARROW_INT,0.025,0.800,5.1242,299.114618,0.0335,0*880f7388
#BESTVELA,FILE,0,27.0,FINESTEERING,2319,307278.850,02000000,10a2,17139;SOL_COMPUTED,NARROW_INT,0.025,0.850,5.1451,298.688674,0.0254,0*db1746d5
#BESTVELA,FILE,0,27.0,FINESTEERING,2319,307278.900,02000000,10a2,17139;SOL_COMPUTED,NARROW_INT,0.025,0.900,5.1421,298.852617,-0.0130,0*f8e317d9
#BESTVELA,FILE,0,27.0,FINESTEERING,2319,307278.950,02000000,10a2,17139;SOL_COMPUTED,NARROW_INT,0.025,0.950,5.2169,298.581489,0.0615,0*c58d0b36
#BESTVELA,FILE,0,27.0,FINESTEERING,2319,307279.000,02000000,10a2,17139;SOL_COMPUTED,NARROW_INT,0.025,1.000,5.2509,298.362936,0.0085,0*7a936be2
#BESTVELA,FILE,0,27.0,FINESTEERING,2319,307279.050,02000000,10a2,17139;SOL_COMPUTED,NARROW_INT,0.025,1.050,5.2755,297.819989,0.0144,0*c444f7c8
#BESTVELA,FILE,0,22.0,FINESTEERING,2319,307279.100,02000000,10a2,17139;SOL_COMPUTED,NARROW_INT,0.025,1.100,5.2801,298.413207,-0.0296,0*11f8f17c
#BESTVELA,FILE,0,22.0,FINESTEERING,2319,307279.150,02000000,10a2,17139;SOL_COMPUTED,NARROW_INT,0.025,1.150,5.3451,298.829940,0.0246,0*1b582eb2
#BESTVELA,FILE,0,22.0,FINESTEERING,2319,307279.200,02000000,10a2,17139;SOL_COMPUTED,NARROW_INT,0.025,1.200,5.3585,298.081581,0.0108,0*24c8c00e
#BESTVELA,FILE,0,22.0,FINESTEERING,2319,307279.250,02000000,10a2,17139;SOL_COMPUTED,NARROW_INT,0.025,1.250,5.3810,298.619547,-0.0208,0*0a16aabe
#BESTVELA,FILE,0,22.0,FINESTEERING,2319,307279.300,02000000,10a2,17139;SOL_COMPUTED,NARROW_INT,0.025,1.300,5.4399,298.506006,0.0570,0*a5b8d964
#BESTVELA,FILE,0,22.0,FINESTEERING,2319,307279.350,02000000,10a2,17139;SOL_COMPUTED,NARROW_INT,0.025,1.350,5.4884,298.536757,0.0428,0*ef33df8e
#BESTVELA,FILE,0,22.0,FINESTEERING,2319,307279.400,02000000,10a2,17139;SOL_COMPUTED,NARROW_INT,0.025,1.400,5.5185,298.811052,0.0009,0*11cc2957
#BESTVELA,FILE,0,22.0,FINESTEERING,2319,307279.450,02000000,10a2,17139;SOL_COMPUTED,NARROW_INT,0.025,1.450,5.5572,298.495423,0.0873,0*66d86d84
#BESTVELA,FILE,0,22.0,FINESTEERING,2319,307279.500,02000000,10a2,17139;SOL_COMPUTED,NARROW_INT,0.025,1.500,5.5835,298.394982,0.0005,0*034c5fae
#BESTVELA,FILE,0,22.0,FINESTEERING,2319,307279.550,02000000,10a2,17139;SOL_COMPUTED,NARROW_INT,0.025,1.550,5.5894,298.590668,0.0412,0*879a6b3a
#BESTVELA,FILE,0,22.0,FINESTEERING,2319,307279.600,02000000,10a2,17139;SOL_COMPUTED,NARROW_INT,0.025,1.600,5.5912,298.773054,0.0013,0*3402a5f8
#BESTVELA,FILE,0,22.0,FINESTEERING,2319,307279.650,02000000,10a2,17139;SOL_COMPUTED,NARROW_INT,0.025,1.650,5.6561,298.583317,0.0727,0*162f8382
#BESTVELA,FILE,0,22.0,FINESTEERING,2319,307279.700,02000000,10a2,17139;SOL_COMPUTED,NARROW_INT,0.025,1.700,5.7008,298.382172,0.0224,0*a4aa1a5e
#BESTVELA,FILE,0,22.0,FINESTEERING,2319,307279.750,02000000,10a2,17139;SOL_COMPUTED,NARROW_INT,0.025,1.750,5.6889,298.700421,0.0383,0*9e68fdaf
#BESTVELA,FILE,0,22.0,FINESTEERING,2319,307279.800,02000000,10a2,17139;SOL_COMPUTED,NARROW_INT,0.025,1.800,5.7036,298.744322,0.0189,0*03e5097c
#BESTVELA,FILE,0,22.0,FINESTEERING,2319,307279.850,02000000,10a2,17139;SOL_COMPUTED,NARROW_INT,0.025,1.850,5.7503,298.728962,-0.0502,0*7630b18d
#BESTVELA,FILE,0,22.0,FINESTEERING,2319,307279.900,02000000,10a2,17139;SOL_COMPUTED,NARROW_INT,0.025,1.900,5.7728,298.724146,0.0693,0*e5c3a973
#BESTVELA,FILE,0,22.0,FINESTEERING,2319,307279.950,02000000,10a2,17139;SOL_COMPUTED,NARROW_INT,0.025,1.950,5.7814,298.945723,0.0147,0*e29a45b6
#BESTVELA,FILE,0,22.0,FINESTEERING,2319,307280.000,02000000,10a2,17139;SOL_COMPUTED,NARROW_INT,0.025,2.000,5.8143,298.686548,0.0409,0*7682023e
#BESTVELA,FILE,0,22.0,FINESTEERING,2319,307280.050,02000000,10a2,17139;SOL_COMPUTED,NARROW_INT,0.025,2.050,5.8210,298.423409,0.0319,0*88a36cef
#BESTVELA,FILE,0,22.0,FINESTEERING,2319,307280.100,02000000,10a2,17139;SOL_COMPUTED,NARROW_INT,0.025,2.100,5.8739,298.439849,0.0382,0*5311b9ea
#BESTVELA,FILE,0,24.0,FINESTEERING,2319,307280.150,02000000,10a2,17139;SOL_COMPUTED,NARROW_INT,0.025,2.150,5.9048,298.752199,0.0655,0*79ee27d8
#BESTVELA,FILE,0,24.0,FINESTEERING,2319,307280.200,02000000,10a2,17139;SOL_COMPUTED,NARROW_INT,0.025,2.200,5.9709,298.715169,0.0732,0*07acd213
#BESTVELA,FILE,0,24.0,FINESTEERING,2319,307280.250,02000000,10a2,17139;SOL_COMPUTED,NARROW_INT,0.025,2.250,6.0095,298.922259,0.0600,0*76a97996
#BESTVELA,FILE,0,24.0,FINESTEERING,2319,307280.300,02000000,10a2,17139;SOL_COMPUTED,NARROW_INT,0.025,2.300,6.0356,298.411883,0.0280,0*129b33c3
#BESTVELA,FILE,0,24.0,FINESTEERING,2319,307280.350,02000000,10a2,17139;SOL_COMPUTED,NARROW_INT,0.025,2.350,6.0428,298.123914,0.0250,0*1c3f13b8
#BESTVELA,FILE,0,24.0,FINESTEERING,2319,307280.400,02000000,10a2,17139;SOL_COMPUTED,NARROW_INT,0.025,2.400,6.0711,298.325273,0.0908,0*032ca912
#BESTVELA,FILE,0,24.0,FINESTEERING,2319,307280.450,02000000,10a2,17139;SOL_COMPUTED,NARROW_INT,0.025,2.450,6.1061,297.984844,0.0793,0*71ceb965
#BESTVELA,FILE,0,24.0,FINESTEERING,2319,307280.500,02000000,10a2,17139;SOL_COMPUTED,NARROW_INT,0.025,2.500,6.1337,297.602638,0.0723,0*c7a71528
#BESTVELA,FILE,0,24.0,FINESTEERING,2319,307280.550,02000000,10a2,17139;SOL_COMPUTED,NARROW_INT,0.025,2.550,6.1567,297.707329,0.0338,0*235900b3
#BESTVELA,FILE,0,24.0,FINESTEERING,2319,307280.600,02000000,10a2,17139;SOL_COMPUTED,NARROW_INT,0.025,2.600,6.1347,297.766463,0.0780,0*1b853350
#BESTVELA,FILE,0,24.0,FINESTEERING,2319,307280.650,02000000,10a2,17139;SOL_COMPUTED,NARROW_INT,0.025,2.650,6.1452,297.697848,-0.0098,0*606a40d5
#BESTVELA,FILE,0,24.0,FINESTEERING,2319,307280.700,02000000,10a2,17139;SOL_COMPUTED,NARROW_INT,0.025,2.700,6.1532,297.939397,0.0049,0*ef6d6f14
#BESTVELA,FILE,0,24.0,FINESTEERING,2319,307280.750,02000000,10a2,17139;SOL_COMPUTED,NARROW_INT,0.025,2.750,6.2048,297.752850,0.0154,0*7f74b216
#BESTVELA,FILE,0,24.0,FINESTEERING,2319,307280.800,02000000,10a2,17139;SOL_COMPUTED,NARROW_INT,0.025,2.800,6.2235,297.447613,-0.0010,0*a8ede5aa
#BESTVELA,FILE,0,24.0,FINESTEERING,2319,307280.850,02000000,10a2,17139;SOL_COMPUTED,NARROW_INT,0.025,2.850,6.2444,297.199963,0.0287,0*0924cb76
#BESTVELA,FILE,0,24.0,FINESTEERING,2319,307280.900,02000000,10a2,17139;SOL_COMPUTED,NARROW_INT,0.025,2.900,6.2534,297.056482,-0.0431,0*bf3240c7
#BESTVELA,FILE,0,24.0,FINESTEERING,2319,307280.950,02000000,10a2,17139;SOL_COMPUTED,NARROW_INT,0.025,2.950,6.3243,296.778239,0.0189,0*4370d7fa
#BESTVELA,FILE,0,24.0,FINESTEERING,2319,307281.000,02000000,10a2,17139;SOL_COMPUTED,NARROW_INT,0.025,3.000,6.3241,297.095428,0.0579,0*7ce391de
#BESTVELA,FILE,0,24.0,FINESTEERING,2319,307281.050,02000000,10a2,17139;SOL_COMPUTED,NARROW_INT,0.025,3.050,6.3839,297.401213,0.0613,0*c5f84b2e
#BESTVELA,FILE,0,24.0,FINESTEERING,2319,307281.100,02000000,10a2,17139;SOL_COMPUTED,NARROW_INT,0.025,3.100,6.3915,297.445055,0.0303,0*085e3167
#BESTVELA,FILE,0,28.0,FINESTEERING,2319,307281.150,02000000,10a2,17139;SOL_COMPUTED,NARROW_INT,0.025,3.150,6.4060,297.248977,0.0349,0*df883119
#BESTVELA,FILE,0,28.0,FINESTEERING,2319,307281.200,02000000,10a2,17139;SOL_COMPUTED,NARROW_INT,0.025,3.200,6.4531,297.021096,0.0385,0*0517a22d
#BESTVELA,FILE,0,28.0,FINESTEERING,2319,307281.250,02000000,10a2,17139;SOL_COMPUTED,NARROW_INT,0.025,3.250,6.4807,296.846504,0.0551,0*108d4199
#BESTVELA,FILE,0,28.0,FINESTEERING,2319,307281.300,02000000,10a2,17139;SOL_COMPUTED,NARROW_INT,0.025,3.300,6.5211,296.754844,0.0857,0*51194caa
#BESTVELA,FILE,0,28.0,FINESTEERING,2319,307281.350,02000000,10a2,17139;SOL_COMPUTED,NARROW_INT,0.025,3.350,6.5160,296.278511,0.0467,0*5ad73ae3
#BESTVELA,FILE,0,28.0,FINESTEERING,2319,307281.400,02000000,10a2,17139;SOL_COMPUTED,NARROW_INT,0.025,3.400,6.5363,296.614571,0.0576,0*9fd33dba
#BESTVELA,FILE,0,28.0,FINESTEERING,2319,307281.450,02000000,10a2,17139;SOL_COMPUTED,NARROW_INT,0.025,3.450,6.5834,296.423268,0.0566,0*8225cbbb
#BESTVELA,FILE,0,28.0,FINESTEERING,2319,307281.500,02000000,10a2,17139;SOL_COMPUTED,NARROW_INT,0.025,3.500,6.5857,296.324847,0.0235,0*1e6b46de
#BESTVELA,FILE,0,28.0,FINESTEERING,2319,307281.550,02000000,10a2,17139;SOL_COMPUTED,NARROW_INT,0.025,3.550,6.6436,296.431989,0.0276,0*a3275b47
#BESTVELA,FILE,0,28.0,FINESTEERING,2319,307281.600,02000000,10a2,17139;SOL_COMPUTED,NARROW_INT,0.025,3.600,6.6423,296.370177,0.0619,0*177e8d1b
#BESTVELA,FILE,0,28.0,FINESTEERING,2319,307281.650,02000000,10a2,17139;SOL_COMPUTED,NARROW_INT,0.025,3.650,6.6966,295.812347,0.0299,0*1c98f119
#BESTVELA,FILE,0,28.0,FINESTEERING,2319,307281.700,02000000,10a2,17139;SOL_COMPUTED,NARROW_INT,0.025,3.700,6.7074,295.843117,0.0378,0*5a842de2
#BESTVELA,FILE,0,28.0,FINESTEERING,2319,307281.750,02000000,10a2,17139;SOL_COMPUTED,NARROW_INT,0.025,3.750,6.7354,295.977372,0.0447,0*5f93f7d1
#BESTVELA,FILE,0,28.0,FINESTEERING,2319,307281.800,02000000,10a2,17139;SOL_COMPUTED,NARROW_INT,0.025,3.800,6.7620,295.704853,0.0697,0*29ac1251
#BESTVELA,FILE,0,28.0,FINESTEERING,2319,307281.850,02000000,10a2,17139;SOL_COMPUTED,NARROW_INT,0.025,3.850,6.7876,295.841684,-0.0052,0*aef19359
#BESTVELA,FILE,0,28.0,FINESTEERING,2319,307281.900,02000000,10a2,17139;SOL_COMPUTED,NARROW_INT,0.025,3.900,6.8020,295.874489,0.0439,0*76bddd9c
#BESTVELA,FILE,0,28.0,FINESTEERING,2319,307281.950,02000000,10a2,17139;SOL_COMPUTED,NARROW_INT,0.025,3.950,6.8478,295.797937,0.0510,0*105301b7
#BESTVELA,FILE,0,28.0,FINESTEERING,2319,307282.000,02000000,10a2,17139;SOL_COMPUTED,NARROW_INT,0.025,4.000,6.8630,295.532813,0.0272,0*7cf5043c
#BESTVELA,FILE,0,28.0,FINESTEERING,2319,307282.050,02000000,10a2,17139;SOL_COMPUTED,NARROW_INT,0.025,4.050,6.8807,295.581765,0.0623,0*b7299a5b
#BESTVELA,FILE,0,28.0,FINESTEERING,2319,307282.100,02000000,10a2,17139;SOL_COMPUTED,NARROW_INT,0.025,4.100,6.9092,295.588596,0.0500,0*5e486a1d
#BESTVELA,FILE,0,28.0,FINESTEERING,2319,307282.150,02000000,10a2,17139;SOL_COMPUTED,NARROW_INT,0.025,4.150,6.9063,295.269557,0.0069,0*86697576
#BESTVELA,FILE,0,28.0,FINESTEERING,2319,307282.200,02000000,10a2,17139;SOL_COMPUTED,NARROW_INT,0.025,4.200,6.9731,295.559758,0.0194,0*e9f53e94
#BESTVELA,FILE,0,27.0,FINESTEERING,2319,307282.250,02000000,10a2,17139;SOL_COMPUTED,NARROW_INT,0.025,4.250,6.9883,295.385422,0.0402,0*7a8779bc
#BESTVELA,FILE,0,27.0,FINESTEERING,2319,307282.300,02000000,10a2,17139;SOL_COMPUTED,NARROW_INT,0.025,4.300,7.0231,295.217717,0.0586,0*70201f87
#BESTVELA,FILE,0,27.0,FINESTEERING,2319,307282.350,02000000,10a2,17139;SOL_COMPUTED,NARROW_INT,0.025,4.350,7.0782,295.316156,0.0349,0*1b44fa07
#BESTVELA,FILE,0,27.0,FINESTEERING,2319,307282.400,02000000,10a2,17139;SOL_COMPUTED,NARROW_INT,0.025,4.400,7.0946,295.297877,0.0465,0*ba0f4cf6
#BESTVELA,FILE,0,27.0,FINESTEERING,2319,307282.450,02000000,10a2,17139;SOL_COMPUTED,NARROW_INT,0.025,4.450,7.1336,295.055316,0.0634,0*7a25cbcf
#BESTVELA,FILE,0,27.0,FINESTEERING,2319,307282.500,02000000,10a2,17139;SOL_COMPUTED,NARROW_INT,0.025,4.500,7.1899,294.834411,0.0866,0*1011e854
#BESTVELA,FILE,0,27.0,FINESTEERING,2319,307282.550,02000000,10a2,17139;SOL_COMPUTED,NARROW_INT,0.025,4.550,7.2449,294.854292,0.0252,0*b2c8ccfa
#BESTVELA,FILE,0,27.0,FINESTEERING,2319,307282.600,02000000,10a2,17139;SOL_COMPUTED,NARROW_INT,0.025,4.600,7.2806,294.898205,0.0379,0*31985106
#BESTVELA,FILE,0,27.0,FINESTEERING,2319,307282.650,02000000,10a2,17139;SOL_COMPUTED,NARROW_INT,0.025,4.650,7.3230,294.982808,0.0700,0*e5dc8387
#BESTVELA,FILE,0,27.0,FINESTEERING,2319,307282.700,02000000,10a2,17139;SOL_COMPUTED,NARROW_INT,0.025,4.700,7.3434,294.847057,0.1136,0*f781bcea
#BESTVELA,FILE,0,27.0,FINESTEERING,2319,307282.750,02000000,10a2,17139;SOL_COMPUTED,NARROW_INT,0.025,4.750,7.3730,295.058545,0.0633,0*524d1228
#BESTVELA,FILE,0,27.0,FINESTEERING,2319,307282.800,02000000,10a2,17139;SOL_COMPUTED,NARROW_INT,0.025,4.800,7.4469,294.782040,0.0714,0*786d4f8f
#BESTVELA,FILE,0,27.0,FINESTEERING,2319,307282.850,02000000,10a2,17139;SOL_COMPUTED,NARROW_INT,0.025,4.850,7.4762,294.612824,0.0801,0*8d53e267
#BESTVELA,FILE,0,27.0,FINESTEERING,2319,307282.900,02000000,10a2,17139;SOL_COMPUTED,NARROW_INT,0.025,4.900,7.4759,294.586203,0.0361,0*2052db1b
#BESTVELA,FILE,0,27.0,FINESTEERING,2319,307282.950,02000000,10a2,17139;SOL_COMPUTED,NARROW_INT,0.025,4.950,7.5344,294.677657,0.0660,0*27da3546
#BESTVELA,FILE,0,27.0,FINESTEERING,2319,307283.000,02000000,10a2,17139;SOL_COMPUTED,NARROW_INT,0.025,5.000,7.5671,294.634638,0.0212,0*f9707d1e
#BESTVELA,FILE,0,27.0,FINESTEERING,2319,307283.050,02000000,10a2,17139;SOL_COMPUTED,NARROW_INT,0.025,5.050,7.6064,294.439765,0.0555,0*0febb769
#BESTVELA,FILE,0,27.0,FINESTEERING,2319,307283.100,02000000,10a2,17139;SOL_COMPUTED,NARROW_INT,0.025,5.100,7.6452,294.432402,0.0856,0*1721bcef
#BESTVELA,FILE,0,28.5,FINESTEERING,2319,307283.150,02000000,10a2,17139;SOL_COMPUTED,NARROW_INT,0.025,5.150,7.6743,294.446929,0.0672,0*141f54f3
#BESTVELA,FILE,0,28.5,FINESTEERING,2319,307283.200,02000000,10a2,17139;SOL_COMPUTED,NARROW_INT,0.025,5.200,7.7406,294.676214,0.0330,0*9ed16de7
#BESTVELA,FILE,0,28.5,FINESTEERING,2319,307283.250,02000000,10a2,17139;SOL_COMPUTED,NARROW_INT,0.025,5.250,7.7496,294.577526,0.0792,0*9d8844d2
#BESTVELA,FILE,0,28.5,FINESTEERING,2319,307283.300,02000000,10a2,17139;SOL_COMPUTED,NARROW_INT,0.025,5.300,7.7824,294.320478,0.1020,0*cc41d8cb
#BESTVELA,FILE,0,28.5,FINESTEERING,2319,307283.350,02000000,10a2,17139;SOL_COMPUTED,NARROW_INT,0.025,5.350,7.8049,294.140345,0.0591,0*799d1e7d
#BESTVELA,FILE,0,28.5,FINESTEERING,2319,307283.400,02000000,10a2,17139;SOL_COMPUTED,NARROW_INT,0.025,5.400,7.8331,294.257313,0.0313,0*5c4867d9
#BESTVELA,FILE,0,28.5,FINESTEERING,2319,307283.450,02000000,10a2,17139;SOL_COMPUTED,NARROW_INT,0.025,5.450,7.8667,294.119182,0.0799,0*dc1ce2e7
#BESTVELA,FILE,0,28.5,FINESTEERING,2319,307283.500,02000000,10a2,17139;SOL_COMPUTED,NARROW_INT,0.025,5.500,7.9041,294.030444,0.0665,0*f31bbd51
#BESTVELA,FILE,0,28.5,FINESTEERING,2319,307283.550,02000000,10a2,17139;SOL_COMPUTED,NARROW_INT,0.025,5.550,7.9558,294.009204,0.0237,0*b1117683
#BESTVELA,FILE,0,28.5,FINESTEERING,2319,307283.600,02000000,10a2,17139;SOL_COMPUTED,NARROW_INT,0.025,5.600,7.9800,294.113738,0.1155,0*cada6f23
#BESTVELA,FILE,0,28.5,FINESTEERING,2319,307283.650,02000000,10a2,17139;SOL_COMPUTED,NARROW_INT,0.025,5.650,8.0473,294.157699,0.0820,0*0958fa98
#BESTVELA,FILE,0,28.5,FINESTEERING,2319,307283.700,02000000,10a2,17139;SOL_COMPUTED,NARROW_INT,0.025,5.700,8.0472,294.095233,0.1021,0*de8e43fb
#BESTVELA,FILE,0,28.5,FINESTEERING,2319,307283.750,02000000,10a2,17139;SOL_COMPUTED,NARROW_INT,0.025,5.750,8.0736,293.613620,0.0562,0*c12fbb38
#BESTVELA,FILE,0,28.5,FINESTEERING,2319,307283.800,02000000,10a2,17139;SOL_COMPUTED,NARROW_INT,0.025,5.800,8.1710,293.737452,0.0955,0*f266dfca
#BESTVELA,FILE,0,28.5,FINESTEERING,2319,307283.850,02000000,10a2,17139;SOL_COMPUTED,NARROW_INT,0.025,5.850,8.1094,293.790425,0.0812,0*ed640af4
#BESTVELA,FILE,0,28.5,FINESTEERING,2319,307283.900,02000000,10a2,17139;SOL_COMPUTED,NARROW_INT,0.025,5.900,8.1705,294.025032,0.0654,0*e058c6fb
#BESTVELA,FILE,0,28.5,FINESTEERING,2319,307283.950,02000000,10a2,17139;SOL_COMPUTED,NARROW_INT,0.025,5.950,8.1839,293.820716,0.0228,0*3fa23c78
#BESTVELA,FILE,0,28.5,FINESTEERING,2319,307284.000,02000000,10a2,17139;SOL_COMPUTED,NARROW_INT,0.025,6.000,8.1877,293.829391,0.0823,0*1e5b3557
#BESTVELA,FILE,0,28.5,FINESTEERING,2319,307284.050,02000000,10a2,17139;SOL_COMPUTED,NARROW_INT,0.025,6.050,8.2037,293.373101,0.0855,0*6596138d
#BESTVELA,FILE,0,27.5,FINESTEERING,2319,307284.100,02000000,10a2,17139;SOL_COMPUTED,NARROW_INT,0.025,6.100,8.2223,293.672747,0.0369,0*8d4437f0
#BESTVELA,FILE,0,27.5,FINESTEERING,2319,307284.150,02000000,10a2,17139;SOL_COMPUTED,NARROW_INT,0.025,6.150,8.2786,293.363663,0.0579,0*9374400b
#BESTVELA,FILE,0,27.5,FINESTEERING,2319,307284.200,02000000,10a2,17139;SOL_COMPUTED,NARROW_INT,0.025,6.200,8.3096,293.249351,0.0794,0*a79ab69a
#BESTVELA,FILE,0,27.5,FINESTEERING,2319,307284.250,02000000,10a2,17139;SOL_COMPUTED,NARROW_INT,0.025,6.250,8.3437,293.345243,0.0822,0*92a32384
#BESTVELA,FILE,0,27.5,FINESTEERING,2319,307284.300,02000000,10a2,17139;SOL_COMPUTED,NARROW_INT,0.025,6.300,8.3830,293.354447,0.1126,0*2b90a71a
#BESTVELA,FILE,0,27.5,FINESTEERING,2319,307284.350,02000000,10a2,17139;SOL_COMPUTED,NARROW_INT,0.025,6.350,8.3865,293.249690,0.1120,0*5ef32c3c
#BESTVELA,FILE,0,27.5,FINESTEERING,2319,307284.400,02000000,10a2,17139;SOL_COMPUTED,NARROW_INT,0.025,6.400,8.4533,293.176263,0.1394,0*05875c60
#BESTVELA,FILE,0,27.5,FINESTEERING,2319,307284.450,02000000,10a2,17139;SOL_COMPUTED,NARROW_INT,0.025,6.450,8.4615,292.991673,0.0656,0*cc413bcb
#BESTVELA,FILE,0,27.5,FINESTEERING,2319,307284.500,02000000,10a2,17139;SOL_COMPUTED,NARROW_INT,0.025,6.500,8.4996,293.114823,0.1193,0*047927e9
#BESTVELA,FILE,0,27.5,FINESTEERING,2319,307284.550,02000000,10a2,17139;SOL_COMPUTED,NARROW_INT,0.025,6.550,8.5112,293.296457,0.0799,0*1199ac8c
#BESTVELA,FILE,0,27.5,FINESTEERING,2319,307284.600,02000000,10a2,17139;SOL_COMPUTED,NARROW_INT,0.025,6.600,8.5277,293.166915,0.0974,0*83100e5c
#BESTVELA,FILE,0,27.5,FINESTEERING,2319,307284.650,02000000,10a2,17139;SOL_COMPUTED,NARROW_INT,0.025,6.650,8.5386,293.071601,0.0434,0*de48e5cd
#BESTVELA,FILE,0,27.5,FINESTEERING,2319,307284.700,02000000,10a2,17139;SOL_COMPUTED,NARROW_INT,0.025,6.700,8.6027,293.211393,0.0604,0*906b42d5
#BESTVELA,FILE,0,27.5,FINESTEERING,2319,307284.750,02000000,10a2,17139;SOL_COMPUTED,NARROW_INT,0.025,6.750,8.6274,293.084565,0.0278,0*57ec4ad1
#BESTVELA,FILE,0,27.5,FINESTEERING,2319,307284.800,02000000,10a2,17139;SOL_COMPUTED,NARROW_INT,0.025,6.800,8.6206,293.081944,0.0068,0*5ad4da8f
#BESTVELA,FILE,0,27.5,FINESTEERING,2319,307284.850,02000000,10a2,17139;SOL_COMPUTED,NARROW_INT,0.025,6.850,8.6651,293.023715,0.0755,0*048b84eb
#BESTVELA,FILE,0,27.5,FINESTEERING,2319,307284.900,02000000,10a2,17139;SOL_COMPUTED,NARROW_INT,0.025,6.900,8.6807,293.101343,0.0624,0*0584b5e9
#BESTVELA,FILE,0,27.5,FINESTEERING,2319,307284.950,02000000,10a2,17139;SOL_COMPUTED,NARROW_INT,0.025,6.950,8.6874,293.003741,0.0587,0*fea3bd36
#BESTVELA,FILE,0,27.5,FINESTEERING,2319,307285.000,02000000,10a2,17139;SOL_COMPUTED,NARROW_INT,0.025,7.000,8.7186,292.919790,0.0548,0*c89ffc68
#BESTVELA,FILE,0,27.5,FINESTEERING,2319,307285.050,02000000,10a2,17139;SOL_COMPUTED,NARROW_INT,0.025,7.050,8.7322,292.674124,0.0479,0*b18a5728
#BESTVELA,FILE,0,27.5,FINESTEERING,2319,307285.100,02000000,10a2,17139;SOL_COMPUTED,NARROW_INT,0.025,7.100,8.7809,292.850691,0.0488,0*24c4c294
#BESTVELA,FILE,0,29.0,FINESTEERING,2319,307285.150,02000000,10a2,17139;SOL_COMPUTED,NARROW_INT,0.025,7.150,8.7870,292.815174,0.0813,0*bc858b15
#BESTVELA,FILE,0,29.0,FINESTEERING,2319,307285.200,02000000,10a2,17139;SOL_COMPUTED,NARROW_INT,0.025,7.200,8.8320,292.807568,0.0614,0*dc3e9578
#BESTVELA,FILE,0,29.0,FINESTEERING,2319,307285.250,02000000,10a2,17139;SOL_COMPUTED,NARROW_INT,0.025,7.250,8.8484,292.835599,0.0642,0*6dd67075
#BESTVELA,FILE,0,29.0,FINESTEERING,2319,307285.300,02000000,10a2,17139;SOL_COMPUTED,NARROW_INT,0.025,7.300,8.9077,292.393727,0.0280,0*3d37adb6
#BESTVELA,FILE,0,29.0,FINESTEERING,2319,307285.350,02000000,10a2,17139;SOL_COMPUTED,NARROW_INT,0.025,7.350,8.9163,292.243254,0.0729,0*4e5814d1
#BESTVELA,FILE,0,29.0,FINESTEERING,2319,307285.400,02000000,10a2,17139;SOL_COMPUTED,NARROW_INT,0.025,7.400,8.9538,292.447522,0.1092,0*9c94b3b1
#BESTVELA,FILE,0,29.0,FINESTEERING,2319,307285.450,02000000,10a2,17139;SOL_COMPUTED,NARROW_INT,0.025,7.450,8.9580,292.251469,0.0619,0*69c3ebbf
#BESTVELA,FILE,0,29.0,FINESTEERING,2319,307285.500,02000000,10a2,17139;SOL_COMPUTED,NARROW_INT,0.025,7.500,8.9792,292.421337,0.0734,0*0302e0dd
#BESTVELA,FILE,0,29.0,FINESTEERING,2319,307285.550,02000000,10a2,17139;SOL_COMPUTED,NARROW_INT,0.025,7.550,8.9886,292.744254,0.0449,0*df243097
#BESTVELA,FILE,0,29.0,FINESTEERING,2319,307285.600,02000000,10a2,17139;SOL_COMPUTED,NARROW_INT,0.025,7.600,9.0097,292.961812,0.0844,0*4953f14b
#BESTVELA,FILE,0,29.0,FINESTEERING,2319,307285.650,02000000,10a2,17139;SOL_COMPUTED,NARROW_INT,0.025,7.650,9.0715,293.396091,0.0626,0*76eb4678
#BESTVELA,FILE,0,29.0,FINESTEERING,2319,307285.700,02000000,10a2,17139;SOL_COMPUTED,NARROW_INT,0.025,7.700,9.0491,293.503826,0.0868,0*7031efb2
#BESTVELA,FILE,0,29.0,FINESTEERING,2319,307285.750,02000000,10a2,17139;SOL_COMPUTED,NARROW_INT,0.025,7.750,9.0846,293.894070,0.0395,0*8813dc14
#BESTVELA,FILE,0,29.0,FINESTEERING,2319,307285.800,02000000,10a2,17139;SOL_COMPUTED,NARROW_INT,0.025,7.800,9.1077,294.025168,0.0818,0*c00a6892
#BESTVELA,FILE,0,29.0,FINESTEERING,2319,307285.850,02000000,10a2,17139;SOL_COMPUTED,NARROW_INT,0.025,7.850,9.1232,294.427297,0.0603,0*19652158
#BESTVELA,FILE,0,29.0,FINESTEERING,2319,307285.900,02000000,10a2,17139;SOL_COMPUTED,NARROW_INT,0.025,7.900,9.1750,294.525063,0.1232,0*2160e1cc
#BESTVELA,FILE,0,29.0,FINESTEERING,2319,307285.950,02000000,10a2,17139;SOL_COMPUTED,NARROW_INT,0.025,7.950,9.2199,294.719638,0.0786,0*21f2bcea
#BESTVELA,FILE,0,29.0,FINESTEERING,2319,307286.000,02000000,10a2,17139;SOL_COMPUTED,NARROW_INT,0.025,8.000,9.2345,294.799617,0.0596,0*73e3d95e
#BESTVELA,FILE,0,29.0,FINESTEERING,2319,307286.050,02000000,10a2,17139;SOL_COMPUTED,NARROW_INT,0.025,8.050,9.2562,294.853151,0.1307,0*7dda2ce8
#BESTVELA,FILE,0,29.0,FINESTEERING,2319,307286.100,02000000,10a2,17139;SOL_COMPUTED,NARROW_INT,0.025,8.100,9.2830,295.095395,0.1133,0*bcb3a762
#BESTVELA,FILE,0,29.0,FINESTEERING,2319,307286.150,02000000,10a2,17139;SOL_COMPUTED,NARROW_INT,0.025,8.150,9.2932,295.453727,0.0708,0*aca97824
#BESTVELA,FILE,0,29.0,FINESTEERING,2319,307286.200,02000000,10a2,17139;SOL_COMPUTED,NARROW_INT,0.025,8.200,9.2836,295.368599,0.0686,0*27f06683
#BESTVELA,FILE,0,29.0,FINESTEERING,2319,307286.250,02000000,10a2,17139;SOL_COMPUTED,NARROW_INT,0.025,8.250,9.3146,295.391800,0.0223,0*1d29af96
#BESTVELA,FILE,0,29.0,FINESTEERING,2319,307286.300,02000000,10a2,17139;SOL_COMPUTED,NARROW_INT,0.025,8.300,9.3387,295.609912,0.0373,0*ae0e8645
#BESTVELA,FILE,0,29.0,FINESTEERING,2319,307286.350,02000000,10a2,17139;SOL_COMPUTED,NARROW_INT,0.025,8.350,9.3525,295.611600,0.0682,0*c05e5834
#BESTVELA,FILE,0,29.0,FINESTEERING,2319,307286.400,02000000,10a2,17139;SOL_COMPUTED,NARROW_INT,0.025,8.400,9.4190,295.954639,0.0942,0*d65b775e
#BESTVELA,FILE,0,29.0,FINESTEERING,2319,307286.450,02000000,10a2,17139;SOL_COMPUTED,NARROW_INT,0.025,8.450,9.4096,295.878106,0.0224,0*2292edfe
#BESTVELA,FILE,0,29.0,FINESTEERING,2319,307286.500,02000000,10a2,17139;SOL_COMPUTED,NARROW_INT,0.025,8.500,9.4411,295.904856,0.0532,0*e132b1e0
#BESTVELA,FILE,0,29.0,FINESTEERING,2319,307286.550,02000000,10a2,17139;SOL_COMPUTED,NARROW_INT,0.025,8.550,9.4535,296.068066,0.0669,0*f3524825
#BESTVELA,FILE,0,29.0,FINESTEERING,2319,307286.600,02000000,10a2,17139;SOL_COMPUTED,NARROW_INT,0.025,8.600,9.4519,296.078737,0.0696,0*efd77411
#BESTVELA,FILE,0,29.0,FINESTEERING,2319,307286.650,02000000,10a2,17139;SOL_COMPUTED,NARROW_INT,0.025,8.650,9.4925,296.263014,0.0525,0*77ca64d8
#BESTVELA,FILE,0,29.0,FINESTEERING,2319,307286.700,02000000,10a2,17139;SOL_COMPUTED,NARROW_INT,0.025,8.700,9.5011,296.003962,0.0795,0*b596b4f7
#BESTVELA,FILE,0,29.0,FINESTEERING,2319,307286.750,02000000,10a2,17139;SOL_COMPUTED,NARROW_INT,0.025,8.750,9.5097,296.107574,0.1020,0*f3699b66
#BESTVELA,FILE,0,29.0,FINESTEERING,2319,307286.800,02000000,10a2,17139;SOL_COMPUTED,NARROW_INT,0.025,8.800,9.5753,296.188756,0.0863,0*419a8872
#BESTVELA,FILE,0,29.0,FINESTEERING,2319,307286.850,02000000,10a2,17139;SOL_COMPUTED,NARROW_INT,0.025,8.850,9.5647,296.010568,0.1084,0*f6d5d197
#BESTVELA,FILE,0,29.0,FINESTEERING,2319,307286.900,02000000,10a2,17139;SOL_COMPUTED,NARROW_INT,0.025,8.900,9.6244,296.004154,0.0828,0*225728a9
#BESTVELA,FILE,0,29.0,FINESTEERING,2319,307286.950,02000000,10a2,17139;SOL_COMPUTED,NARROW_INT,0.025,8.950,9.6109,295.896043,0.1456,0*c226677e
#BESTVELA,FILE,0,29.0,FINESTEERING,2319,307287.000,02000000,10a2,17139;SOL_COMPUTED,NARROW_INT,0.025,9.000,9.6053,296.061366,0.1444,0*312855c4
#BESTVELA,FILE,0,29.0,FINESTEERING,2319,307287.050,02000000,10a2,17139;SOL_COMPUTED,NARROW_INT,0.025,9.050,9.6395,296.063963,0.1051,0*62485c6f
#BESTVELA,FILE,0,29.0,FINESTEERING,2319,307287.100,02000800,10a2,17139;SOL_COMPUTED,NARROW_INT,0.025,9.100,9.6443,296.044786,0.1280,0*56e92363
#BESTVELA,FILE,0,29.5,FINESTEERING,2319,307287.150,02000800,10a2,17139;SOL_COMPUTED,NARROW_INT,0.025,9.150,9.6431,296.042828,0.1440,0*2f01e057
#BESTVELA,FILE,0,29.5,FINESTEERING,2319,307287.200,02000800,10a2,17139;SOL_COMPUTED,NARROW_INT,0.025,9.200,9.6572,295.907353,0.1500,0*810eff89
#BESTVELA,FILE,0,29.5,FINESTEERING,2319,307287.250,02000800,10a2,17139;SOL_COMPUTED,NARROW_INT,0.025,9.250,9.6850,295.734789,0.1165,0*e4aba643
#BESTVELA,FILE,0,29.5,FINESTEERING,2319,307287.300,02000800,10a2,17139;SOL_COMPUTED,NARROW_INT,0.025,9.300,9.7284,296.092953,0.1637,0*d61de586
#BESTVELA,FILE,0,29.5,FINESTEERING,2319,307287.350,02000800,10a2,17139;SOL_COMPUTED,NARROW_INT,0.025,9.350,9.7622,296.100765,0.2161,0*ab5bcda6
#BESTVELA,FILE,0,29.5,FINESTEERING,2319,307287.400,02000800,10a2,17139;SOL_COMPUTED,NARROW_INT,0.025,9.400,9.8095,295.987855,0.2322,0*55d09aa2
#BESTVELA,FILE,0,29.5,FINESTEERING,2319,307287.450,02000800,10a2,17139;SOL_COMPUTED,NARROW_INT,0.025,9.450,9.8693,295.817280,0.1801,0*d6e48789
#BESTVELA,FILE,0,29.5,FINESTEERING,2319,307287.500,02000800,10a2,17139;SOL_COMPUTED,NARROW_INT,0.025,9.500,9.8999,295.933613,0.1919,0*5676445f
#BESTVELA,FILE,0,29.5,FINESTEERING,2319,307287.550,02000800,10a2,17139;SOL_COMPUTED,NARROW_INT,0.025,9.550,9.9028,296.263458,0.1779,0*7503f164
#BESTVELA,FILE,0,29.5,FINESTEERING,2319,307287.600,02000800,10a2,17139;SOL_COMPUTED,NARROW_INT,0.025,9.600,9.8988,296.170950,0.1165,0*5b3a7fdc
#BESTVELA,FILE,0,29.5,FINESTEERING,2319,307287.650,02000800,10a2,17139;SOL_COMPUTED,NARROW_INT,0.025,9.650,9.8753,296.005235,0.1254,0*e140d99e
#BESTVELA,FILE,0,29.5,FINESTEERING,2319,307287.700,02000800,10a2,17139;SOL_COMPUTED,NARROW_INT,0.025,9.700,9.9128,296.058874,0.0783,0*839bd347
#BESTVELA,FILE,0,29.5,FINESTEERING,2319,307287.750,02000800,10a2,17139;SOL_COMPUTED,NARROW_INT,0.025,9.750,9.8935,295.886183,0.0355,0*92f436cc
#BESTVELA,FILE,0,29.5,FINESTEERING,2319,307287.800,02000800,10a2,17139;SOL_COMPUTED,NARROW_INT,0.025,9.800,9.8960,295.935370,0.0559,0*ec2ba077
#BESTVELA,FILE,0,29.5,FINESTEERING,2319,307287.850,02000800,10a2,17139;SOL_COMPUTED,NARROW_INT,0.025,9.850,9.9082,296.131660,-0.0051,0*a85ecf12
#BESTVELA,FILE,0,29.5,FINESTEERING,2319,307287.900,02000800,10a2,17139;SOL_COMPUTED,NARROW_INT,0.025,9.900,9.9471,295.814814,0.0108,0*0eedcf3f
#BESTVELA,FILE,0,29.5,FINESTEERING,2319,307287.950,02000800,10a2,17139;SOL_COMPUTED,NARROW_INT,0.025,9.950,9.9542,295.696516,0.0610,0*e6b4972e
#BESTVELA,FILE,0,29.5,FINESTEERING,2319,307288.000,02000800,10a2,17139;SOL_COMPUTED,NARROW_INT,0.025,10.000,10.0343,295.961060,0.0516,0*a5c669f1
#BESTVELA,FILE,0,29.5,FINESTEERING,2319,307288.050,02000800,10a2,17139;SOL_COMPUTED,NARROW_INT,0.025,10.050,10.0459,295.841860,0.1128,0*c776abe1
#BESTVELA,FILE,0,29.0,FINESTEERING,2319,307288.100,02000800,10a2,17139;SOL_COMPUTED,NARROW_INT,0.025,10.100,10.1017,295.892057,0.0670,0*89b0104a
#BESTVELA,FILE,0,29.0,FINESTEERING,2319,307288.150,02000000,10a2,17139;SOL_COMPUTED,NARROW_INT,0.025,10.150,10.0958,295.564259,0.1154,0*273b005c
#BESTVELA,FILE,0,29.0,FINESTEERING,2319,307288.200,02000000,10a2,17139;SOL_COMPUTED,NARROW_INT,0.025,10.200,10.1060,295.672220,0.0799,0*8feb41dd
#BESTVELA,FILE,0,29.0,FINESTEERING,2319,307288.250,02000000,10a2,17139;SOL_COMPUTED,NARROW_INT,0.025,10.250,10.1062,295.749616,0.0128,0*3d7c9cd0
#BESTVELA,FILE,0,29.0,FINESTEERING,2319,307288.300,02000000,10a2,17139;SOL_COMPUTED,NARROW_INT,0.025,10.300,10.1358,295.823165,0.0052,0*dd2d35fc
#BESTVELA,FILE,0,29.0,FINESTEERING,2319,307288.350,02000000,10a2,17139;SOL_COMPUTED,NARROW_INT,0.025,10.350,10.1092,295.834918,0.0319,0*cb471400
#BESTVELA,FILE,0,29.0,FINESTEERING,2319,307288.400,02000000,10a2,17139;SOL_COMPUTED,NARROW_INT,0.025,10.400,10.1727,295.642100,0.0017,0*ef339fc5
#BESTVELA,FILE,0,29.0,FINESTEERING,2319,307288.450,02000000,10a2,17139;SOL_COMPUTED,NARROW_INT,0.025,10.450,10.1864,295.737758,0.0179,0*5ac42dea
#BESTVELA,FILE,0,29.0,FINESTEERING,2319,307288.500,02000000,10a2,17139;SOL_COMPUTED,NARROW_INT,0.025,10.500,10.2130,295.797163,0.0236,0*bcad9efb
#BESTVELA,FILE,0,29.0,FINESTEERING,2319,307288.550,02000000,10a2,17139;SOL_COMPUTED,NARROW_INT,0.025,10.550,10.2374,295.873379,0.0692,0*5d13b183
#BESTVELA,FILE,0,29.0,FINESTEERING,2319,307288.600,02000000,10a2,17139;SOL_COMPUTED,NARROW_INT,0.025,10.600,10.2488,295.787350,0.1003,0*cf2ff9f9
#BESTVELA,FILE,0,29.0,FINESTEERING,2319,307288.650,02000000,10a2,17139;SOL_COMPUTED,NARROW_INT,0.025,10.650,10.2947,295.911629,0.0508,0*e693a17c
#BESTVELA,FILE,0,29.0,FINESTEERING,2319,307288.700,02000000,10a2,17139;SOL_COMPUTED,NARROW_INT,0.025,10.700,10.2968,295.916030,0.0408,0*f5389157
#BESTVELA,FILE,0,29.0,FINESTEERING,2319,307288.750,02000000,10a2,17139;SOL_COMPUTED,NARROW_INT,0.025,10.750,10.3386,296.060910,0.0344,0*2a6bb445
#BESTVELA,FILE,0,29.0,FINESTEERING,2319,307288.800,02000000,10a2,17139;SOL_COMPUTED,NARROW_INT,0.025,10.800,10.3149,296.500861,0.0643,0*7fdfc36d
#BESTVELA,FILE,0,29.0,FINESTEERING,2319,307288.850,02000000,10a2,17139;SOL_COMPUTED,NARROW_INT,0.025,10.850,10.3151,296.419076,0.0485,0*45d814cf
#BESTVELA,FILE,0,29.0,FINESTEERING,2319,307288.900,02000000,10a2,17139;SOL_COMPUTED,NARROW_INT,0.025,10.900,10.3642,296.269507,0.0225,0*459c009e
#BESTVELA,FILE,0,29.0,FINESTEERING,2319,307288.950,02000000,10a2,17139;SOL_COMPUTED,NARROW_INT,0.025,10.950,10.3894,296.502668,0.0546,0*6946c82f
#BESTVELA,FILE,0,29.0,FINESTEERING,2319,307289.000,02000000,10a2,17139;SOL_COMPUTED,NARROW_INT,0.025,11.000,10.4295,296.796841,0.0198,0*3ed679c4
#BESTVELA,FILE,0,29.0,FINESTEERING,2319,307289.050,02000000,10a2,17139;SOL_COMPUTED,NARROW_INT,0.025,11.050,10.4515,296.876630,0.1051,0*48b52ab9
#BESTVELA,FILE,0,29.0,FINESTEERING,2319,307289.100,02000000,10a2,17139;SOL_COMPUTED,NARROW_INT,0.025,11.100,10.4546,296.824670,0.0815,0*bc185856
#BESTVELA,FILE,0,30.0,FINESTEERING,2319,307289.150,02000000,10a2,17139;SOL_COMPUTED,NARROW_INT,0.025,11.150,10.5037,297.044720,0.0587,0*d01d5c37
#BESTVELA,FILE,0,30.0,FINESTEERING,2319,307289.200,02000000,10a2,17139;SOL_COMPUTED,NARROW_INT,0.025,11.200,10.4983,297.186521,0.0381,0*7248d533
#BESTVELA,FILE,0,30.0,FINESTEERING,2319,307289.250,02000000,10a2,17139;SOL_COMPUTED,NARROW_INT,0.025,11.250,10.4585,297.044699,0.0587,0*011ef9d3
#BESTVELA,FILE,0,30.0,FINESTEERING,2319,307289.300,02000000,10a2,17139;SOL_COMPUTED,NARROW_INT,0.025,11.300,10.4937,297.009331,0.0473,0*d30e88e3
#BESTVELA,FILE,0,30.0,FINESTEERING,2319,307289.350,02000000,10a2,17139;SOL_COMPUTED,NARROW_INT,0.025,11.350,10.4875,297.148445,0.0224,0*de399a12
#BESTVELA,FILE,0,30.0,FINESTEERING,2319,307289.400,02000000,10a2,17139;SOL_COMPUTED,NARROW_INT,0.025,11.400,10.5255,297.138354,-0.0176,0*7f000e62
#BESTVELA,FILE,0,30.0,FINESTEERING,2319,307289.450,02000000,10a2,17139;SOL_COMPUTED,NARROW_INT,0.025,11.450,10.5549,297.285350,0.0209,0*132f0e19
#BESTVELA,FILE,0,30.0,FINESTEERING,2319,307289.500,02000000,10a2,17139;SOL_COMPUTED,NARROW_INT,0.025,11.500,10.6034,297.085780,0.0619,0*d36552ae
#BESTVELA,FILE,0,30.0,FINESTEERING,2319,307289.550,02000000,10a2,17139;SOL_COMPUTED,NARROW_INT,0.025,11.550,10.6067,296.971840,0.1380,0*3799a8e8
#BESTVELA,FILE,0,30.0,FINESTEERING,2319,307289.600,02000000,10a2,17139;SOL_COMPUTED,NARROW_INT,0.025,11.600,10.6229,296.979528,0.1383,0*39f74bcb
#BESTVELA,FILE,0,30.0,FINESTEERING,2319,307289.650,02000000,10a2,17139;SOL_COMPUTED,NARROW_INT,0.025,11.650,10.6563,297.022927,0.0804,0*72682711
#BESTVELA,FILE,0,30.0,FINESTEERING,2319,307289.700,02000000,10a2,17139;SOL_COMPUTED,NARROW_INT,0.025,11.700,10.6250,296.837987,0.1371,0*a8dc8d58
#BESTVELA,FILE,0,30.0,FINESTEERING,2319,307289.750,02000000,10a2,17139;SOL_COMPUTED,NARROW_INT,0.025,11.750,10.6843,297.067653,0.0269,0*af488496
#BESTVELA,FILE,0,30.0,FINESTEERING,2319,307289.800,02000000,10a2,17139;SOL_COMPUTED,NARROW_INT,0.025,11.800,10.6764,296.616153,-0.0042,0*9d11c4a6
#BESTVELA,FILE,0,30.0,FINESTEERING,2319,307289.850,02000000,10a2,17139;SOL_COMPUTED,NARROW_INT,0.025,11.850,10.6091,296.688262,0.1518,0*901d8bc8
#BESTVELA,FILE,0,30.0,FINESTEERING,2319,307289.900,02000000,10a2,17139;SOL_COMPUTED,NARROW_INT,0.025,11.900,10.6531,296.996668,0.0010,0*5590af08
#BESTVELA,FILE,0,30.0,FINESTEERING,2319,307289.950,02000000,10a2,17139;SOL_COMPUTED,NARROW_INT,0.025,11.950,10.6603,296.639505,0.1422,0*a047c392
#BESTVELA,FILE,0,30.0,FINESTEERING,2319,307290.000,02000000,10a2,17139;SOL_COMPUTED,NARROW_INT,0.025,12.000,10.6970,296.337754,0.0545,0*ef3eb725
#BESTVELA,FILE,0,30.0,FINESTEERING,2319,307290.050,02000000,10a2,17139;SOL_COMPUTED,NARROW_INT,0.025,12.050,10.7203,296.288186,0.1639,0*5527d9b7
#BESTVELA,FILE,0,28.0,FINESTEERING,2319,307290.100,02000000,10a2,17139;SOL_COMPUTED,NARROW_INT,0.025,12.100,10.7295,295.972146,-0.0074,0*d86fb60f
#BESTVELA,FILE,0,28.0,FINESTEERING,2319,307290.150,02000000,10a2,17139;SOL_COMPUTED,NARROW_INT,0.025,12.150,10.7830,296.243148,0.1295,0*ad22cb9f
#BESTVELA,FILE,0,28.0,FINESTEERING,2319,307290.200,02000000,10a2,17139;SOL_COMPUTED,NARROW_INT,0.025,12.200,10.7664,296.483750,0.1772,0*5024d162
#BESTVELA,FILE,0,28.0,FINESTEERING,2319,307290.250,02000000,10a2,17139;SOL_COMPUTED,NARROW_INT,0.025,12.250,10.7289,296.421838,0.1023,0*36c3166e
#BESTVELA,FILE,0,28.0,FINESTEERING,2319,307290.300,02000000,10a2,17139;SOL_COMPUTED,NARROW_INT,0.025,12.300,10.7722,295.411616,0.1280,0*101c18d5
#BESTVELA,FILE,0,28.0,FINESTEERING,2319,307290.350,02000000,10a2,17139;SOL_COMPUTED,NARROW_INT,0.025,12.350,10.7506,295.921455,0.1737,0*564eb175
#BESTVELA,FILE,0,28.0,FINESTEERING,2319,307290.400,02000000,10a2,17139;SOL_COMPUTED,NARROW_INT,0.025,12.400,10.7223,295.976708,0.0237,0*643a6aea
#BESTVELA,FILE,0,28.0,FINESTEERING,2319,307290.450,02000000,10a2,17139;SOL_COMPUTED,NARROW_INT,0.025,12.450,10.7216,295.666471,0.1110,0*229551e9
#BESTVELA,FILE,0,28.0,FINESTEERING,2319,307290.500,02000000,10a2,17139;SOL_COMPUTED,NARROW_INT,0.025,12.500,10.7302,295.918122,0.0510,0*a8d0a318
#BESTVELA,FILE,0,28.0,FINESTEERING,2319,307290.550,02000000,10a2,17139;SOL_COMPUTED,NARROW_INT,0.025,12.550,10.7430,295.846583,0.1872,0*655a1292
#BESTVELA,FILE,0,28.0,FINESTEERING,2319,307290.600,02000000,10a2,17139;SOL_COMPUTED,NARROW_INT,0.025,12.600,10.7591,295.617161,0.0957,0*1cc342e3
#BESTVELA,FILE,0,28.0,FINESTEERING,2319,307290.650,02000000,10a2,17139;SOL_COMPUTED,NARROW_INT,0.025,12.650,10.7735,295.362310,0.0705,0*240b0f39
#BESTVELA,FILE,0,28.0,FINESTEERING,2319,307290.700,02000000,10a2,17139;SOL_COMPUTED,NARROW_INT,0.025,12.700,10.8117,296.168519,0.1814,0*2102fdcf
#BESTVELA,FILE,0,28.0,FINESTEERING,2319,307290.750,02000000,10a2,17139;SOL_COMPUTED,NARROW_INT,0.025,12.750,10.8107,295.591874,0.1226,0*5cd19285
#BESTVELA,FILE,0,28.0,FINESTEERING,2319,307290.800,02000000,10a2,17139;SOL_COMPUTED,NARROW_INT,0.025,12.800,10.8121,295.794604,0.2307,0*ab43a38b
#BESTVELA,FILE,0,28.0,FINESTEERING,2319,307290.850,02000000,10a2,17139;SOL_COMPUTED,NARROW_INT,0.025,12.850,10.7802,296.148871,0.0893,0*06b1dedf
#BESTVELA,FILE,0,28.0,FINESTEERING,2319,307290.900,02000000,10a2,17139;SOL_COMPUTED,NARROW_INT,0.025,12.900,10.8107,295.958045,0.0800,0*f841c465
#BESTVELA,FILE,0,28.0,FINESTEERING,2319,307290.950,02000000,10a2,17139;SOL_COMPUTED,NARROW_INT,0.025,12.950,10.8099,296.101884,0.1505,0*ed1961f0
#BESTVELA,FILE,0,28.0,FINESTEERING,2319,307291.000,02000000,10a2,17139;SOL_COMPUTED,NARROW_INT,0.025,13.000,10.8522,296.175369,0.0612,0*78a89591
#BESTVELA,FILE,0,28.0,FINESTEERING,2319,307291.050,02000000,10a2,17139;SOL_COMPUTED,NARROW_INT,0.025,13.050,10.8766,296.111717,0.1527,0*f5128293
#BESTVELA,FILE,0,28.0,FINESTEERING,2319,307291.100,02000000,10a2,17139;SOL_COMPUTED,NARROW_INT,0.025,13.100,10.8990,295.997032,0.0473,0*d204c9d7
#BESTVELA,FILE,0,28.0,FINESTEERING,2319,307291.150,02000000,10a2,17139;SOL_COMPUTED,NARROW_INT,0.025,13.150,10.9288,296.200064,0.1587,0*268a89ea
#BESTVELA,FILE,0,28.0,FINESTEERING,2319,307291.200,02000000,10a2,17139;SOL_COMPUTED,NARROW_INT,0.025,13.200,10.9917,296.132198,0.1221,0*25879500
#BESTVELA,FILE,0,28.0,FINESTEERING,2319,307291.250,02000000,10a2,17139;SOL_COMPUTED,NARROW_INT,0.025,13.250,10.9507,296.431020,0.1686,0*325fb281
#BESTVELA,FILE,0,28.0,FINESTEERING,2319,307291.300,02000000,10a2,17139;SOL_COMPUTED,NARROW_INT,0.025,13.300,10.9829,295.982217,0.0467,0*2def77da
#BESTVELA,FILE,0,28.0,FINESTEERING,2319,307291.350,02000000,10a2,17139;SOL_COMPUTED,NARROW_INT,0.025,13.350,10.9519,296.113227,0.0945,0*12547527
#BESTVELA,FILE,0,28.0,FINESTEERING,2319,307291.400,02000000,10a2,17139;SOL_COMPUTED,NARROW_INT,0.025,13.400,10.9637,295.972757,0.0746,0*c26222c7
#BESTVELA,FILE,0,28.0,FINESTEERING,2319,307291.450,02000000,10a2,17139;SOL_COMPUTED,NARROW_INT,0.025,13.450,10.9736,295.832546,-0.0382,0*f1c6dad5
#BESTVELA,FILE,0,28.0,FINESTEERING,2319,307291.500,02000000,10a2,17139;SOL_COMPUTED,NARROW_INT,0.025,13.500,10.9582,295.936851,0.0446,0*0182c73c
#BESTVELA,FILE,0,28.0,FINESTEERING,2319,307291.550,02000000,10a2,17139;SOL_COMPUTED,NARROW_INT,0.025,13.550,10.9457,295.665598,0.0281,0*9af9f602
#BESTVELA,FILE,0,28.0,FINESTEERING,2319,307291.600,02000000,10a2,17139;SOL_COMPUTED,NARROW_INT,0.025,13.600,10.9789,295.632581,0.0912,0*50d207a5
#BESTVELA,FILE,0,28.0,FINESTEERING,2319,307291.650,02000000,10a2,17139;SOL_COMPUTED,NARROW_INT,0.025,13.650,11.0326,295.488292,0.1208,0*0fa3f0c8
#BESTVELA,FILE,0,28.0,FINESTEERING,2319,307291.700,02000000,10a2,17139;SOL_COMPUTED,NARROW_INT,0.025,13.700,11.0546,295.456749,0.0528,0*467daa80
#BESTVELA,FILE,0,28.0,FINESTEERING,2319,307291.750,02000000,10a2,17139;SOL_COMPUTED,NARROW_INT,0.025,13.750,11.0699,295.719480,0.1939,0*2ddc0d40
#BESTVELA,FILE,0,28.0,FINESTEERING,2319,307291.800,02000000,10a2,17139;SOL_COMPUTED,NARROW_INT,0.025,13.800,11.1375,295.581552,0.2116,0*9eaa68a8
#BESTVELA,FILE,0,28.0,FINESTEERING,2319,307291.850,02000000,10a2,17139;SOL_COMPUTED,NARROW_INT,0.025,13.850,11.1447,295.969804,0.1811,0*379600cc
#BESTVELA,FILE,0,28.0,FINESTEERING,2319,307291.900,02000000,10a2,17139;SOL_COMPUTED,NARROW_INT,0.025,13.900,11.1428,295.826148,0.1440,0*a9ae82ba
#BESTVELA,FILE,0,28.0,FINESTEERING,2319,307291.950,02000000,10a2,17139;SOL_COMPUTED,NARROW_INT,0.025,13.950,11.1684,295.921371,0.1338,0*32f9a0a4
#BESTVELA,FILE,0,28.0,FINESTEERING,2319,307292.000,02000000,10a2,17139;SOL_COMPUTED,NARROW_INT,0.025,14.000,11.1853,295.878328,0.1003,0*13106d47
#BESTVELA,FILE,0,28.0,FINESTEERING,2319,307292.050,02000000,10a2,17139;SOL_COMPUTED,NARROW_INT,0.025,14.050,11.1809,295.942451,0.1320,0*924a7912
#BESTVELA,FILE,0,25.5,FINESTEERING,2319,307292.100,02000800,10a2,17139;SOL_COMPUTED,NARROW_INT,0.025,14.100,11.1709,295.936083,0.1103,0*143cba0b
#BESTVELA,FILE,0,25.5,FINESTEERING,2319,307292.150,02000800,10a2,17139;SOL_COMPUTED,NARROW_INT,0.025,14.150,11.2082,296.156823,0.0499,0*941cea11
#BESTVELA,FILE,0,25.5,FINESTEERING,2319,307292.200,02000800,10a2,17139;SOL_COMPUTED,NARROW_INT,0.025,14.200,11.2169,295.801278,0.0431,0*15399411
#BESTVELA,FILE,0,25.5,FINESTEERING,2319,307292.250,02000800,10a2,17139;SOL_COMPUTED,NARROW_INT,0.025,14.250,11.2144,295.869246,0.1090,0*5c884ad2
#BESTVELA,FILE,0,25.5,FINESTEERING,2319,307292.300,02000800,10a2,17139;SOL_COMPUTED,NARROW_INT,0.025,14.300,11.2830,296.288887,0.1999,0*7c8f33ad
#BESTVELA,FILE,0,25.5,FINESTEERING,2319,307292.350,02000800,10a2,17139;SOL_COMPUTED,NARROW_INT,0.025,14.350,11.3112,296.217549,0.2038,0*f02c8ca9
#BESTVELA,FILE,0,25.5,FINESTEERING,2319,307292.400,02000800,10a2,17139;SOL_COMPUTED,NARROW_INT,0.025,14.400,11.2920,295.956021,0.1283,0*4f7cd58e
#BESTVELA,FILE,0,25.5,FINESTEERING,2319,307292.450,02000800,10a2,17139;SOL_COMPUTED,NARROW_INT,0.025,14.450,11.3386,295.651636,0.0595,0*d8f8d291
#BESTVELA,FILE,0,25.5,FINESTEERING,2319,307292.500,02000800,10a2,17139;SOL_COMPUTED,NARROW_INT,0.025,14.500,11.3478,295.897203,0.1711,0*2ac09601
#BESTVELA,FILE,0,25.5,FINESTEERING,2319,307292.550,02000800,10a2,17139;SOL_COMPUTED,NARROW_INT,0.025,14.550,11.3437,295.917448,0.1543,0*e331bd17
#BESTVELA,FILE,0,25.5,FINESTEERING,2319,307292.600,02000800,10a2,17139;SOL_COMPUTED,NARROW_INT,0.025,14.600,11.3387,296.093134,0.0334,0*e5855581
#BESTVELA,FILE,0,25.5,FINESTEERING,2319,307292.650,02000800,10a2,17139;SOL_COMPUTED,NARROW_INT,0.025,14.650,11.3784,296.235333,0.1073,0*f6dcc728
#BESTVELA,FILE,0,25.5,FINESTEERING,2319,307292.700,02000800,10a2,17139;SOL_COMPUTED,NARROW_INT,0.025,14.700,11.3994,295.996909,0.0888,0*c6a2a866
#BESTVELA,FILE,0,25.5,FINESTEERING,2319,307292.750,02000800,10a2,17139;SOL_COMPUTED,NARROW_INT,0.025,14.750,11.3902,296.180884,0.0667,0*055f4672
#BESTVELA,FILE,0,25.5,FINESTEERING,2319,307292.800,02000800,10a2,17139;SOL_COMPUTED,NARROW_INT,0.025,14.800,11.4053,296.048645,0.1749,0*a2f2c087
#BESTVELA,FILE,0,25.5,FINESTEERING,2319,307292.850,02000800,10a2,17139;SOL_COMPUTED,NARROW_INT,0.025,14.850,11.4329,296.294689,0.1103,0*52d48ae7
#BESTVELA,FILE,0,25.5,FINESTEERING,2319,307292.900,02000800,10a2,17139;SOL_COMPUTED,NARROW_INT,0.025,14.900,11.4605,295.999991,0.1549,0*2e01246a
#BESTVELA,FILE,0,25.5,FINESTEERING,2319,307292.950,02000800,10a2,17139;SOL_COMPUTED,NARROW_INT,0.025,14.950,11.5147,295.996229,0.1391,0*ceac299f
#BESTVELA,FILE,0,25.5,FINESTEERING,2319,307293.000,02000800,10a2,17139;SOL_COMPUTED,NARROW_INT,0.025,15.000,11.4937,296.363186,0.2608,0*9f78eb03
#BESTVELA,FILE,0,25.5,FINESTEERING,2319,307293.050,02000800,10a2,17139;SOL_COMPUTED,NARROW_INT,0.025,15.050,11.5244,296.081600,0.1183,0*48157b5c
#BESTVELA,FILE,0,25.5,FINESTEERING,2319,307293.100,02000800,10a2,17139;SOL_COMPUTED,NARROW_INT,0.025,15.100,11.5168,295.907797,0.0349,0*864dd093
#BESTVELA,FILE,0,27.5,FINESTEERING,2319,307293.150,02000000,10a2,17139;SOL_COMPUTED,NARROW_INT,0.025,15.150,11.5753,296.113761,0.3043,0*91026beb
#BESTVELA,FILE,0,27.5,FINESTEERING,2319,307293.200,02000000,10a2,17139;SOL_COMPUTED,NARROW_INT,0.025,15.200,11.5446,296.031039,0.1394,0*ff6e4290
#BESTVELA,FILE,0,27.5,FINESTEERING,2319,307293.250,02000000,10a2,17139;SOL_COMPUTED,NARROW_INT,0.025,15.250,11.5864,296.288229,0.1100,0*c239b56a
#BESTVELA,FILE,0,27.5,FINESTEERING,2319,307293.300,02000000,10a2,17139;SOL_COMPUTED,NARROW_INT,0.025,15.300,11.6162,296.152399,0.2069,0*a1993093
#BESTVELA,FILE,0,27.5,FINESTEERING,2319,307293.350,02000000,10a2,17139;SOL_COMPUTED,NARROW_INT,0.025,5.350,11.6075,296.325245,0.1043,0*93317f3e
#BESTVELA,FILE,0,27.5,FINESTEERING,2319,307293.400,02000000,10a2,17139;SOL_COMPUTED,NARROW_INT,0.025,5.400,11.5897,296.054070,0.1363,0*bc2dcda0
#BESTVELA,FILE,0,27.5,FINESTEERING,2319,307293.450,02000000,10a2,17139;SOL_COMPUTED,NARROW_INT,0.025,0.450,11.5765,295.925285,0.0677,0*f70f4fdc
#BESTVELA,FILE,0,27.5,FINESTEERING,2319,307293.500,02000000,10a2,17139;SOL_COMPUTED,NARROW_INT,0.025,0.500,11.6283,296.506712,0.1897,0*25f58c61
#BESTVELA,FILE,0,27.5,FINESTEERING,2319,307293.550,02000000,10a2,17139;SOL_COMPUTED,NARROW_INT,0.025,0.550,11.6679,295.964374,0.1104,0*7213bdd4
