#BESTPOSA,FILE,0,32.0,FINESTEERING,2319,307271.250,02000800,cdba,17139;SOL_COMPUTED,NARROW_INT,17.59496468398,78.13018711730,526.3016,-76.2000,WGS84,0.0090,0.0080,0.0200,"0",4.250,0.000,54,54,54,51,00,21,3f,37*170e4089
#BESTPOSA,FILE,0,32.0,FINESTEERING,2319,307271.350,02000800,cdba,17139;SOL_COMPUTED,NARROW_INT,17.59496637881,78.13018336938,526.3068,-76.2000,WGS84,0.0090,0.0081,0.0200,"0",4.350,0.000,55,54,54,51,00,21,3f,37*e9faec81
#BESTPOSA,FILE,0,32.0,FINESTEERING,2319,307271.400,02000800,cdba,17139;SOL_COMPUTED,NARROW_INT,17.59496726838,78.13018149948,526.3098,-76.2000,WGS84,0.0090,0.0081,0.0201,"0",4.400,0.000,55,54,54,51,00,21,3f,37*9d8218f7
#BESTPOSA,FILE,0,32.0,FINESTEERING,2319,307271.500,02000800,cdba,17139;SOL_COMPUTED,NARROW_INT,17.59496905650,78.13017770284,526.3110,-76.2000,WGS84,0.0090,0.0081,0.0201,"0",4.500,0.000,55,54,54,51,00,21,3f,37*d12d4206
#BESTPOSA,FILE,0,32.0,FINESTEERING,2319,307271.600,02000800,cdba,17139;SOL_COMPUTED,NARROW_INT,17.59497087349,78.13017383675,526.3157,-76.2000,WGS84,0.0091,0.0081,0.0202,"0",4.600,0.000,55,54,54,51,00,21,3f,37*045f1b32
#BESTPOSA,FILE,0,32.0,FINESTEERING,2319,307271.700,02000800,cdba,17139;SOL_COMPUTED,NARROW_INT,17.59497269065,78.13016990774,526.3209,-76.2000,WGS84,0.0091,0.0082,0.0202,"0",4.700,0.000,55,54,54,51,00,21,3f,37*c55cc499
#BESTPOSA,FILE,0,32.0,FINESTEERING,2319,307271.850,02000800,cdba,17139;SOL_COMPUTED,NARROW_INT,17.59497543749,78.13016391549,526.3242,-76.2000,WGS84,0.0092,0.0082,0.0203,"0",4.850,0.000,55,54,54,51,00,21,3f,37*812e0455
#BESTPOSA,FILE,0,32.0,FINESTEERING,2319,307271.950,02000800,cdba,17139;SOL_COMPUTED,NARROW_INT,17.59497728479,78.13015987446,526.3252,-76.2000,WGS84,0.0092,0.0082,0.0204,"0",4.950,0.000,55,54,54,51,00,21,3f,37*e7672d4a
#BESTPOSA,FILE,0,32.0,FINESTEERING,2319,307272.000,02000800,cdba,17139;SOL_COMPUTED,NARROW_INT,17.59497821670,78.13015781668,526.3260,-76.2000,WGS84,0.0093,0.0082,0.0204,"0",5.000,0.000,55,54,54,51,00,21,3f,37*3b902c96
#BESTPOSA,FILE,0,30.5,FINESTEERING,2319,307272.100,02000800,cdba,17139;SOL_COMPUTED,NARROW_INT,17.59498010209,78.13015368208,526.3312,-76.2000,WGS84,0.0095,0.0084,0.0207,"0",5.100,0.000,55,55,55,52,00,21,3f,37*bcdf3183
#BESTPOSA,FILE,0,30.5,FINESTEERING,2319,307272.200,02000800,cdba,17139;SOL_COMPUTED,NARROW_INT,17.59498203327,78.13014954323,526.3385,-76.2000,WGS84,0.0095,0.0084,0.0208,"0",5.200,0.000,55,54,54,52,00,21,3f,37*20394eb7
#BESTPOSA,FILE,0,30.5,FINESTEERING,2319,307272.300,02000800,cdba,17139;SOL_COMPUTED,NARROW_INT,17.59498397924,78.13014532310,526.3452,-76.2000,WGS84,0.0095,0.0084,0.0209,"0",5.300,0.000,54,53,53,51,00,21,3f,37*0ff73e75
#BESTPOSA,FILE,0,30.5,FINESTEERING,2319,307272.400,02000800,cdba,17139;SOL_COMPUTED,NARROW_INT,17.59498592287,78.13014106785,526.3481,-76.2000,WGS84,0.0096,0.0085,0.0209,"0",5.400,0.000,54,53,53,51,00,21,3f,37*9818a9d0
#BESTPOSA,FILE,0,30.5,FINESTEERING,2319,307272.450,02000800,cdba,17139;SOL_COMPUTED,NARROW_INT,17.59498689524,78.13013894021,526.3547,-76.2000,WGS84,0.0096,0.0085,0.0210,"0",5.450,0.000,54,53,53,51,00,21,3f,37*d206d265
#BESTPOSA,FILE,0,30.5,FINESTEERING,2319,307272.550,02000800,cdba,17139;SOL_COMPUTED,NARROW_INT,17.59498884549,78.13013462603,526.3586,-76.2000,WGS84,0.0096,0.0085,0.0210,"0",5.550,0.000,53,52,52,50,00,21,3f,37*5abccf7b
#BESTPOSA,FILE,0,30.5,FINESTEERING,2319,307272.650,02000800,cdba,17139;SOL_COMPUTED,NARROW_INT,17.59499082024,78.13013025309,526.3652,-76.2000,WGS84,0.0097,0.0085,0.0211,"0",5.650,0.000,53,52,52,50,00,21,3f,37*2864c135
#BESTPOSA,FILE,0,30.5,FINESTEERING,2319,307272.800,02000800,cdba,17139;SOL_COMPUTED,NARROW_INT,17.59499379840,78.13012365445,526.3743,-76.2000,WGS84,0.0097,0.0086,0.0212,"0",5.800,0.000,52,51,51,49,00,21,3f,37*a991d158
#BESTPOSA,FILE,0,30.5,FINESTEERING,2319,307272.850,02000800,cdba,17139;SOL_COMPUTED,NARROW_INT,17.59499481002,78.13012143032,526.3801,-76.2000,WGS84,0.0097,0.0086,0.0212,"0",5.850,0.000,53,51,51,49,00,21,3f,37*5bf5eacf
#BESTPOSA,FILE,0,30.5,FINESTEERING,2319,307272.950,02000800,cdba,17139;SOL_COMPUTED,NARROW_INT,17.59499686056,78.13011697555,526.3882,-76.2000,WGS84,0.0098,0.0086,0.0213,"0",5.950,0.000,53,51,51,49,00,21,3f,37*c7bd5073
#BESTPOSA,FILE,0,30.5,FINESTEERING,2319,307273.050,02000800,cdba,17139;SOL_COMPUTED,NARROW_INT,17.59499887921,78.13011253610,526.3975,-76.2000,WGS84,0.0099,0.0087,0.0215,"0",6.050,0.000,53,52,52,49,00,21,3f,37*2dfe62f8
#BESTPOSA,FILE,0,30.5,FINESTEERING,2319,307273.200,02000800,cdba,17139;SOL_COMPUTED,NARROW_INT,17.59500184543,78.13010591670,526.4054,-76.2000,WGS84,0.0100,0.0088,0.0216,"0",6.200,0.000,53,53,53,50,00,21,3f,37*c93ed6e2
#BESTPOSA,FILE,0,30.5,FINESTEERING,2319,307273.250,02000800,cdba,17139;SOL_COMPUTED,NARROW_INT,17.59500283938,78.13010372830,526.4099,-76.2000,WGS84,0.0100,0.0088,0.0217,"0",6.250,0.000,53,53,53,50,00,21,3f,37*5658133c
#BESTPOSA,FILE,0,30.5,FINESTEERING,2319,307273.350,02000800,cdba,17139;SOL_COMPUTED,NARROW_INT,17.59500479145,78.13009941491,526.4152,-76.2000,WGS84,0.0101,0.0088,0.0217,"0",6.350,0.000,54,53,53,50,00,21,3f,37*0b6e34e3
#BESTPOSA,FILE,0,30.5,FINESTEERING,2319,307273.450,02000800,cdba,17139;SOL_COMPUTED,NARROW_INT,17.59500673809,78.13009511326,526.4228,-76.2000,WGS84,0.0101,0.0088,0.0218,"0",6.450,0.000,54,52,52,49,00,21,3f,37*787d7e6e
#BESTPOSA,FILE,0,30.5,FINESTEERING,2319,307273.550,02000800,cdba,17139;SOL_COMPUTED,NARROW_INT,17.59500866186,78.13009083626,526.4294,-76.2000,WGS84,0.0101,0.0089,0.0218,"0",6.550,0.000,53,52,52,49,00,21,3f,37*3737c047
#BESTPOSA,FILE,0,30.5,FINESTEERING,2319,307273.650,02000800,cdba,17139;SOL_COMPUTED,NARROW_INT,17.59501060486,78.13008657921,526.4392,-76.2000,WGS84,0.0102,0.0089,0.0219,"0",6.650,0.000,53,52,52,49,00,21,3f,37*18181f02
#BESTPOSA,FILE,0,30.5,FINESTEERING,2319,307273.750,02000800,cdba,17139;SOL_COMPUTED,NARROW_INT,17.59501252192,78.13008232776,526.4507,-76.2000,WGS84,0.0102,0.0089,0.0219,"0",6.750,0.000,53,52,52,49,00,21,3f,37*67f07241
#BESTPOSA,FILE,0,30.5,FINESTEERING,2319,307273.800,02000800,cdba,17139;SOL_COMPUTED,NARROW_INT,17.59501348816,78.13008021775,526.4581,-76.2000,WGS84,0.0102,0.0089,0.0220,"0",6.800,0.000,53,52,52,49,00,21,3f,37*3b83daa5
#BESTPOSA,FILE,0,30.5,FINESTEERING,2319,307273.950,02000800,cdba,17139;SOL_COMPUTED,NARROW_INT,17.59501630013,78.13007391866,526.4679,-76.2000,WGS84,0.0103,0.0090,0.0221,"0",6.950,0.000,53,51,51,48,00,21,3f,37*3df4c14d
#BESTPOSA,FILE,0,30.5,FINESTEERING,2319,307274.000,02000800,cdba,17139;SOL_COMPUTED,NARROW_INT,17.59501724205,78.13007184243,526.4732,-76.2000,WGS84,0.0103,0.0090,0.0221,"0",7.000,0.000,54,51,51,48,00,21,3f,37*c00dc190
#BESTPOSA,FILE,0,30.5,FINESTEERING,2319,307274.100,02000800,cdba,17139;SOL_COMPUTED,NARROW_INT,17.59501910369,78.13006772553,526.4794,-76.2000,WGS84,0.0104,0.0091,0.0224,"0",7.100,0.000,54,52,52,50,00,21,3f,37*9d4b35ee
#BESTPOSA,FILE,0,30.5,FINESTEERING,2319,307274.250,02000800,cdba,17139;SOL_COMPUTED,NARROW_INT,17.59502185458,78.13006157697,526.4853,-76.2000,WGS84,0.0105,0.0091,0.0225,"0",7.250,0.000,55,53,53,51,00,21,3f,37*1332b48d
#BESTPOSA,FILE,0,30.5,FINESTEERING,2319,307274.350,02000800,cdba,17139;SOL_COMPUTED,NARROW_INT,17.59502367068,78.13005753377,526.4904,-76.2000,WGS84,0.0105,0.0092,0.0225,"0",7.350,0.000,55,53,53,51,00,21,3f,37*114a5fa3
#BESTPOSA,FILE,0,30.5,FINESTEERING,2319,307274.450,02000800,cdba,17139;SOL_COMPUTED,NARROW_INT,17.59502547808,78.13005352090,526.4987,-76.2000,WGS84,0.0106,0.0092,0.0226,"0",7.450,0.000,55,53,53,51,00,21,3f,37*594da920
#BESTPOSA,FILE,0,30.5,FINESTEERING,2319,307274.500,02000800,cdba,17139;SOL_COMPUTED,NARROW_INT,17.59502635578,78.13005151164,526.5008,-76.2000,WGS84,0.0106,0.0092,0.0226,"0",7.500,0.000,55,53,53,51,00,21,3f,37*2247a46b
#BESTPOSA,FILE,0,30.5,FINESTEERING,2319,307274.600,02000800,cdba,17139;SOL_COMPUTED,NARROW_INT,17.59502813149,78.13004753615,526.5032,-76.2000,WGS84,0.0106,0.0092,0.0226,"0",7.600,0.000,55,53,53,51,00,21,3f,37*a11ed5b8
#BESTPOSA,FILE,0,30.5,FINESTEERING,2319,307274.700,02000800,cdba,17139;SOL_COMPUTED,NARROW_INT,17.59502988024,78.13004359681,526.5096,-76.2000,WGS84,0.0106,0.0092,0.0227,"0",7.700,0.000,55,53,53,51,00,21,3f,37*4cbd50fa
#BESTPOSA,FILE,0,30.5,FINESTEERING,2319,307274.750,02000800,cdba,17139;SOL_COMPUTED,NARROW_INT,17.59503076324,78.13004164950,526.5125,-76.2000,WGS84,0.0107,0.0093,0.0227,"0",7.750,0.000,55,53,53,51,00,21,3f,37*471da576
#BESTPOSA,FILE,0,30.5,FINESTEERING,2319,307274.800,02000800,cdba,17139;SOL_COMPUTED,NARROW_INT,17.59503164178,78.13003969745,526.5165,-76.2000,WGS84,0.0107,0.0093,0.0227,"0",7.800,0.000,55,53,53,51,00,21,3f,37*3b7c8fc2
#BESTPOSA,FILE,0,30.5,FINESTEERING,2319,307274.850,02000800,cdba,17139;SOL_COMPUTED,NARROW_INT,17.59503250599,78.13003776153,526.5176,-76.2000,WGS84,0.0107,0.0093,0.0228,"0",7.850,0.000,55,53,53,51,00,21,3f,37*ec84d564
#BESTPOSA,FILE,0,30.5,FINESTEERING,2319,307274.900,02000800,cdba,17139;SOL_COMPUTED,NARROW_INT,17.59503336944,78.13003583797,526.5202,-76.2000,WGS84,0.0107,0.0093,0.0228,"0",7.900,0.000,55,53,53,51,00,21,3f,37*013391f3
#BESTPOSA,FILE,0,30.5,FINESTEERING,2319,307274.950,02000800,cdba,17139;SOL_COMPUTED,NARROW_INT,17.59503423280,78.13003391374,526.5228,-76.2000,WGS84,0.0107,0.0093,0.0228,"0",7.950,0.000,55,53,53,51,00,21,3f,37*6cea85d1
#BESTPOSA,FILE,0,30.5,FINESTEERING,2319,307275.000,02000800,cdba,17139;SOL_COMPUTED,NARROW_INT,17.59503508545,78.13003199516,526.5276,-76.2000,WGS84,0.0107,0.0093,0.0229,"0",8.000,0.000,55,53,53,51,00,21,3f,37*0202116f
#BESTPOSA,FILE,0,30.5,FINESTEERING,2319,307275.050,02000800,cdba,17139;SOL_COMPUTED,NARROW_INT,17.59503594474,78.13003007733,526.5328,-76.2000,WGS84,0.0109,0.0094,0.0231,"0",8.050,0.000,55,55,55,53,00,21,3f,37*43e75406
#BESTPOSA,FILE,0,30.5,FINESTEERING,2319,307275.100,02000800,cdba,17139;SOL_COMPUTED,NARROW_INT,17.59503678970,78.13002817027,526.5342,-76.2000,WGS84,0.0109,0.0094,0.0231,"0",8.100,0.000,55,55,55,53,00,21,3f,37*500bc34f
#BESTPOSA,FILE,0,30.5,FINESTEERING,2319,307275.150,02000800,cdba,17139;SOL_COMPUTED,NARROW_INT,17.59503763988,78.13002626764,526.5390,-76.2000,WGS84,0.0109,0.0094,0.0231,"0",8.150,0.000,55,55,55,53,00,21,3f,37*998593cc
#BESTPOSA,FILE,0,30.5,FINESTEERING,2319,307275.200,02000800,cdba,17139;SOL_COMPUTED,NARROW_INT,17.59503851769,78.13002422791,526.5312,-76.2000,WGS84,0.0108,0.0092,0.0228,"0",3.200,0.000,55,55,55,53,00,21,3f,37*f65a336e
#BESTPOSA,FILE,0,30.5,FINESTEERING,2319,307275.250,02000800,cdba,17139;SOL_COMPUTED,NARROW_INT,17.59503936589,78.13002233779,526.5317,-76.2000,WGS84,0.0109,0.0092,0.0228,"0",3.250,0.000,55,55,55,53,00,21,3f,37*61551705
#BESTPOSA,FILE,0,30.5,FINESTEERING,2319,307275.300,02000800,cdba,17139;SOL_COMPUTED,NARROW_INT,17.59504018372,78.13002047306,526.5323,-76.2000,WGS84,0.0109,0.0092,0.0229,"0",3.300,0.000,54,54,54,52,00,21,3f,37*2f2bd079
#BESTPOSA,FILE,0,30.5,FINESTEERING,2319,307275.350,02000800,cdba,17139;SOL_COMPUTED,NARROW_INT,17.59504102221,78.13001859371,526.5353,-76.2000,WGS84,0.0109,0.0092,0.0229,"0",3.350,0.000,55,54,54,52,00,21,3f,37*0e8345b4
#BESTPOSA,FILE,0,30.5,FINESTEERING,2319,307275.400,02000800,cdba,17139;SOL_COMPUTED,NARROW_INT,17.59504185982,78.13001672128,526.5386,-76.2000,WGS84,0.0109,0.0092,0.0229,"0",3.400,0.000,55,54,54,52,00,21,3f,37*ac907300
#BESTPOSA,FILE,0,30.5,FINESTEERING,2319,307275.450,02000800,cdba,17139;SOL_COMPUTED,NARROW_INT,17.59504268989,78.13001486059,526.5439,-76.2000,WGS84,0.0109,0.0092,0.0229,"0",3.450,0.000,55,54,54,52,00,21,3f,37*db50f60d
#BESTPOSA,FILE,0,30.5,FINESTEERING,2319,307275.500,02000000,cdba,17139;SOL_COMPUTED,NARROW_INT,17.59504353483,78.13001300656,526.5462,-76.2000,WGS84,0.0109,0.0092,0.0230,"0",3.500,0.000,55,54,54,52,00,21,3f,37*e0eb5dc6
#BESTPOSA,FILE,0,30.5,FINESTEERING,2319,307275.550,02000000,cdba,17139;SOL_COMPUTED,NARROW_INT,17.59504436708,78.13001116353,526.5510,-76.2000,WGS84,0.0109,0.0093,0.0230,"0",3.550,0.000,55,54,54,52,00,21,3f,37*bf25e648
#BESTPOSA,FILE,0,30.5,FINESTEERING,2319,307275.600,02000000,cdba,17139;SOL_COMPUTED,NARROW_INT,17.59504519474,78.13000932585,526.5546,-76.2000,WGS84,0.0110,0.0093,0.0230,"0",3.600,0.000,55,54,54,52,00,21,3f,37*482fd2ff
#BESTPOSA,FILE,0,30.5,FINESTEERING,2319,307275.650,02000000,cdba,17139;SOL_COMPUTED,NARROW_INT,17.59504601396,78.13000750199,526.5597,-76.2000,WGS84,0.0110,0.0093,0.0230,"0",3.650,0.000,55,54,54,52,00,21,3f,37*8c3a4490
#BESTPOSA,FILE,0,30.5,FINESTEERING,2319,307275.700,02000000,cdba,17139;SOL_COMPUTED,NARROW_INT,17.59504681217,78.13000566507,526.5609,-76.2000,WGS84,0.0110,0.0093,0.0231,"0",3.700,0.000,55,54,54,52,00,21,3f,37*77d87c4e
#BESTPOSA,FILE,0,30.5,FINESTEERING,2319,307275.750,02000000,cdba,17139;SOL_COMPUTED,NARROW_INT,17.59504761608,78.13000383675,526.5620,-76.2000,WGS84,0.0110,0.0093,0.0231,"0",3.750,0.000,55,54,54,52,00,21,3f,37*2e71cdc2
#BESTPOSA,FILE,0,30.5,FINESTEERING,2319,307275.800,02000000,cdba,17139;SOL_COMPUTED,NARROW_INT,17.59504843794,78.13000201565,526.5616,-76.2000,WGS84,0.0110,0.0093,0.0231,"0",3.800,0.000,55,54,54,52,00,21,3f,37*d1c0a3aa
#BESTPOSA,FILE,0,30.5,FINESTEERING,2319,307275.850,02000000,cdba,17139;SOL_COMPUTED,NARROW_INT,17.59504924563,78.13000020155,526.5638,-76.2000,WGS84,0.0110,0.0093,0.0231,"0",3.850,0.000,55,54,54,52,00,21,3f,37*1736ce8b
#BESTPOSA,FILE,0,30.5,FINESTEERING,2319,307275.900,02000000,cdba,17139;SOL_COMPUTED,NARROW_INT,17.59505004308,78.12999839790,526.5656,-76.2000,WGS84,0.0110,0.0093,0.0232,"0",3.900,0.000,55,54,54,52,00,21,3f,37*77f210dc
#BESTPOSA,FILE,0,30.5,FINESTEERING,2319,307275.950,02000000,cdba,17139;SOL_COMPUTED,NARROW_INT,17.59505084723,78.12999659999,526.5675,-76.2000,WGS84,0.0111,0.0094,0.0232,"0",3.950,0.000,55,54,54,52,00,21,3f,37*b252d33f
#BESTPOSA,FILE,0,30.5,FINESTEERING,2319,307276.000,02000000,cdba,17139;SOL_COMPUTED,NARROW_INT,17.59505165054,78.12999480159,526.5687,-76.2000,WGS84,0.0111,0.0094,0.0232,"0",4.000,0.000,55,53,53,51,00,21,3f,37*dcf17a46
#BESTPOSA,FILE,0,30.5,FINESTEERING,2319,307276.050,02000000,cdba,17139;SOL_COMPUTED,NARROW_INT,17.59505246852,78.12999301166,526.5719,-76.2000,WGS84,0.0112,0.0095,0.0234,"0",4.050,0.000,56,54,54,52,00,21,3f,37*58a2c57a
#BESTPOSA,FILE,0,20.5,FINESTEERING,2319,307276.100,02000000,cdba,17139;SOL_COMPUTED,NARROW_INT,17.59505325999,78.12999121857,526.5768,-76.2000,WGS84,0.0112,0.0095,0.0234,"0",4.100,0.000,55,54,54,52,00,21,3f,37*2556a73d
#BESTPOSA,FILE,0,20.5,FINESTEERING,2319,307276.150,02000000,cdba,17139;SOL_COMPUTED,NARROW_INT,17.59505404899,78.12998943441,526.5757,-76.2000,WGS84,0.0112,0.0095,0.0235,"0",4.150,0.000,55,54,54,52,00,21,3f,37*fd686d1e
#BESTPOSA,FILE,0,20.5,FINESTEERING,2319,307276.200,02000000,cdba,17139;SOL_COMPUTED,NARROW_INT,17.59505484585,78.12998765016,526.5797,-76.2000,WGS84,0.0112,0.0095,0.0235,"0",4.200,0.000,55,54,54,52,00,21,3f,37*674e9c14
#BESTPOSA,FILE,0,20.5,FINESTEERING,2319,307276.250,02000000,cdba,17139;SOL_COMPUTED,NARROW_INT,17.59505563483,78.12998586469,526.5835,-76.2000,WGS84,0.0112,0.0095,0.0235,"0",4.250,0.000,55,54,54,52,00,21,3f,37*c685f5d9
#BESTPOSA,FILE,0,20.5,FINESTEERING,2319,307276.300,02000000,cdba,17139;SOL_COMPUTED,NARROW_INT,17.59505642221,78.12998409089,526.5866,-76.2000,WGS84,0.0113,0.0095,0.0235,"0",4.300,0.000,55,54,54,52,00,21,3f,37*ada5bff5
#BESTPOSA,FILE,0,20.5,FINESTEERING,2319,307276.350,02000000,cdba,17139;SOL_COMPUTED,NARROW_INT,17.59505721739,78.12998233003,526.5892,-76.2000,WGS84,0.0113,0.0095,0.0236,"0",4.350,0.000,55,54,54,52,00,21,3f,37*110b799d
#BESTPOSA,FILE,0,20.5,FINESTEERING,2319,307276.400,02000000,cdba,17139;SOL_COMPUTED,NARROW_INT,17.59505797806,78.12998055462,526.5904,-76.2000,WGS84,0.0113,0.0095,0.0236,"0",4.400,0.000,55,54,54,52,00,21,3f,37*c5281c1b
#BESTPOSA,FILE,0,20.5,FINESTEERING,2319,307276.450,02000000,cdba,17139;SOL_COMPUTED,NARROW_INT,17.59505876007,78.12997878488,526.5926,-76.2000,WGS84,0.0113,0.0096,0.0236,"0",4.450,0.000,55,54,54,52,00,21,3f,37*97b32041
#BESTPOSA,FILE,0,20.5,FINESTEERING,2319,307276.500,02000000,cdba,17139;SOL_COMPUTED,NARROW_INT,17.59505954080,78.12997702305,526.5953,-76.2000,WGS84,0.0113,0.0096,0.0236,"0",4.500,0.000,55,54,54,52,00,21,3f,37*48df9a06
#BESTPOSA,FILE,0,20.5,FINESTEERING,2319,307276.550,02000000,cdba,17139;SOL_COMPUTED,NARROW_INT,17.59506031999,78.12997525980,526.5947,-76.2000,WGS84,0.0113,0.0096,0.0237,"0",4.550,0.000,55,54,54,52,00,21,3f,37*cb5a4e08
#BESTPOSA,FILE,0,20.5,FINESTEERING,2319,307276.600,02000000,cdba,17139;SOL_COMPUTED,NARROW_INT,17.59506111247,78.12997348504,526.5950,-76.2000,WGS84,0.0113,0.0096,0.0237,"0",4.600,0.000,55,54,54,52,00,21,3f,37*ee3f1989
#BESTPOSA,FILE,0,20.5,FINESTEERING,2319,307276.650,02000000,cdba,17139;SOL_COMPUTED,NARROW_INT,17.59506188420,78.12997170195,526.5987,-76.2000,WGS84,0.0113,0.0096,0.0237,"0",4.650,0.000,55,54,54,52,00,21,3f,37*03bd2970
#BESTPOSA,FILE,0,20.5,FINESTEERING,2319,307276.700,02000000,cdba,17139;SOL_COMPUTED,NARROW_INT,17.59506266295,78.12996993108,526.5994,-76.2000,WGS84,0.0113,0.0096,0.0237,"0",4.700,0.000,55,54,54,52,00,21,3f,37*104e6258
#BESTPOSA,FILE,0,20.5,FINESTEERING,2319,307276.750,02000000,cdba,17139;SOL_COMPUTED,NARROW_INT,17.59506345663,78.12996814935,526.6026,-76.2000,WGS84,0.0114,0.0096,0.0238,"0",4.750,0.000,55,54,54,52,00,21,3f,37*3e823671
#BESTPOSA,FILE,0,20.5,FINESTEERING,2319,307276.800,02000000,cdba,17139;SOL_COMPUTED,NARROW_INT,17.59506428352,78.12996638768,526.6072,-76.2000,WGS84,0.0114,0.0096,0.0238,"0",4.800,0.000,55,54,54,52,00,21,3f,37*beb5e643
#BESTPOSA,FILE,0,20.5,FINESTEERING,2319,307276.850,02000000,cdba,17139;SOL_COMPUTED,NARROW_INT,17.59506510970,78.12996464922,526.6079,-76.2000,WGS84,0.0114,0.0097,0.0238,"0",4.850,0.000,56,54,54,52,00,21,3f,37*42aed211
#BESTPOSA,FILE,0,20.5,FINESTEERING,2319,307276.900,02000000,cdba,17139;SOL_COMPUTED,NARROW_INT,17.59506594983,78.12996288492,526.6079,-76.2000,WGS84,0.0114,0.0097,0.0238,"0",4.900,0.000,56,54,54,52,00,21,3f,37*4d7ffbe9
#BESTPOSA,FILE,0,20.5,FINESTEERING,2319,307276.950,02000000,cdba,17139;SOL_COMPUTED,NARROW_INT,17.59506678373,78.12996114178,526.6093,-76.2000,WGS84,0.0114,0.0097,0.0238,"0",4.950,0.000,56,54,54,52,00,21,3f,37*2c6786c4
#BESTPOSA,FILE,0,20.5,FINESTEERING,2319,307277.000,02000000,cdba,17139;SOL_COMPUTED,NARROW_INT,17.59506764408,78.12995938368,526.6087,-76.2000,WGS84,0.0114,0.0097,0.0239,"0",5.000,0.000,56,54,54,52,00,21,3f,37*e4ff8163
#BESTPOSA,FILE,0,20.5,FINESTEERING,2319,307277.050,02000000,cdba,17139;SOL_COMPUTED,NARROW_INT,17.59506852011,78.12995764420,526.6092,-76.2000,WGS84,0.0115,0.0098,0.0240,"0",5.050,0.000,56,55,55,53,00,21,3f,37*d81f2863
#BESTPOSA,FILE,0,20.5,FINESTEERING,2319,307277.100,02000000,cdba,17139;SOL_COMPUTED,NARROW_INT,17.59506939020,78.12995588981,526.6119,-76.2000,WGS84,0.0115,0.0098,0.0241,"0",5.100,0.000,56,56,56,53,00,21,3f,37*c2b35781
#BESTPOSA,FILE,0,23.5,FINESTEERING,2319,307277.150,02000000,cdba,17139;SOL_COMPUTED,NARROW_INT,17.59507024581,78.12995412971,526.6138,-76.2000,WGS84,0.0115,0.0098,0.0241,"0",5.150,0.000,56,56,56,53,00,21,3f,37*e3144dcc
#BESTPOSA,FILE,0,23.5,FINESTEERING,2319,307277.200,02000000,cdba,17139;SOL_COMPUTED,NARROW_INT,17.59507111135,78.12995236771,526.6133,-76.2000,WGS84,0.0116,0.0098,0.0241,"0",5.200,0.000,56,56,56,53,00,21,3f,37*acd77e35
#BESTPOSA,FILE,0,23.5,FINESTEERING,2319,307277.250,02000000,cdba,17139;SOL_COMPUTED,NARROW_INT,17.59507191630,78.12995062550,526.6127,-76.2000,WGS84,0.0103,0.0089,0.0220,"0",2.250,0.000,56,56,56,53,00,21,3f,37*6d8af1ba
#BESTPOSA,FILE,0,23.5,FINESTEERING,2319,307277.300,02000000,cdba,17139;SOL_COMPUTED,NARROW_INT,17.59507279165,78.12994885662,526.6145,-76.2000,WGS84,0.0103,0.0089,0.0220,"0",2.300,0.000,56,56,56,53,00,21,3f,37*97225150
#BESTPOSA,FILE,0,23.5,FINESTEERING,2319,307277.350,02000000,cdba,17139;SOL_COMPUTED,NARROW_INT,17.59507367379,78.12994708487,526.6159,-76.2000,WGS84,0.0103,0.0089,0.0220,"0",2.350,0.000,56,56,56,53,00,21,3f,37*427e0f99
#BESTPOSA,FILE,0,23.5,FINESTEERING,2319,307277.400,02000000,cdba,17139;SOL_COMPUTED,NARROW_INT,17.59507456780,78.12994531188,526.6180,-76.2000,WGS84,0.0104,0.0089,0.0221,"0",2.400,0.000,56,56,56,53,00,21,3f,37*6b4c0597
#BESTPOSA,FILE,0,23.5,FINESTEERING,2319,307277.450,02000000,cdba,17139;SOL_COMPUTED,NARROW_INT,17.59507547201,78.12994361441,526.6247,-76.2000,WGS84,0.0069,0.0062,0.0167,"0",0.450,0.000,56,56,56,53,00,21,3f,37*efe0761b
#BESTPOSA,FILE,0,23.5,FINESTEERING,2319,307277.500,02000000,cdba,17139;SOL_COMPUTED,NARROW_INT,17.59507638920,78.12994182744,526.6263,-76.2000,WGS84,0.0069,0.0062,0.0167,"0",0.500,0.000,56,56,56,53,00,21,3f,37*699d6b40
#BESTPOSA,FILE,0,23.5,FINESTEERING,2319,307277.550,02000000,cdba,17139;SOL_COMPUTED,NARROW_INT,17.59507732500,78.12994003420,526.6298,-76.2000,WGS84,0.0069,0.0062,0.0168,"0",0.550,0.000,56,56,56,53,00,21,3f,37*e96378ac
#BESTPOSA,FILE,0,23.5,FINESTEERING,2319,307277.600,02000000,cdba,17139;SOL_COMPUTED,NARROW_INT,17.59507824966,78.12993824544,526.6308,-76.2000,WGS84,0.0069,0.0062,0.0168,"0",0.600,0.000,56,56,56,53,00,21,3f,37*2f0d4f41
#BESTPOSA,FILE,0,23.5,FINESTEERING,2319,307277.650,02000000,cdba,17139;SOL_COMPUTED,NARROW_INT,17.59507918870,78.12993643215,526.6298,-76.2000,WGS84,0.0070,0.0062,0.0168,"0",0.650,0.000,56,56,56,53,00,21,3f,37*9bfc7899
#BESTPOSA,FILE,0,23.5,FINESTEERING,2319,307277.700,02000000,cdba,17139;SOL_COMPUTED,NARROW_INT,17.59508013176,78.12993462032,526.6300,-76.2000,WGS84,0.0070,0.0062,0.0169,"0",0.700,0.000,56,56,56,53,00,21,3f,37*2c3e54b6
#BESTPOSA,FILE,0,23.5,FINESTEERING,2319,307277.750,02000000,cdba,17139;SOL_COMPUTED,NARROW_INT,17.59508109335,78.12993279466,526.6350,-76.2000,WGS84,0.0070,0.0063,0.0169,"0",0.750,0.000,56,56,56,53,00,21,3f,37*9f567bbf
#BESTPOSA,FILE,0,23.5,FINESTEERING,2319,307277.800,02000000,cdba,17139;SOL_COMPUTED,NARROW_INT,17.59508205418,78.12993096530,526.6336,-76.2000,WGS84,0.0070,0.0063,0.0169,"0",0.800,0.000,56,56,56,53,00,21,3f,37*4cff78c8
#BESTPOSA,FILE,0,23.5,FINESTEERING,2319,307277.850,02000000,cdba,17139;SOL_COMPUTED,NARROW_INT,17.59508301978,78.12992912248,526.6351,-76.2000,WGS84,0.0070,0.0063,0.0170,"0",0.850,0.000,56,56,56,53,00,21,3f,37*5e2b8e22
#BESTPOSA,FILE,0,23.5,FINESTEERING,2319,307277.900,02000000,cdba,17139;SOL_COMPUTED,NARROW_INT,17.59508398746,78.12992725708,526.6348,-76.2000,WGS84,0.0071,0.0063,0.0170,"0",0.900,0.000,56,56,56,53,00,21,3f,37*1b794200
#BESTPOSA,FILE,0,23.5,FINESTEERING,2319,307277.950,02000000,cdba,17139;SOL_COMPUTED,NARROW_INT,17.59508496153,78.12992539126,526.6350,-76.2000,WGS84,0.0071,0.0063,0.0170,"0",0.950,0.000,56,56,56,53,00,21,3f,37*232df97e
#BESTPOSA,FILE,0,23.5,FINESTEERING,2319,307278.000,02000000,cdba,17139;SOL_COMPUTED,NARROW_INT,17.59508595533,78.12992351860,526.6372,-76.2000,WGS84,0.0071,0.0063,0.0171,"0",1.000,0.000,56,56,56,53,00,21,3f,37*3cf57115
#BESTPOSA,FILE,0,23.5,FINESTEERING,2319,307278.050,02000000,cdba,17139;SOL_COMPUTED,NARROW_INT,17.59508696520,78.12992163273,526.6370,-76.2000,WGS84,0.0073,0.0064,0.0173,"0",1.050,0.000,56,56,56,53,00,21,3f,37*e7e162c7
#BESTPOSA,FILE,0,23.5,FINESTEERING,2319,307278.100,02000000,cdba,17139;SOL_COMPUTED,NARROW_INT,17.59508799964,78.12991973762,526.6417,-76.2000,WGS84,0.0073,0.0065,0.0173,"0",1.100,0.000,56,56,56,53,00,21,3f,37*9978e175
#BESTPOSA,FILE,0,27.0,FINESTEERING,2319,307278.150,02000000,cdba,17139;SOL_COMPUTED,NARROW_INT,17.59508903275,78.12991783957,526.6423,-76.2000,WGS84,0.0073,0.0065,0.0174,"0",1.150,0.000,56,56,56,53,00,21,3f,37*95587d66
#BESTPOSA,FILE,0,27.0,FINESTEERING,2319,307278.200,02000000,cdba,17139;SOL_COMPUTED,NARROW_INT,17.59509007439,78.12991591440,526.6438,-76.2000,WGS84,0.0073,0.0065,0.0174,"0",1.200,0.000,56,56,56,53,00,21,3f,37*d18a705f
#BESTPOSA,FILE,0,27.0,FINESTEERING,2319,307278.250,02000000,cdba,17139;SOL_COMPUTED,NARROW_INT,17.59509111041,78.12991397224,526.6445,-76.2000,WGS84,0.0074,0.0065,0.0174,"0",1.250,0.000,56,56,56,53,00,21,3f,37*019bc6a1
#BESTPOSA,FILE,0,27.0,FINESTEERING,2319,307278.300,02000000,cdba,17139;SOL_COMPUTED,NARROW_INT,17.59509216656,78.12991201852,526.6478,-76.2000,WGS84,0.0074,0.0065,0.0175,"0",1.300,0.000,56,56,56,53,00,21,3f,37*710926f3
#BESTPOSA,FILE,0,27.0,FINESTEERING,2319,307278.350,02000000,cdba,17139;SOL_COMPUTED,NARROW_INT,17.59509322922,78.12991004938,526.6501,-76.2000,WGS84,0.0074,0.0066,0.0175,"0",1.350,0.000,56,56,56,53,00,21,3f,37*a8403f23
#BESTPOSA,FILE,0,27.0,FINESTEERING,2319,307278.400,02000000,cdba,17139;SOL_COMPUTED,NARROW_INT,17.59509428205,78.12990807958,526.6498,-76.2000,WGS84,0.0068,0.0060,0.0165,"0",0.400,0.000,56,56,56,53,00,21,3f,37*a522c757
#BESTPOSA,FILE,0,27.0,FINESTEERING,2319,307278.450,02000000,cdba,17139;SOL_COMPUTED,NARROW_INT,17.59509536436,78.12990608154,526.6503,-76.2000,WGS84,0.0068,0.0060,0.0165,"0",0.450,0.000,56,56,56,53,00,21,3f,37*15ea8dfe
#BESTPOSA,FILE,0,27.0,FINESTEERING,2319,307278.500,02000000,cdba,17139;SOL_COMPUTED,NARROW_INT,17.59509647343,78.12990406583,526.6538,-76.2000,WGS84,0.0068,0.0061,0.0165,"0",0.500,0.000,56,56,56,53,00,21,3f,37*df25d436
#BESTPOSA,FILE,0,27.0,FINESTEERING,2319,307278.550,02000000,cdba,17139;SOL_COMPUTED,NARROW_INT,17.59509757204,78.12990204357,526.6583,-76.2000,WGS84,0.0068,0.0061,0.0166,"0",0.550,0.000,56,56,56,53,00,21,3f,37*91e81e3a
#BESTPOSA,FILE,0,27.0,FINESTEERING,2319,307278.600,02000000,cdba,17139;SOL_COMPUTED,NARROW_INT,17.59509868183,78.12990000824,526.6557,-76.2000,WGS84,0.0069,0.0061,0.0166,"0",0.600,0.000,56,56,56,53,00,21,3f,37*096c17b8
#BESTPOSA,FILE,0,27.0,FINESTEERING,2319,307278.650,02000000,cdba,17139;SOL_COMPUTED,NARROW_INT,17.59509978325,78.12989793680,526.6566,-76.2000,WGS84,0.0069,0.0061,0.0167,"0",0.650,0.000,56,56,56,53,00,21,3f,37*da563b6e
#BESTPOSA,FILE,0,27.0,FINESTEERING,2319,307278.700,02000000,cdba,17139;SOL_COMPUTED,NARROW_INT,17.59510089286,78.12989584752,526.6581,-76.2000,WGS84,0.0069,0.0061,0.0167,"0",0.700,0.000,56,56,56,53,00,21,3f,37*1fa0cae5
#BESTPOSA,FILE,0,27.0,FINESTEERING,2319,307278.750,02000000,cdba,17139;SOL_COMPUTED,NARROW_INT,17.59510201382,78.12989374711,526.6598,-76.2000,WGS84,0.0069,0.0062,0.0167,"0",0.750,0.000,56,56,56,53,00,21,3f,37*787f5fb9
#BESTPOSA,FILE,0,27.0,FINESTEERING,2319,307278.800,02000000,cdba,17139;SOL_COMPUTED,NARROW_INT,17.59510314009,78.12989163847,526.6615,-76.2000,WGS84,0.0069,0.0062,0.0168,"0",0.800,0.000,55,55,55,53,00,21,3f,37*e680a95f
#BESTPOSA,FILE,0,27.0,FINESTEERING,2319,307278.850,02000000,cdba,17139;SOL_COMPUTED,NARROW_INT,17.59510425583,78.12988951251,526.6627,-76.2000,WGS84,0.0070,0.0062,0.0168,"0",0.850,0.000,56,55,55,53,00,21,3f,37*0111dc2f
#BESTPOSA,FILE,0,27.0,FINESTEERING,2319,307278.900,02000000,cdba,17139;SOL_COMPUTED,NARROW_INT,17.59510537675,78.12988739114,526.6621,-76.2000,WGS84,0.0070,0.0062,0.0168,"0",0.900,0.000,56,55,55,53,00,21,3f,37*97ac1200
#BESTPOSA,FILE,0,27.0,FINESTEERING,2319,307278.950,02000000,cdba,17139;SOL_COMPUTED,NARROW_INT,17.59510650419,78.12988523331,526.6652,-76.2000,WGS84,0.0070,0.0062,0.0168,"0",0.950,0.000,56,55,55,53,00,21,3f,37*fef0454d
#BESTPOSA,FILE,0,27.0,FINESTEERING,2319,307279.000,02000000,cdba,17139;SOL_COMPUTED,NARROW_INT,17.59510763104,78.12988305690,526.6656,-76.2000,WGS84,0.0070,0.0062,0.0169,"0",1.000,0.000,56,55,55,53,00,21,3f,37*fd5e1980
#BESTPOSA,FILE,0,27.0,FINESTEERING,2319,307279.050,02000000,cdba,17139;SOL_COMPUTED,NARROW_INT,17.59510874324,78.12988085922,526.6663,-76.2000,WGS84,0.0071,0.0063,0.0171,"0",1.050,0.000,56,55,55,53,00,21,3f,37*05859578
#BESTPOSA,FILE,0,22.0,FINESTEERING,2319,307279.100,02000000,cdba,17139;SOL_COMPUTED,NARROW_INT,17.59510987818,78.12987867178,526.6648,-76.2000,WGS84,0.0072,0.0064,0.0171,"0",1.100,0.000,55,55,55,53,00,21,3f,37*864bdef7
#BESTPOSA,FILE,0,22.0,FINESTEERING,2319,307279.150,02000000,cdba,17139;SOL_COMPUTED,NARROW_INT,17.59511104252,78.12987646617,526.6661,-76.2000,WGS84,0.0072,0.0064,0.0172,"0",1.150,0.000,55,55,55,52,00,21,3f,37*fd8da271
#BESTPOSA,FILE,0,22.0,FINESTEERING,2319,307279.200,02000000,cdba,17139;SOL_COMPUTED,NARROW_INT,17.59511218198,78.12987423931,526.6666,-76.2000,WGS84,0.0072,0.0064,0.0172,"0",1.200,0.000,56,55,55,52,00,21,3f,37*6d93df2b
#BESTPOSA,FILE,0,22.0,FINESTEERING,2319,307279.250,02000000,cdba,17139;SOL_COMPUTED,NARROW_INT,17.59511334631,78.12987201440,526.6656,-76.2000,WGS84,0.0072,0.0064,0.0172,"0",1.250,0.000,56,55,55,52,00,21,3f,37*73d6d1d6
#BESTPOSA,FILE,0,22.0,FINESTEERING,2319,307279.300,02000000,cdba,17139;SOL_COMPUTED,NARROW_INT,17.59511451911,78.12986976271,526.6684,-76.2000,WGS84,0.0073,0.0064,0.0173,"0",1.300,0.000,56,55,55,52,00,21,3f,37*9d82afb8
#BESTPOSA,FILE,0,22.0,FINESTEERING,2319,307279.350,02000000,cdba,17139;SOL_COMPUTED,NARROW_INT,17.59511570354,78.12986749161,526.6706,-76.2000,WGS84,0.0073,0.0064,0.0173,"0",1.350,0.000,56,55,55,52,00,21,3f,37*6088b622
#BESTPOSA,FILE,0,22.0,FINESTEERING,2319,307279.400,02000000,cdba,17139;SOL_COMPUTED,NARROW_INT,17.59511690493,78.12986521402,526.6706,-76.2000,WGS84,0.0073,0.0065,0.0173,"0",1.400,0.000,55,55,55,52,00,21,3f,37*8029fc24
#BESTPOSA,FILE,0,22.0,FINESTEERING,2319,307279.450,02000000,cdba,17139;SOL_COMPUTED,NARROW_INT,17.59511810262,78.12986291353,526.6750,-76.2000,WGS84,0.0073,0.0065,0.0174,"0",1.450,0.000,56,55,55,52,00,21,3f,37*d5772525
#BESTPOSA,FILE,0,22.0,FINESTEERING,2319,307279.500,02000000,cdba,17139;SOL_COMPUTED,NARROW_INT,17.59511930209,78.12986059997,526.6750,-76.2000,WGS84,0.0074,0.0065,0.0174,"0",1.500,0.000,56,55,55,52,00,21,3f,37*9274a193
#BESTPOSA,FILE,0,22.0,FINESTEERING,2319,307279.550,02000000,cdba,17139;SOL_COMPUTED,NARROW_INT,17.59512051040,78.12985828825,526.6770,-76.2000,WGS84,0.0074,0.0065,0.0174,"0",1.550,0.000,55,55,55,52,00,21,3f,37*31389b19
#BESTPOSA,FILE,0,22.0,FINESTEERING,2319,307279.600,02000000,cdba,17139;SOL_COMPUTED,NARROW_INT,17.59512172615,78.12985597982,526.6771,-76.2000,WGS84,0.0074,0.0065,0.0175,"0",1.600,0.000,55,55,55,52,00,21,3f,37*7d57a02c
#BESTPOSA,FILE,0,22.0,FINESTEERING,2319,307279.650,02000000,cdba,17139;SOL_COMPUTED,NARROW_INT,17.59512294858,78.12985364038,526.6807,-76.2000,WGS84,0.0074,0.0065,0.0175,"0",1.650,0.000,55,55,55,52,00,21,3f,37*ee0e49d0
#BESTPOSA,FILE,0,22.0,FINESTEERING,2319,307279.700,02000000,cdba,17139;SOL_COMPUTED,NARROW_INT,17.59512417274,78.12985127792,526.6819,-76.2000,WGS84,0.0074,0.0066,0.0175,"0",1.700,0.000,55,55,55,52,00,21,3f,37*18bf3445
#BESTPOSA,FILE,0,22.0,FINESTEERING,2319,307279.750,02000000,cdba,17139;SOL_COMPUTED,NARROW_INT,17.59512540688,78.12984892750,526.6838,-76.2000,WGS84,0.0074,0.0066,0.0175,"0",1.750,0.000,55,55,55,52,00,21,3f,37*30ee434e
#BESTPOSA,FILE,0,22.0,FINESTEERING,2319,307279.800,02000000,cdba,17139;SOL_COMPUTED,NARROW_INT,17.59512664595,78.12984657200,526.6847,-76.2000,WGS84,0.0075,0.0066,0.0176,"0",1.800,0.000,55,55,55,52,00,21,3f,37*ab816571
#BESTPOSA,FILE,0,22.0,FINESTEERING,2319,307279.850,02000000,cdba,17139;SOL_COMPUTED,NARROW_INT,17.59512789454,78.12984419689,526.6822,-76.2000,WGS84,0.0075,0.0066,0.0176,"0",1.850,0.000,55,55,55,52,00,21,3f,37*3ad36254
#BESTPOSA,FILE,0,22.0,FINESTEERING,2319,307279.900,02000000,cdba,17139;SOL_COMPUTED,NARROW_INT,17.59512914783,78.12984181235,526.6857,-76.2000,WGS84,0.0075,0.0066,0.0176,"0",1.900,0.000,55,55,55,52,00,21,3f,37*c469c89b
#BESTPOSA,FILE,0,22.0,FINESTEERING,2319,307279.950,02000000,cdba,17139;SOL_COMPUTED,NARROW_INT,17.59513041183,78.12983942936,526.6864,-76.2000,WGS84,0.0075,0.0066,0.0176,"0",1.950,0.000,55,55,55,52,00,21,3f,37*2dec0f0e
#BESTPOSA,FILE,0,22.0,FINESTEERING,2319,307280.000,02000000,cdba,17139;SOL_COMPUTED,NARROW_INT,17.59513167261,78.12983702683,526.6885,-76.2000,WGS84,0.0075,0.0066,0.0177,"0",2.000,0.000,55,55,55,52,00,21,3f,37*6f395335
#BESTPOSA,FILE,0,22.0,FINESTEERING,2319,307280.050,02000000,cdba,17139;SOL_COMPUTED,NARROW_INT,17.59513292424,78.12983461551,526.6901,-76.2000,WGS84,0.0077,0.0067,0.0179,"0",2.050,0.000,55,55,55,53,00,21,3f,37*95c63f86
#BESTPOSA,FILE,0,22.0,FINESTEERING,2319,307280.100,02000000,cdba,17139;SOL_COMPUTED,NARROW_INT,17.59513418791,78.12983218266,526.6920,-76.2000,WGS84,0.0077,0.0068,0.0179,"0",2.100,0.000,55,55,55,53,00,21,3f,37*adbcbf75
#BESTPOSA,FILE,0,24.0,FINESTEERING,2319,307280.150,02000000,cdba,17139;SOL_COMPUTED,NARROW_INT,17.59513547101,78.12982974425,526.6952,-76.2000,WGS84,0.0077,0.0068,0.0179,"0",2.150,0.000,55,55,55,53,00,21,3f,37*585c55a2
#BESTPOSA,FILE,0,24.0,FINESTEERING,2319,307280.200,02000000,cdba,17139;SOL_COMPUTED,NARROW_INT,17.59513676694,78.12982727767,526.6989,-76.2000,WGS84,0.0077,0.0068,0.0180,"0",2.200,0.000,55,55,55,53,00,21,3f,37*00fec556
#BESTPOSA,FILE,0,24.0,FINESTEERING,2319,307280.250,02000000,cdba,17139;SOL_COMPUTED,NARROW_INT,17.59513807983,78.12982480011,526.7019,-76.2000,WGS84,0.0077,0.0068,0.0180,"0",2.250,0.000,55,55,55,53,00,21,3f,37*c7304700
#BESTPOSA,FILE,0,24.0,FINESTEERING,2319,307280.300,02000000,cdba,17139;SOL_COMPUTED,NARROW_INT,17.59513937712,78.12982229962,526.7033,-76.2000,WGS84,0.0078,0.0068,0.0180,"0",2.300,0.000,55,55,55,53,00,21,3f,37*77183952
#BESTPOSA,FILE,0,24.0,FINESTEERING,2319,307280.350,02000000,cdba,17139;SOL_COMPUTED,NARROW_INT,17.59514066387,78.12981978938,526.7046,-76.2000,WGS84,0.0078,0.0068,0.0181,"0",2.350,0.000,56,55,55,53,00,21,3f,37*1ea529f1
#BESTPOSA,FILE,0,24.0,FINESTEERING,2319,307280.400,02000000,cdba,17139;SOL_COMPUTED,NARROW_INT,17.59514196515,78.12981727212,526.7091,-76.2000,WGS84,0.0078,0.0069,0.0181,"0",2.400,0.000,56,55,55,53,00,21,3f,37*919d05f2
#BESTPOSA,FILE,0,24.0,FINESTEERING,2319,307280.450,02000000,cdba,17139;SOL_COMPUTED,NARROW_INT,17.59514325948,78.12981473228,526.7131,-76.2000,WGS84,0.0078,0.0069,0.0181,"0",2.450,0.000,56,55,55,53,00,21,3f,37*6f66dd63
#BESTPOSA,FILE,0,24.0,FINESTEERING,2319,307280.500,02000000,cdba,17139;SOL_COMPUTED,NARROW_INT,17.59514454331,78.12981217198,526.7167,-76.2000,WGS84,0.0078,0.0069,0.0181,"0",2.500,0.000,56,55,55,53,00,21,3f,37*2461ecd5
#BESTPOSA,FILE,0,24.0,FINESTEERING,2319,307280.550,02000000,cdba,17139;SOL_COMPUTED,NARROW_INT,17.59514583645,78.12980960453,526.7184,-76.2000,WGS84,0.0079,0.0069,0.0182,"0",2.550,0.000,56,55,55,53,00,21,3f,37*9ff70733
#BESTPOSA,FILE,0,24.0,FINESTEERING,2319,307280.600,02000000,cdba,17139;SOL_COMPUTED,NARROW_INT,17.59514712750,78.12980704767,526.7223,-76.2000,WGS84,0.0079,0.0069,0.0182,"0",2.600,0.000,56,55,55,53,00,21,3f,37*4416ddf4
#BESTPOSA,FILE,0,24.0,FINESTEERING,2319,307280.650,02000000,cdba,17139;SOL_COMPUTED,NARROW_INT,17.59514841781,78.12980448482,526.7218,-76.2000,WGS84,0.0079,0.0069,0.0182,"0",2.650,0.000,56,55,55,53,00,21,3f,37*dffb6891
#BESTPOSA,FILE,0,24.0,FINESTEERING,2319,307280.700,02000000,cdba,17139;SOL_COMPUTED,NARROW_INT,17.59514972018,78.12980192431,526.7220,-76.2000,WGS84,0.0079,0.0070,0.0183,"0",2.700,0.000,56,55,55,53,00,21,3f,37*b7ff2998
#BESTPOSA,FILE,0,24.0,FINESTEERING,2319,307280.750,02000000,cdba,17139;SOL_COMPUTED,NARROW_INT,17.59515102539,78.12979933790,526.7228,-76.2000,WGS84,0.0079,0.0070,0.0183,"0",2.750,0.000,56,55,55,53,00,21,3f,37*fa915d77
#BESTPOSA,FILE,0,24.0,FINESTEERING,2319,307280.800,02000000,cdba,17139;SOL_COMPUTED,NARROW_INT,17.59515232127,78.12979673645,526.7227,-76.2000,WGS84,0.0079,0.0070,0.0183,"0",2.800,0.000,56,55,55,53,00,21,3f,37*4f18b8ce
#BESTPOSA,FILE,0,24.0,FINESTEERING,2319,307280.850,02000000,cdba,17139;SOL_COMPUTED,NARROW_INT,17.59515361066,78.12979412044,526.7242,-76.2000,WGS84,0.0079,0.0070,0.0183,"0",2.850,0.000,56,55,55,53,00,21,3f,37*7f878a66
#BESTPOSA,FILE,0,24.0,FINESTEERING,2319,307280.900,02000000,cdba,17139;SOL_COMPUTED,NARROW_INT,17.59515489563,78.12979149727,526.7220,-76.2000,WGS84,0.0080,0.0070,0.0184,"0",2.900,0.000,56,55,55,53,00,21,3f,37*c0cd9ad6
#BESTPOSA,FILE,0,24.0,FINESTEERING,2319,307280.950,02000000,cdba,17139;SOL_COMPUTED,NARROW_INT,17.59515618279,78.12978883782,526.7230,-76.2000,WGS84,0.0080,0.0070,0.0184,"0",2.950,0.000,56,55,55,53,00,21,3f,37*627b8ff8
#BESTPOSA,FILE,0,24.0,FINESTEERING,2319,307281.000,02000000,cdba,17139;SOL_COMPUTED,NARROW_INT,17.59515748401,78.12978618593,526.7259,-76.2000,WGS84,0.0080,0.0070,0.0184,"0",3.000,0.000,56,55,55,53,00,21,3f,37*e72aac41
#BESTPOSA,FILE,0,24.0,FINESTEERING,2319,307281.050,02000000,cdba,17139;SOL_COMPUTED,NARROW_INT,17.59515881120,78.12978351633,526.7289,-76.2000,WGS84,0.0081,0.0071,0.0186,"0",3.050,0.000,56,56,56,53,00,21,3f,37*6d3b84ec
#BESTPOSA,FILE,0,24.0,FINESTEERING,2319,307281.100,02000000,cdba,17139;SOL_COMPUTED,NARROW_INT,17.59516014194,78.12978084461,526.7305,-76.2000,WGS84,0.0081,0.0071,0.0186,"0",3.100,0.000,56,56,56,53,00,21,3f,37*2cddfd35
#BESTPOSA,FILE,0,28.0,FINESTEERING,2319,307281.150,02000000,cdba,17139;SOL_COMPUTED,NARROW_INT,17.59516146690,78.12977816208,526.7322,-76.2000,WGS84,0.0081,0.0072,0.0187,"0",3.150,0.000,56,56,56,53,00,21,3f,37*2f0a9105
#BESTPOSA,FILE,0,28.0,FINESTEERING,2319,307281.200,02000000,cdba,17139;SOL_COMPUTED,NARROW_INT,17.59516279129,78.12977545430,526.7341,-76.2000,WGS84,0.0082,0.0072,0.0187,"0",3.200,0.000,56,56,56,53,00,21,3f,37*b4369586
#BESTPOSA,FILE,0,28.0,FINESTEERING,2319,307281.250,02000000,cdba,17139;SOL_COMPUTED,NARROW_INT,17.59516411339,78.12977273073,526.7369,-76.2000,WGS84,0.0082,0.0072,0.0187,"0",3.250,0.000,56,56,56,53,00,21,3f,37*08318ca4
#BESTPOSA,FILE,0,28.0,FINESTEERING,2319,307281.300,02000000,cdba,17139;SOL_COMPUTED,NARROW_INT,17.59516543951,78.12976998799,526.7412,-76.2000,WGS84,0.0082,0.0072,0.0187,"0",3.300,0.000,56,56,56,53,00,21,3f,37*f4346b35
#BESTPOSA,FILE,0,28.0,FINESTEERING,2319,307281.350,02000000,cdba,17139;SOL_COMPUTED,NARROW_INT,17.59516674270,78.12976723601,526.7435,-76.2000,WGS84,0.0082,0.0072,0.0188,"0",3.350,0.000,56,56,56,53,00,21,3f,37*f0735a72
#BESTPOSA,FILE,0,28.0,FINESTEERING,2319,307281.400,02000000,cdba,17139;SOL_COMPUTED,NARROW_INT,17.59516806547,78.12976448347,526.7464,-76.2000,WGS84,0.0082,0.0072,0.0188,"0",3.400,0.000,56,56,56,53,00,21,3f,37*c6a264bf
#BESTPOSA,FILE,0,28.0,FINESTEERING,2319,307281.450,02000000,cdba,17139;SOL_COMPUTED,NARROW_INT,17.59516938889,78.12976170646,526.7492,-76.2000,WGS84,0.0082,0.0073,0.0188,"0",3.450,0.000,56,56,56,53,00,21,3f,37*41f9d6be
#BESTPOSA,FILE,0,28.0,FINESTEERING,2319,307281.500,02000000,cdba,17139;SOL_COMPUTED,NARROW_INT,17.59517070817,78.12975892615,526.7504,-76.2000,WGS84,0.0083,0.0073,0.0188,"0",3.500,0.000,56,56,56,53,00,21,3f,37*e644c1ee
#BESTPOSA,FILE,0,28.0,FINESTEERING,2319,307281.550,02000000,cdba,17139;SOL_COMPUTED,NARROW_INT,17.59517204409,78.12975612399,526.7518,-76.2000,WGS84,0.0083,0.0073,0.0189,"0",3.550,0.000,56,56,56,53,00,21,3f,37*e4882a7c
#BESTPOSA,FILE,0,28.0,FINESTEERING,2319,307281.600,02000000,cdba,17139;SOL_COMPUTED,NARROW_INT,17.59517337685,78.12975332086,526.7549,-76.2000,WGS84,0.0083,0.0073,0.0189,"0",3.600,0.000,56,56,56,53,00,21,3f,37*251f10d5
#BESTPOSA,FILE,0,28.0,FINESTEERING,2319,307281.650,02000000,cdba,17139;SOL_COMPUTED,NARROW_INT,17.59517469406,78.12975048129,526.7564,-76.2000,WGS84,0.0083,0.0073,0.0189,"0",3.650,0.000,56,56,56,53,00,21,3f,37*fd292d01
#BESTPOSA,FILE,0,28.0,FINESTEERING,2319,307281.700,02000000,cdba,17139;SOL_COMPUTED,NARROW_INT,17.59517601487,78.12974763789,526.7583,-76.2000,WGS84,0.0083,0.0073,0.0189,"0",3.700,0.000,56,56,56,53,00,21,3f,37*eb3ad9a5
#BESTPOSA,FILE,0,28.0,FINESTEERING,2319,307281.750,02000000,cdba,17139;SOL_COMPUTED,NARROW_INT,17.59517734758,78.12974478588,526.7605,-76.2000,WGS84,0.0083,0.0073,0.0190,"0",3.750,0.000,56,56,56,53,00,21,3f,37*69332f89
#BESTPOSA,FILE,0,28.0,FINESTEERING,2319,307281.800,02000000,cdba,17139;SOL_COMPUTED,NARROW_INT,17.59517867249,78.12974191600,526.7640,-76.2000,WGS84,0.0083,0.0074,0.0190,"0",3.800,0.000,56,56,56,53,00,21,3f,37*dcf5bdde
#BESTPOSA,FILE,0,28.0,FINESTEERING,2319,307281.850,02000000,cdba,17139;SOL_COMPUTED,NARROW_INT,17.59518000902,78.12973903857,526.7637,-76.2000,WGS84,0.0084,0.0074,0.0190,"0",3.850,0.000,56,56,56,53,00,21,3f,37*c9e0debd
#BESTPOSA,FILE,0,28.0,FINESTEERING,2319,307281.900,02000000,cdba,17139;SOL_COMPUTED,NARROW_INT,17.59518134995,78.12973615584,526.7659,-76.2000,WGS84,0.0084,0.0074,0.0190,"0",3.900,0.000,56,56,56,53,00,21,3f,37*9f0d6517
#BESTPOSA,FILE,0,28.0,FINESTEERING,2319,307281.950,02000000,cdba,17139;SOL_COMPUTED,NARROW_INT,17.59518269620,78.12973325182,526.7685,-76.2000,WGS84,0.0084,0.0074,0.0191,"0",3.950,0.000,56,56,56,53,00,21,3f,37*a3997ff2
#BESTPOSA,FILE,0,28.0,FINESTEERING,2319,307282.000,02000000,cdba,17139;SOL_COMPUTED,NARROW_INT,17.59518403251,78.12973033486,526.7698,-76.2000,WGS84,0.0084,0.0074,0.0191,"0",4.000,0.000,56,56,56,53,00,21,3f,37*c90f3a32
#BESTPOSA,FILE,0,28.0,FINESTEERING,2319,307282.050,02000000,cdba,17139;SOL_COMPUTED,NARROW_INT,17.59518537466,78.12972741159,526.7729,-76.2000,WGS84,0.0085,0.0075,0.0193,"0",4.050,0.000,56,56,56,53,00,21,3f,37*94c10c1a
#BESTPOSA,FILE,0,28.0,FINESTEERING,2319,307282.100,02000000,cdba,17139;SOL_COMPUTED,NARROW_INT,17.59518672271,78.12972447637,526.7754,-76.2000,WGS84,0.0085,0.0075,0.0193,"0",4.100,0.000,56,56,56,53,00,21,3f,37*f732ffd0
#BESTPOSA,FILE,0,28.0,FINESTEERING,2319,307282.150,02000000,cdba,17139;SOL_COMPUTED,NARROW_INT,17.59518805449,78.12972153461,526.7758,-76.2000,WGS84,0.0085,0.0075,0.0193,"0",4.150,0.000,56,56,56,53,00,21,3f,37*d8f6d836
#BESTPOSA,FILE,0,28.0,FINESTEERING,2319,307282.200,02000000,cdba,17139;SOL_COMPUTED,NARROW_INT,17.59518941358,78.12971857153,526.7768,-76.2000,WGS84,0.0085,0.0075,0.0193,"0",4.200,0.000,56,56,56,53,00,21,3f,37*e900e323
#BESTPOSA,FILE,0,27.0,FINESTEERING,2319,307282.250,02000000,cdba,17139;SOL_COMPUTED,NARROW_INT,17.59519076695,78.12971559768,526.7788,-76.2000,WGS84,0.0085,0.0076,0.0194,"0",4.250,0.000,56,56,56,53,00,21,3f,37*2295071a
#BESTPOSA,FILE,0,27.0,FINESTEERING,2319,307282.300,02000000,cdba,17139;SOL_COMPUTED,NARROW_INT,17.59519211866,78.12971260490,526.7817,-76.2000,WGS84,0.0086,0.0076,0.0194,"0",4.300,0.000,56,56,56,53,00,21,3f,37*bbfef51a
#BESTPOSA,FILE,0,27.0,FINESTEERING,2319,307282.350,02000000,cdba,17139;SOL_COMPUTED,NARROW_INT,17.59519348595,78.12970959107,526.7835,-76.2000,WGS84,0.0086,0.0076,0.0194,"0",4.350,0.000,56,56,56,53,00,21,3f,37*7206a8da
#BESTPOSA,FILE,0,27.0,FINESTEERING,2319,307282.400,02000000,cdba,17139;SOL_COMPUTED,NARROW_INT,17.59519485548,78.12970656981,526.7858,-76.2000,WGS84,0.0086,0.0076,0.0194,"0",4.400,0.000,56,56,56,53,00,21,3f,37*576db7f4
#BESTPOSA,FILE,0,27.0,FINESTEERING,2319,307282.450,02000000,cdba,17139;SOL_COMPUTED,NARROW_INT,17.59519622020,78.12970352588,526.7889,-76.2000,WGS84,0.0086,0.0076,0.0195,"0",4.450,0.000,56,56,56,53,00,21,3f,37*17a29a91
#BESTPOSA,FILE,0,27.0,FINESTEERING,2319,307282.500,02000000,cdba,17139;SOL_COMPUTED,NARROW_INT,17.59519758433,78.12970045243,526.7933,-76.2000,WGS84,0.0086,0.0076,0.0195,"0",4.500,0.000,56,56,56,53,00,21,3f,37*7efb95df
#BESTPOSA,FILE,0,27.0,FINESTEERING,2319,307282.550,02000000,cdba,17139;SOL_COMPUTED,NARROW_INT,17.59519895992,78.12969735597,526.7945,-76.2000,WGS84,0.0086,0.0076,0.0195,"0",4.550,0.000,56,56,56,53,00,21,3f,37*0303cec2
#BESTPOSA,FILE,0,27.0,FINESTEERING,2319,307282.600,02000000,cdba,17139;SOL_COMPUTED,NARROW_INT,17.59520034457,78.12969424537,526.7964,-76.2000,WGS84,0.0086,0.0077,0.0195,"0",4.600,0.000,56,56,56,53,00,21,3f,37*77b44453
#BESTPOSA,FILE,0,27.0,FINESTEERING,2319,307282.650,02000000,cdba,17139;SOL_COMPUTED,NARROW_INT,17.59520174173,78.12969111877,526.7999,-76.2000,WGS84,0.0087,0.0077,0.0196,"0",4.650,0.000,56,56,56,53,00,21,3f,37*a76eebdb
#BESTPOSA,FILE,0,27.0,FINESTEERING,2319,307282.700,02000000,cdba,17139;SOL_COMPUTED,NARROW_INT,17.59520313565,78.12968798002,526.8056,-76.2000,WGS84,0.0087,0.0077,0.0196,"0",4.700,0.000,56,56,56,53,00,21,3f,37*8702d4f6
#BESTPOSA,FILE,0,27.0,FINESTEERING,2319,307282.750,02000000,cdba,17139;SOL_COMPUTED,NARROW_INT,17.59520454633,78.12968483403,526.8088,-76.2000,WGS84,0.0087,0.0077,0.0196,"0",4.750,0.000,56,56,56,53,00,21,3f,37*933f0194
#BESTPOSA,FILE,0,27.0,FINESTEERING,2319,307282.800,02000000,cdba,17139;SOL_COMPUTED,NARROW_INT,17.59520595642,78.12968164937,526.8124,-76.2000,WGS84,0.0087,0.0077,0.0196,"0",4.800,0.000,56,56,56,53,00,21,3f,37*8678f7b0
#BESTPOSA,FILE,0,27.0,FINESTEERING,2319,307282.850,02000000,cdba,17139;SOL_COMPUTED,NARROW_INT,17.59520736301,78.12967844784,526.8164,-76.2000,WGS84,0.0087,0.0077,0.0196,"0",4.850,0.000,56,56,56,53,00,21,3f,37*5b776f03
#BESTPOSA,FILE,0,27.0,FINESTEERING,2319,307282.900,02000000,cdba,17139;SOL_COMPUTED,NARROW_INT,17.59520876811,78.12967524575,526.8182,-76.2000,WGS84,0.0087,0.0077,0.0197,"0",4.900,0.000,56,56,56,53,00,21,3f,37*7af64d92
#BESTPOSA,FILE,0,27.0,FINESTEERING,2319,307282.950,02000000,cdba,17139;SOL_COMPUTED,NARROW_INT,17.59521018915,78.12967202099,526.8215,-76.2000,WGS84,0.0087,0.0077,0.0197,"0",4.950,0.000,56,56,56,53,00,21,3f,37*afd18999
#BESTPOSA,FILE,0,27.0,FINESTEERING,2319,307283.000,02000000,cdba,17139;SOL_COMPUTED,NARROW_INT,17.59521161401,78.12966878111,526.8225,-76.2000,WGS84,0.0087,0.0078,0.0197,"0",5.000,0.000,56,56,56,53,00,21,3f,37*fdd2b765
#BESTPOSA,FILE,0,27.0,FINESTEERING,2319,307283.050,02000000,cdba,17139;SOL_COMPUTED,NARROW_INT,17.59521303564,78.12966551935,526.8253,-76.2000,WGS84,0.0088,0.0078,0.0199,"0",5.050,0.000,56,56,56,54,00,21,3f,37*d442fb49
#BESTPOSA,FILE,0,27.0,FINESTEERING,2319,307283.100,02000000,cdba,17139;SOL_COMPUTED,NARROW_INT,17.59521446413,78.12966224075,526.8296,-76.2000,WGS84,0.0089,0.0079,0.0199,"0",5.100,0.000,56,56,56,54,00,21,3f,37*2ff36329
#BESTPOSA,FILE,0,28.5,FINESTEERING,2319,307283.150,02000000,cdba,17139;SOL_COMPUTED,NARROW_INT,17.59521589885,78.12965895005,526.8329,-76.2000,WGS84,0.0089,0.0079,0.0199,"0",5.150,0.000,56,56,56,54,00,21,3f,37*afc0a2e5
#BESTPOSA,FILE,0,28.5,FINESTEERING,2319,307283.200,02000000,cdba,17139;SOL_COMPUTED,NARROW_INT,17.59521735870,78.12965563697,526.8346,-76.2000,WGS84,0.0089,0.0079,0.0199,"0",5.200,0.000,56,56,56,54,00,21,3f,37*4376603c
#BESTPOSA,FILE,0,28.5,FINESTEERING,2319,307283.250,02000000,cdba,17139;SOL_COMPUTED,NARROW_INT,17.59521881477,78.12965231742,526.8385,-76.2000,WGS84,0.0089,0.0079,0.0200,"0",5.250,0.000,56,56,56,54,00,21,3f,37*963b0fba
#BESTPOSA,FILE,0,28.5,FINESTEERING,2319,307283.300,02000000,cdba,17139;SOL_COMPUTED,NARROW_INT,17.59522026263,78.12964897702,526.8436,-76.2000,WGS84,0.0089,0.0079,0.0200,"0",5.300,0.000,56,56,56,54,00,21,3f,37*8ad3026b
#BESTPOSA,FILE,0,28.5,FINESTEERING,2319,307283.350,02000000,cdba,17139;SOL_COMPUTED,NARROW_INT,17.59522170458,78.12964562222,526.8466,-76.2000,WGS84,0.0089,0.0079,0.0200,"0",5.350,0.000,56,56,56,54,00,21,3f,37*69a5ee8f
#BESTPOSA,FILE,0,28.5,FINESTEERING,2319,307283.400,02000000,cdba,17139;SOL_COMPUTED,NARROW_INT,17.59522315832,78.12964225839,526.8482,-76.2000,WGS84,0.0089,0.0079,0.0200,"0",5.400,0.000,56,56,56,54,00,21,3f,37*b68085b3
#BESTPOSA,FILE,0,28.5,FINESTEERING,2319,307283.450,02000000,cdba,17139;SOL_COMPUTED,NARROW_INT,17.59522461049,78.12963887645,526.8522,-76.2000,WGS84,0.0089,0.0080,0.0201,"0",5.450,0.000,56,56,56,54,00,21,3f,37*29aee69c
#BESTPOSA,FILE,0,28.5,FINESTEERING,2319,307283.500,02000000,cdba,17139;SOL_COMPUTED,NARROW_INT,17.59522606450,78.12963547612,526.8555,-76.2000,WGS84,0.0090,0.0080,0.0201,"0",5.500,0.000,56,56,56,54,00,21,3f,37*2d2dc3f0
#BESTPOSA,FILE,0,28.5,FINESTEERING,2319,307283.550,02000000,cdba,17139;SOL_COMPUTED,NARROW_INT,17.59522752681,78.12963205297,526.8567,-76.2000,WGS84,0.0090,0.0080,0.0201,"0",5.550,0.000,56,56,56,54,00,21,3f,37*b65e6bbb
#BESTPOSA,FILE,0,28.5,FINESTEERING,2319,307283.600,02000000,cdba,17139;SOL_COMPUTED,NARROW_INT,17.59522899958,78.12962862219,526.8624,-76.2000,WGS84,0.0090,0.0080,0.0201,"0",5.600,0.000,56,56,56,54,00,21,3f,37*d7166044
#BESTPOSA,FILE,0,28.5,FINESTEERING,2319,307283.650,02000000,cdba,17139;SOL_COMPUTED,NARROW_INT,17.59523048730,78.12962516369,526.8665,-76.2000,WGS84,0.0090,0.0080,0.0202,"0",5.650,0.000,56,56,56,54,00,21,3f,37*66a91468
#BESTPOSA,FILE,0,28.5,FINESTEERING,2319,307283.700,02000000,cdba,17139;SOL_COMPUTED,NARROW_INT,17.59523197140,78.12962170352,526.8717,-76.2000,WGS84,0.0090,0.0080,0.0202,"0",5.700,0.000,56,56,56,54,00,21,3f,37*5cf3b2d8
#BESTPOSA,FILE,0,28.5,FINESTEERING,2319,307283.750,02000000,cdba,17139;SOL_COMPUTED,NARROW_INT,17.59523343232,78.12961821909,526.8745,-76.2000,WGS84,0.0090,0.0080,0.0202,"0",5.750,0.000,56,56,56,54,00,21,3f,37*14b72f27
#BESTPOSA,FILE,0,28.5,FINESTEERING,2319,307283.800,02000000,cdba,17139;SOL_COMPUTED,NARROW_INT,17.59523491818,78.12961469594,526.8792,-76.2000,WGS84,0.0090,0.0081,0.0202,"0",5.800,0.000,56,56,56,54,00,21,3f,37*0b3240cb
#BESTPOSA,FILE,0,28.5,FINESTEERING,2319,307283.850,02000000,cdba,17139;SOL_COMPUTED,NARROW_INT,17.59523639594,78.12961120077,526.8833,-76.2000,WGS84,0.0090,0.0081,0.0202,"0",5.850,0.000,56,56,56,54,00,21,3f,37*120ac15c
#BESTPOSA,FILE,0,28.5,FINESTEERING,2319,307283.900,02000000,cdba,17139;SOL_COMPUTED,NARROW_INT,17.59523789864,78.12960768568,526.8866,-76.2000,WGS84,0.0091,0.0081,0.0203,"0",5.900,0.000,56,56,56,54,00,21,3f,37*b7eeb2a8
#BESTPOSA,FILE,0,28.5,FINESTEERING,2319,307283.950,02000000,cdba,17139;SOL_COMPUTED,NARROW_INT,17.59523939176,78.12960415924,526.8877,-76.2000,WGS84,0.0091,0.0081,0.0203,"0",5.950,0.000,56,56,56,54,00,21,3f,37*28d746fa
#BESTPOSA,FILE,0,28.5,FINESTEERING,2319,307284.000,02000000,cdba,17139;SOL_COMPUTED,NARROW_INT,17.59524088608,78.12960063140,526.8918,-76.2000,WGS84,0.0091,0.0081,0.0203,"0",6.000,0.000,56,56,56,54,00,21,3f,37*4a7bda0d
#BESTPOSA,FILE,0,28.5,FINESTEERING,2319,307284.050,02000000,cdba,17139;SOL_COMPUTED,NARROW_INT,17.59524235628,78.12959708435,526.8961,-76.2000,WGS84,0.0092,0.0082,0.0205,"0",6.050,0.000,56,56,56,54,00,21,3f,37*40c14c8f
#BESTPOSA,FILE,0,27.5,FINESTEERING,2319,307284.100,02000000,cdba,17139;SOL_COMPUTED,NARROW_INT,17.59524384762,78.12959353733,526.8980,-76.2000,WGS84,0.0092,0.0082,0.0205,"0",6.100,0.000,56,56,56,54,00,21,3f,37*58e0b6ad
#BESTPOSA,FILE,0,27.5,FINESTEERING,2319,307284.150,02000000,cdba,17139;SOL_COMPUTED,NARROW_INT,17.59524533068,78.12958995762,526.9008,-76.2000,WGS84,0.0092,0.0082,0.0205,"0",6.150,0.000,56,56,56,54,00,21,3f,37*61466f0b
#BESTPOSA,FILE,0,27.5,FINESTEERING,2319,307284.200,02000000,cdba,17139;SOL_COMPUTED,NARROW_INT,17.59524681242,78.12958636141,526.9048,-76.2000,WGS84,0.0092,0.0082,0.0205,"0",6.200,0.000,56,56,56,54,00,21,3f,37*62b96cef
#BESTPOSA,FILE,0,27.5,FINESTEERING,2319,307284.250,02000000,cdba,17139;SOL_COMPUTED,NARROW_INT,17.59524830602,78.12958275307,526.9089,-76.2000,WGS84,0.0092,0.0082,0.0205,"0",6.250,0.000,56,56,56,54,00,21,3f,37*b92f595c
#BESTPOSA,FILE,0,27.5,FINESTEERING,2319,307284.300,02000000,cdba,17139;SOL_COMPUTED,NARROW_INT,17.59524980723,78.12957912796,526.9146,-76.2000,WGS84,0.0092,0.0083,0.0206,"0",6.300,0.000,56,56,56,54,00,21,3f,37*1242d198
#BESTPOSA,FILE,0,27.5,FINESTEERING,2319,307284.350,02000000,cdba,17139;SOL_COMPUTED,NARROW_INT,17.59525130270,78.12957549849,526.9202,-76.2000,WGS84,0.0092,0.0083,0.0206,"0",6.350,0.000,56,56,56,54,00,21,3f,37*37d35246
#BESTPOSA,FILE,0,27.5,FINESTEERING,2319,307284.400,02000000,cdba,17139;SOL_COMPUTED,NARROW_INT,17.59525280559,78.12957183809,526.9271,-76.2000,WGS84,0.0093,0.0083,0.0206,"0",6.400,0.000,56,56,56,54,00,21,3f,37*06162b53
#BESTPOSA,FILE,0,27.5,FINESTEERING,2319,307284.450,02000000,cdba,17139;SOL_COMPUTED,NARROW_INT,17.59525429860,78.12956816910,526.9304,-76.2000,WGS84,0.0093,0.0083,0.0206,"0",6.450,0.000,56,56,56,54,00,21,3f,37*275e172b
#BESTPOSA,FILE,0,27.5,FINESTEERING,2319,307284.500,02000000,cdba,17139;SOL_COMPUTED,NARROW_INT,17.59525580592,78.12956448699,526.9364,-76.2000,WGS84,0.0093,0.0083,0.0207,"0",6.500,0.000,56,56,56,54,00,21,3f,37*b4f79fa5
#BESTPOSA,FILE,0,27.5,FINESTEERING,2319,307284.550,02000000,cdba,17139;SOL_COMPUTED,NARROW_INT,17.59525732651,78.12956080483,526.9404,-76.2000,WGS84,0.0093,0.0083,0.0207,"0",6.550,0.000,56,56,56,54,00,21,3f,37*ec00054f
#BESTPOSA,FILE,0,27.5,FINESTEERING,2319,307284.600,02000000,cdba,17139;SOL_COMPUTED,NARROW_INT,17.59525884204,78.12955711199,526.9452,-76.2000,WGS84,0.0093,0.0083,0.0207,"0",6.600,0.000,56,56,56,54,00,21,3f,37*27a2c564
#BESTPOSA,FILE,0,27.5,FINESTEERING,2319,307284.650,02000000,cdba,17139;SOL_COMPUTED,NARROW_INT,17.59526035360,78.12955341179,526.9474,-76.2000,WGS84,0.0093,0.0083,0.0207,"0",6.650,0.000,56,56,56,54,00,21,3f,37*2b419c68
#BESTPOSA,FILE,0,27.5,FINESTEERING,2319,307284.700,02000000,cdba,17139;SOL_COMPUTED,NARROW_INT,17.59526188523,78.12954968769,526.9504,-76.2000,WGS84,0.0093,0.0084,0.0207,"0",6.700,0.000,56,56,56,54,00,21,3f,37*d1cd4fc1
#BESTPOSA,FILE,0,27.5,FINESTEERING,2319,307284.750,02000000,cdba,17139;SOL_COMPUTED,NARROW_INT,17.59526341333,78.12954594936,526.9518,-76.2000,WGS84,0.0093,0.0084,0.0208,"0",6.750,0.000,56,56,56,54,00,21,3f,37*2d7a2b4f
#BESTPOSA,FILE,0,27.5,FINESTEERING,2319,307284.800,02000000,cdba,17139;SOL_COMPUTED,NARROW_INT,17.59526494006,78.12954221389,526.9522,-76.2000,WGS84,0.0094,0.0084,0.0208,"0",6.800,0.000,56,56,56,54,00,21,3f,37*c7da7a7f
#BESTPOSA,FILE,0,27.5,FINESTEERING,2319,307284.850,02000000,cdba,17139;SOL_COMPUTED,NARROW_INT,17.59526647100,78.12953845754,526.9559,-76.2000,WGS84,0.0094,0.0084,0.0208,"0",6.850,0.000,56,56,56,54,00,21,3f,37*7545f0c8
#BESTPOSA,FILE,0,27.5,FINESTEERING,2319,307284.900,02000000,cdba,17139;SOL_COMPUTED,NARROW_INT,17.59526800960,78.12953469657,526.9591,-76.2000,WGS84,0.0094,0.0084,0.0208,"0",6.900,0.000,56,56,56,54,00,21,3f,37*9c9c1eb9
#BESTPOSA,FILE,0,27.5,FINESTEERING,2319,307284.950,02000000,cdba,17139;SOL_COMPUTED,NARROW_INT,17.59526954323,78.12953092999,526.9620,-76.2000,WGS84,0.0094,0.0084,0.0208,"0",6.950,0.000,56,56,56,54,00,21,3f,37*2b201a44
#BESTPOSA,FILE,0,27.5,FINESTEERING,2319,307285.000,02000000,cdba,17139;SOL_COMPUTED,NARROW_INT,17.59527107705,78.12952714752,526.9647,-76.2000,WGS84,0.0094,0.0084,0.0209,"0",7.000,0.000,56,56,56,54,00,21,3f,37*badcc75b
#BESTPOSA,FILE,0,27.5,FINESTEERING,2319,307285.050,02000000,cdba,17139;SOL_COMPUTED,NARROW_INT,17.59527259767,78.12952335233,526.9671,-76.2000,WGS84,0.0095,0.0085,0.0210,"0",7.050,0.000,56,56,56,54,00,21,3f,37*edbfb22f
#BESTPOSA,FILE,0,27.5,FINESTEERING,2319,307285.100,02000000,cdba,17139;SOL_COMPUTED,NARROW_INT,17.59527413805,78.12951954090,526.9696,-76.2000,WGS84,0.0095,0.0085,0.0210,"0",7.100,0.000,56,56,56,54,00,21,3f,37*68c530bc
#BESTPOSA,FILE,0,29.0,FINESTEERING,2319,307285.150,02000000,cdba,17139;SOL_COMPUTED,NARROW_INT,17.59527567723,78.12951572582,526.9736,-76.2000,WGS84,0.0095,0.0085,0.0210,"0",7.150,0.000,56,56,56,54,00,21,3f,37*b4904184
#BESTPOSA,FILE,0,29.0,FINESTEERING,2319,307285.200,02000000,cdba,17139;SOL_COMPUTED,NARROW_INT,17.59527722381,78.12951189097,526.9767,-76.2000,WGS84,0.0095,0.0085,0.0211,"0",7.200,0.000,56,56,56,54,00,21,3f,37*76e862bd
#BESTPOSA,FILE,0,29.0,FINESTEERING,2319,307285.250,02000000,cdba,17139;SOL_COMPUTED,NARROW_INT,17.59527877505,78.12950804984,526.9799,-76.2000,WGS84,0.0095,0.0086,0.0211,"0",7.250,0.000,56,56,56,54,00,21,3f,37*03781dad
#BESTPOSA,FILE,0,29.0,FINESTEERING,2319,307285.300,02000000,cdba,17139;SOL_COMPUTED,NARROW_INT,17.59528030805,78.12950417048,526.9813,-76.2000,WGS84,0.0095,0.0086,0.0211,"0",7.300,0.000,56,56,56,54,00,21,3f,37*fa9abf58
#BESTPOSA,FILE,0,29.0,FINESTEERING,2319,307285.350,02000000,cdba,17139;SOL_COMPUTED,NARROW_INT,17.59528183274,78.12950028319,526.9850,-76.2000,WGS84,0.0096,0.0086,0.0211,"0",7.350,0.000,56,56,56,54,00,21,3f,37*566ea401
#BESTPOSA,FILE,0,29.0,FINESTEERING,2319,307285.400,02000000,cdba,17139;SOL_COMPUTED,NARROW_INT,17.59528337719,78.12949638528,526.9904,-76.2000,WGS84,0.0096,0.0086,0.0212,"0",7.400,0.000,56,56,56,54,00,21,3f,37*79b69275
#BESTPOSA,FILE,0,29.0,FINESTEERING,2319,307285.450,02000000,cdba,17139;SOL_COMPUTED,NARROW_INT,17.59528490954,78.12949248005,526.9935,-76.2000,WGS84,0.0096,0.0086,0.0212,"0",7.450,0.000,56,56,56,54,00,21,3f,37*2573f899
#BESTPOSA,FILE,0,29.0,FINESTEERING,2319,307285.500,02000000,cdba,17139;SOL_COMPUTED,NARROW_INT,17.59528645665,78.12948857035,526.9972,-76.2000,WGS84,0.0096,0.0086,0.0212,"0",7.500,0.000,56,56,56,54,00,21,3f,37*67eca658
#BESTPOSA,FILE,0,29.0,FINESTEERING,2319,307285.550,02000000,cdba,17139;SOL_COMPUTED,NARROW_INT,17.59528802650,78.12948466573,526.9995,-76.2000,WGS84,0.0096,0.0086,0.0212,"0",7.550,0.000,56,56,56,54,00,21,3f,37*e068bcdc
#BESTPOSA,FILE,0,29.0,FINESTEERING,2319,307285.600,02000000,cdba,17139;SOL_COMPUTED,NARROW_INT,17.59528961429,78.12948075817,527.0037,-76.2000,WGS84,0.0096,0.0086,0.0212,"0",7.600,0.000,56,56,56,54,00,21,3f,37*c4df4688
#BESTPOSA,FILE,0,29.0,FINESTEERING,2319,307285.650,02000000,cdba,17139;SOL_COMPUTED,NARROW_INT,17.59529124152,78.12947683658,527.0068,-76.2000,WGS84,0.0096,0.0087,0.0213,"0",7.650,0.000,56,56,56,54,00,21,3f,37*7d5ecfd3
#BESTPOSA,FILE,0,29.0,FINESTEERING,2319,307285.700,02000000,cdba,17139;SOL_COMPUTED,NARROW_INT,17.59529287177,78.12947292788,527.0112,-76.2000,WGS84,0.0096,0.0087,0.0213,"0",7.700,0.000,56,56,56,54,00,21,3f,37*edb2b706
#BESTPOSA,FILE,0,29.0,FINESTEERING,2319,307285.750,02000000,cdba,17139;SOL_COMPUTED,NARROW_INT,17.59529453401,78.12946901555,527.0131,-76.2000,WGS84,0.0096,0.0087,0.0213,"0",7.750,0.000,56,56,56,54,00,21,3f,37*2df407b4
#BESTPOSA,FILE,0,29.0,FINESTEERING,2319,307285.800,02000000,cdba,17139;SOL_COMPUTED,NARROW_INT,17.59529620909,78.12946509725,527.0172,-76.2000,WGS84,0.0097,0.0087,0.0213,"0",7.800,0.000,56,56,56,54,00,21,3f,37*8f950113
#BESTPOSA,FILE,0,29.0,FINESTEERING,2319,307285.850,02000000,cdba,17139;SOL_COMPUTED,NARROW_INT,17.59529791339,78.12946118467,527.0202,-76.2000,WGS84,0.0097,0.0087,0.0213,"0",7.850,0.000,56,56,56,54,00,21,3f,37*2ceae05d
#BESTPOSA,FILE,0,29.0,FINESTEERING,2319,307285.900,02000000,cdba,17139;SOL_COMPUTED,NARROW_INT,17.59529963381,78.12945725293,527.0264,-76.2000,WGS84,0.0097,0.0087,0.0214,"0",7.900,0.000,56,56,56,54,00,21,3f,37*965a079b
#BESTPOSA,FILE,0,29.0,FINESTEERING,2319,307285.950,02000000,cdba,17139;SOL_COMPUTED,NARROW_INT,17.59530137552,78.12945330807,527.0303,-76.2000,WGS84,0.0097,0.0087,0.0214,"0",7.950,0.000,56,56,56,54,00,21,3f,37*9a606f80
#BESTPOSA,FILE,0,29.0,FINESTEERING,2319,307286.000,02000000,cdba,17139;SOL_COMPUTED,NARROW_INT,17.59530312527,78.12944935952,527.0333,-76.2000,WGS84,0.0097,0.0087,0.0214,"0",8.000,0.000,56,56,56,54,00,21,3f,37*734e6c49
#BESTPOSA,FILE,0,29.0,FINESTEERING,2319,307286.050,02000000,cdba,17139;SOL_COMPUTED,NARROW_INT,17.59530488267,78.12944540339,527.0398,-76.2000,WGS84,0.0098,0.0088,0.0216,"0",8.050,0.000,56,56,56,54,00,21,3f,37*c43c264d
#BESTPOSA,FILE,0,29.0,FINESTEERING,2319,307286.100,02000000,cdba,17139;SOL_COMPUTED,NARROW_INT,17.59530666124,78.12944144361,527.0455,-76.2000,WGS84,0.0098,0.0088,0.0216,"0",8.100,0.000,56,56,56,54,00,21,3f,37*d63abcff
#BESTPOSA,FILE,0,29.0,FINESTEERING,2319,307286.150,02000000,cdba,17139;SOL_COMPUTED,NARROW_INT,17.59530846551,78.12943749117,527.0491,-76.2000,WGS84,0.0098,0.0089,0.0216,"0",8.150,0.000,56,56,56,54,00,21,3f,37*21618381
#BESTPOSA,FILE,0,29.0,FINESTEERING,2319,307286.200,02000000,cdba,17139;SOL_COMPUTED,NARROW_INT,17.59531026228,78.12943354003,527.0525,-76.2000,WGS84,0.0098,0.0089,0.0216,"0",8.200,0.000,56,56,56,54,00,21,3f,37*9808eb30
#BESTPOSA,FILE,0,29.0,FINESTEERING,2319,307286.250,02000000,cdba,17139;SOL_COMPUTED,NARROW_INT,17.59531206658,78.12942957647,527.0536,-76.2000,WGS84,0.0098,0.0089,0.0217,"0",8.250,0.000,56,56,56,54,00,21,3f,37*6d3950a9
#BESTPOSA,FILE,0,29.0,FINESTEERING,2319,307286.300,02000000,cdba,17139;SOL_COMPUTED,NARROW_INT,17.59531389006,78.12942560984,527.0555,-76.2000,WGS84,0.0098,0.0089,0.0217,"0",8.300,0.000,56,56,56,54,00,21,3f,37*89daa527
#BESTPOSA,FILE,0,29.0,FINESTEERING,2319,307286.350,02000000,cdba,17139;SOL_COMPUTED,NARROW_INT,17.59531571635,78.12942163740,527.0589,-76.2000,WGS84,0.0099,0.0089,0.0217,"0",8.350,0.000,56,56,56,54,00,21,3f,37*d1c20a78
#BESTPOSA,FILE,0,29.0,FINESTEERING,2319,307286.400,02000000,cdba,17139;SOL_COMPUTED,NARROW_INT,17.59531757855,78.12941764830,527.0636,-76.2000,WGS84,0.0099,0.0089,0.0217,"0",8.400,0.000,56,56,56,54,00,21,3f,37*d5904c10
#BESTPOSA,FILE,0,29.0,FINESTEERING,2319,307286.450,02000000,cdba,17139;SOL_COMPUTED,NARROW_INT,17.59531943378,78.12941366058,527.0647,-76.2000,WGS84,0.0099,0.0089,0.0217,"0",8.450,0.000,56,56,56,54,00,21,3f,37*04fab8eb
