#CORRIMUDATAA,FILE,0,32.0,FINESTEERING,2319,307271.300,02000800,e5fc,17139;2319,307271.300000000,-0.0003182157403075,-0.0001239209585736,0.0001173603143748,-0.0057172102308594,0.0380297568174869,-0.0013626224389585*9d99ab8d
#CORRIMUDATAA,FILE,0,32.0,FINESTEERING,2319,307271.400,02000800,e5fc,17139;2319,307271.400000000,0.0000053209229736,0.0004311753508738,0.0001405741882163,0.0078345971402581,0.0334563477647703,0.0010268716390875*794e753a
#CORRIMUDATAA,FILE,0,32.0,FINESTEERING,2319,307271.500,02000800,e5fc,17139;2319,307271.500000000,0.0000768700688511,0.0011033060780631,0.0003951660906221,0.0039617326439975,0.0360199694762562,-0.0016538560027572*a445356d
#CORRIMUDATAA,FILE,0,32.0,FINESTEERING,2319,307271.600,02000800,e5fc,17139;2319,307271.600000000,0.0000047859433257,0.0006639678055656,0.0002578722889193,-0.0027494085588484,0.0346538800128423,0.0029810872082186*d6fa8883
#CORRIMUDATAA,FILE,0,32.0,FINESTEERING,2319,307271.650,02000800,e5fc,17139;2319,307271.650000000,0.0002203149840130,0.0007741938397580,0.0002049859162272,-0.0037143352398045,0.0347096440410908,-0.0036326829029875*9eaf22e0
#CORRIMUDATAA,FILE,0,32.0,FINESTEERING,2319,307271.800,02000800,e5fc,17139;2319,307271.800000000,0.0005620661818610,-0.0002100686124559,0.0002420032768600,-0.0026953900438783,0.0318140163773118,-0.0081365760446078*f45ab9d6
#CORRIMUDATAA,FILE,0,32.0,FINESTEERING,2319,307271.900,02000800,e5fc,17139;2319,307271.900000000,0.0006782617695209,0.0003649562404860,0.0002928758581714,0.0020593465163808,0.0273860539829858,-0.0039621144160737*144e5c08
#CORRIMUDATAA,FILE,0,32.0,FINESTEERING,2319,307271.950,02000800,e5fc,17139;2319,307271.950000000,0.0004191255924625,-0.0001871349544624,0.0001629773710834,-0.0054429133409536,0.0268164228729590,0.0124590122199670*42da3848
#CORRIMUDATAA,FILE,0,32.0,FINESTEERING,2319,307272.050,02000800,e5fc,17139;2319,307272.050000000,0.0003085833524282,-0.0000938674828181,0.0000814057079125,0.0027340430783306,0.0251542464830866,0.0027280424719884*6654921f
#CORRIMUDATAA,FILE,0,30.5,FINESTEERING,2319,307272.150,02000800,e5fc,17139;2319,307272.150000000,0.0004004171950072,0.0003490702422651,0.0003120013230297,0.0061815122374286,0.0240961756696413,0.0099178501416461*8dfc3f36
#CORRIMUDATAA,FILE,0,30.5,FINESTEERING,2319,307272.250,02000800,e5fc,17139;2319,307272.250000000,0.0002480148290128,0.0003635951842839,0.0003056344695322,-0.0021534677383892,0.0239786857805166,0.0047316908691459*5522fe62
#CORRIMUDATAA,FILE,0,30.5,FINESTEERING,2319,307272.350,02000800,e5fc,17139;2319,307272.350000000,0.0003563116185159,0.0002122465630934,0.0001231168535985,-0.0067261535567118,0.0217504029185021,-0.0005811964928009*8f866fcb
#CORRIMUDATAA,FILE,0,30.5,FINESTEERING,2319,307272.450,02000800,e5fc,17139;2319,307272.450000000,0.0004314632800020,-0.0001610402504205,0.0002137476700693,0.0046762079996877,0.0214914118764304,-0.0105029670366028*b8171f88
#CORRIMUDATAA,FILE,0,30.5,FINESTEERING,2319,307272.550,02000800,e5fc,17139;2319,307272.550000000,0.0001633104405586,-0.0005340196835852,0.0002330098330478,-0.0050905454985889,0.0201123150211357,0.0029285710045863*edda8f72
#CORRIMUDATAA,FILE,0,30.5,FINESTEERING,2319,307272.650,02000800,e5fc,17139;2319,307272.650000000,-0.0003944890455795,-0.0005411411023042,0.0002376745243321,-0.0003012232107199,0.0206941393482817,-0.0033357303066282*5b6cdc62
#CORRIMUDATAA,FILE,0,30.5,FINESTEERING,2319,307272.750,02000800,e5fc,17139;2319,307272.750000000,-0.0005827878281171,-0.0000509367220792,0.0001142004270151,0.0013591216061635,0.0207356602008325,0.0105871944928876*a9de78fa
#CORRIMUDATAA,FILE,0,30.5,FINESTEERING,2319,307272.800,02000800,e5fc,17139;2319,307272.800000000,-0.0005409769383487,-0.0000951704560572,0.0000939741641553,0.0048708506733920,0.0196254783405737,0.0007673211546928*0988159d
#CORRIMUDATAA,FILE,0,30.5,FINESTEERING,2319,307272.900,02000800,e5fc,17139;2319,307272.900000000,-0.0007719106286960,0.0004171831862037,0.0002374901362326,0.0025795521849871,0.0084180912809655,0.0071229762083474*1d016246
#CORRIMUDATAA,FILE,0,30.5,FINESTEERING,2319,307273.000,02000800,e5fc,17139;2319,307273.000000000,-0.0010899322652201,0.0000465671900551,0.0002820114393466,-0.0028703039231090,-0.0019624278700426,-0.0053108962620392*b26ff707
#CORRIMUDATAA,FILE,0,30.5,FINESTEERING,2319,307273.100,02000800,e5fc,17139;2319,307273.100000000,-0.0001360579994077,-0.0000079641395694,-0.0000113530795012,-0.0076382039760520,-0.0018960913979492,-0.0174081816324283*907bc8f1
#CORRIMUDATAA,FILE,0,30.5,FINESTEERING,2319,307273.200,02000800,e5fc,17139;2319,307273.200000000,0.0004216046533246,-0.0000798996350126,0.0000176199049605,0.0043438418785495,-0.0227893080770970,-0.0074083208119580*a0c73085
#CORRIMUDATAA,FILE,0,30.5,FINESTEERING,2319,307273.300,02000800,e5fc,17139;2319,307273.300000000,0.0010179202766092,-0.0001097154437434,0.0001942853331379,-0.0019276833422646,-0.0260855261225920,0.0033210935118192*95f64d0a
#CORRIMUDATAA,FILE,0,30.5,FINESTEERING,2319,307273.350,02000800,e5fc,17139;2319,307273.350000000,0.0011142441771731,-0.0001164120395740,0.0002478767046373,0.0012120444284454,-0.0230164549324791,0.0112459920850594*fabeee7c
#CORRIMUDATAA,FILE,0,30.5,FINESTEERING,2319,307273.500,02000800,e5fc,17139;2319,307273.500000000,0.0003535878706147,0.0000633268046719,-0.0000836664184509,-0.0016115091111063,-0.0167192152927115,0.0055266665454253*ce4721af
#CORRIMUDATAA,FILE,0,30.5,FINESTEERING,2319,307273.550,02000800,e5fc,17139;2319,307273.550000000,0.0000250435295203,0.0000739361276045,0.0000057746885646,0.0047939552004959,-0.0201537863576141,0.0143114797888229*454b1b2a
#CORRIMUDATAA,FILE,0,30.5,FINESTEERING,2319,307273.650,02000800,e5fc,17139;2319,307273.650000000,-0.0004299866047577,-0.0000910321160248,0.0002338392135606,-0.0012068817652776,-0.0177047570913521,0.0080995457504163*1c10502e
#CORRIMUDATAA,FILE,0,30.5,FINESTEERING,2319,307273.750,02000800,e5fc,17139;2319,307273.750000000,-0.0012924881356551,-0.0000244404236607,0.0000992593437052,-0.0062677518950347,-0.0205976837007993,0.0210914912730530*75c2f93a
#CORRIMUDATAA,FILE,0,30.5,FINESTEERING,2319,307273.900,02000800,e5fc,17139;2319,307273.900000000,-0.0011378160732723,-0.0003795498270005,0.0000045883834386,0.0040664083181334,-0.0138732129895160,-0.0102664280078826*1c66acff
#CORRIMUDATAA,FILE,0,30.5,FINESTEERING,2319,307273.950,02000800,e5fc,17139;2319,307273.950000000,-0.0008487732627196,-0.0001819017286226,0.0001014127792846,-0.0017999733679698,-0.0143876632661048,-0.0134111899139716*65b8f72d
#CORRIMUDATAA,FILE,0,30.5,FINESTEERING,2319,307274.050,02000800,e5fc,17139;2319,307274.050000000,-0.0001668688285190,-0.0000322139096044,0.0002302891998441,-0.0008302491183994,-0.0175331509306037,-0.0144751154389048*5ec13d58
#CORRIMUDATAA,FILE,0,30.5,FINESTEERING,2319,307274.150,02000800,e5fc,17139;2319,307274.150000000,-0.0000409888396414,-0.0001912988841732,0.0000080432650626,-0.0080504484851196,-0.0175817792927315,-0.0043653652389542*910ed306
#CORRIMUDATAA,FILE,0,30.5,FINESTEERING,2319,307274.300,02000800,e5fc,17139;2319,307274.300000000,0.0000403354354821,-0.0002411938472823,0.0001010239139522,0.0017920278323791,-0.0198235573578763,0.0092820810562067*d91242bb
#CORRIMUDATAA,FILE,0,30.5,FINESTEERING,2319,307274.350,02000800,e5fc,17139;2319,307274.350000000,0.0000992511186898,-0.0000680840533222,0.0001709066877511,-0.0017606626470144,-0.0187041398443939,0.0056533341238211*06c5f6f9
#CORRIMUDATAA,FILE,0,30.5,FINESTEERING,2319,307274.400,02000800,e5fc,17139;2319,307274.400000000,0.0001439594904896,0.0001245619357019,0.0001492237938338,0.0002169338416706,-0.0205469502035614,-0.0039355970205486*6e87dcd7
#CORRIMUDATAA,FILE,0,30.5,FINESTEERING,2319,307274.550,02000800,e5fc,17139;2319,307274.550000000,-0.0000783229460711,-0.0003035615662408,-0.0000230526675278,-0.0036195866703244,-0.0191723617736759,0.0022629622155835*82dfd92d
#CORRIMUDATAA,FILE,0,30.5,FINESTEERING,2319,307274.650,02000800,e5fc,17139;2319,307274.650000000,0.0000245586804824,-0.0001851533179892,-0.0000338323884283,0.0055579098302437,-0.0175825141692078,-0.0023527862661918*65cab562
#CORRIMUDATAA,FILE,0,30.5,FINESTEERING,2319,307274.750,02000800,e5fc,17139;2319,307274.750000000,-0.0000315472624078,-0.0003814604278958,0.0001950068364897,0.0008232200079714,-0.0190245120193260,-0.0006917022403967*91fc7761
#CORRIMUDATAA,FILE,0,30.5,FINESTEERING,2319,307274.800,02000800,e5fc,17139;2319,307274.800000000,0.0002477543551008,-0.0003025345292474,0.0002219008250467,-0.0018170575528619,-0.0185220132288124,-0.0031925880280004*070e5a5e
#CORRIMUDATAA,FILE,0,30.5,FINESTEERING,2319,307274.850,02000800,e5fc,17139;2319,307274.850000000,0.0000832641215604,-0.0000556387479058,0.0001615298069595,-0.0045943628711942,-0.0195385407721895,0.0040248651218128*2fcf9b71
#CORRIMUDATAA,FILE,0,30.5,FINESTEERING,2319,307274.900,02000800,e5fc,17139;2319,307274.900000000,0.0002545369591746,0.0000899130778771,0.0000632624404023,-0.0019225583354660,-0.0192088087980638,0.0035868021515861*23c93602
#CORRIMUDATAA,FILE,0,30.5,FINESTEERING,2319,307274.950,02000800,e5fc,17139;2319,307274.950000000,0.0001875567674421,-0.0000748694575763,0.0000197195206649,0.0002835523764412,-0.0203581228900322,0.0056621835490484*d145551f
#CORRIMUDATAA,FILE,0,30.5,FINESTEERING,2319,307275.000,02000800,e5fc,17139;2319,307275.000000000,0.0001776894611848,-0.0003311834843357,-0.0000509128198941,-0.0030773830203561,-0.0176725079441964,-0.0027653281354353*1d2cc189
#CORRIMUDATAA,FILE,0,30.5,FINESTEERING,2319,307275.050,02000800,e5fc,17139;2319,307275.050000000,-0.0000467663216598,-0.0006083186083077,-0.0000094860788754,-0.0020748109195312,-0.0182114208606152,-0.0021609129060098*e7882c81
#CORRIMUDATAA,FILE,0,30.5,FINESTEERING,2319,307275.100,02000800,e5fc,17139;2319,307275.100000000,0.0000048018266295,-0.0005360789312104,0.0000492478548988,-0.0012264199812090,-0.0160032370786466,0.0001371729499551*ebbd85e8
#CORRIMUDATAA,FILE,0,30.5,FINESTEERING,2319,307275.150,02000800,e5fc,17139;2319,307275.150000000,-0.0000530354491953,-0.0003168833505298,0.0001850254515910,0.0027782361797419,-0.0142481197960242,-0.0012526963267261*f44c411b
#CORRIMUDATAA,FILE,0,30.5,FINESTEERING,2319,307275.200,02000800,e5fc,17139;2319,307275.200000000,0.0000069831564225,-0.0001615144833704,0.0002216147427717,0.0027033035083235,-0.0142939956943279,-0.0080141119551949*305fd38e
#CORRIMUDATAA,FILE,0,30.5,FINESTEERING,2319,307275.250,02000800,e5fc,17139;2319,307275.250000000,0.0000408929140067,-0.0003610032058536,0.0001996351230666,-0.0001819680825931,-0.0147424031085712,-0.0006981057730316*0045cf8a
#CORRIMUDATAA,FILE,0,30.5,FINESTEERING,2319,307275.300,02000800,e5fc,17139;2319,307275.300000000,0.0000578590828952,-0.0004863461841306,0.0000918046848919,-0.0057318747032902,-0.0136528709336564,-0.0019194101162305*4fc94a0c
#CORRIMUDATAA,FILE,0,30.5,FINESTEERING,2319,307275.350,02000800,e5fc,17139;2319,307275.350000000,-0.0001816900931994,-0.0004541135565668,-0.0000502410938838,-0.0063766692718224,-0.0156945640221880,0.0087116208626801*14bb9328
#CORRIMUDATAA,FILE,0,30.5,FINESTEERING,2319,307275.400,02000800,e5fc,17139;2319,307275.400000000,-0.0003048265832364,-0.0000511508920741,-0.0000904912142439,-0.0019659709037283,-0.0155971398933620,0.0101588894944842*fe9e7c5d
#CORRIMUDATAA,FILE,0,30.5,FINESTEERING,2319,307275.450,02000800,e5fc,17139;2319,307275.450000000,-0.0002702858874865,0.0000935463327506,-0.0000196395818253,0.0045802299551984,-0.0144895704213116,0.0068635174359983*83c8e739
#CORRIMUDATAA,FILE,0,30.5,FINESTEERING,2319,307275.500,02000000,e5fc,17139;2319,307275.500000000,-0.0003719669034079,0.0004648493635304,0.0001024433792228,0.0068036071281467,-0.0167773777433394,0.0043132247344016*2abb8e94
#CORRIMUDATAA,FILE,0,30.5,FINESTEERING,2319,307275.550,02000000,e5fc,17139;2319,307275.550000000,-0.0002276302736942,0.0000317695914189,0.0001790853713826,0.0014872666579796,-0.0134496549773105,0.0005501575100163*a67cf12c
#CORRIMUDATAA,FILE,0,30.5,FINESTEERING,2319,307275.600,02000000,e5fc,17139;2319,307275.600000000,0.0000465819538441,-0.0001095866358882,0.0001265377398958,-0.0045250908987615,-0.0143918210523283,-0.0176518551431700*cf4fda07
#CORRIMUDATAA,FILE,0,30.5,FINESTEERING,2319,307275.650,02000000,e5fc,17139;2319,307275.650000000,0.0002354961997788,-0.0003520069468096,0.0000667780801811,-0.0044714152873199,-0.0125349002815612,-0.0077133488118073*f4ff4d55
#CORRIMUDATAA,FILE,0,30.5,FINESTEERING,2319,307275.700,02000000,e5fc,17139;2319,307275.700000000,0.0002697973694769,-0.0001675946218840,0.0000461342946229,-0.0023575377324878,-0.0136813644315085,-0.0099530040703550*ee324183
#CORRIMUDATAA,FILE,0,30.5,FINESTEERING,2319,307275.750,02000000,e5fc,17139;2319,307275.750000000,0.0001433601674793,-0.0002417442458460,0.0000564094375794,-0.0015624925249849,-0.0136470613396584,-0.0008656156484084*bc2d94e2
#CORRIMUDATAA,FILE,0,30.5,FINESTEERING,2319,307275.800,02000000,e5fc,17139;2319,307275.800000000,0.0000443063054713,-0.0002626476754807,-0.0000143088142496,-0.0020898940294920,-0.0126385359597045,-0.0002428482155250*2762fd65
#CORRIMUDATAA,FILE,0,30.5,FINESTEERING,2319,307275.850,02000000,e5fc,17139;2319,307275.850000000,0.0000379639183846,-0.0001479991536951,-0.0000192595527502,0.0005037005435619,-0.0104578909173178,0.0013418874074838*e42748bb
#CORRIMUDATAA,FILE,0,30.5,FINESTEERING,2319,307275.900,02000000,e5fc,17139;2319,307275.900000000,0.0001990977950540,-0.0002808597553471,0.0000014743426724,0.0031963522076002,-0.0126358646263440,-0.0093452910065961*9a1c8460
#CORRIMUDATAA,FILE,0,30.5,FINESTEERING,2319,307275.950,02000000,e5fc,17139;2319,307275.950000000,0.0002216247458688,-0.0001303596751444,0.0000937187379231,-0.0010983439005755,-0.0134221817529499,0.0181183923061031*e9921a8b
#CORRIMUDATAA,FILE,0,30.5,FINESTEERING,2319,307276.000,02000000,e5fc,17139;2319,307276.000000000,0.0001090561879993,0.0001190160118576,0.0001144776963203,0.0040671759999532,-0.0129147525416974,0.0004021557384320*d2f87139
#CORRIMUDATAA,FILE,0,30.5,FINESTEERING,2319,307276.050,02000000,e5fc,17139;2319,307276.050000000,0.0000458647817505,-0.0000339820716620,0.0001718383414184,-0.0004046740442107,-0.0114525577371913,0.0050710469952896*843cf545
#CORRIMUDATAA,FILE,0,20.5,FINESTEERING,2319,307276.100,02000000,e5fc,17139;2319,307276.100000000,-0.0002873789746661,-0.0001505706975886,0.0001788302200134,-0.0003581199822945,-0.0118921491697924,0.0023842738742937*0277d4ab
#CORRIMUDATAA,FILE,0,20.5,FINESTEERING,2319,307276.150,02000000,e5fc,17139;2319,307276.150000000,-0.0002607010109916,-0.0001448396713635,0.0001762086169911,-0.0057682330754605,-0.0128372442602474,0.0090455549988981*fcf50bda
#CORRIMUDATAA,FILE,0,20.5,FINESTEERING,2319,307276.200,02000000,e5fc,17139;2319,307276.200000000,-0.0005109395543158,-0.0001336662956314,0.0000285012347397,-0.0055604122856933,-0.0100074268571980,0.0065264356811448*a44ff61f
#CORRIMUDATAA,FILE,0,20.5,FINESTEERING,2319,307276.250,02000000,e5fc,17139;2319,307276.250000000,-0.0004864407950363,-0.0001329734814354,-0.0000583176400247,-0.0018490083623158,-0.0095112467112206,-0.0053750384523779*3e34c831
#CORRIMUDATAA,FILE,0,20.5,FINESTEERING,2319,307276.300,02000000,e5fc,17139;2319,307276.300000000,-0.0005274538044940,-0.0004211360044122,-0.0001034594380093,0.0003959192390913,-0.0072713666181969,-0.0095995051993494*2aca4de8
#CORRIMUDATAA,FILE,0,20.5,FINESTEERING,2319,307276.350,02000000,e5fc,17139;2319,307276.350000000,-0.0002021427453797,-0.0002139615368920,-0.0001207035725808,0.0029171090026372,-0.0070534575501214,-0.0132206679043093*70918818
#CORRIMUDATAA,FILE,0,20.5,FINESTEERING,2319,307276.400,02000000,e5fc,17139;2319,307276.400000000,-0.0001620509391756,-0.0008071620643175,-0.0002304344438424,0.0009641229750136,-0.0067213658447086,-0.0023765825094470*4806eae3
#CORRIMUDATAA,FILE,0,20.5,FINESTEERING,2319,307276.450,02000000,e5fc,17139;2319,307276.450000000,-0.0000507241364077,-0.0010536049313476,-0.0004867954546148,-0.0034519466874741,-0.0023826064045717,-0.0094461295647545*c671b003
#CORRIMUDATAA,FILE,0,20.5,FINESTEERING,2319,307276.500,02000000,e5fc,17139;2319,307276.500000000,-0.0000091422668084,-0.0008398323454365,-0.0008127446225882,-0.0029918062692054,0.0021138800360335,-0.0041601232151090*f41c89f8
#CORRIMUDATAA,FILE,0,20.5,FINESTEERING,2319,307276.550,02000000,e5fc,17139;2319,307276.550000000,0.0000185352275359,-0.0008636953155449,-0.0010815543857333,0.0024257999647718,-0.0001452137398715,0.0121574698664111*3e0e192f
#CORRIMUDATAA,FILE,0,20.5,FINESTEERING,2319,307276.600,02000000,e5fc,17139;2319,307276.600000000,-0.0002398059495127,-0.0012286630266097,-0.0014150790250700,0.0056613914063152,0.0040108288971154,-0.0073369161993663*e09bcbbb
#CORRIMUDATAA,FILE,0,20.5,FINESTEERING,2319,307276.650,02000000,e5fc,17139;2319,307276.650000000,-0.0003228722844942,-0.0012942983624512,-0.0018550118502484,0.0004349552769093,0.0040197548694413,0.0050797194785752*1c08e4d9
#CORRIMUDATAA,FILE,0,20.5,FINESTEERING,2319,307276.700,02000000,e5fc,17139;2319,307276.700000000,-0.0003701716645851,-0.0012862339825485,-0.0024212480944579,-0.0010358087863674,0.0038054636943497,0.0115671579270396*e02a2b4a
#CORRIMUDATAA,FILE,0,20.5,FINESTEERING,2319,307276.750,02000000,e5fc,17139;2319,307276.750000000,-0.0004728614089408,-0.0010629656685932,-0.0029690274120134,0.0083819426791575,0.0026577556511379,0.0089195222056702*ba06ba0e
#CORRIMUDATAA,FILE,0,20.5,FINESTEERING,2319,307276.800,02000000,e5fc,17139;2319,307276.800000000,-0.0005474523634922,-0.0007128136653036,-0.0033375628596804,0.0177007866222175,0.0058469140600559,-0.0105482592553495*5a890200
#CORRIMUDATAA,FILE,0,20.5,FINESTEERING,2319,307276.850,02000000,e5fc,17139;2319,307276.850000000,-0.0003635030984897,-0.0002744458076902,-0.0035755583301269,0.0183528657845469,0.0049904268804132,-0.0001193261899226*87285002
#CORRIMUDATAA,FILE,0,20.5,FINESTEERING,2319,307276.900,02000000,e5fc,17139;2319,307276.900000000,-0.0000971927993655,0.0000321638958791,-0.0035885777361663,0.0229822000330182,0.0059637873575246,-0.0086969344487330*c67de489
#CORRIMUDATAA,FILE,0,20.5,FINESTEERING,2319,307276.950,02000000,e5fc,17139;2319,307276.950000000,-0.0001429834473673,0.0003555826343345,-0.0033765449871331,0.0196539371072167,0.0075987144094536,-0.0024594841606423*cbeb0ae9
#CORRIMUDATAA,FILE,0,20.5,FINESTEERING,2319,307277.000,02000000,e5fc,17139;2319,307277.000000000,-0.0000801162971997,0.0007284770637147,-0.0031355119595772,0.0183484864576095,0.0063224876501737,-0.0083890747934327*3a6e0f73
#CORRIMUDATAA,FILE,0,20.5,FINESTEERING,2319,307277.050,02000000,e5fc,17139;2319,307277.050000000,0.0001598838537349,0.0005917064633318,-0.0028827012688935,0.0118883632520233,0.0084323639097427,-0.0069555817779285*9b9d9e91
#CORRIMUDATAA,FILE,0,20.5,FINESTEERING,2319,307277.100,02000000,e5fc,17139;2319,307277.100000000,0.0001511847065505,0.0006013934984449,-0.0027709981482341,0.0130911311174773,0.0091303547817540,-0.0021691575679874*755ca851
#CORRIMUDATAA,FILE,0,23.5,FINESTEERING,2319,307277.150,02000000,e5fc,17139;2319,307277.150000000,0.0001817849185843,-0.0001929637062947,-0.0026579732039415,0.0059842171953683,0.0107999919830733,-0.0036608513751415*143efc45
#CORRIMUDATAA,FILE,0,23.5,FINESTEERING,2319,307277.200,02000000,e5fc,17139;2319,307277.200000000,0.0004170926437872,-0.0003396934694589,-0.0026679620245728,0.0058378599172096,0.0121973161460243,0.0003436823922688*f2a31e66
#CORRIMUDATAA,FILE,0,23.5,FINESTEERING,2319,307277.250,02000000,e5fc,17139;2319,307277.250000000,0.0003475676670014,-0.0003104568400502,-0.0025306849401461,0.0083622675856680,0.0112200066317938,0.0021556616984118*4150e26b
#CORRIMUDATAA,FILE,0,23.5,FINESTEERING,2319,307277.300,02000000,e5fc,17139;2319,307277.300000000,0.0004103684472953,-0.0005180289566979,-0.0023016908218270,0.0111452384336946,0.0121902990072574,0.0035609784658055*4c5c79c1
#CORRIMUDATAA,FILE,0,23.5,FINESTEERING,2319,307277.350,02000000,e5fc,17139;2319,307277.350000000,0.0003801612920477,-0.0003330971142261,-0.0020774960592003,0.0133925296624240,0.0126432527045021,0.0032454380487042*64ac1cf9
#CORRIMUDATAA,FILE,0,23.5,FINESTEERING,2319,307277.400,02000000,e5fc,17139;2319,307277.400000000,0.0003551383205517,-0.0002707648385577,-0.0018837253613589,0.0144326657945705,0.0137281457490814,0.0003818546043997*1e884651
#CORRIMUDATAA,FILE,0,23.5,FINESTEERING,2319,307277.450,02000000,e5fc,17139;2319,307277.450000000,0.0003217785115642,-0.0003165503025624,-0.0017405385065230,0.0113004450497084,0.0159320807877680,0.0027092487441226*413b773d
#CORRIMUDATAA,FILE,0,23.5,FINESTEERING,2319,307277.500,02000000,e5fc,17139;2319,307277.500000000,0.0004890101831214,-0.0000436681751448,-0.0017025588202479,0.0058698615587553,0.0197295511782970,-0.0034283746519006*0da36f42
#CORRIMUDATAA,FILE,0,23.5,FINESTEERING,2319,307277.550,02000000,e5fc,17139;2319,307277.550000000,0.0005650229388169,0.0003751233075692,-0.0016518342311002,0.0060965668704779,0.0213387559497184,-0.0022564936730510*b4366050
#CORRIMUDATAA,FILE,0,23.5,FINESTEERING,2319,307277.600,02000000,e5fc,17139;2319,307277.600000000,0.0005814922604394,0.0005016730513304,-0.0015895495356429,0.0116068514568649,0.0190335957315247,0.0033802004712480*8496ecd2
#CORRIMUDATAA,FILE,0,23.5,FINESTEERING,2319,307277.650,02000000,e5fc,17139;2319,307277.650000000,0.0003248417601595,0.0002937656001241,-0.0014241878680317,0.0113362287683610,0.0208488399689791,-0.0000755129391259*34c042dd
#CORRIMUDATAA,FILE,0,23.5,FINESTEERING,2319,307277.700,02000000,e5fc,17139;2319,307277.700000000,0.0003199561491744,0.0005202542236544,-0.0012277534941161,0.0096180097418302,0.0216899264524956,0.0021312285998333*7d82404b
#CORRIMUDATAA,FILE,0,23.5,FINESTEERING,2319,307277.750,02000000,e5fc,17139;2319,307277.750000000,0.0003067052944198,0.0004969303957692,-0.0011113799099598,0.0061980411644843,0.0233907837104725,0.0035807031640670*082cfe2d
#CORRIMUDATAA,FILE,0,23.5,FINESTEERING,2319,307277.800,02000000,e5fc,17139;2319,307277.800000000,0.0002093487107876,0.0005349267838450,-0.0010821736106648,0.0046450468087987,0.0266002522478920,0.0034687415825052*ff1f3a12
#CORRIMUDATAA,FILE,0,23.5,FINESTEERING,2319,307277.850,02000000,e5fc,17139;2319,307277.850000000,0.0001909060960153,0.0005060438338027,-0.0010716802065973,0.0072529418488858,0.0287090009718603,-0.0004725562849033*897a6fbe
#CORRIMUDATAA,FILE,0,23.5,FINESTEERING,2319,307277.900,02000000,e5fc,17139;2319,307277.900000000,0.0001557041780952,0.0003273474672629,-0.0010911269787378,0.0038147332673000,0.0284564421279847,0.0024719744007606*7b7f458f
#CORRIMUDATAA,FILE,0,23.5,FINESTEERING,2319,307277.950,02000000,e5fc,17139;2319,307277.950000000,0.0000507092241288,0.0005688868098428,-0.0011666456321549,0.0024874155682235,0.0287388874517649,-0.0003640736213880*9d7b4712
#CORRIMUDATAA,FILE,0,23.5,FINESTEERING,2319,307278.000,02000000,e5fc,17139;2319,307278.000000000,0.0000450407955972,0.0008101357190281,-0.0012393703475561,0.0048202044411988,0.0288918916146423,0.0045948080491993*62fa30e3
#CORRIMUDATAA,FILE,0,23.5,FINESTEERING,2319,307278.050,02000000,e5fc,17139;2319,307278.050000000,0.0001609264332660,0.0011009749692757,-0.0012138872217588,0.0113015442700344,0.0319560963165534,0.0089029661494537*a564ba19
#CORRIMUDATAA,FILE,0,23.5,FINESTEERING,2319,307278.100,02000000,e5fc,17139;2319,307278.100000000,0.0001685870318940,0.0011897648165985,-0.0010704002584355,0.0157047561580907,0.0334427815915554,-0.0077323445362185*ce75e866
#CORRIMUDATAA,FILE,0,27.0,FINESTEERING,2319,307278.150,02000000,e5fc,17139;2319,307278.150000000,0.0003239230171027,0.0012147460160756,-0.0009343052838931,0.0092640934836545,0.0334814644648568,-0.0026062693737445*9058505c
#CORRIMUDATAA,FILE,0,27.0,FINESTEERING,2319,307278.200,02000000,e5fc,17139;2319,307278.200000000,0.0003420565770468,0.0006441369788961,-0.0009662534249199,0.0026055033848817,0.0329261555312718,0.0034555353772173*511834a9
#CORRIMUDATAA,FILE,0,27.0,FINESTEERING,2319,307278.250,02000000,e5fc,17139;2319,307278.250000000,0.0002963697359241,0.0006423836882526,-0.0010174504268626,-0.0010941960910038,0.0339577639612164,-0.0059747190324945*bf0593f2
#CORRIMUDATAA,FILE,0,27.0,FINESTEERING,2319,307278.300,02000000,e5fc,17139;2319,307278.300000000,0.0000831456576202,0.0006660218309020,-0.0010701153284842,0.0028145279409687,0.0336431125534788,0.0032675994122127*7d1d78e2
#CORRIMUDATAA,FILE,0,27.0,FINESTEERING,2319,307278.350,02000000,e5fc,17139;2319,307278.350000000,-0.0001353358475800,0.0007218744810651,-0.0010033560515839,0.0053747726097954,0.0336975482226803,-0.0031100575272228*2df367ee
#CORRIMUDATAA,FILE,0,27.0,FINESTEERING,2319,307278.400,02000000,e5fc,17139;2319,307278.400000000,-0.0001644571517863,0.0008379092226643,-0.0008347003376413,0.0088968499628062,0.0353375184381760,-0.0030849757615539*e8020e5e
#CORRIMUDATAA,FILE,0,27.0,FINESTEERING,2319,307278.450,02000000,e5fc,17139;2319,307278.450000000,-0.0001884906033105,0.0010171152448747,-0.0005521382544113,0.0114091079514459,0.0351100407307884,0.0009489047967344*53679ac1
#CORRIMUDATAA,FILE,0,27.0,FINESTEERING,2319,307278.500,02000000,e5fc,17139;2319,307278.500000000,-0.0002364461240273,0.0009615078772352,-0.0001063578984988,0.0110271831252832,0.0344631341200578,0.0040221950761699*c6b5484d
#CORRIMUDATAA,FILE,0,27.0,FINESTEERING,2319,307278.550,02000000,e5fc,17139;2319,307278.550000000,-0.0002854942107066,0.0007257441907650,0.0002969915814330,0.0046581443745344,0.0350047766362695,0.0016875128722477*6ceba68f
#CORRIMUDATAA,FILE,0,27.0,FINESTEERING,2319,307278.600,02000000,e5fc,17139;2319,307278.600000000,-0.0003975628160243,0.0009377765032968,0.0005821883695313,0.0005517206511002,0.0354191970343269,0.0021333941015149*410b82b5
#CORRIMUDATAA,FILE,0,27.0,FINESTEERING,2319,307278.650,02000000,e5fc,17139;2319,307278.650000000,-0.0006072863832659,0.0004491194741083,0.0007545312424897,-0.0020972831583084,0.0336212855961843,0.0087310392437711*a8a94daf
#CORRIMUDATAA,FILE,0,27.0,FINESTEERING,2319,307278.700,02000000,e5fc,17139;2319,307278.700000000,-0.0008787313102155,-0.0000242452550489,0.0006941211559236,-0.0111641010394496,0.0344369608287826,0.0064574183987930*410521ad
#CORRIMUDATAA,FILE,0,27.0,FINESTEERING,2319,307278.750,02000000,e5fc,17139;2319,307278.750000000,-0.0009344438289031,0.0000271921523790,0.0006930526895413,-0.0107345428506827,0.0339932090209171,-0.0049589138257816*aa06349e
#CORRIMUDATAA,FILE,0,27.0,FINESTEERING,2319,307278.800,02000000,e5fc,17139;2319,307278.800000000,-0.0006274005154286,0.0003395001442288,0.0007025238035861,-0.0022268686390724,0.0360023541121457,-0.0066982594758826*15531cde
#CORRIMUDATAA,FILE,0,27.0,FINESTEERING,2319,307278.850,02000000,e5fc,17139;2319,307278.850000000,-0.0002977591897329,0.0003597522437275,0.0008779791142876,0.0038708592326212,0.0350242598674360,-0.0176150407695326*0f39a435
#CORRIMUDATAA,FILE,0,27.0,FINESTEERING,2319,307278.900,02000000,e5fc,17139;2319,307278.900000000,0.0000533978194435,-0.0001343450720290,0.0009513154022051,0.0019449296434243,0.0362596913380308,-0.0111189436697071*c388549f
#CORRIMUDATAA,FILE,0,27.0,FINESTEERING,2319,307278.950,02000000,e5fc,17139;2319,307278.950000000,0.0003597025189437,-0.0008225677244938,0.0009094786906463,-0.0061698634600318,0.0338740123632421,-0.0047444470957540*279a7b7c
#CORRIMUDATAA,FILE,0,27.0,FINESTEERING,2319,307279.000,02000000,e5fc,17139;2319,307279.000000000,0.0005520391641404,-0.0015019006061266,0.0006356005188352,-0.0161627197104135,0.0367164755450160,-0.0099500745388744*15ae21c8
#CORRIMUDATAA,FILE,0,27.0,FINESTEERING,2319,307279.050,02000000,e5fc,17139;2319,307279.050000000,0.0004034260674936,-0.0008829345005085,0.0002868583364259,-0.0138426301619546,0.0359285113370447,0.0001734115053112*57812a46
#CORRIMUDATAA,FILE,0,22.0,FINESTEERING,2319,307279.100,02000000,e5fc,17139;2319,307279.100000000,0.0004501035002508,-0.0004883389755383,0.0000807842293192,-0.0045689262189847,0.0316929364365007,0.0005668280032330*9b4cc65b
#CORRIMUDATAA,FILE,0,22.0,FINESTEERING,2319,307279.150,02000000,e5fc,17139;2319,307279.150000000,0.0005937102428728,-0.0005001141340412,-0.0000394590200488,0.0086545003739219,0.0321951423033760,0.0052884908871348*cbfef57c
#CORRIMUDATAA,FILE,0,22.0,FINESTEERING,2319,307279.200,02000000,e5fc,17139;2319,307279.200000000,0.0009268208374221,-0.0009542663188309,0.0001308239764242,0.0106374663458038,0.0321504353413002,-0.0035519230859119*23f3c19b
#CORRIMUDATAA,FILE,0,22.0,FINESTEERING,2319,307279.250,02000000,e5fc,17139;2319,307279.250000000,0.0006815879672212,-0.0008048655500214,0.0002595137578183,0.0017739037939839,0.0311669963182954,0.0117282769448976*409d936c
#CORRIMUDATAA,FILE,0,22.0,FINESTEERING,2319,307279.300,02000000,e5fc,17139;2319,307279.300000000,0.0003627382161046,-0.0005928002572244,0.0003204752236859,0.0002325590795954,0.0309603685637889,0.0041542610182188*a711d387
#CORRIMUDATAA,FILE,0,22.0,FINESTEERING,2319,307279.350,02000000,e5fc,17139;2319,307279.350000000,-0.0001892108342981,0.0000690760699802,0.0003034527718750,-0.0000258869335633,0.0295082065966112,0.0119278611153960*d506440e
#CORRIMUDATAA,FILE,0,22.0,FINESTEERING,2319,307279.400,02000000,e5fc,17139;2319,307279.400000000,-0.0005382560449040,-0.0002741747463459,0.0001770343563769,-0.0045302623525067,0.0295038313962583,0.0117833174757624*32c7bab3
#CORRIMUDATAA,FILE,0,22.0,FINESTEERING,2319,307279.450,02000000,e5fc,17139;2319,307279.450000000,-0.0005009730120844,-0.0001939484485032,0.0000581837853399,-0.0021927687403735,0.0289960247286730,0.0040096998135071*9e1f1308
#CORRIMUDATAA,FILE,0,22.0,FINESTEERING,2319,307279.500,02000000,e5fc,17139;2319,307279.500000000,-0.0006472239870895,-0.0004135594096509,0.0000208294948620,0.0030673343062627,0.0316704381055462,-0.0102340116476280*1d0a79e0
#CORRIMUDATAA,FILE,0,22.0,FINESTEERING,2319,307279.550,02000000,e5fc,17139;2319,307279.550000000,-0.0001770949087965,0.0001608052955303,0.0003259892738721,0.0068811591881397,0.0269772382948464,-0.0051609742417829*203beede
#CORRIMUDATAA,FILE,0,22.0,FINESTEERING,2319,307279.600,02000000,e5fc,17139;2319,307279.600000000,0.0001537609146373,-0.0003810269518001,0.0004450259444126,0.0008185763310739,0.0287744760224326,0.0151351193886785*2b213d9f
#CORRIMUDATAA,FILE,0,22.0,FINESTEERING,2319,307279.650,02000000,e5fc,17139;2319,307279.650000000,-0.0003937184363635,0.0002088416825396,0.0003704614967415,-0.0040707689856286,0.0268302391580073,0.0108383429871636*3fe0877c
#CORRIMUDATAA,FILE,0,22.0,FINESTEERING,2319,307279.700,02000000,e5fc,17139;2319,307279.700000000,-0.0001213417884547,-0.0000029944952558,0.0002180399445840,-0.0039278213215484,0.0299394094394246,-0.0185610886015552*b54c3923
#CORRIMUDATAA,FILE,0,22.0,FINESTEERING,2319,307279.750,02000000,e5fc,17139;2319,307279.750000000,0.0001595800693329,0.0000957695372031,0.0001562130486898,0.0027091603131764,0.0304118522920636,-0.0178302619249308*de772712
#CORRIMUDATAA,FILE,0,22.0,FINESTEERING,2319,307279.800,02000000,e5fc,17139;2319,307279.800000000,0.0004733382421909,0.0006220758879934,0.0001903506329347,-0.0042991583919792,0.0275367647998570,-0.0056324379716015*cf9fef3b
#CORRIMUDATAA,FILE,0,22.0,FINESTEERING,2319,307279.850,02000000,e5fc,17139;2319,307279.850000000,0.0008520704476741,0.0005011102209385,0.0001421951596996,-0.0002804592625206,0.0265594218132242,-0.0046348682008929*9300725d
#CORRIMUDATAA,FILE,0,22.0,FINESTEERING,2319,307279.900,02000000,e5fc,17139;2319,307279.900000000,0.0009457893311903,0.0008602460692640,0.0002558065338468,0.0027243390608542,0.0276885986568999,-0.0034953975197500*1e20327d
#CORRIMUDATAA,FILE,0,22.0,FINESTEERING,2319,307279.950,02000000,e5fc,17139;2319,307279.950000000,0.0010628005158387,0.0010715513484165,0.0002503902181540,0.0010376391827524,0.0232138969499201,0.0154296004747403*6d9fff4b
#CORRIMUDATAA,FILE,0,22.0,FINESTEERING,2319,307280.000,02000000,e5fc,17139;2319,307280.000000000,0.0011273654463399,0.0001139357067839,0.0002581689249341,0.0019063398910374,0.0243696674434995,0.0096780509015870*2f0eae43
#CORRIMUDATAA,FILE,0,22.0,FINESTEERING,2319,307280.050,02000000,e5fc,17139;2319,307280.050000000,0.0006763987803457,0.0003256890878233,0.0003095788866534,-0.0021676565382735,0.0257434536625275,-0.0013591572014092*43fa16fe
#CORRIMUDATAA,FILE,0,22.0,FINESTEERING,2319,307280.100,02000000,e5fc,17139;2319,307280.100000000,0.0006600593757940,0.0003941235773138,0.0004157850181579,-0.0039452598596184,0.0233824517535026,0.0146824481807711*b3507ba2
#CORRIMUDATAA,FILE,0,24.0,FINESTEERING,2319,307280.150,02000000,e5fc,17139;2319,307280.150000000,0.0000243041855147,0.0007096741285074,0.0005420933907377,-0.0000147440873156,0.0240517478476080,0.0136770591192593*62133721
#CORRIMUDATAA,FILE,0,24.0,FINESTEERING,2319,307280.200,02000000,e5fc,17139;2319,307280.200000000,-0.0005330547032648,0.0010852425787383,0.0007928569218313,0.0004122393427563,0.0233498242649260,0.0020117750228226*563cd410
#CORRIMUDATAA,FILE,0,24.0,FINESTEERING,2319,307280.250,02000000,e5fc,17139;2319,307280.250000000,-0.0007505220951994,0.0010554763776778,0.0009141009365299,0.0023864693197916,0.0234345494034747,-0.0024711923338781*4f5759f4
#CORRIMUDATAA,FILE,0,24.0,FINESTEERING,2319,307280.300,02000000,e5fc,17139;2319,307280.300000000,-0.0013619469502481,0.0007454629655509,0.0011502422276515,0.0010281336903821,0.0224205658574363,0.0116870038137304*fbd1ee00
#CORRIMUDATAA,FILE,0,24.0,FINESTEERING,2319,307280.350,02000000,e5fc,17139;2319,307280.350000000,-0.0013686332321687,0.0000981176171393,0.0011186451283272,-0.0066618331739437,0.0241829196235712,-0.0017147916961632*4ccf76de
#CORRIMUDATAA,FILE,0,24.0,FINESTEERING,2319,307280.400,02000000,e5fc,17139;2319,307280.400000000,-0.0018666696060699,0.0000412792267035,0.0010998063202266,-0.0139274083226719,0.0213386335592516,0.0181595251143829*5f30eb18
#CORRIMUDATAA,FILE,0,24.0,FINESTEERING,2319,307280.450,02000000,e5fc,17139;2319,307280.450000000,-0.0020119890366891,-0.0003791855179890,0.0009050057511214,-0.0153433267466108,0.0277792841965426,-0.0014508865447729*e7e4afb5
#CORRIMUDATAA,FILE,0,24.0,FINESTEERING,2319,307280.500,02000000,e5fc,17139;2319,307280.500000000,-0.0017211209123693,-0.0005238450972665,0.0009566208800947,-0.0107442257712375,0.0257700263021792,-0.0072647289558080*06ae4091
#CORRIMUDATAA,FILE,0,24.0,FINESTEERING,2319,307280.550,02000000,e5fc,17139;2319,307280.550000000,-0.0012318527890831,-0.0003250060211967,0.0009552904094701,-0.0018298032949586,0.0299986620719889,-0.0273803598778735*3f2771b5
#CORRIMUDATAA,FILE,0,24.0,FINESTEERING,2319,307280.600,02000000,e5fc,17139;2319,307280.600000000,-0.0004781881292916,-0.0004521593157329,0.0011054082513963,0.0043697508709275,0.0279050360455754,-0.0348229447214932*9c319960
#CORRIMUDATAA,FILE,0,24.0,FINESTEERING,2319,307280.650,02000000,e5fc,17139;2319,307280.650000000,0.0002231627855505,-0.0002405900975100,0.0011945813744862,-0.0030693111657767,0.0303414339105017,-0.0126098708583099*98126af1
#CORRIMUDATAA,FILE,0,24.0,FINESTEERING,2319,307280.700,02000000,e5fc,17139;2319,307280.700000000,0.0007106143074366,-0.0005039421756058,0.0010982251688897,-0.0131265421582568,0.0259278950952162,-0.0293810034208157*571cf8b2
#CORRIMUDATAA,FILE,0,24.0,FINESTEERING,2319,307280.750,02000000,e5fc,17139;2319,307280.750000000,0.0009451792510041,0.0001526733145659,0.0009548598449330,-0.0113633937995266,0.0289815941357759,0.0016188757095800*e3658db6
#CORRIMUDATAA,FILE,0,24.0,FINESTEERING,2319,307280.800,02000000,e5fc,17139;2319,307280.800000000,0.0013577214640868,-0.0002345897935094,0.0009621224246411,-0.0055631337080364,0.0246836051840704,-0.0024311565103409*7027a528
#CORRIMUDATAA,FILE,0,24.0,FINESTEERING,2319,307280.850,02000000,e5fc,17139;2319,307280.850000000,0.0012999477086099,-0.0011723450183667,0.0009363514567419,-0.0043404948113212,0.0256061882717205,0.0017226668960188*53d69c76
#CORRIMUDATAA,FILE,0,24.0,FINESTEERING,2319,307280.900,02000000,e5fc,17139;2319,307280.900000000,0.0007083741764842,-0.0012451768342203,0.0010614637685942,-0.0075590358016588,0.0258630559025533,0.0124520415811386*f10208f6
#CORRIMUDATAA,FILE,0,24.0,FINESTEERING,2319,307280.950,02000000,e5fc,17139;2319,307280.950000000,0.0009732283215503,-0.0014737063865029,0.0010319302085254,-0.0106496702368434,0.0255858622208186,0.0137253397116758*f3ed0d91
#CORRIMUDATAA,FILE,0,24.0,FINESTEERING,2319,307281.000,02000000,e5fc,17139;2319,307281.000000000,0.0004688936656134,-0.0005343964416809,0.0011848556939780,-0.0055647869868469,0.0240248593130649,0.0202803470981700*984e4c35
#CORRIMUDATAA,FILE,0,24.0,FINESTEERING,2319,307281.050,02000000,e5fc,17139;2319,307281.050000000,0.0005282969410255,-0.0004777791532530,0.0013066392237238,-0.0021224724139810,0.0237161516208344,0.0027838446010555*2275aef9
#CORRIMUDATAA,FILE,0,24.0,FINESTEERING,2319,307281.100,02000000,e5fc,17139;2319,307281.100000000,0.0003765607665656,0.0002661240395867,0.0015828359011877,-0.0004392296034465,0.0233056474077639,0.0150508803685956*a0f68346
#CORRIMUDATAA,FILE,0,28.0,FINESTEERING,2319,307281.150,02000000,e5fc,17139;2319,307281.150000000,0.0001006752915147,0.0000678387524877,0.0017158869970260,-0.0017240747056997,0.0220037845386456,0.0010851947297234*ad0d28a5
#CORRIMUDATAA,FILE,0,28.0,FINESTEERING,2319,307281.200,02000000,e5fc,17139;2319,307281.200000000,-0.0003443390707309,-0.0004168208218505,0.0018584107195188,-0.0088347498615861,0.0195374957319793,0.0076541930991843*87f7924b
#CORRIMUDATAA,FILE,0,28.0,FINESTEERING,2319,307281.250,02000000,e5fc,17139;2319,307281.250000000,-0.0006006954953399,-0.0003814126536881,0.0017341269004679,-0.0200012196216617,0.0239803483978437,-0.0001410606584652*b96fd954
#CORRIMUDATAA,FILE,0,28.0,FINESTEERING,2319,307281.300,02000000,e5fc,17139;2319,307281.300000000,-0.0004858018569473,-0.0004955914679556,0.0016581317955518,-0.0141479730535534,0.0247607719334124,-0.0016386542990757*c9fcfb78
#CORRIMUDATAA,FILE,0,28.0,FINESTEERING,2319,307281.350,02000000,e5fc,17139;2319,307281.350000000,-0.0003560686324472,-0.0002980931680040,0.0016226022463488,-0.0139540718285582,0.0277774571689646,-0.0081948141444430*5210556a
#CORRIMUDATAA,FILE,0,28.0,FINESTEERING,2319,307281.400,02000000,e5fc,17139;2319,307281.400000000,-0.0002032434270235,-0.0001985064282467,0.0016680327038676,-0.0096651927725358,0.0237899107973783,0.0092153194391476*3c39d18a
#CORRIMUDATAA,FILE,0,28.0,FINESTEERING,2319,307281.450,02000000,e5fc,17139;2319,307281.450000000,-0.0001962733902363,-0.0004257273759705,0.0017728997868749,-0.0014240290985602,0.0264769681268958,-0.0040061158712259*21c1b60f
#CORRIMUDATAA,FILE,0,28.0,FINESTEERING,2319,307281.500,02000000,e5fc,17139;2319,307281.500000000,-0.0003149500305727,-0.0002069271715832,0.0018127687134316,-0.0112334175582231,0.0253823124375912,-0.0011551044243678*9df37412
#CORRIMUDATAA,FILE,0,28.0,FINESTEERING,2319,307281.550,02000000,e5fc,17139;2319,307281.550000000,-0.0002427873985417,-0.0004453183587536,0.0017385465158134,-0.0142199410034993,0.0286945319785890,-0.0105688587109609*5da3f3c0
#CORRIMUDATAA,FILE,0,28.0,FINESTEERING,2319,307281.600,02000000,e5fc,17139;2319,307281.600000000,-0.0003696085944779,-0.0001546565162117,0.0015968879039493,-0.0187840765770796,0.0275328306394508,-0.0031031290714740*ad5a9b19
#CORRIMUDATAA,FILE,0,28.0,FINESTEERING,2319,307281.650,02000000,e5fc,17139;2319,307281.650000000,-0.0002314232678341,-0.0000400334726470,0.0015891792687853,-0.0103257116374904,0.0299290404109442,-0.0131406102561508*bfc18677
#CORRIMUDATAA,FILE,0,28.0,FINESTEERING,2319,307281.700,02000000,e5fc,17139;2319,307281.700000000,-0.0003076392273660,0.0000166654667733,0.0015954042724320,-0.0051589736275288,0.0240527494142502,0.0030487166323506*062ddc12
#CORRIMUDATAA,FILE,0,28.0,FINESTEERING,2319,307281.750,02000000,e5fc,17139;2319,307281.750000000,-0.0002692306971073,-0.0003285750695307,0.0016781895062716,-0.0069511514545404,0.0255471143273296,0.0061314838536620*e9943736
#CORRIMUDATAA,FILE,0,28.0,FINESTEERING,2319,307281.800,02000000,e5fc,17139;2319,307281.800000000,-0.0001989051472011,-0.0001971033321889,0.0015061501561391,-0.0138070164405171,0.0259221382795660,0.0082511152501170*f8efa077
#CORRIMUDATAA,FILE,0,28.0,FINESTEERING,2319,307281.850,02000000,e5fc,17139;2319,307281.850000000,-0.0002657671830965,0.0000575446469455,0.0014018466358690,-0.0079902843267878,0.0300040408497546,0.0008360823349982*edfec3b6
#CORRIMUDATAA,FILE,0,28.0,FINESTEERING,2319,307281.900,02000000,e5fc,17139;2319,307281.900000000,-0.0002311275402707,0.0003697539159846,0.0013427543116436,-0.0073442975318457,0.0261312927162377,-0.0043083891866496*28aa8800
#CORRIMUDATAA,FILE,0,28.0,FINESTEERING,2319,307281.950,02000000,e5fc,17139;2319,307281.950000000,-0.0000008069719202,0.0000812873811847,0.0012945228502361,-0.0053585850975822,0.0266694962321400,-0.0103975008160629*15ca3768
#CORRIMUDATAA,FILE,0,28.0,FINESTEERING,2319,307282.000,02000000,e5fc,17139;2319,307282.000000000,-0.0000010606977036,0.0002039920736349,0.0012047340293136,-0.0068458935938444,0.0271634430748125,-0.0110887268054384*17e60919
#CORRIMUDATAA,FILE,0,28.0,FINESTEERING,2319,307282.050,02000000,e5fc,17139;2319,307282.050000000,0.0003447492925433,-0.0002103613742893,0.0010081415533102,-0.0121113427303814,0.0306786779879221,-0.0119471203160474*3c1e4c1a
#CORRIMUDATAA,FILE,0,28.0,FINESTEERING,2319,307282.100,02000000,e5fc,17139;2319,307282.100000000,0.0002897973161444,0.0000173360888090,0.0008636975303780,-0.0101869906692156,0.0285522971259523,0.0054907834977297*0b849c57
#CORRIMUDATAA,FILE,0,28.0,FINESTEERING,2319,307282.150,02000000,e5fc,17139;2319,307282.150000000,0.0006778456420243,0.0002991803683458,0.0008058770651907,-0.0058669981300839,0.0307704503566569,0.0009750242304640*0e4abeca
#CORRIMUDATAA,FILE,0,28.0,FINESTEERING,2319,307282.200,02000000,e5fc,17139;2319,307282.200000000,0.0006826782731790,0.0004411691445041,0.0009111323664860,0.0006779232315688,0.0297768914909862,0.0086706424999487*4bcfdb0a
#CORRIMUDATAA,FILE,0,27.0,FINESTEERING,2319,307282.250,02000000,e5fc,17139;2319,307282.250000000,0.0006876405651818,0.0001833876146094,0.0009779910168519,0.0004670150696965,0.0312646661019319,0.0034361402712968*d546a144
#CORRIMUDATAA,FILE,0,27.0,FINESTEERING,2319,307282.300,02000000,e5fc,17139;2319,307282.300000000,0.0007337055050993,-0.0000848315724212,0.0009461542277580,-0.0085247301027989,0.0356490418747914,0.0012701233842184*550e5fe4
#CORRIMUDATAA,FILE,0,27.0,FINESTEERING,2319,307282.350,02000000,e5fc,17139;2319,307282.350000000,0.0006522904893875,0.0001503038370857,0.0008564989512965,-0.0103039213038666,0.0358667453508825,0.0032227688885531*4979c527
#CORRIMUDATAA,FILE,0,27.0,FINESTEERING,2319,307282.400,02000000,e5fc,17139;2319,307282.400000000,0.0006862720492783,0.0000748586200502,0.0007315207921034,-0.0058630154620267,0.0372425764225749,-0.0010424383236367*5822be1b
#CORRIMUDATAA,FILE,0,27.0,FINESTEERING,2319,307282.450,02000000,e5fc,17139;2319,307282.450000000,0.0005115357541057,-0.0002185740880951,0.0008998943046172,-0.0021519472486543,0.0376997310024270,0.0004121686580360*ea2472da
#CORRIMUDATAA,FILE,0,27.0,FINESTEERING,2319,307282.500,02000000,e5fc,17139;2319,307282.500000000,0.0004326214487160,-0.0003599098880037,0.0009756252437669,-0.0058955644674835,0.0361445790842699,0.0138623621513644*efac28e8
#CORRIMUDATAA,FILE,0,27.0,FINESTEERING,2319,307282.550,02000000,e5fc,17139;2319,307282.550000000,0.0001781246217658,-0.0004364025664755,0.0010078965229391,-0.0072595569705637,0.0382906043816349,0.0044126356284780*45ac7519
#CORRIMUDATAA,FILE,0,27.0,FINESTEERING,2319,307282.600,02000000,e5fc,17139;2319,307282.600000000,-0.0002979639410327,-0.0001353457799080,0.0009572602121080,-0.0079605873527977,0.0369434805795092,0.0065778765214421*56b8bd56
#CORRIMUDATAA,FILE,0,27.0,FINESTEERING,2319,307282.650,02000000,e5fc,17139;2319,307282.650000000,-0.0003596165629518,-0.0001551238310244,0.0008741544140202,-0.0068231306347093,0.0375328930729941,0.0068450276180780*760e3118
#CORRIMUDATAA,FILE,0,27.0,FINESTEERING,2319,307282.700,02000000,e5fc,17139;2319,307282.700000000,-0.0003915397303105,0.0004470468072492,0.0009356525781613,-0.0017724023270834,0.0386039209043950,-0.0025456202009232*821f27cc
#CORRIMUDATAA,FILE,0,27.0,FINESTEERING,2319,307282.750,02000000,e5fc,17139;2319,307282.750000000,-0.0002541758765885,0.0003392813842623,0.0009628092628841,-0.0027621299930757,0.0341906360792731,0.0067909388337233*4aa96495
#CORRIMUDATAA,FILE,0,27.0,FINESTEERING,2319,307282.800,02000000,e5fc,17139;2319,307282.800000000,-0.0003286181046024,-0.0000807845758908,0.0009010184156515,-0.0068183680756373,0.0392976363282402,-0.0045297275389884*0994ce87
#CORRIMUDATAA,FILE,0,27.0,FINESTEERING,2319,307282.850,02000000,e5fc,17139;2319,307282.850000000,-0.0003397347582150,-0.0000952463702047,0.0007713321794933,-0.0122877566082628,0.0357806024371730,-0.0099341109585908*b1fe6586
#CORRIMUDATAA,FILE,0,27.0,FINESTEERING,2319,307282.900,02000000,e5fc,17139;2319,307282.900000000,-0.0000315851193635,0.0003616249308317,0.0006552737793104,-0.0053201515785541,0.0384846130740426,-0.0065632545194998*939b5b4f
#CORRIMUDATAA,FILE,0,27.0,FINESTEERING,2319,307282.950,02000000,e5fc,17139;2319,307282.950000000,0.0002771546804647,0.0003935019169352,0.0007794430280717,0.0013315162789449,0.0395083613037691,-0.0129181966197958*9be55345
#CORRIMUDATAA,FILE,0,27.0,FINESTEERING,2319,307283.000,02000000,e5fc,17139;2319,307283.000000000,0.0002469095787352,-0.0001177057881094,0.0008904623000566,0.0017916861759440,0.0333568256657649,0.0041567437461776*2831e731
#CORRIMUDATAA,FILE,0,27.0,FINESTEERING,2319,307283.050,02000000,e5fc,17139;2319,307283.050000000,0.0000980175300047,-0.0004112347002851,0.0008742849487293,-0.0076224333293088,0.0387972848844963,-0.0021327072255976*3eabab33
#CORRIMUDATAA,FILE,0,27.0,FINESTEERING,2319,307283.100,02000000,e5fc,17139;2319,307283.100000000,-0.0001791977318531,-0.0000576877346924,0.0007529701830093,-0.0128500608619936,0.0354360304244354,0.0049444091220133*49057111
#CORRIMUDATAA,FILE,0,28.5,FINESTEERING,2319,307283.150,02000000,e5fc,17139;2319,307283.150000000,-0.0002535145026144,0.0003496743787622,0.0005989456917762,-0.0045450413814220,0.0337415572920346,0.0123966373086704*0e946277
#CORRIMUDATAA,FILE,0,28.5,FINESTEERING,2319,307283.200,02000000,e5fc,17139;2319,307283.200000000,-0.0001943869098893,0.0006596036981787,0.0006870109290136,0.0022770687454494,0.0383487025238127,-0.0052808217117769*a7919f5e
#CORRIMUDATAA,FILE,0,28.5,FINESTEERING,2319,307283.250,02000000,e5fc,17139;2319,307283.250000000,-0.0001371661745323,0.0002562628866938,0.0007911379425142,0.0032765784056153,0.0321769755114944,0.0082381238612126*4b726733
#CORRIMUDATAA,FILE,0,28.5,FINESTEERING,2319,307283.300,02000000,e5fc,17139;2319,307283.300000000,0.0001709114296734,-0.0003704043700068,0.0007840373888010,-0.0097123583054029,0.0361463713801755,-0.0102391030858563*00c9d66b
#CORRIMUDATAA,FILE,0,28.5,FINESTEERING,2319,307283.350,02000000,e5fc,17139;2319,307283.350000000,0.0002805954372597,-0.0000604955487985,0.0007340219189692,-0.0136538812073573,0.0356715383016332,-0.0041396521705419*c60e2d1b
#CORRIMUDATAA,FILE,0,28.5,FINESTEERING,2319,307283.400,02000000,e5fc,17139;2319,307283.400000000,0.0002875141590984,0.0001075785334321,0.0007203497328200,-0.0038355528990429,0.0326204784877486,-0.0038692782499412*22f09c3b
#CORRIMUDATAA,FILE,0,28.5,FINESTEERING,2319,307283.450,02000000,e5fc,17139;2319,307283.450000000,0.0003374513851782,-0.0002925014862128,0.0008449918667353,-0.0013827798439092,0.0325887060590453,-0.0083088716353191*a95bab28
#CORRIMUDATAA,FILE,0,28.5,FINESTEERING,2319,307283.500,02000000,e5fc,17139;2319,307283.500000000,0.0002080568959771,-0.0002681542038994,0.0009337429031459,-0.0055829679390657,0.0326240117681896,0.0060186439338860*66bd58fd
#CORRIMUDATAA,FILE,0,28.5,FINESTEERING,2319,307283.550,02000000,e5fc,17139;2319,307283.550000000,0.0002016675780810,-0.0000682321278157,0.0008009497970997,-0.0127123573238327,0.0309695104224022,0.0114020201949619*7bfc0286
#CORRIMUDATAA,FILE,0,28.5,FINESTEERING,2319,307283.600,02000000,e5fc,17139;2319,307283.600000000,-0.0003280431239093,0.0005689828387374,0.0006636223960092,-0.0088625550029659,0.0287872825629044,0.0203225565595999*e4adc33a
#CORRIMUDATAA,FILE,0,28.5,FINESTEERING,2319,307283.650,02000000,e5fc,17139;2319,307283.650000000,-0.0006883895278054,0.0001605405672259,0.0006638347436113,-0.0004192426498916,0.0297468735964666,0.0042193868396696*19663126
#CORRIMUDATAA,FILE,0,28.5,FINESTEERING,2319,307283.700,02000000,e5fc,17139;2319,307283.700000000,-0.0007607715367992,-0.0001911672181701,0.0007788237763826,-0.0003296860673490,0.0299446531752553,-0.0052023856357016*6093425a
#CORRIMUDATAA,FILE,0,28.5,FINESTEERING,2319,307283.750,02000000,e5fc,17139;2319,307283.750000000,-0.0008221537136810,-0.0004375923790544,0.0008161884557052,-0.0074712903181176,0.0291721764330326,-0.0025094084563257*87ad626f
#CORRIMUDATAA,FILE,0,28.5,FINESTEERING,2319,307283.800,02000000,e5fc,17139;2319,307283.800000000,-0.0007750137586170,-0.0003898907268643,0.0007716521607188,-0.0118841425406891,0.0296256778175895,-0.0046988338979824*80bfec94
#CORRIMUDATAA,FILE,0,28.5,FINESTEERING,2319,307283.850,02000000,e5fc,17139;2319,307283.850000000,-0.0006297912247891,0.0003249147038640,0.0007590580604181,-0.0054642941875129,0.0313260347528281,-0.0101315247144474*4c84b4e2
#CORRIMUDATAA,FILE,0,28.5,FINESTEERING,2319,307283.900,02000000,e5fc,17139;2319,307283.900000000,-0.0002511731084963,0.0007143989057115,0.0009129950564010,0.0060696099492374,0.0293203926235086,-0.0221681366372476*295a031c
#CORRIMUDATAA,FILE,0,28.5,FINESTEERING,2319,307283.950,02000000,e5fc,17139;2319,307283.950000000,0.0003174408653261,0.0000229639241030,0.0009911407795278,-0.0002229112841903,0.0297700855825382,-0.0068926877085833*cd42f530
#CORRIMUDATAA,FILE,0,28.5,FINESTEERING,2319,307284.000,02000000,e5fc,17139;2319,307284.000000000,0.0006719665111498,-0.0001516646868091,0.0008712765950999,-0.0149378526922816,0.0278271611658412,0.0021699946810295*b7a6c788
#CORRIMUDATAA,FILE,0,28.5,FINESTEERING,2319,307284.050,02000000,e5fc,17139;2319,307284.050000000,0.0010654657080289,-0.0001706992367296,0.0007119644699396,-0.0129757909180643,0.0269137417020201,-0.0039310811729845*64cdd952
#CORRIMUDATAA,FILE,0,27.5,FINESTEERING,2319,307284.100,02000000,e5fc,17139;2319,307284.100000000,0.0010258730775190,0.0000089245571553,0.0007420496288289,-0.0041588289941626,0.0249071522049102,0.0014777325942106*a72773db
#CORRIMUDATAA,FILE,0,27.5,FINESTEERING,2319,307284.150,02000000,e5fc,17139;2319,307284.150000000,0.0010153827209424,-0.0003935841475636,0.0008518120017809,-0.0009500105733128,0.0258227530849509,-0.0001391972918948*07d5fca3
#CORRIMUDATAA,FILE,0,27.5,FINESTEERING,2319,307284.200,02000000,e5fc,17139;2319,307284.200000000,0.0005594532677969,-0.0007378760559991,0.0008896332675835,-0.0073970872412345,0.0234754545909114,0.0147350937164577*4d6cb7b8
#CORRIMUDATAA,FILE,0,27.5,FINESTEERING,2319,307284.250,02000000,e5fc,17139;2319,307284.250000000,0.0001651444620435,-0.0008457118991635,0.0007768885792844,-0.0139135284604498,0.0236811959438498,0.0199848011036577*c524f489
#CORRIMUDATAA,FILE,0,27.5,FINESTEERING,2319,307284.300,02000000,e5fc,17139;2319,307284.300000000,-0.0002518971169488,-0.0004844463076131,0.0006562447118602,-0.0112038432973028,0.0231577218615445,0.0181914706250760*ffb74898
#CORRIMUDATAA,FILE,0,27.5,FINESTEERING,2319,307284.350,02000000,e5fc,17139;2319,307284.350000000,-0.0006402321118354,-0.0004633094493656,0.0006185577571566,-0.0003914621080471,0.0234565159448540,0.0129942964066165*b5a29c8e
#CORRIMUDATAA,FILE,0,27.5,FINESTEERING,2319,307284.400,02000000,e5fc,17139;2319,307284.400000000,-0.0009265216233862,-0.0007524784432958,0.0006690516932682,-0.0042652187286897,0.0251275403662801,0.0022976681823978*9378e78c
#CORRIMUDATAA,FILE,0,27.5,FINESTEERING,2319,307284.450,02000000,e5fc,17139;2319,307284.450000000,-0.0008196252980719,-0.0008510895836717,0.0005406866248061,-0.0107772672994891,0.0262550663188854,-0.0031409205608237*691d3695
#CORRIMUDATAA,FILE,0,27.5,FINESTEERING,2319,307284.500,02000000,e5fc,17139;2319,307284.500000000,-0.0009933142712915,-0.0002135214855139,0.0004929193507307,-0.0065441864456214,0.0254128871691264,-0.0122523272083325*53a1737b
#CORRIMUDATAA,FILE,0,27.5,FINESTEERING,2319,307284.550,02000000,e5fc,17139;2319,307284.550000000,-0.0007036494299161,-0.0000655260470323,0.0005619093816194,0.0015627360265898,0.0264055870317434,-0.0166981998100415*34a8f2e8
#CORRIMUDATAA,FILE,0,27.5,FINESTEERING,2319,307284.600,02000000,e5fc,17139;2319,307284.600000000,-0.0005851997017340,-0.0001417328550948,0.0006678674451332,0.0031085236489725,0.0260329296875427,-0.0178172354593487*0d58fd81
#CORRIMUDATAA,FILE,0,27.5,FINESTEERING,2319,307284.650,02000000,e5fc,17139;2319,307284.650000000,-0.0006558274145490,-0.0002413752060747,0.0006132650635102,-0.0053399055531255,0.0263415057829418,0.0068097593453417*3fe9b87c
#CORRIMUDATAA,FILE,0,27.5,FINESTEERING,2319,307284.700,02000000,e5fc,17139;2319,307284.700000000,-0.0006336219208832,-0.0002184770381993,0.0005519584552276,-0.0080777502395842,0.0274042178998168,-0.0167260979567291*a1554993
#CORRIMUDATAA,FILE,0,27.5,FINESTEERING,2319,307284.750,02000000,e5fc,17139;2319,307284.750000000,-0.0004903171632006,0.0005072771910713,0.0005814573523539,-0.0013524936280515,0.0276118591447762,-0.0045929234440895*46d2e052
#CORRIMUDATAA,FILE,0,27.5,FINESTEERING,2319,307284.800,02000000,e5fc,17139;2319,307284.800000000,-0.0004934012792074,0.0002618399065807,0.0006893411503290,0.0022841365671864,0.0250424864734072,-0.0053765492191602*68096875
#CORRIMUDATAA,FILE,0,27.5,FINESTEERING,2319,307284.850,02000000,e5fc,17139;2319,307284.850000000,-0.0000714757755552,-0.0001676025125302,0.0006430157780536,-0.0085903224527712,0.0285704869915973,-0.0052244295811746*d7bab836
#CORRIMUDATAA,FILE,0,27.5,FINESTEERING,2319,307284.900,02000000,e5fc,17139;2319,307284.900000000,-0.0000720337341983,0.0005699458324541,0.0005566918216646,-0.0070623043452009,0.0250266767991700,-0.0022968071489872*3f5192ec
#CORRIMUDATAA,FILE,0,27.5,FINESTEERING,2319,307284.950,02000000,e5fc,17139;2319,307284.950000000,0.0006448817386727,0.0001097141703403,0.0005595556070480,-0.0015309651207338,0.0283555598499837,-0.0063853177520778*ad01228e
#CORRIMUDATAA,FILE,0,27.5,FINESTEERING,2319,307285.000,02000000,e5fc,17139;2319,307285.000000000,0.0003351511400208,0.0000600572643747,0.0006282627869869,-0.0020891871952739,0.0249026689792008,0.0007776906398554*173128dd
#CORRIMUDATAA,FILE,0,27.5,FINESTEERING,2319,307285.050,02000000,e5fc,17139;2319,307285.050000000,0.0005056586333026,-0.0006392222288885,0.0006686507651823,-0.0061328982096125,0.0268291684992820,-0.0051917642016573*a052a9e0
#CORRIMUDATAA,FILE,0,27.5,FINESTEERING,2319,307285.100,02000000,e5fc,17139;2319,307285.100000000,0.0005423893460033,-0.0003579176920895,0.0005463003930989,-0.0124578533573871,0.0266472714811839,0.0050029958918654*71a54a30
#CORRIMUDATAA,FILE,0,29.0,FINESTEERING,2319,307285.150,02000000,e5fc,17139;2319,307285.150000000,0.0004956812765769,0.0003612913341827,0.0005277628048630,-0.0035673977650233,0.0235801607838241,0.0159798233124103*8fbf59c8
#CORRIMUDATAA,FILE,0,29.0,FINESTEERING,2319,307285.200,02000000,e5fc,17139;2319,307285.200000000,0.0002684222651191,-0.0001739504961427,0.0006112161831384,0.0036109181504883,0.0232704386305273,0.0071200012406175*fa8b4d18
#CORRIMUDATAA,FILE,0,29.0,FINESTEERING,2319,307285.250,02000000,e5fc,17139;2319,307285.250000000,0.0000397633396784,-0.0006865502034035,0.0006655590313210,-0.0047447643804084,0.0245800356231853,0.0006306780040541*00f96d8a
#CORRIMUDATAA,FILE,0,29.0,FINESTEERING,2319,307285.300,02000000,e5fc,17139;2319,307285.300000000,-0.0002335589820472,-0.0010197722771028,0.0003512377499500,-0.0091418534197193,0.0256514980341833,0.0079904691745719*47ceede3
#CORRIMUDATAA,FILE,0,29.0,FINESTEERING,2319,307285.350,02000000,e5fc,17139;2319,307285.350000000,-0.0002342424226609,-0.0014385034189062,-0.0001561846177508,-0.0117922812382196,0.0257274440133517,0.0013816171944743*a4af5954
#CORRIMUDATAA,FILE,0,29.0,FINESTEERING,2319,307285.400,02000000,e5fc,17139;2319,307285.400000000,-0.0004503792860415,-0.0016918972619599,-0.0008772198733801,-0.0029071363692063,0.0254865680564636,-0.0040808509909132*f70107b8
#CORRIMUDATAA,FILE,0,29.0,FINESTEERING,2319,307285.450,02000000,e5fc,17139;2319,307285.450000000,-0.0003661369515403,-0.0021990328123457,-0.0016325156904287,0.0019401496749547,0.0255934170411572,-0.0005797133406831*4aaf4f58
#CORRIMUDATAA,FILE,0,29.0,FINESTEERING,2319,307285.500,02000000,e5fc,17139;2319,307285.500000000,-0.0002684055322703,-0.0022237035141241,-0.0024491513997011,0.0007603290761106,0.0265370327448284,-0.0050058242258489*ee6b66f5
#CORRIMUDATAA,FILE,0,29.0,FINESTEERING,2319,307285.550,02000000,e5fc,17139;2319,307285.550000000,0.0000321084580765,-0.0017472375305283,-0.0030716190326021,0.0135481997366607,0.0267682831794885,-0.0026639633104277*afc29209
#CORRIMUDATAA,FILE,0,29.0,FINESTEERING,2319,307285.600,02000000,e5fc,17139;2319,307285.600000000,0.0001510329472920,-0.0008771333976018,-0.0033416886996683,0.0308407754872753,0.0238226790579277,-0.0095688573754065*f662f58c
#CORRIMUDATAA,FILE,0,29.0,FINESTEERING,2319,307285.650,02000000,e5fc,17139;2319,307285.650000000,0.0005954207075370,-0.0010573144694206,-0.0033039167510953,0.0397710817795736,0.0230437112278104,-0.0060438693939888*b0a9e96b
#CORRIMUDATAA,FILE,0,29.0,FINESTEERING,2319,307285.700,02000000,e5fc,17139;2319,307285.700000000,0.0006412147683114,-0.0006176208757035,-0.0032930639789407,0.0325506004785787,0.0223390147694866,0.0030900873197977*44d800ed
#CORRIMUDATAA,FILE,0,29.0,FINESTEERING,2319,307285.750,02000000,e5fc,17139;2319,307285.750000000,0.0007713746784342,-0.0001432596889557,-0.0032864670605620,0.0321530635288624,0.0216113557551149,0.0064323439529642*d5112c4b
#CORRIMUDATAA,FILE,0,29.0,FINESTEERING,2319,307285.800,02000000,e5fc,17139;2319,307285.800000000,0.0005925661029803,0.0002919490843936,-0.0031828486918870,0.0362668106076213,0.0206176641524932,0.0117814355179934*6b39880f
#CORRIMUDATAA,FILE,0,29.0,FINESTEERING,2319,307285.850,02000000,e5fc,17139;2319,307285.850000000,0.0002999161700131,0.0004952664739691,-0.0031047480140231,0.0369666294230409,0.0200222871753852,0.0104381713186544*57d2a211
#CORRIMUDATAA,FILE,0,29.0,FINESTEERING,2319,307285.900,02000000,e5fc,17139;2319,307285.900000000,-0.0001545980157127,0.0003382106978877,-0.0030731745859603,0.0293320459951577,0.0207809359981280,0.0141486302747177*17e497a5
#CORRIMUDATAA,FILE,0,29.0,FINESTEERING,2319,307285.950,02000000,e5fc,17139;2319,307285.950000000,-0.0004504256524837,0.0005833180488520,-0.0030671723805306,0.0292922322380938,0.0208423289890749,0.0074357350482662*1b1ba948
#CORRIMUDATAA,FILE,0,29.0,FINESTEERING,2319,307286.000,02000000,e5fc,17139;2319,307286.000000000,-0.0008791229707524,0.0005526385319709,-0.0027928912798932,0.0309360237434895,0.0184882345596224,0.0084496160313911*0c8cabb9
#CORRIMUDATAA,FILE,0,29.0,FINESTEERING,2319,307286.050,02000000,e5fc,17139;2319,307286.050000000,-0.0007175779648190,0.0000591517549988,-0.0025486112105663,0.0287766187957246,0.0223482047918523,-0.0073395977415028*0d56c5f2
#CORRIMUDATAA,FILE,0,29.0,FINESTEERING,2319,307286.100,02000000,e5fc,17139;2319,307286.100000000,-0.0008139708137076,0.0004876790349796,-0.0023845332441681,0.0237107313527239,0.0223120447512124,-0.0055447036829622*ec595b6e
#CORRIMUDATAA,FILE,0,29.0,FINESTEERING,2319,307286.150,02000000,e5fc,17139;2319,307286.150000000,-0.0003891417769978,0.0004141532524673,-0.0022090094659248,0.0220721747797840,0.0243223733696356,-0.0163979408211622*83ff2966
#CORRIMUDATAA,FILE,0,29.0,FINESTEERING,2319,307286.200,02000000,e5fc,17139;2319,307286.200000000,-0.0000520242842823,0.0010288971864745,-0.0019339889162352,0.0263919638953057,0.0211248772906375,-0.0181758584846889*9f8ad549
#CORRIMUDATAA,FILE,0,29.0,FINESTEERING,2319,307286.250,02000000,e5fc,17139;2319,307286.250000000,0.0004345153695780,0.0003454242207577,-0.0016855091403298,0.0219234056315986,0.0245595716114472,-0.0057188973773695*c0821a9b
#CORRIMUDATAA,FILE,0,29.0,FINESTEERING,2319,307286.300,02000000,e5fc,17139;2319,307286.300000000,0.0001567127618351,0.0003450158508592,-0.0015951793971513,0.0104438140955137,0.0216200961749289,-0.0077612878488088*daa7d904
