#INSPVAXA,FILE,0,32.0,FINESTEERING,2319,307271.250,02000800,46eb,17139;INS_SOLUTION_GOOD,INS_RTKFIXED,17.59495715527,78.13018461264,524.9147,-76.2000,1.9196,-3.9659,0.0343,2.587664749,0.334012390,293.759687108,0.0929,0.0632,0.0595,0.0261,0.0229,0.0155,0.0201,0.0207,0.5070,ab000241,0*0d8dc9fd
#INSPVAXA,FILE,0,32.0,FINESTEERING,2319,307271.350,02000800,46eb,17139;INS_SOLUTION_GOOD,INS_RTKFIXED,17.59495894934,78.13018080972,524.9169,-76.2000,1.9554,-4.0324,0.0160,2.610211650,0.292369821,293.757499557,0.0929,0.0632,0.0595,0.0261,0.0229,0.0155,0.0201,0.0207,0.5070,ab000241,0*9707fc0d
#INSPVAXA,FILE,0,32.0,FINESTEERING,2319,307271.500,02000800,46eb,17139;INS_SOLUTION_GOOD,INS_RTKFIXED,17.59496170795,78.13017499908,524.9193,-76.2000,2.0140,-4.1267,0.0172,2.727577564,0.310142379,293.705862388,0.0929,0.0632,0.0595,0.0261,0.0229,0.0155,0.0201,0.0207,0.5070,ab000241,0*260d48d5
#INSPVAXA,FILE,0,32.0,FINESTEERING,2319,307271.600,02000800,46eb,17139;INS_SOLUTION_GOOD,INS_RTKFIXED,17.59496358285,78.13017105307,524.9210,-76.2000,2.0405,-4.1888,0.0251,2.799081944,0.335132594,293.677902621,0.0929,0.0632,0.0595,0.0261,0.0229,0.0155,0.0201,0.0207,0.5070,ab000241,0*26638914
#INSPVAXA,FILE,0,32.0,FINESTEERING,2319,307271.650,02000800,46eb,17139;INS_SOLUTION_GOOD,INS_RTKFIXED,17.59496452753,78.13016905683,524.9217,-76.2000,2.0500,-4.2223,0.0163,2.850731812,0.348067527,293.668554203,0.0929,0.0632,0.0595,0.0261,0.0229,0.0155,0.0201,0.0207,0.5070,ab000241,0*93e06fa7
#INSPVAXA,FILE,0,32.0,FINESTEERING,2319,307271.800,02000800,46eb,17139;INS_SOLUTION_GOOD,INS_RTKFIXED,17.59496739377,78.13016298269,524.9230,-76.2000,2.0879,-4.3117,0.0025,2.889243253,0.422969829,293.644310521,0.0929,0.0632,0.0595,0.0261,0.0229,0.0155,0.0201,0.0207,0.5070,ab000241,0*9fc4a4ae
#INSPVAXA,FILE,0,32.0,FINESTEERING,2319,307271.850,02000800,46eb,17139;INS_SOLUTION_GOOD,INS_RTKFIXED,17.59496835906,78.13016093072,524.9232,-76.2000,2.0970,-4.3407,0.0060,2.902603489,0.460469305,293.627528909,0.0929,0.0632,0.0595,0.0261,0.0229,0.0155,0.0201,0.0207,0.5070,ab000241,0*a7fa20bb
#INSPVAXA,FILE,0,32.0,FINESTEERING,2319,307271.900,02000800,46eb,17139;INS_SOLUTION_GOOD,INS_RTKFIXED,17.59496933008,78.13015886713,524.9231,-76.2000,2.1124,-4.3632,0.0058,2.929916105,0.489761782,293.613819704,0.0929,0.0632,0.0595,0.0261,0.0229,0.0155,0.0201,0.0207,0.5070,ab000241,0*6f796a63
#INSPVAXA,FILE,0,32.0,FINESTEERING,2319,307272.050,02000800,46eb,17139;INS_SOLUTION_GOOD,INS_RTKFIXED,17.59497226738,78.13015261170,524.9259,-76.2000,2.1439,-4.4369,0.0239,2.896212906,0.555667097,293.609008368,0.0942,0.0608,0.0602,0.0264,0.0229,0.0152,0.0201,0.0205,0.5078,ab000241,0*636a856b
#INSPVAXA,FILE,0,30.5,FINESTEERING,2319,307272.150,02000800,46eb,17139;INS_SOLUTION_GOOD,INS_RTKFIXED,17.59497424963,78.13014841901,524.9307,-76.2000,2.1711,-4.4778,0.0399,2.936569220,0.597472490,293.579577755,0.0942,0.0608,0.0602,0.0264,0.0229,0.0152,0.0201,0.0205,0.5078,ab000241,0*8b139da9
#INSPVAXA,FILE,0,30.5,FINESTEERING,2319,307272.250,02000800,46eb,17139;INS_SOLUTION_GOOD,INS_RTKFIXED,17.59497625405,78.13014418584,524.9360,-76.2000,2.1890,-4.5215,0.0441,2.966751210,0.625477454,293.544948503,0.0942,0.0608,0.0602,0.0264,0.0229,0.0152,0.0201,0.0205,0.5078,ab000241,0*4f5d3ae3
#INSPVAXA,FILE,0,30.5,FINESTEERING,2319,307272.350,02000800,46eb,17139;INS_SOLUTION_GOOD,INS_RTKFIXED,17.59497826865,78.13013991030,524.9418,-76.2000,2.1985,-4.5649,0.0423,2.998996230,0.659593967,293.531237768,0.0942,0.0608,0.0602,0.0264,0.0229,0.0152,0.0201,0.0205,0.5078,ab000241,0*b47c553f
#INSPVAXA,FILE,0,30.5,FINESTEERING,2319,307272.450,02000800,46eb,17139;INS_SOLUTION_GOOD,INS_RTKFIXED,17.59498029939,78.13013559855,524.9474,-76.2000,2.2254,-4.5982,0.0298,2.990930246,0.705750671,293.509956910,0.0942,0.0608,0.0602,0.0264,0.0229,0.0152,0.0201,0.0205,0.5078,ab000241,0*ffabbd70
#INSPVAXA,FILE,0,30.5,FINESTEERING,2319,307272.550,02000800,46eb,17139;INS_SOLUTION_GOOD,INS_RTKFIXED,17.59498234344,78.13013124906,524.9534,-76.2000,2.2326,-4.6426,0.0505,2.934290165,0.727890737,293.483008480,0.0942,0.0608,0.0602,0.0264,0.0229,0.0152,0.0201,0.0205,0.5078,ab000241,0*9ab0126c
#INSPVAXA,FILE,0,30.5,FINESTEERING,2319,307272.650,02000800,46eb,17139;INS_SOLUTION_GOOD,INS_RTKFIXED,17.59498439693,78.13012686115,524.9597,-76.2000,2.2437,-4.6821,0.0478,2.863396279,0.676407400,293.456217812,0.0942,0.0608,0.0602,0.0264,0.0229,0.0152,0.0201,0.0205,0.5078,ab000241,0*e40aa7bd
#INSPVAXA,FILE,0,30.5,FINESTEERING,2319,307272.750,02000800,46eb,17139;INS_SOLUTION_GOOD,INS_RTKFIXED,17.59498646457,78.13012243709,524.9671,-76.2000,2.2631,-4.7207,0.0660,2.847728726,0.622207298,293.441760543,0.0942,0.0608,0.0602,0.0264,0.0229,0.0152,0.0201,0.0205,0.5078,ab000241,0*21016787
#INSPVAXA,FILE,0,30.5,FINESTEERING,2319,307272.800,02000800,46eb,17139;INS_SOLUTION_GOOD,INS_RTKFIXED,17.59498750583,78.13012021301,524.9711,-76.2000,2.2751,-4.7338,0.0691,2.855110750,0.587163735,293.434513504,0.0942,0.0608,0.0602,0.0264,0.0229,0.0152,0.0201,0.0205,0.5078,ab000241,0*458ffe65
#INSPVAXA,FILE,0,30.5,FINESTEERING,2319,307272.900,02000800,46eb,17139;INS_SOLUTION_GOOD,INS_RTKFIXED,17.59498959964,78.13011574893,524.9805,-76.2000,2.2876,-4.7488,0.0896,2.888768292,0.499404959,293.404468733,0.0942,0.0608,0.0602,0.0264,0.0229,0.0152,0.0201,0.0205,0.5078,ab000241,0*5fa4a40a
#INSPVAXA,FILE,0,30.5,FINESTEERING,2319,307273.000,02000800,46eb,17139;INS_SOLUTION_GOOD,INS_RTKFIXED,17.59499169671,78.13011127992,524.9903,-76.2000,2.2840,-4.7477,0.0803,2.880183921,0.383322325,293.369059118,0.0942,0.0608,0.0602,0.0264,0.0229,0.0152,0.0201,0.0205,0.5078,ab000241,0*e7a1cc24
#INSPVAXA,FILE,0,30.5,FINESTEERING,2319,307273.100,02000800,46eb,17139;INS_SOLUTION_GOOD,INS_RTKFIXED,17.59499380119,78.13010682072,524.9993,-76.2000,2.2691,-4.7502,0.0445,2.878726381,0.360263733,293.368708091,0.0749,0.0606,0.0584,0.0233,0.0222,0.0147,0.0201,0.0200,0.5084,ab000241,0*c2c66d38
#INSPVAXA,FILE,0,30.5,FINESTEERING,2319,307273.150,02000800,46eb,17139;INS_SOLUTION_GOOD,INS_RTKFIXED,17.59499485322,78.13010459643,525.0028,-76.2000,2.2683,-4.7415,0.0286,2.861808672,0.399765236,293.373996788,0.0749,0.0606,0.0584,0.0233,0.0222,0.0147,0.0201,0.0200,0.5084,ab000241,0*c14b338b
#INSPVAXA,FILE,0,30.5,FINESTEERING,2319,307273.300,02000800,46eb,17139;INS_SOLUTION_GOOD,INS_RTKFIXED,17.59499798778,78.13009799224,525.0128,-76.2000,2.2364,-4.6575,0.0365,2.840652937,0.539363729,293.355790846,0.0749,0.0606,0.0584,0.0233,0.0222,0.0147,0.0201,0.0200,0.5084,ab000241,0*fbcbe444
#INSPVAXA,FILE,0,30.5,FINESTEERING,2319,307273.350,02000800,46eb,17139;INS_SOLUTION_GOOD,INS_RTKFIXED,17.59499902380,78.13009581431,525.0167,-76.2000,2.2304,-4.6384,0.0471,2.823812764,0.606730064,293.344863966,0.0749,0.0606,0.0584,0.0233,0.0222,0.0147,0.0201,0.0200,0.5084,ab000241,0*bf611137
#INSPVAXA,FILE,0,30.5,FINESTEERING,2319,307273.450,02000800,46eb,17139;INS_SOLUTION_GOOD,INS_RTKFIXED,17.59500107684,78.13009148439,525.0247,-76.2000,2.1982,-4.5988,0.0588,2.809728584,0.689887459,293.345580369,0.0749,0.0606,0.0584,0.0233,0.0222,0.0147,0.0201,0.0200,0.5084,ab000241,0*3e5c4340
#INSPVAXA,FILE,0,30.5,FINESTEERING,2319,307273.550,02000800,46eb,17139;INS_SOLUTION_GOOD,INS_RTKFIXED,17.59500311299,78.13008718844,525.0344,-76.2000,2.1923,-4.5617,0.0760,2.827460720,0.694968152,293.349787388,0.0749,0.0606,0.0584,0.0233,0.0222,0.0147,0.0201,0.0200,0.5084,ab000241,0*35f45619
#INSPVAXA,FILE,0,30.5,FINESTEERING,2319,307273.650,02000800,46eb,17139;INS_SOLUTION_GOOD,INS_RTKFIXED,17.59500514265,78.13008292580,525.0453,-76.2000,2.1816,-4.5288,0.0865,2.825340585,0.650692300,293.324951507,0.0749,0.0606,0.0584,0.0233,0.0222,0.0147,0.0201,0.0200,0.5084,ab000241,0*fc5cfef5
#INSPVAXA,FILE,0,30.5,FINESTEERING,2319,307273.750,02000800,46eb,17139;INS_SOLUTION_GOOD,INS_RTKFIXED,17.59500715594,78.13007869045,525.0587,-76.2000,2.1584,-4.5005,0.1231,2.816464700,0.510029737,293.308393380,0.0749,0.0606,0.0584,0.0233,0.0222,0.0147,0.0201,0.0200,0.5084,ab000241,0*3fe1967d
#INSPVAXA,FILE,0,30.5,FINESTEERING,2319,307273.850,02000800,46eb,17139;INS_SOLUTION_GOOD,INS_RTKFIXED,17.59500915157,78.13007448171,525.0729,-76.2000,2.1483,-4.4710,0.1075,2.826962365,0.354614697,293.311395645,0.0749,0.0606,0.0584,0.0233,0.0222,0.0147,0.0201,0.0200,0.5084,ab000241,0*2d032056
#INSPVAXA,FILE,0,30.5,FINESTEERING,2319,307273.950,02000800,46eb,17139;INS_SOLUTION_GOOD,INS_RTKFIXED,17.59501113935,78.13007029904,525.0851,-76.2000,2.1381,-4.4465,0.0782,2.797362299,0.252747314,293.298067858,0.0749,0.0606,0.0584,0.0233,0.0222,0.0147,0.0201,0.0200,0.5084,ab000241,0*48df53d1
#INSPVAXA,FILE,0,30.5,FINESTEERING,2319,307274.050,02000800,46eb,17139;INS_SOLUTION_GOOD,INS_RTKFIXED,17.59501310349,78.13006614533,525.0934,-76.2000,2.1272,-4.4144,0.0440,2.792982571,0.241090251,293.270712143,0.0675,0.0609,0.0576,0.0214,0.0210,0.0142,0.0200,0.0199,0.5091,ab000241,0*798b2134
#INSPVAXA,FILE,0,30.5,FINESTEERING,2319,307274.150,02000800,46eb,17139;INS_SOLUTION_GOOD,INS_RTKFIXED,17.59501499614,78.13006202877,525.0996,-76.2000,2.0972,-4.3874,0.0365,2.757438521,0.226829818,293.264373204,0.0675,0.0609,0.0576,0.0214,0.0210,0.0142,0.0200,0.0199,0.5091,ab000241,0*b6e38138
#INSPVAXA,FILE,0,30.5,FINESTEERING,2319,307274.250,02000800,46eb,17139;INS_SOLUTION_GOOD,INS_RTKFIXED,17.59501687211,78.13005794264,525.1051,-76.2000,2.0892,-4.3491,0.0335,2.750196091,0.233324441,293.271364291,0.0675,0.0609,0.0576,0.0214,0.0210,0.0142,0.0200,0.0199,0.5091,ab000241,0*10fe6f31
#INSPVAXA,FILE,0,30.5,FINESTEERING,2319,307274.300,02000800,46eb,17139;INS_SOLUTION_GOOD,INS_RTKFIXED,17.59501780688,78.13005591304,525.1082,-76.2000,2.0819,-4.3314,0.0426,2.730330665,0.232496947,293.263010243,0.0675,0.0609,0.0576,0.0214,0.0210,0.0142,0.0200,0.0199,0.5091,ab000241,0*7549785e
#INSPVAXA,FILE,0,30.5,FINESTEERING,2319,307274.400,02000800,46eb,17139;INS_SOLUTION_GOOD,INS_RTKFIXED,17.59501966508,78.13005187891,525.1148,-76.2000,2.0655,-4.2941,0.0426,2.740977771,0.252016860,293.245850597,0.0675,0.0609,0.0576,0.0214,0.0210,0.0142,0.0200,0.0199,0.5091,ab000241,0*e0d0973b
#INSPVAXA,FILE,0,30.5,FINESTEERING,2319,307274.500,02000800,46eb,17139;INS_SOLUTION_GOOD,INS_RTKFIXED,17.59502150547,78.13004787623,525.1214,-76.2000,2.0379,-4.2643,0.0426,2.674093705,0.244101727,293.240308228,0.0675,0.0609,0.0576,0.0214,0.0210,0.0142,0.0200,0.0199,0.5091,ab000241,0*2ef0a757
#INSPVAXA,FILE,0,30.5,FINESTEERING,2319,307274.650,02000800,46eb,17139;INS_SOLUTION_GOOD,INS_RTKFIXED,17.59502423146,78.13004192882,525.1307,-76.2000,2.0188,-4.2111,0.0385,2.622887963,0.243540674,293.248267417,0.0675,0.0609,0.0576,0.0214,0.0210,0.0142,0.0200,0.0199,0.5091,ab000241,0*45513a61
#INSPVAXA,FILE,0,30.5,FINESTEERING,2319,307274.700,02000800,46eb,17139;INS_SOLUTION_GOOD,INS_RTKFIXED,17.59502513599,78.13003996385,525.1337,-76.2000,2.0140,-4.1922,0.0469,2.604946056,0.258739842,293.243555875,0.0675,0.0609,0.0576,0.0214,0.0210,0.0142,0.0200,0.0199,0.5091,ab000241,0*6ec45784
#INSPVAXA,FILE,0,30.5,FINESTEERING,2319,307274.750,02000800,46eb,17139;INS_SOLUTION_GOOD,INS_RTKFIXED,17.59502603780,78.13003800743,525.1366,-76.2000,2.0057,-4.1711,0.0437,2.586614177,0.255351047,293.229522462,0.0675,0.0609,0.0576,0.0214,0.0210,0.0142,0.0200,0.0199,0.5091,ab000241,0*8612646b
#INSPVAXA,FILE,0,30.5,FINESTEERING,2319,307274.800,02000800,46eb,17139;INS_SOLUTION_GOOD,INS_RTKFIXED,17.59502693519,78.13003605884,525.1394,-76.2000,1.9943,-4.1568,0.0358,2.566938094,0.276040434,293.218118626,0.0675,0.0609,0.0576,0.0214,0.0210,0.0142,0.0200,0.0199,0.5091,ab000241,0*8604e977
#INSPVAXA,FILE,0,30.5,FINESTEERING,2319,307274.850,02000800,46eb,17139;INS_SOLUTION_GOOD,INS_RTKFIXED,17.59502782736,78.13003411757,525.1424,-76.2000,1.9829,-4.1404,0.0420,2.563326687,0.281833506,293.211479171,0.0675,0.0609,0.0576,0.0214,0.0210,0.0142,0.0200,0.0199,0.5091,ab000241,0*23ed9a86
#INSPVAXA,FILE,0,30.5,FINESTEERING,2319,307274.900,02000800,46eb,17139;INS_SOLUTION_GOOD,INS_RTKFIXED,17.59502871535,78.13003218434,525.1457,-76.2000,1.9758,-4.1218,0.0454,2.577052145,0.292382178,293.210126112,0.0675,0.0609,0.0576,0.0214,0.0210,0.0142,0.0200,0.0199,0.5091,ab000241,0*0972fb91
#INSPVAXA,FILE,0,30.5,FINESTEERING,2319,307274.950,02000800,46eb,17139;INS_SOLUTION_GOOD,INS_RTKFIXED,17.59502959974,78.13003025995,525.1492,-76.2000,1.9640,-4.1039,0.0527,2.564582133,0.301545549,293.210484599,0.0675,0.0609,0.0576,0.0214,0.0210,0.0142,0.0200,0.0199,0.5091,ab000241,0*66e58593
#INSPVAXA,FILE,0,30.5,FINESTEERING,2319,307275.000,02000800,46eb,17139;INS_SOLUTION_GOOD,INS_RTKFIXED,17.59503047988,78.13002834267,525.1525,-76.2000,1.9568,-4.0894,0.0505,2.536980131,0.311973231,293.215575340,0.0675,0.0609,0.0576,0.0214,0.0210,0.0142,0.0200,0.0199,0.5091,ab000241,0*cc36d03c
#INSPVAXA,FILE,0,30.5,FINESTEERING,2319,307275.050,02000800,46eb,17139;INS_SOLUTION_GOOD,INS_RTKFIXED,17.59503134956,78.13002643582,525.1557,-76.2000,1.9463,-4.0731,0.0493,2.500920163,0.309015132,293.213534236,0.0639,0.0609,0.0570,0.0204,0.0200,0.0137,0.0199,0.0198,0.5097,ab000241,0*a87d5ce8
#INSPVAXA,FILE,0,30.5,FINESTEERING,2319,307275.100,02000800,46eb,17139;INS_SOLUTION_GOOD,INS_RTKFIXED,17.59503220972,78.13002453679,525.1588,-76.2000,1.9400,-4.0580,0.0487,2.473558442,0.303446418,293.209039896,0.0639,0.0609,0.0570,0.0204,0.0200,0.0137,0.0199,0.0198,0.5097,ab000241,0*c7f0095d
#INSPVAXA,FILE,0,30.5,FINESTEERING,2319,307275.150,02000800,46eb,17139;INS_SOLUTION_GOOD,INS_RTKFIXED,17.59503306847,78.13002264461,525.1619,-76.2000,1.9395,-4.0440,0.0414,2.457962034,0.308050695,293.195543838,0.0639,0.0609,0.0570,0.0204,0.0200,0.0137,0.0199,0.0198,0.5097,ab000241,0*27ac8b24
#INSPVAXA,FILE,0,30.5,FINESTEERING,2319,307275.200,02000800,46eb,17139;INS_SOLUTION_GOOD,INS_RTKFIXED,17.59503392543,78.13002075903,525.1645,-76.2000,1.9358,-4.0296,0.0362,2.456491226,0.310603148,293.182585371,0.0639,0.0609,0.0570,0.0204,0.0200,0.0137,0.0199,0.0198,0.5097,ab000241,0*95c8469c
#INSPVAXA,FILE,0,30.5,FINESTEERING,2319,307275.250,02000800,46eb,17139;INS_SOLUTION_GOOD,INS_RTKFIXED,17.59503477954,78.13001887968,525.1671,-76.2000,1.9268,-4.0150,0.0339,2.423370619,0.311523730,293.172014160,0.0639,0.0609,0.0570,0.0204,0.0200,0.0137,0.0199,0.0198,0.5097,ab000241,0*d1981b96
#INSPVAXA,FILE,0,30.5,FINESTEERING,2319,307275.300,02000800,46eb,17139;INS_SOLUTION_GOOD,INS_RTKFIXED,17.59503562912,78.13001700524,525.1696,-76.2000,1.9114,-4.0059,0.0380,2.398581702,0.307440976,293.169805311,0.0639,0.0609,0.0570,0.0204,0.0200,0.0137,0.0199,0.0198,0.5097,ab000241,0*1a1da1ac
#INSPVAXA,FILE,0,30.5,FINESTEERING,2319,307275.350,02000800,46eb,17139;INS_SOLUTION_GOOD,INS_RTKFIXED,17.59503647330,78.13001513635,525.1726,-76.2000,1.8995,-3.9948,0.0460,2.367424743,0.301701179,293.174743507,0.0639,0.0609,0.0570,0.0204,0.0200,0.0137,0.0199,0.0198,0.5097,ab000241,0*0d5a8a52
#INSPVAXA,FILE,0,30.5,FINESTEERING,2319,307275.400,02000800,46eb,17139;INS_SOLUTION_GOOD,INS_RTKFIXED,17.59503731407,78.13001327397,525.1760,-76.2000,1.8934,-3.9783,0.0637,2.375501336,0.273916363,293.178556258,0.0639,0.0609,0.0570,0.0204,0.0200,0.0137,0.0199,0.0198,0.5097,ab000241,0*ebbb6ee3
#INSPVAXA,FILE,0,30.5,FINESTEERING,2319,307275.450,02000800,46eb,17139;INS_SOLUTION_GOOD,INS_RTKFIXED,17.59503815408,78.13001141875,525.1798,-76.2000,1.8943,-3.9637,0.0628,2.383168847,0.265472298,293.176250959,0.0639,0.0609,0.0570,0.0204,0.0200,0.0137,0.0199,0.0198,0.5097,ab000241,0*288660ef
#INSPVAXA,FILE,0,30.5,FINESTEERING,2319,307275.500,02000000,46eb,17139;INS_SOLUTION_GOOD,INS_RTKFIXED,17.59503899408,78.13000957202,525.1836,-76.2000,1.8946,-3.9457,0.0742,2.417996017,0.246869489,293.166230816,0.0639,0.0609,0.0570,0.0204,0.0200,0.0137,0.0199,0.0198,0.5097,ab000241,0*b3bcd873
#INSPVAXA,FILE,0,30.5,FINESTEERING,2319,307275.550,02000000,46eb,17139;INS_SOLUTION_GOOD,INS_RTKFIXED,17.59503983231,78.13000773168,525.1876,-76.2000,1.8894,-3.9334,0.0631,2.409972812,0.237964460,293.155812081,0.0639,0.0609,0.0570,0.0204,0.0200,0.0137,0.0199,0.0198,0.5097,ab000241,0*10e66d2c
#INSPVAXA,FILE,0,30.5,FINESTEERING,2319,307275.600,02000000,46eb,17139;INS_SOLUTION_GOOD,INS_RTKFIXED,17.59504066607,78.13000589641,525.1908,-76.2000,1.8759,-3.9211,0.0482,2.406504747,0.243290454,293.149680182,0.0639,0.0609,0.0570,0.0204,0.0200,0.0137,0.0199,0.0198,0.5097,ab000241,0*f5ff90ce
#INSPVAXA,FILE,0,30.5,FINESTEERING,2319,307275.650,02000000,46eb,17139;INS_SOLUTION_GOOD,INS_RTKFIXED,17.59504149545,78.13000406564,525.1937,-76.2000,1.8669,-3.9114,0.0355,2.373062183,0.261705390,293.148118710,0.0639,0.0609,0.0570,0.0204,0.0200,0.0137,0.0199,0.0198,0.5097,ab000241,0*508dce06
#INSPVAXA,FILE,0,30.5,FINESTEERING,2319,307275.700,02000000,46eb,17139;INS_SOLUTION_GOOD,INS_RTKFIXED,17.59504232124,78.13000224028,525.1960,-76.2000,1.8592,-3.8988,0.0312,2.366249443,0.274130439,293.145159155,0.0639,0.0609,0.0570,0.0204,0.0200,0.0137,0.0199,0.0198,0.5097,ab000241,0*bf53dd52
#INSPVAXA,FILE,0,30.5,FINESTEERING,2319,307275.750,02000000,46eb,17139;INS_SOLUTION_GOOD,INS_RTKFIXED,17.59504314370,78.13000042039,525.1982,-76.2000,1.8525,-3.8868,0.0341,2.353556696,0.281161578,293.142435104,0.0639,0.0609,0.0570,0.0204,0.0200,0.0137,0.0199,0.0198,0.5097,ab000241,0*8b3c607b
#INSPVAXA,FILE,0,30.5,FINESTEERING,2319,307275.800,02000000,46eb,17139;INS_SOLUTION_GOOD,INS_RTKFIXED,17.59504396310,78.12999860563,525.2005,-76.2000,1.8456,-3.8756,0.0330,2.337714873,0.286866699,293.144883559,0.0639,0.0609,0.0570,0.0204,0.0200,0.0137,0.0199,0.0198,0.5097,ab000241,0*1889c9b9
#INSPVAXA,FILE,0,30.5,FINESTEERING,2319,307275.850,02000000,46eb,17139;INS_SOLUTION_GOOD,INS_RTKFIXED,17.59504478081,78.12999679581,525.2027,-76.2000,1.8441,-3.8664,0.0289,2.329404933,0.288733330,293.145660773,0.0639,0.0609,0.0570,0.0204,0.0200,0.0137,0.0199,0.0198,0.5097,ab000241,0*538e3e94
#INSPVAXA,FILE,0,30.5,FINESTEERING,2319,307275.900,02000000,46eb,17139;INS_SOLUTION_GOOD,INS_RTKFIXED,17.59504559744,78.12999499172,525.2045,-76.2000,1.8402,-3.8495,0.0228,2.322283855,0.298672655,293.144664721,0.0639,0.0609,0.0570,0.0204,0.0200,0.0137,0.0199,0.0198,0.5097,ab000241,0*083345d2
#INSPVAXA,FILE,0,30.5,FINESTEERING,2319,307275.950,02000000,46eb,17139;INS_SOLUTION_GOOD,INS_RTKFIXED,17.59504641164,78.12999319358,525.2072,-76.2000,1.8346,-3.8390,0.0415,2.306953212,0.319456247,293.138667868,0.0639,0.0609,0.0570,0.0204,0.0200,0.0137,0.0199,0.0198,0.5097,ab000241,0*21157777
#INSPVAXA,FILE,0,30.5,FINESTEERING,2319,307276.000,02000000,46eb,17139;INS_SOLUTION_GOOD,INS_RTKFIXED,17.59504722509,78.12999140160,525.2099,-76.2000,1.8328,-3.8238,0.0431,2.324469027,0.311090168,293.129690334,0.0639,0.0609,0.0570,0.0204,0.0200,0.0137,0.0199,0.0198,0.5097,ab000241,0*a41ef5e2
#INSPVAXA,FILE,0,30.5,FINESTEERING,2319,307276.050,02000000,46eb,17139;INS_SOLUTION_GOOD,INS_RTKFIXED,17.59504803266,78.12998961439,525.2128,-76.2000,1.8260,-3.8149,0.0513,2.318661709,0.318189394,293.120431803,0.0619,0.0607,0.0565,0.0198,0.0192,0.0134,0.0198,0.0197,0.5102,ab000241,0*66936860
#INSPVAXA,FILE,0,20.5,FINESTEERING,2319,307276.100,02000000,46eb,17139;INS_SOLUTION_GOOD,INS_RTKFIXED,17.59504883629,78.12998783039,525.2156,-76.2000,1.8176,-3.8051,0.0527,2.299095366,0.299189875,293.107810632,0.0619,0.0607,0.0565,0.0198,0.0192,0.0134,0.0198,0.0197,0.5102,ab000241,0*486605b2
#INSPVAXA,FILE,0,20.5,FINESTEERING,2319,307276.150,02000000,46eb,17139;INS_SOLUTION_GOOD,INS_RTKFIXED,17.59504963590,78.12998605148,525.2188,-76.2000,1.8074,-3.7962,0.0636,2.299927826,0.279488548,293.098691784,0.0619,0.0607,0.0565,0.0198,0.0192,0.0134,0.0198,0.0197,0.5102,ab000241,0*f11b335b
#INSPVAXA,FILE,0,20.5,FINESTEERING,2319,307276.200,02000000,46eb,17139;INS_SOLUTION_GOOD,INS_RTKFIXED,17.59505043136,78.12998427583,525.2225,-76.2000,1.8002,-3.7887,0.0618,2.283106399,0.245855339,293.099129551,0.0619,0.0607,0.0565,0.0198,0.0192,0.0134,0.0198,0.0197,0.5102,ab000241,0*838bd71d
#INSPVAXA,FILE,0,20.5,FINESTEERING,2319,307276.250,02000000,46eb,17139;INS_SOLUTION_GOOD,INS_RTKFIXED,17.59505122398,78.12998250394,525.2257,-76.2000,1.7946,-3.7826,0.0644,2.277983367,0.219314168,293.101777244,0.0619,0.0607,0.0565,0.0198,0.0192,0.0134,0.0198,0.0197,0.5102,ab000241,0*bddb83c8
#INSPVAXA,FILE,0,20.5,FINESTEERING,2319,307276.300,02000000,46eb,17139;INS_SOLUTION_GOOD,INS_RTKFIXED,17.59505201520,78.12998073524,525.2286,-76.2000,1.7917,-3.7737,0.0453,2.251950560,0.193957399,293.107444782,0.0619,0.0607,0.0565,0.0198,0.0192,0.0134,0.0198,0.0197,0.5102,ab000241,0*653e78f0
#INSPVAXA,FILE,0,20.5,FINESTEERING,2319,307276.350,02000000,46eb,17139;INS_SOLUTION_GOOD,INS_RTKFIXED,17.59505280610,78.12997896993,525.2308,-76.2000,1.7912,-3.7657,0.0386,2.236606412,0.186592505,293.114762915,0.0619,0.0607,0.0565,0.0198,0.0192,0.0134,0.0198,0.0197,0.5102,ab000241,0*5dc97385
#INSPVAXA,FILE,0,20.5,FINESTEERING,2319,307276.400,02000000,46eb,17139;INS_SOLUTION_GOOD,INS_RTKFIXED,17.59505359641,78.12997720768,525.2329,-76.2000,1.7877,-3.7601,0.0339,2.180836980,0.176368816,293.131298423,0.0619,0.0607,0.0565,0.0198,0.0192,0.0134,0.0198,0.0197,0.5102,ab000241,0*d36bc52d
#INSPVAXA,FILE,0,20.5,FINESTEERING,2319,307276.450,02000000,46eb,17139;INS_SOLUTION_GOOD,INS_RTKFIXED,17.59505438479,78.12997544618,525.2345,-76.2000,1.7842,-3.7644,0.0219,2.117649496,0.179745474,293.165962552,0.0619,0.0607,0.0565,0.0198,0.0192,0.0134,0.0198,0.0197,0.5102,ab000241,0*65ece1bf
#INSPVAXA,FILE,0,20.5,FINESTEERING,2319,307276.500,02000000,46eb,17139;INS_SOLUTION_GOOD,INS_RTKFIXED,17.59505517202,78.12997368322,525.2359,-76.2000,1.7811,-3.7631,0.0252,2.076907276,0.169579284,293.219112880,0.0619,0.0607,0.0565,0.0198,0.0192,0.0134,0.0198,0.0197,0.5102,ab000241,0*effbc363
#INSPVAXA,FILE,0,20.5,FINESTEERING,2319,307276.550,02000000,46eb,17139;INS_SOLUTION_GOOD,INS_RTKFIXED,17.59505596023,78.12997192089,525.2378,-76.2000,1.7868,-3.7627,0.0377,2.016131286,0.167438566,293.286835203,0.0619,0.0607,0.0565,0.0198,0.0192,0.0134,0.0198,0.0197,0.5102,ab000241,0*a1e2873e
#INSPVAXA,FILE,0,20.5,FINESTEERING,2319,307276.600,02000000,46eb,17139;INS_SOLUTION_GOOD,INS_RTKFIXED,17.59505675134,78.12997015775,525.2394,-76.2000,1.7915,-3.7662,0.0290,1.949844191,0.153647275,293.375374445,0.0619,0.0607,0.0565,0.0198,0.0192,0.0134,0.0198,0.0197,0.5102,ab000241,0*9ee963db
#INSPVAXA,FILE,0,20.5,FINESTEERING,2319,307276.650,02000000,46eb,17139;INS_SOLUTION_GOOD,INS_RTKFIXED,17.59505754340,78.12996839316,525.2412,-76.2000,1.7929,-3.7676,0.0340,1.866733561,0.128633532,293.491886810,0.0619,0.0607,0.0565,0.0198,0.0192,0.0134,0.0198,0.0197,0.5102,ab000241,0*b2c2e761
#INSPVAXA,FILE,0,20.5,FINESTEERING,2319,307276.700,02000000,46eb,17139;INS_SOLUTION_GOOD,INS_RTKFIXED,17.59505833597,78.12996662684,525.2436,-76.2000,1.7942,-3.7697,0.0461,1.796635891,0.093092522,293.642833532,0.0619,0.0607,0.0565,0.0198,0.0192,0.0134,0.0198,0.0197,0.5102,ab000241,0*32764760
#INSPVAXA,FILE,0,20.5,FINESTEERING,2319,307276.750,02000000,46eb,17139;INS_SOLUTION_GOOD,INS_RTKFIXED,17.59505913219,78.12996486082,525.2464,-76.2000,1.8077,-3.7697,0.0520,1.742399094,0.062012011,293.822207414,0.0619,0.0607,0.0565,0.0198,0.0192,0.0134,0.0198,0.0197,0.5102,ab000241,0*6bcade35
#INSPVAXA,FILE,0,20.5,FINESTEERING,2319,307276.800,02000000,46eb,17139;INS_SOLUTION_GOOD,INS_RTKFIXED,17.59505993630,78.12996309522,525.2488,-76.2000,1.8271,-3.7669,0.0408,1.717429026,0.028534214,294.018728397,0.0619,0.0607,0.0565,0.0198,0.0192,0.0134,0.0198,0.0197,0.5102,ab000241,0*0a6e6d06
#INSPVAXA,FILE,0,20.5,FINESTEERING,2319,307276.850,02000000,46eb,17139;INS_SOLUTION_GOOD,INS_RTKFIXED,17.59506074864,78.12996133116,525.2511,-76.2000,1.8472,-3.7621,0.0368,1.703106004,0.004752140,294.226866891,0.0619,0.0607,0.0565,0.0198,0.0192,0.0134,0.0198,0.0197,0.5102,ab000241,0*1c243aa6
#INSPVAXA,FILE,0,20.5,FINESTEERING,2319,307276.900,02000000,46eb,17139;INS_SOLUTION_GOOD,INS_RTKFIXED,17.59506157120,78.12995956895,525.2530,-76.2000,1.8707,-3.7583,0.0309,1.717727694,-0.004160476,294.429158226,0.0619,0.0607,0.0565,0.0198,0.0192,0.0134,0.0198,0.0197,0.5102,ab000241,0*1d66b395
#INSPVAXA,FILE,0,20.5,FINESTEERING,2319,307276.950,02000000,46eb,17139;INS_SOLUTION_GOOD,INS_RTKFIXED,17.59506240351,78.12995780736,525.2547,-76.2000,1.8888,-3.7571,0.0214,1.738793363,-0.014973927,294.617098774,0.0619,0.0607,0.0565,0.0198,0.0192,0.0134,0.0198,0.0197,0.5102,ab000241,0*54678aee
#INSPVAXA,FILE,0,20.5,FINESTEERING,2319,307277.000,02000000,46eb,17139;INS_SOLUTION_GOOD,INS_RTKFIXED,17.59506324461,78.12995604660,525.2560,-76.2000,1.9067,-3.7558,0.0157,1.784227330,-0.030893747,294.789685666,0.0619,0.0607,0.0565,0.0198,0.0192,0.0134,0.0198,0.0197,0.5102,ab000241,0*ce6962b0
#INSPVAXA,FILE,0,20.5,FINESTEERING,2319,307277.050,02000000,46eb,17139;INS_SOLUTION_GOOD,INS_RTKFIXED,17.59506409291,78.12995428608,525.2568,-76.2000,1.9175,-3.7604,0.0087,1.824397233,-0.018506081,294.951534978,0.0606,0.0600,0.0561,0.0195,0.0187,0.0131,0.0197,0.0196,0.5108,ab000241,0*ace3bb51
#INSPVAXA,FILE,0,20.5,FINESTEERING,2319,307277.100,02000000,46eb,17139;INS_SOLUTION_GOOD,INS_RTKFIXED,17.59506495115,78.12995252403,525.2574,-76.2000,1.9344,-3.7627,0.0099,1.840830185,-0.010558259,295.107298597,0.0606,0.0600,0.0561,0.0195,0.0187,0.0131,0.0197,0.0196,0.5108,ab000241,0*3b251595
#INSPVAXA,FILE,0,23.5,FINESTEERING,2319,307277.150,02000000,46eb,17139;INS_SOLUTION_GOOD,INS_RTKFIXED,17.59506581420,78.12995075865,525.2578,-76.2000,1.9398,-3.7702,0.0028,1.823788244,-0.010078163,295.259143114,0.0606,0.0600,0.0561,0.0195,0.0187,0.0131,0.0197,0.0196,0.5108,ab000241,0*0a8e047d
#INSPVAXA,FILE,0,23.5,FINESTEERING,2319,307277.200,02000000,46eb,17139;INS_SOLUTION_GOOD,INS_RTKFIXED,17.59506668193,78.12994898922,525.2582,-76.2000,1.9522,-3.7804,0.0051,1.795554204,0.017810755,295.411085837,0.0606,0.0600,0.0561,0.0195,0.0187,0.0131,0.0197,0.0196,0.5108,ab000241,0*5d98fedd
#INSPVAXA,FILE,0,23.5,FINESTEERING,2319,307277.250,02000000,46eb,17139;INS_SOLUTION_GOOD,INS_RTKFIXED,17.59506755505,78.12994721667,525.2587,-76.2000,1.9663,-3.7868,0.0083,1.779172944,0.034196737,295.552535144,0.0606,0.0600,0.0561,0.0195,0.0187,0.0131,0.0197,0.0196,0.5108,ab000241,0*7bbf1f28
#INSPVAXA,FILE,0,23.5,FINESTEERING,2319,307277.300,02000000,46eb,17139;INS_SOLUTION_GOOD,INS_RTKFIXED,17.59506843520,78.12994544141,525.2593,-76.2000,1.9807,-3.7922,0.0126,1.750054615,0.045695770,295.679609586,0.0606,0.0600,0.0561,0.0195,0.0187,0.0131,0.0197,0.0196,0.5108,ab000241,0*d05fc165
#INSPVAXA,FILE,0,23.5,FINESTEERING,2319,307277.350,02000000,46eb,17139;INS_SOLUTION_GOOD,INS_RTKFIXED,17.59506932322,78.12994366354,525.2600,-76.2000,1.9997,-3.7983,0.0179,1.734252966,0.072219028,295.794160303,0.0606,0.0600,0.0561,0.0195,0.0187,0.0131,0.0197,0.0196,0.5108,ab000241,0*9b97fe4e
#INSPVAXA,FILE,0,23.5,FINESTEERING,2319,307277.400,02000000,46eb,17139;INS_SOLUTION_GOOD,INS_RTKFIXED,17.59507021972,78.12994188279,525.2607,-76.2000,2.0191,-3.8034,0.0170,1.722920881,0.091880188,295.898215706,0.0606,0.0600,0.0561,0.0195,0.0187,0.0131,0.0197,0.0196,0.5108,ab000241,0*f45befff
#INSPVAXA,FILE,0,23.5,FINESTEERING,2319,307277.450,02000000,46eb,17139;INS_SOLUTION_GOOD,INS_RTKFIXED,17.59507112387,78.12994009782,525.2616,-76.2000,2.0355,-3.8144,0.0166,1.705123190,0.104855430,295.995975410,0.0606,0.0600,0.0561,0.0195,0.0187,0.0131,0.0197,0.0196,0.5108,ab000241,0*1e8112ee
#INSPVAXA,FILE,0,23.5,FINESTEERING,2319,307277.500,02000000,46eb,17139;INS_SOLUTION_GOOD,INS_RTKFIXED,17.59507203446,78.12993830605,525.2623,-76.2000,2.0483,-3.8320,0.0051,1.707375165,0.139347513,296.094591724,0.0606,0.0600,0.0561,0.0195,0.0187,0.0131,0.0197,0.0196,0.5108,ab000241,0*93b860ea
#INSPVAXA,FILE,0,23.5,FINESTEERING,2319,307277.550,02000000,46eb,17139;INS_SOLUTION_GOOD,INS_RTKFIXED,17.59507295192,78.12993650657,525.2628,-76.2000,2.0626,-3.8475,0.0099,1.737086127,0.157933984,296.187470747,0.0606,0.0600,0.0561,0.0195,0.0187,0.0131,0.0197,0.0196,0.5108,ab000241,0*3bd25c1c
#INSPVAXA,FILE,0,23.5,FINESTEERING,2319,307277.600,02000000,46eb,17139;INS_SOLUTION_GOOD,INS_RTKFIXED,17.59507387771,78.12993470124,525.2635,-76.2000,2.0841,-3.8581,0.0181,1.769161563,0.194756298,296.277392401,0.0606,0.0600,0.0561,0.0195,0.0187,0.0131,0.0197,0.0196,0.5108,ab000241,0*bb7abbb3
#INSPVAXA,FILE,0,23.5,FINESTEERING,2319,307277.650,02000000,46eb,17139;INS_SOLUTION_GOOD,INS_RTKFIXED,17.59507481224,78.12993288950,525.2643,-76.2000,2.1020,-3.8716,0.0098,1.782549235,0.209026281,296.355623259,0.0606,0.0600,0.0561,0.0195,0.0187,0.0131,0.0197,0.0196,0.5108,ab000241,0*47cdb074
#INSPVAXA,FILE,0,23.5,FINESTEERING,2319,307277.700,02000000,46eb,17139;INS_SOLUTION_GOOD,INS_RTKFIXED,17.59507575506,78.12993107056,525.2651,-76.2000,2.1196,-3.8884,0.0183,1.816211776,0.220612338,296.421000723,0.0606,0.0600,0.0561,0.0195,0.0187,0.0131,0.0197,0.0196,0.5108,ab000241,0*9769e69e
#INSPVAXA,FILE,0,23.5,FINESTEERING,2319,307277.750,02000000,46eb,17139;INS_SOLUTION_GOOD,INS_RTKFIXED,17.59507670506,78.12992924323,525.2660,-76.2000,2.1360,-3.9066,0.0221,1.848447023,0.236566469,296.483965627,0.0606,0.0600,0.0561,0.0195,0.0187,0.0131,0.0197,0.0196,0.5108,ab000241,0*eb5d94d0
#INSPVAXA,FILE,0,23.5,FINESTEERING,2319,307277.800,02000000,46eb,17139;INS_SOLUTION_GOOD,INS_RTKFIXED,17.59507766229,78.12992740589,525.2672,-76.2000,2.1515,-3.9284,0.0208,1.870934503,0.250057150,296.545841574,0.0606,0.0600,0.0561,0.0195,0.0187,0.0131,0.0197,0.0196,0.5108,ab000241,0*3adee74f
#INSPVAXA,FILE,0,23.5,FINESTEERING,2319,307277.850,02000000,46eb,17139;INS_SOLUTION_GOOD,INS_RTKFIXED,17.59507862817,78.12992555809,525.2683,-76.2000,2.1710,-3.9517,0.0200,1.899649193,0.247758755,296.606594701,0.0606,0.0600,0.0561,0.0195,0.0187,0.0131,0.0197,0.0196,0.5108,ab000241,0*de3c2523
#INSPVAXA,FILE,0,23.5,FINESTEERING,2319,307277.900,02000000,46eb,17139;INS_SOLUTION_GOOD,INS_RTKFIXED,17.59507960145,78.12992369918,525.2695,-76.2000,2.1849,-3.9767,0.0240,1.920317817,0.255964282,296.670429638,0.0606,0.0600,0.0561,0.0195,0.0187,0.0131,0.0197,0.0196,0.5108,ab000241,0*c7c93af0
#INSPVAXA,FILE,0,23.5,FINESTEERING,2319,307277.950,02000000,46eb,17139;INS_SOLUTION_GOOD,INS_RTKFIXED,17.59508058162,78.12992182860,525.2708,-76.2000,2.2010,-4.0000,0.0263,1.960201856,0.260447853,296.739012568,0.0606,0.0600,0.0561,0.0195,0.0187,0.0131,0.0197,0.0196,0.5108,ab000241,0*e4dd37b0
#INSPVAXA,FILE,0,23.5,FINESTEERING,2319,307278.000,02000000,46eb,17139;INS_SOLUTION_GOOD,INS_RTKFIXED,17.59508156953,78.12991994672,525.2722,-76.2000,2.2215,-4.0229,0.0310,2.015508970,0.261551853,296.810996123,0.0606,0.0600,0.0561,0.0195,0.0187,0.0131,0.0197,0.0196,0.5108,ab000241,0*2e3e0c7a
#INSPVAXA,FILE,0,23.5,FINESTEERING,2319,307278.050,02000000,46eb,17139;INS_SOLUTION_GOOD,INS_RTKFIXED,17.59508256669,78.12991805395,525.2742,-76.2000,2.2475,-4.0457,0.0414,2.082704742,0.265685945,296.878821706,0.0596,0.0594,0.0555,0.0191,0.0183,0.0128,0.0196,0.0195,0.5114,ab000241,0*6a1b256c
#INSPVAXA,FILE,0,23.5,FINESTEERING,2319,307278.100,02000000,46eb,17139;INS_SOLUTION_GOOD,INS_RTKFIXED,17.59508357656,78.12991614919,525.2761,-76.2000,2.2770,-4.0670,0.0230,2.152444338,0.276353951,296.935968648,0.0596,0.0594,0.0555,0.0191,0.0183,0.0128,0.0196,0.0195,0.5114,ab000241,0*a7f073c7
#INSPVAXA,FILE,0,27.0,FINESTEERING,2319,307278.150,02000000,46eb,17139;INS_SOLUTION_GOOD,INS_RTKFIXED,17.59508459725,78.12991423256,525.2779,-76.2000,2.2977,-4.0953,0.0257,2.211824385,0.296112150,296.990202945,0.0596,0.0594,0.0555,0.0191,0.0183,0.0128,0.0196,0.0195,0.5114,ab000241,0*3c80c8df
#INSPVAXA,FILE,0,27.0,FINESTEERING,2319,307278.200,02000000,46eb,17139;INS_SOLUTION_GOOD,INS_RTKFIXED,17.59508562629,78.12991230296,525.2797,-76.2000,2.3114,-4.1250,0.0271,2.238578247,0.310269560,297.046919381,0.0596,0.0594,0.0555,0.0191,0.0183,0.0128,0.0196,0.0195,0.5114,ab000241,0*25704e65
#INSPVAXA,FILE,0,27.0,FINESTEERING,2319,307278.250,02000000,46eb,17139;INS_SOLUTION_GOOD,INS_RTKFIXED,17.59508666189,78.12991035877,525.2813,-76.2000,2.3257,-4.1544,0.0233,2.286105454,0.321217180,297.106903097,0.0596,0.0594,0.0555,0.0191,0.0183,0.0128,0.0196,0.0195,0.5114,ab000241,0*82f0f690
#INSPVAXA,FILE,0,27.0,FINESTEERING,2319,307278.300,02000000,46eb,17139;INS_SOLUTION_GOOD,INS_RTKFIXED,17.59508770550,78.12990840106,525.2831,-76.2000,2.3447,-4.1834,0.0268,2.318010658,0.321304794,297.169076933,0.0596,0.0594,0.0555,0.0191,0.0183,0.0128,0.0196,0.0195,0.5114,ab000241,0*ea590a54
#INSPVAXA,FILE,0,27.0,FINESTEERING,2319,307278.350,02000000,46eb,17139;INS_SOLUTION_GOOD,INS_RTKFIXED,17.59508875800,78.12990643039,525.2847,-76.2000,2.3651,-4.2113,0.0239,2.365957566,0.306364393,297.222561795,0.0596,0.0594,0.0555,0.0191,0.0183,0.0128,0.0196,0.0195,0.5114,ab000241,0*ad3788f3
#INSPVAXA,FILE,0,27.0,FINESTEERING,2319,307278.400,02000000,46eb,17139;INS_SOLUTION_GOOD,INS_RTKFIXED,17.59508982125,78.12990444683,525.2861,-76.2000,2.3900,-4.2367,0.0206,2.416003935,0.294845241,297.265621956,0.0596,0.0594,0.0555,0.0191,0.0183,0.0128,0.0196,0.0195,0.5114,ab000241,0*a21ba0cb
#INSPVAXA,FILE,0,27.0,FINESTEERING,2319,307278.450,02000000,46eb,17139;INS_SOLUTION_GOOD,INS_RTKFIXED,17.59509089611,78.12990245087,525.2875,-76.2000,2.4169,-4.2631,0.0232,2.474983114,0.289750302,297.288527757,0.0596,0.0594,0.0555,0.0191,0.0183,0.0128,0.0196,0.0195,0.5114,ab000241,0*386eb0dd
#INSPVAXA,FILE,0,27.0,FINESTEERING,2319,307278.500,02000000,46eb,17139;INS_SOLUTION_GOOD,INS_RTKFIXED,17.59509198269,78.12990044315,525.2891,-76.2000,2.4415,-4.2892,0.0259,2.527159669,0.270360513,297.283881696,0.0596,0.0594,0.0555,0.0191,0.0183,0.0128,0.0196,0.0195,0.5114,ab000241,0*b8d1b2d5
#INSPVAXA,FILE,0,27.0,FINESTEERING,2319,307278.550,02000000,46eb,17139;INS_SOLUTION_GOOD,INS_RTKFIXED,17.59509307865,78.12989842195,525.2908,-76.2000,2.4586,-4.3204,0.0255,2.566311539,0.254618835,297.257783429,0.0596,0.0594,0.0555,0.0191,0.0183,0.0128,0.0196,0.0195,0.5114,ab000241,0*a84d715a
#INSPVAXA,FILE,0,27.0,FINESTEERING,2319,307278.600,02000000,46eb,17139;INS_SOLUTION_GOOD,INS_RTKFIXED,17.59509418220,78.12989638599,525.2926,-76.2000,2.4751,-4.3503,0.0328,2.619595765,0.229852897,297.217457571,0.0596,0.0594,0.0555,0.0191,0.0183,0.0128,0.0196,0.0195,0.5114,ab000241,0*19e86265
#INSPVAXA,FILE,0,27.0,FINESTEERING,2319,307278.650,02000000,46eb,17139;INS_SOLUTION_GOOD,INS_RTKFIXED,17.59509529223,78.12989433563,525.2948,-76.2000,2.4863,-4.3817,0.0412,2.631806578,0.193192791,297.171420017,0.0596,0.0594,0.0555,0.0191,0.0183,0.0128,0.0196,0.0195,0.5114,ab000241,0*44b31c02
#INSPVAXA,FILE,0,27.0,FINESTEERING,2319,307278.700,02000000,46eb,17139;INS_SOLUTION_GOOD,INS_RTKFIXED,17.59509640510,78.12989226874,525.2974,-76.2000,2.4909,-4.4171,0.0464,2.627607009,0.138676985,297.130276925,0.0596,0.0594,0.0555,0.0191,0.0183,0.0128,0.0196,0.0195,0.5114,ab000241,0*cc8b832f
#INSPVAXA,FILE,0,27.0,FINESTEERING,2319,307278.750,02000000,46eb,17139;INS_SOLUTION_GOOD,INS_RTKFIXED,17.59509752057,78.12989018493,525.2999,-76.2000,2.4969,-4.4518,0.0382,2.632121062,0.089078074,297.088753578,0.0596,0.0594,0.0555,0.0191,0.0183,0.0128,0.0196,0.0195,0.5114,ab000241,0*f5ac3c11
#INSPVAXA,FILE,0,27.0,FINESTEERING,2319,307278.800,02000000,46eb,17139;INS_SOLUTION_GOOD,INS_RTKFIXED,17.59509864229,78.12988808543,525.3021,-76.2000,2.5142,-4.4845,0.0320,2.653878039,0.063677136,297.044686253,0.0596,0.0594,0.0555,0.0191,0.0183,0.0128,0.0196,0.0195,0.5114,ab000241,0*7670aca2
#INSPVAXA,FILE,0,27.0,FINESTEERING,2319,307278.850,02000000,46eb,17139;INS_SOLUTION_GOOD,INS_RTKFIXED,17.59509977222,78.12988597185,525.3034,-76.2000,2.5341,-4.5139,0.0114,2.677284877,0.059923033,296.990406690,0.0596,0.0594,0.0555,0.0191,0.0183,0.0128,0.0196,0.0195,0.5114,ab000241,0*0660cd1f
#INSPVAXA,FILE,0,27.0,FINESTEERING,2319,307278.900,02000000,46eb,17139;INS_SOLUTION_GOOD,INS_RTKFIXED,17.59510091003,78.12988384351,525.3042,-76.2000,2.5485,-4.5467,-0.0012,2.644323704,0.071375284,296.937010472,0.0596,0.0594,0.0555,0.0191,0.0183,0.0128,0.0196,0.0195,0.5114,ab000241,0*c4ef2cb3
#INSPVAXA,FILE,0,27.0,FINESTEERING,2319,307278.950,02000000,46eb,17139;INS_SOLUTION_GOOD,INS_RTKFIXED,17.59510205277,78.12988169998,525.3046,-76.2000,2.5545,-4.5813,0.0015,2.588341455,0.093776253,296.887698973,0.0596,0.0594,0.0555,0.0191,0.0183,0.0128,0.0196,0.0195,0.5114,ab000241,0*ea90b69d
#INSPVAXA,FILE,0,27.0,FINESTEERING,2319,307279.000,02000000,46eb,17139;INS_SOLUTION_GOOD,INS_RTKFIXED,17.59510319674,78.12987953769,525.3046,-76.2000,2.5532,-4.6238,-0.0113,2.495790309,0.141677759,296.862195537,0.0596,0.0594,0.0555,0.0191,0.0183,0.0128,0.0196,0.0195,0.5114,ab000241,0*c3c84753
#INSPVAXA,FILE,0,27.0,FINESTEERING,2319,307279.050,02000000,46eb,17139;INS_SOLUTION_GOOD,INS_RTKFIXED,17.59510433840,78.12987735759,525.3046,-76.2000,2.5593,-4.6586,-0.0061,2.453294745,0.157353204,296.852458158,0.0594,0.0591,0.0549,0.0186,0.0179,0.0126,0.0196,0.0194,0.5121,ab000241,0*4783d4ed
#INSPVAXA,FILE,0,22.0,FINESTEERING,2319,307279.100,02000000,46eb,17139;INS_SOLUTION_GOOD,INS_RTKFIXED,17.59510548179,78.12987516165,525.3047,-76.2000,2.5717,-4.6851,-0.0046,2.445102195,0.171779322,296.853790753,0.0594,0.0591,0.0549,0.0186,0.0179,0.0126,0.0196,0.0194,0.5121,ab000241,0*b3ff6837
#INSPVAXA,FILE,0,22.0,FINESTEERING,2319,307279.150,02000000,46eb,17139;INS_SOLUTION_GOOD,INS_RTKFIXED,17.59510663489,78.12987295335,525.3051,-76.2000,2.5961,-4.7091,0.0036,2.402363563,0.212185506,296.856492144,0.0594,0.0591,0.0549,0.0186,0.0179,0.0126,0.0196,0.0194,0.5121,ab000241,0*e34223b7
#INSPVAXA,FILE,0,22.0,FINESTEERING,2319,307279.200,02000000,46eb,17139;INS_SOLUTION_GOOD,INS_RTKFIXED,17.59510779866,78.12987073397,525.3053,-76.2000,2.6195,-4.7362,0.0039,2.345082063,0.278298923,296.846753664,0.0594,0.0591,0.0549,0.0186,0.0179,0.0126,0.0196,0.0194,0.5121,ab000241,0*732cceb9
#INSPVAXA,FILE,0,22.0,FINESTEERING,2319,307279.250,02000000,46eb,17139;INS_SOLUTION_GOOD,INS_RTKFIXED,17.59510896947,78.12986850229,525.3060,-76.2000,2.6349,-4.7610,0.0160,2.297175208,0.322769364,296.832482472,0.0594,0.0591,0.0549,0.0186,0.0179,0.0126,0.0196,0.0194,0.5121,ab000241,0*527a67f8
#INSPVAXA,FILE,0,22.0,FINESTEERING,2319,307279.300,02000000,46eb,17139;INS_SOLUTION_GOOD,INS_RTKFIXED,17.59511014682,78.12986625745,525.3070,-76.2000,2.6469,-4.7874,0.0134,2.276126377,0.318474706,296.812360163,0.0594,0.0591,0.0549,0.0186,0.0179,0.0126,0.0196,0.0194,0.5121,ab000241,0*02e17373
#INSPVAXA,FILE,0,22.0,FINESTEERING,2319,307279.350,02000000,46eb,17139;INS_SOLUTION_GOOD,INS_RTKFIXED,17.59511133049,78.12986400028,525.3087,-76.2000,2.6619,-4.8133,0.0271,2.277309151,0.305247201,296.796929262,0.0594,0.0591,0.0549,0.0186,0.0179,0.0126,0.0196,0.0194,0.5121,ab000241,0*9b7b608c
#INSPVAXA,FILE,0,22.0,FINESTEERING,2319,307279.400,02000000,46eb,17139;INS_SOLUTION_GOOD,INS_RTKFIXED,17.59511251895,78.12986173048,525.3108,-76.2000,2.6681,-4.8445,0.0366,2.267174490,0.259314041,296.787558080,0.0594,0.0591,0.0549,0.0186,0.0179,0.0126,0.0196,0.0194,0.5121,ab000241,0*9c98fb1c
#INSPVAXA,FILE,0,22.0,FINESTEERING,2319,307279.450,02000000,46eb,17139;INS_SOLUTION_GOOD,INS_RTKFIXED,17.59511371186,78.12985944774,525.3131,-76.2000,2.6830,-4.8710,0.0517,2.271540904,0.245389972,296.786133707,0.0594,0.0591,0.0549,0.0186,0.0179,0.0126,0.0196,0.0194,0.5121,ab000241,0*1f184b6e
#INSPVAXA,FILE,0,22.0,FINESTEERING,2319,307279.500,02000000,46eb,17139;INS_SOLUTION_GOOD,INS_RTKFIXED,17.59511491186,78.12985715171,525.3151,-76.2000,2.7023,-4.8937,0.0173,2.227989449,0.217345914,296.782001350,0.0594,0.0591,0.0549,0.0186,0.0179,0.0126,0.0196,0.0194,0.5121,ab000241,0*5feb982d
#INSPVAXA,FILE,0,22.0,FINESTEERING,2319,307279.550,02000000,46eb,17139;INS_SOLUTION_GOOD,INS_RTKFIXED,17.59511612021,78.12985484550,525.3168,-76.2000,2.7162,-4.9148,0.0301,2.243104610,0.189955425,296.756772154,0.0594,0.0591,0.0549,0.0186,0.0179,0.0126,0.0196,0.0194,0.5121,ab000241,0*37d59af8
#INSPVAXA,FILE,0,22.0,FINESTEERING,2319,307279.600,02000000,46eb,17139;INS_SOLUTION_GOOD,INS_RTKFIXED,17.59511733597,78.12985252766,525.3191,-76.2000,2.7231,-4.9423,0.0484,2.218541859,0.201666611,296.731042633,0.0594,0.0591,0.0549,0.0186,0.0179,0.0126,0.0196,0.0194,0.5121,ab000241,0*b250f6fe
#INSPVAXA,FILE,0,22.0,FINESTEERING,2319,307279.650,02000000,46eb,17139;INS_SOLUTION_GOOD,INS_RTKFIXED,17.59511855568,78.12985019817,525.3220,-76.2000,2.7363,-4.9678,0.0545,2.229177855,0.190805056,296.711459566,0.0594,0.0591,0.0549,0.0186,0.0179,0.0126,0.0196,0.0194,0.5121,ab000241,0*2312924a
#INSPVAXA,FILE,0,22.0,FINESTEERING,2319,307279.700,02000000,46eb,17139;INS_SOLUTION_GOOD,INS_RTKFIXED,17.59511977946,78.12984785533,525.3241,-76.2000,2.7464,-4.9951,0.0311,2.248994212,0.181134803,296.703386398,0.0594,0.0591,0.0549,0.0186,0.0179,0.0126,0.0196,0.0194,0.5121,ab000241,0*8d5d459c
#INSPVAXA,FILE,0,22.0,FINESTEERING,2319,307279.750,02000000,46eb,17139;INS_SOLUTION_GOOD,INS_RTKFIXED,17.59512100978,78.12984549974,525.3254,-76.2000,2.7626,-5.0189,0.0026,2.232879402,0.203768668,296.692478973,0.0594,0.0591,0.0549,0.0186,0.0179,0.0126,0.0196,0.0194,0.5121,ab000241,0*fc0e321b
#INSPVAXA,FILE,0,22.0,FINESTEERING,2319,307279.800,02000000,46eb,17139;INS_SOLUTION_GOOD,INS_RTKFIXED,17.59512224402,78.12984313181,525.3264,-76.2000,2.7667,-5.0502,0.0147,2.282209072,0.237336509,296.686142857,0.0594,0.0591,0.0549,0.0186,0.0179,0.0126,0.0196,0.0194,0.5121,ab000241,0*79544129
#INSPVAXA,FILE,0,22.0,FINESTEERING,2319,307279.850,02000000,46eb,17139;INS_SOLUTION_GOOD,INS_RTKFIXED,17.59512348368,78.12984075231,525.3271,-76.2000,2.7799,-5.0699,0.0031,2.320937385,0.290356081,296.677182400,0.0594,0.0591,0.0549,0.0186,0.0179,0.0126,0.0196,0.0194,0.5121,ab000241,0*7236df9a
#INSPVAXA,FILE,0,22.0,FINESTEERING,2319,307279.900,02000000,46eb,17139;INS_SOLUTION_GOOD,INS_RTKFIXED,17.59512472987,78.12983836193,525.3277,-76.2000,2.7953,-5.0942,-0.0041,2.369261229,0.351827737,296.664915193,0.0594,0.0591,0.0549,0.0186,0.0179,0.0126,0.0196,0.0194,0.5121,ab000241,0*6f225a66
#INSPVAXA,FILE,0,22.0,FINESTEERING,2319,307279.950,02000000,46eb,17139;INS_SOLUTION_GOOD,INS_RTKFIXED,17.59512598132,78.12983596180,525.3288,-76.2000,2.8070,-5.1152,0.0305,2.443416982,0.407102154,296.653078713,0.0594,0.0591,0.0549,0.0186,0.0179,0.0126,0.0196,0.0194,0.5121,ab000241,0*ee501876
#INSPVAXA,FILE,0,22.0,FINESTEERING,2319,307280.000,02000000,46eb,17139;INS_SOLUTION_GOOD,INS_RTKFIXED,17.59512723850,78.12983355192,525.3304,-76.2000,2.8222,-5.1356,0.0328,2.430995514,0.492118472,296.641764334,0.0594,0.0591,0.0549,0.0186,0.0179,0.0126,0.0196,0.0194,0.5121,ab000241,0*6dbf8e9e
#INSPVAXA,FILE,0,22.0,FINESTEERING,2319,307280.050,02000000,46eb,17139;INS_SOLUTION_GOOD,INS_RTKFIXED,17.59512849915,78.12983113158,525.3320,-76.2000,2.8277,-5.1579,0.0367,2.451103942,0.520315364,296.622692005,0.0592,0.0589,0.0545,0.0182,0.0176,0.0124,0.0194,0.0193,0.5127,ab000241,0*ed6db817
#INSPVAXA,FILE,0,22.0,FINESTEERING,2319,307280.100,02000000,46eb,17139;INS_SOLUTION_GOOD,INS_RTKFIXED,17.59512976432,78.12982870076,525.3344,-76.2000,2.8349,-5.1800,0.0474,2.470752461,0.539869221,296.597686077,0.0592,0.0589,0.0545,0.0182,0.0176,0.0124,0.0194,0.0193,0.5127,ab000241,0*74c6bc14
#INSPVAXA,FILE,0,24.0,FINESTEERING,2319,307280.150,02000000,46eb,17139;INS_SOLUTION_GOOD,INS_RTKFIXED,17.59513103433,78.12982626000,525.3375,-76.2000,2.8463,-5.2019,0.0555,2.510285519,0.535526406,296.561428827,0.0592,0.0589,0.0545,0.0182,0.0176,0.0124,0.0194,0.0193,0.5127,ab000241,0*5b305b8a
#INSPVAXA,FILE,0,24.0,FINESTEERING,2319,307280.200,02000000,46eb,17139;INS_SOLUTION_GOOD,INS_RTKFIXED,17.59513230936,78.12982380951,525.3407,-76.2000,2.8565,-5.2234,0.0572,2.589341080,0.485868734,296.510222121,0.0592,0.0589,0.0545,0.0182,0.0176,0.0124,0.0194,0.0193,0.5127,ab000241,0*369ccce4
#INSPVAXA,FILE,0,24.0,FINESTEERING,2319,307280.250,02000000,46eb,17139;INS_SOLUTION_GOOD,INS_RTKFIXED,17.59513359011,78.12982134951,525.3439,-76.2000,2.8696,-5.2420,0.0565,2.648364760,0.448384894,296.451490412,0.0592,0.0589,0.0545,0.0182,0.0176,0.0124,0.0194,0.0193,0.5127,ab000241,0*656794ee
#INSPVAXA,FILE,0,24.0,FINESTEERING,2319,307280.300,02000000,46eb,17139;INS_SOLUTION_GOOD,INS_RTKFIXED,17.59513487620,78.12981888054,525.3475,-76.2000,2.8777,-5.2632,0.0716,2.669979322,0.364472505,296.379727998,0.0592,0.0589,0.0545,0.0182,0.0176,0.0124,0.0194,0.0193,0.5127,ab000241,0*b5202018
#INSPVAXA,FILE,0,24.0,FINESTEERING,2319,307280.350,02000000,46eb,17139;INS_SOLUTION_GOOD,INS_RTKFIXED,17.59513616441,78.12981640010,525.3511,-76.2000,2.8800,-5.2849,0.0703,2.676426555,0.272882139,296.310361265,0.0592,0.0589,0.0545,0.0182,0.0176,0.0124,0.0194,0.0193,0.5127,ab000241,0*d525620c
#INSPVAXA,FILE,0,24.0,FINESTEERING,2319,307280.400,02000000,46eb,17139;INS_SOLUTION_GOOD,INS_RTKFIXED,17.59513745156,78.12981390781,525.3557,-76.2000,2.8777,-5.3127,0.0911,2.653270471,0.185233760,296.246544538,0.0592,0.0589,0.0545,0.0182,0.0176,0.0124,0.0194,0.0193,0.5127,ab000241,0*4f57fbed
#INSPVAXA,FILE,0,24.0,FINESTEERING,2319,307280.450,02000000,46eb,17139;INS_SOLUTION_GOOD,INS_RTKFIXED,17.59513873794,78.12981140073,525.3603,-76.2000,2.8767,-5.3456,0.0822,2.641270552,0.051611025,296.190581130,0.0592,0.0589,0.0545,0.0182,0.0176,0.0124,0.0194,0.0193,0.5127,ab000241,0*7bf43e6d
#INSPVAXA,FILE,0,24.0,FINESTEERING,2319,307280.500,02000000,46eb,17139;INS_SOLUTION_GOOD,INS_RTKFIXED,17.59514002517,78.12980888088,525.3645,-76.2000,2.8794,-5.3742,0.0675,2.607331537,-0.026169706,296.131986362,0.0592,0.0589,0.0545,0.0182,0.0176,0.0124,0.0194,0.0193,0.5127,ab000241,0*9cbf9cf5
#INSPVAXA,FILE,0,24.0,FINESTEERING,2319,307280.550,02000000,46eb,17139;INS_SOLUTION_GOOD,INS_RTKFIXED,17.59514131693,78.12980634762,525.3675,-76.2000,2.8914,-5.4016,0.0431,2.600972292,-0.080710939,296.073345098,0.0592,0.0589,0.0545,0.0182,0.0176,0.0124,0.0194,0.0193,0.5127,ab000241,0*c7005e1c
#INSPVAXA,FILE,0,24.0,FINESTEERING,2319,307280.600,02000000,46eb,17139;INS_SOLUTION_GOOD,INS_RTKFIXED,17.59514261523,78.12980380269,525.3689,-76.2000,2.9066,-5.4208,-0.0020,2.562445454,-0.085842576,296.005826066,0.0592,0.0589,0.0545,0.0182,0.0176,0.0124,0.0194,0.0193,0.5127,ab000241,0*fad29a18
#INSPVAXA,FILE,0,24.0,FINESTEERING,2319,307280.650,02000000,46eb,17139;INS_SOLUTION_GOOD,INS_RTKFIXED,17.59514391835,78.12980124468,525.3694,-76.2000,2.9127,-5.4565,-0.0010,2.547152589,-0.066901124,295.938423851,0.0592,0.0589,0.0545,0.0182,0.0176,0.0124,0.0194,0.0193,0.5127,ab000241,0*82d426a7
#INSPVAXA,FILE,0,24.0,FINESTEERING,2319,307280.700,02000000,46eb,17139;INS_SOLUTION_GOOD,INS_RTKFIXED,17.59514522117,78.12979867241,525.3686,-76.2000,2.9077,-5.4835,-0.0332,2.538305722,-0.008209062,295.881251248,0.0592,0.0589,0.0545,0.0182,0.0176,0.0124,0.0194,0.0193,0.5127,ab000241,0*addcffcf
#INSPVAXA,FILE,0,24.0,FINESTEERING,2319,307280.750,02000000,46eb,17139;INS_SOLUTION_GOOD,INS_RTKFIXED,17.59514652485,78.12979608597,525.3677,-76.2000,2.9149,-5.5122,-0.0285,2.535902745,0.056499952,295.832054747,0.0592,0.0589,0.0545,0.0182,0.0176,0.0124,0.0194,0.0193,0.5127,ab000241,0*9be97d7a
#INSPVAXA,FILE,0,24.0,FINESTEERING,2319,307280.800,02000000,46eb,17139;INS_SOLUTION_GOOD,INS_RTKFIXED,17.59514783079,78.12979348739,525.3666,-76.2000,2.9184,-5.5391,-0.0162,2.536148733,0.130466942,295.779777472,0.0592,0.0589,0.0545,0.0182,0.0176,0.0124,0.0194,0.0193,0.5127,ab000241,0*e10c75d9
#INSPVAXA,FILE,0,24.0,FINESTEERING,2319,307280.850,02000000,46eb,17139;INS_SOLUTION_GOOD,INS_RTKFIXED,17.59514913996,78.12979087711,525.3656,-76.2000,2.9286,-5.5613,-0.0167,2.430476239,0.231716087,295.729190731,0.0592,0.0589,0.0545,0.0182,0.0176,0.0124,0.0194,0.0193,0.5127,ab000241,0*30a76220
#INSPVAXA,FILE,0,24.0,FINESTEERING,2319,307280.900,02000000,46eb,17139;INS_SOLUTION_GOOD,INS_RTKFIXED,17.59515045145,78.12978825468,525.3653,-76.2000,2.9290,-5.5878,-0.0044,2.349404999,0.247033772,295.667632620,0.0592,0.0589,0.0545,0.0182,0.0176,0.0124,0.0194,0.0193,0.5127,ab000241,0*793c6aa0
#INSPVAXA,FILE,0,24.0,FINESTEERING,2319,307280.950,02000000,46eb,17139;INS_SOLUTION_GOOD,INS_RTKFIXED,17.59515176399,78.12978561934,525.3658,-76.2000,2.9312,-5.6165,0.0055,2.278357892,0.292685717,295.608947148,0.0592,0.0589,0.0545,0.0182,0.0176,0.0124,0.0194,0.0193,0.5127,ab000241,0*98a61c03
#INSPVAXA,FILE,0,24.0,FINESTEERING,2319,307281.000,02000000,46eb,17139;INS_SOLUTION_GOOD,INS_RTKFIXED,17.59515307907,78.12978297277,525.3672,-76.2000,2.9390,-5.6397,0.0346,2.255907540,0.335687252,295.540752194,0.0592,0.0589,0.0545,0.0182,0.0176,0.0124,0.0194,0.0193,0.5127,ab000241,0*f9d86c9d
#INSPVAXA,FILE,0,24.0,FINESTEERING,2319,307281.050,02000000,46eb,17139;INS_SOLUTION_GOOD,INS_RTKFIXED,17.59515439425,78.12978031425,525.3689,-76.2000,2.9478,-5.6603,0.0251,2.250476088,0.360356070,295.461746005,0.0592,0.0588,0.0542,0.0178,0.0173,0.0121,0.0193,0.0192,0.5133,ab000241,0*bde34aa9
#INSPVAXA,FILE,0,24.0,FINESTEERING,2319,307281.100,02000000,46eb,17139;INS_SOLUTION_GOOD,INS_RTKFIXED,17.59515571135,78.12977764431,525.3712,-76.2000,2.9581,-5.6833,0.0458,2.256958724,0.386436116,295.368043587,0.0592,0.0588,0.0542,0.0178,0.0173,0.0121,0.0193,0.0192,0.5133,ab000241,0*7c5b3565
#INSPVAXA,FILE,0,28.0,FINESTEERING,2319,307281.150,02000000,46eb,17139;INS_SOLUTION_GOOD,INS_RTKFIXED,17.59515703207,78.12977496466,525.3736,-76.2000,2.9622,-5.7008,0.0481,2.266047893,0.376984466,295.265263723,0.0592,0.0588,0.0542,0.0178,0.0173,0.0121,0.0193,0.0192,0.5133,ab000241,0*91ff8e07
#INSPVAXA,FILE,0,28.0,FINESTEERING,2319,307281.200,02000000,46eb,17139;INS_SOLUTION_GOOD,INS_RTKFIXED,17.59515835356,78.12977227479,525.3764,-76.2000,2.9580,-5.7256,0.0569,2.214696075,0.366313945,295.157024760,0.0592,0.0588,0.0542,0.0178,0.0173,0.0121,0.0193,0.0192,0.5133,ab000241,0*e779f2be
#INSPVAXA,FILE,0,28.0,FINESTEERING,2319,307281.250,02000000,46eb,17139;INS_SOLUTION_GOOD,INS_RTKFIXED,17.59515967171,78.12976957097,525.3793,-76.2000,2.9489,-5.7572,0.0547,2.207364950,0.319766182,295.058759266,0.0592,0.0588,0.0542,0.0178,0.0173,0.0121,0.0193,0.0192,0.5133,ab000241,0*9b4b86f1
#INSPVAXA,FILE,0,28.0,FINESTEERING,2319,307281.300,02000000,46eb,17139;INS_SOLUTION_GOOD,INS_RTKFIXED,17.59516098861,78.12976685391,525.3821,-76.2000,2.9487,-5.7864,0.0463,2.170750163,0.305195778,294.964888335,0.0592,0.0588,0.0542,0.0178,0.0173,0.0121,0.0193,0.0192,0.5133,ab000241,0*8fb5cd4c
#INSPVAXA,FILE,0,28.0,FINESTEERING,2319,307281.350,02000000,46eb,17139;INS_SOLUTION_GOOD,INS_RTKFIXED,17.59516230460,78.12976412191,525.3846,-76.2000,2.9484,-5.8164,0.0454,2.169296428,0.293138667,294.870555446,0.0592,0.0588,0.0542,0.0178,0.0173,0.0121,0.0193,0.0192,0.5133,ab000241,0*06f75af0
#INSPVAXA,FILE,0,28.0,FINESTEERING,2319,307281.400,02000000,46eb,17139;INS_SOLUTION_GOOD,INS_RTKFIXED,17.59516362104,78.12976137766,525.3875,-76.2000,2.9539,-5.8416,0.0547,2.154498794,0.300703404,294.774969338,0.0592,0.0588,0.0542,0.0178,0.0173,0.0121,0.0193,0.0192,0.5133,ab000241,0*4a1e5277
#INSPVAXA,FILE,0,28.0,FINESTEERING,2319,307281.450,02000000,46eb,17139;INS_SOLUTION_GOOD,INS_RTKFIXED,17.59516494158,78.12975862210,525.3903,-76.2000,2.9634,-5.8635,0.0428,2.123393511,0.275730946,294.668936334,0.0592,0.0588,0.0542,0.0178,0.0173,0.0121,0.0193,0.0192,0.5133,ab000241,0*3ec43907
#INSPVAXA,FILE,0,28.0,FINESTEERING,2319,307281.500,02000000,46eb,17139;INS_SOLUTION_GOOD,INS_RTKFIXED,17.59516626249,78.12975585334,525.3931,-76.2000,2.9589,-5.8923,0.0511,2.109387154,0.259286105,294.565913581,0.0592,0.0588,0.0542,0.0178,0.0173,0.0121,0.0193,0.0192,0.5133,ab000241,0*49007fe4
#INSPVAXA,FILE,0,28.0,FINESTEERING,2319,307281.550,02000000,46eb,17139;INS_SOLUTION_GOOD,INS_RTKFIXED,17.59516758311,78.12975306951,525.3954,-76.2000,2.9548,-5.9267,0.0384,2.083914615,0.250214248,294.467204066,0.0592,0.0588,0.0542,0.0178,0.0173,0.0121,0.0193,0.0192,0.5133,ab000241,0*19ac7d5f
#INSPVAXA,FILE,0,28.0,FINESTEERING,2319,307281.600,02000000,46eb,17139;INS_SOLUTION_GOOD,INS_RTKFIXED,17.59516890116,78.12975027037,525.3975,-76.2000,2.9497,-5.9609,0.0382,2.070538233,0.234616629,294.377949025,0.0592,0.0588,0.0542,0.0178,0.0173,0.0121,0.0193,0.0192,0.5133,ab000241,0*6eb6d544
#INSPVAXA,FILE,0,28.0,FINESTEERING,2319,307281.650,02000000,46eb,17139;INS_SOLUTION_GOOD,INS_RTKFIXED,17.59517022014,78.12974745623,525.3991,-76.2000,2.9551,-5.9916,0.0253,2.083959425,0.229007873,294.285757956,0.0592,0.0588,0.0542,0.0178,0.0173,0.0121,0.0193,0.0192,0.5133,ab000241,0*eb23ce1c
#INSPVAXA,FILE,0,28.0,FINESTEERING,2319,307281.700,02000000,46eb,17139;INS_SOLUTION_GOOD,INS_RTKFIXED,17.59517154131,78.12974463024,525.4008,-76.2000,2.9611,-6.0136,0.0326,2.076404172,0.220242745,294.192313099,0.0592,0.0588,0.0542,0.0178,0.0173,0.0121,0.0193,0.0192,0.5133,ab000241,0*62f7e294
#INSPVAXA,FILE,0,28.0,FINESTEERING,2319,307281.750,02000000,46eb,17139;INS_SOLUTION_GOOD,INS_RTKFIXED,17.59517286481,78.12974179212,525.4028,-76.2000,2.9620,-6.0410,0.0342,2.055009441,0.196806263,294.097277845,0.0592,0.0588,0.0542,0.0178,0.0173,0.0121,0.0193,0.0192,0.5133,ab000241,0*e659d6a9
#INSPVAXA,FILE,0,28.0,FINESTEERING,2319,307281.800,02000000,46eb,17139;INS_SOLUTION_GOOD,INS_RTKFIXED,17.59517418745,78.12973894080,525.4052,-76.2000,2.9606,-6.0695,0.0414,2.045439569,0.186448897,294.013359983,0.0592,0.0588,0.0542,0.0178,0.0173,0.0121,0.0193,0.0192,0.5133,ab000241,0*5fd47739
#INSPVAXA,FILE,0,28.0,FINESTEERING,2319,307281.850,02000000,46eb,17139;INS_SOLUTION_GOOD,INS_RTKFIXED,17.59517551214,78.12973607507,525.4077,-76.2000,2.9674,-6.0990,0.0416,2.048741327,0.176033111,293.935321261,0.0592,0.0588,0.0542,0.0178,0.0173,0.0121,0.0193,0.0192,0.5133,ab000241,0*c1295c03
#INSPVAXA,FILE,0,28.0,FINESTEERING,2319,307281.900,02000000,46eb,17139;INS_SOLUTION_GOOD,INS_RTKFIXED,17.59517683838,78.12973319610,525.4100,-76.2000,2.9716,-6.1242,0.0456,2.092169735,0.172233509,293.857535188,0.0592,0.0588,0.0542,0.0178,0.0173,0.0121,0.0193,0.0192,0.5133,ab000241,0*cb4013ea
#INSPVAXA,FILE,0,28.0,FINESTEERING,2319,307281.950,02000000,46eb,17139;INS_SOLUTION_GOOD,INS_RTKFIXED,17.59517816715,78.12973030446,525.4118,-76.2000,2.9751,-6.1531,0.0229,2.076604528,0.181764417,293.786620138,0.0592,0.0588,0.0542,0.0178,0.0173,0.0121,0.0193,0.0192,0.5133,ab000241,0*57a54bca
#INSPVAXA,FILE,0,28.0,FINESTEERING,2319,307282.000,02000000,46eb,17139;INS_SOLUTION_GOOD,INS_RTKFIXED,17.59517949803,78.12972740014,525.4131,-76.2000,2.9779,-6.1839,0.0188,2.083589452,0.185306247,293.718774148,0.0592,0.0588,0.0542,0.0178,0.0173,0.0121,0.0193,0.0192,0.5133,ab000241,0*bd3641d5
#INSPVAXA,FILE,0,28.0,FINESTEERING,2319,307282.050,02000000,46eb,17139;INS_SOLUTION_GOOD,INS_RTKFIXED,17.59518082869,78.12972447987,525.4140,-76.2000,2.9781,-6.2151,0.0075,2.078881414,0.205433008,293.667786042,0.0592,0.0586,0.0539,0.0176,0.0171,0.0120,0.0192,0.0191,0.5139,ab000241,0*8c9a4d70
#INSPVAXA,FILE,0,28.0,FINESTEERING,2319,307282.100,02000000,46eb,17139;INS_SOLUTION_GOOD,INS_RTKFIXED,17.59518216170,78.12972154458,525.4151,-76.2000,2.9813,-6.2431,0.0140,2.063928918,0.230259701,293.620488140,0.0592,0.0586,0.0539,0.0176,0.0171,0.0120,0.0192,0.0191,0.5139,ab000241,0*796e99ae
#INSPVAXA,FILE,0,28.0,FINESTEERING,2319,307282.150,02000000,46eb,17139;INS_SOLUTION_GOOD,INS_RTKFIXED,17.59518349779,78.12971859504,525.4162,-76.2000,2.9898,-6.2769,0.0166,2.106099599,0.267548396,293.575310552,0.0592,0.0586,0.0539,0.0176,0.0171,0.0120,0.0192,0.0191,0.5139,ab000241,0*eb59baff
#INSPVAXA,FILE,0,28.0,FINESTEERING,2319,307282.200,02000000,46eb,17139;INS_SOLUTION_GOOD,INS_RTKFIXED,17.59518483934,78.12971563307,525.4177,-76.2000,3.0050,-6.3017,0.0231,2.120557064,0.320352407,293.523260003,0.0592,0.0586,0.0539,0.0176,0.0171,0.0120,0.0192,0.0191,0.5139,ab000241,0*e9fb5fcc
#INSPVAXA,FILE,0,27.0,FINESTEERING,2319,307282.250,02000000,46eb,17139;INS_SOLUTION_GOOD,INS_RTKFIXED,17.59518618656,78.12971265780,525.4194,-76.2000,3.0151,-6.3332,0.0334,2.127356116,0.355766067,293.465953136,0.0592,0.0586,0.0539,0.0176,0.0171,0.0120,0.0192,0.0191,0.5139,ab000241,0*ca66426d
#INSPVAXA,FILE,0,27.0,FINESTEERING,2319,307282.300,02000000,46eb,17139;INS_SOLUTION_GOOD,INS_RTKFIXED,17.59518753702,78.12970966575,525.4211,-76.2000,3.0195,-6.3696,0.0288,2.124087660,0.402334410,293.417419935,0.0592,0.0586,0.0539,0.0176,0.0171,0.0120,0.0192,0.0191,0.5139,ab000241,0*da0de4db
#INSPVAXA,FILE,0,27.0,FINESTEERING,2319,307282.350,02000000,46eb,17139;INS_SOLUTION_GOOD,INS_RTKFIXED,17.59518888973,78.12970665616,525.4230,-76.2000,3.0230,-6.4076,0.0386,2.133476069,0.438302706,293.370680199,0.0592,0.0586,0.0539,0.0176,0.0171,0.0120,0.0192,0.0191,0.5139,ab000241,0*a68b0628
#INSPVAXA,FILE,0,27.0,FINESTEERING,2319,307282.400,02000000,46eb,17139;INS_SOLUTION_GOOD,INS_RTKFIXED,17.59519024636,78.12970362942,525.4249,-76.2000,3.0363,-6.4434,0.0334,2.135513095,0.483665183,293.331420794,0.0592,0.0586,0.0539,0.0176,0.0171,0.0120,0.0192,0.0191,0.5139,ab000241,0*611d09cb
#INSPVAXA,FILE,0,27.0,FINESTEERING,2319,307282.450,02000000,46eb,17139;INS_SOLUTION_GOOD,INS_RTKFIXED,17.59519160898,78.12970058594,525.4270,-76.2000,3.0481,-6.4778,0.0354,2.108250674,0.510666947,293.276568138,0.0592,0.0586,0.0539,0.0176,0.0171,0.0120,0.0192,0.0191,0.5139,ab000241,0*df7e2fcd
#INSPVAXA,FILE,0,27.0,FINESTEERING,2319,307282.500,02000000,46eb,17139;INS_SOLUTION_GOOD,INS_RTKFIXED,17.59519297571,78.12969752594,525.4296,-76.2000,3.0567,-6.5140,0.0531,2.088172510,0.526339441,293.219702973,0.0592,0.0586,0.0539,0.0176,0.0171,0.0120,0.0192,0.0191,0.5139,ab000241,0*d4e3b4ef
#INSPVAXA,FILE,0,27.0,FINESTEERING,2319,307282.550,02000000,46eb,17139;INS_SOLUTION_GOOD,INS_RTKFIXED,17.59519434652,78.12969444829,525.4325,-76.2000,3.0656,-6.5544,0.0576,2.067603053,0.536475978,293.163503166,0.0592,0.0586,0.0539,0.0176,0.0171,0.0120,0.0192,0.0191,0.5139,ab000241,0*bc4daabc
#INSPVAXA,FILE,0,27.0,FINESTEERING,2319,307282.600,02000000,46eb,17139;INS_SOLUTION_GOOD,INS_RTKFIXED,17.59519572073,78.12969135302,525.4358,-76.2000,3.0710,-6.5866,0.0688,2.065610122,0.513688392,293.108176520,0.0592,0.0586,0.0539,0.0176,0.0171,0.0120,0.0192,0.0191,0.5139,ab000241,0*b4c5e449
#INSPVAXA,FILE,0,27.0,FINESTEERING,2319,307282.650,02000000,46eb,17139;INS_SOLUTION_GOOD,INS_RTKFIXED,17.59519709872,78.12968824034,525.4396,-76.2000,3.0822,-6.6277,0.0679,2.053959154,0.496155387,293.059150694,0.0592,0.0586,0.0539,0.0176,0.0171,0.0120,0.0192,0.0191,0.5139,ab000241,0*1e39be4d
#INSPVAXA,FILE,0,27.0,FINESTEERING,2319,307282.700,02000000,46eb,17139;INS_SOLUTION_GOOD,INS_RTKFIXED,17.59519848221,78.12968511044,525.4431,-76.2000,3.0959,-6.6607,0.0674,2.089360734,0.475239250,293.002166030,0.0592,0.0586,0.0539,0.0176,0.0171,0.0120,0.0192,0.0191,0.5139,ab000241,0*6dc8e3ad
#INSPVAXA,FILE,0,27.0,FINESTEERING,2319,307282.750,02000000,46eb,17139;INS_SOLUTION_GOOD,INS_RTKFIXED,17.59519987088,78.12968196516,525.4471,-76.2000,3.1053,-6.6936,0.0763,2.106201019,0.462429916,292.946556892,0.0592,0.0586,0.0539,0.0176,0.0171,0.0120,0.0192,0.0191,0.5139,ab000241,0*7d94ef49
#INSPVAXA,FILE,0,27.0,FINESTEERING,2319,307282.800,02000000,46eb,17139;INS_SOLUTION_GOOD,INS_RTKFIXED,17.59520126366,78.12967880199,525.4508,-76.2000,3.1116,-6.7348,0.0671,2.089813922,0.442004163,292.897342038,0.0592,0.0586,0.0539,0.0176,0.0171,0.0120,0.0192,0.0191,0.5139,ab000241,0*33cb7468
#INSPVAXA,FILE,0,27.0,FINESTEERING,2319,307282.850,02000000,46eb,17139;INS_SOLUTION_GOOD,INS_RTKFIXED,17.59520265797,78.12967562057,525.4541,-76.2000,3.1116,-6.7715,0.0622,2.097519429,0.429437969,292.855283242,0.0592,0.0586,0.0539,0.0176,0.0171,0.0120,0.0192,0.0191,0.5139,ab000241,0*062bda0d
#INSPVAXA,FILE,0,27.0,FINESTEERING,2319,307282.900,02000000,46eb,17139;INS_SOLUTION_GOOD,INS_RTKFIXED,17.59520405641,78.12967242146,525.4571,-76.2000,3.1274,-6.8094,0.0517,2.120495857,0.438443495,292.818576400,0.0592,0.0586,0.0539,0.0176,0.0171,0.0120,0.0192,0.0191,0.5139,ab000241,0*d0c1e74f
#INSPVAXA,FILE,0,27.0,FINESTEERING,2319,307282.950,02000000,46eb,17139;INS_SOLUTION_GOOD,INS_RTKFIXED,17.59520546169,78.12966920516,525.4595,-76.2000,3.1436,-6.8453,0.0416,2.142523398,0.465076484,292.771866530,0.0592,0.0586,0.0539,0.0176,0.0171,0.0120,0.0192,0.0191,0.5139,ab000241,0*36ab4021
#INSPVAXA,FILE,0,27.0,FINESTEERING,2319,307283.000,02000000,46eb,17139;INS_SOLUTION_GOOD,INS_RTKFIXED,17.59520687369,78.12966597475,525.4619,-76.2000,3.1555,-6.8748,0.0476,2.114117496,0.477180964,292.718412636,0.0592,0.0586,0.0539,0.0176,0.0171,0.0120,0.0192,0.0191,0.5139,ab000241,0*49b243b8
#INSPVAXA,FILE,0,27.0,FINESTEERING,2319,307283.050,02000000,46eb,17139;INS_SOLUTION_GOOD,INS_RTKFIXED,17.59520828948,78.12966272501,525.4645,-76.2000,3.1610,-6.9175,0.0455,2.089817141,0.479560486,292.671191212,0.0590,0.0584,0.0537,0.0176,0.0170,0.0119,0.0190,0.0189,0.5145,ab000241,0*901179f6
