#BESTVELA,FILE,0,34.5,FINESTEERING,2319,305221.350,02000800,10a2,17139;SOL_COMPUTED,INS_RTKFIXED,0.000,0.000,0.2721,145.630943,-0.0020,0*a32594bd
#BESTVELA,FILE,0,34.5,FINESTEERING,2319,305221.400,02000800,10a2,17139;SOL_COMPUTED,INS_RTKFIXED,0.000,0.000,0.2796,147.433635,-0.0077,0*f31cc356
#BESTVELA,FILE,0,34.5,FINESTEERING,2319,305221.550,02000800,10a2,17139;SOL_COMPUTED,INS_RTKFIXED,0.000,0.000,0.3134,147.610632,0.0037,0*ca2af2ce
#BESTVELA,FILE,0,34.5,FINESTEERING,2319,305221.700,02000800,10a2,17139;SOL_COMPUTED,INS_RTKFIXED,0.000,0.000,0.3334,143.063866,0.0079,0*6228263a
#BESTVELA,FILE,0,34.5,FINESTEERING,2319,305221.750,02000800,10a2,17139;SOL_COMPUTED,INS_RTKFIXED,0.000,0.000,0.3374,141.099736,0.0130,0*4ff48611
#BESTVELA,FILE,0,34.5,FINESTEERING,2319,305221.800,02000800,10a2,17139;SOL_COMPUTED,INS_RTKFIXED,0.000,0.000,0.3514,143.361802,0.0072,0*920a732f
#BESTVELA,FILE,0,34.5,FINESTEERING,2319,305221.950,02000800,10a2,17139;SOL_COMPUTED,INS_RTKFIXED,0.000,0.000,0.3914,146.442068,0.0015,0*5804303c
#BESTVELA,FILE,0,34.5,FINESTEERING,2319,305222.000,02000800,10a2,17139;SOL_COMPUTED,INS_RTKFIXED,0.000,0.000,0.4140,146.883179,0.0044,0*0c28ae7b
#BESTVELA,FILE,0,34.5,FINESTEERING,2319,305222.100,02000800,10a2,17139;SOL_COMPUTED,INS_RTKFIXED,0.000,0.000,0.4379,146.785743,0.0037,0*3f2adbab
#BESTVELA,FILE,0,37.0,FINESTEERING,2319,305222.200,02000800,10a2,17139;SOL_COMPUTED,INS_RTKFIXED,0.000,0.000,0.4583,147.285816,0.0147,0*7a46bc36
#BESTVELA,FILE,0,37.0,FINESTEERING,2319,305222.300,02000800,10a2,17139;SOL_COMPUTED,INS_RTKFIXED,0.000,0.000,0.4985,144.944364,0.0254,0*005064d2
#BESTVELA,FILE,0,37.0,FINESTEERING,2319,305222.400,02000800,10a2,17139;SOL_COMPUTED,INS_RTKFIXED,0.000,0.000,0.5160,140.943810,0.0108,0*9d2b049e
#BESTVELA,FILE,0,37.0,FINESTEERING,2319,305222.550,02000800,10a2,17139;SOL_COMPUTED,INS_RTKFIXED,0.000,0.000,0.5610,141.956759,0.0195,0*e21aafc8
#BESTVELA,FILE,0,37.0,FINESTEERING,2319,305222.600,02000800,10a2,17139;SOL_COMPUTED,INS_RTKFIXED,0.000,0.000,0.5647,145.649600,-0.0133,0*4ad79d14
#BESTVELA,FILE,0,37.0,FINESTEERING,2319,305222.700,02000800,10a2,17139;SOL_COMPUTED,INS_RTKFIXED,0.000,0.000,0.5931,148.499948,-0.0062,0*d47a1d45
#BESTVELA,FILE,0,37.0,FINESTEERING,2319,305222.850,02000800,10a2,17139;SOL_COMPUTED,INS_RTKFIXED,0.000,0.000,0.6369,147.352662,-0.0175,0*c395bb8d
#BESTVELA,FILE,0,37.0,FINESTEERING,2319,305222.950,02000800,10a2,17139;SOL_COMPUTED,INS_RTKFIXED,0.000,0.000,0.6644,143.463751,0.0343,0*62255a4d
#BESTVELA,FILE,0,37.0,FINESTEERING,2319,305223.000,02000800,10a2,17139;SOL_COMPUTED,INS_RTKFIXED,0.000,0.000,0.6661,140.322381,0.0345,0*1109ee28
#BESTVELA,FILE,0,36.0,FINESTEERING,2319,305223.100,02000800,10a2,17139;SOL_COMPUTED,INS_RTKFIXED,0.000,0.000,0.6917,139.384508,0.0315,0*6187a0b1
#BESTVELA,FILE,0,36.0,FINESTEERING,2319,305223.200,02000800,10a2,17139;SOL_COMPUTED,INS_RTKFIXED,0.000,0.000,0.7192,140.941570,0.0064,0*1d205306
#BESTVELA,FILE,0,36.0,FINESTEERING,2319,305223.300,02000800,10a2,17139;SOL_COMPUTED,INS_RTKFIXED,0.000,0.000,0.7389,142.000906,0.0224,0*5c4e1ae7
#BESTVELA,FILE,0,36.0,FINESTEERING,2319,305223.400,02000800,10a2,17139;SOL_COMPUTED,INS_RTKFIXED,0.000,0.000,0.7603,143.004842,-0.0029,0*f5b70015
#BESTVELA,FILE,0,36.0,FINESTEERING,2319,305223.450,02000800,10a2,17139;SOL_COMPUTED,INS_RTKFIXED,0.000,0.000,0.7690,142.073605,0.0098,0*84af4998
#BESTVELA,FILE,0,36.0,FINESTEERING,2319,305223.550,02000800,10a2,17139;SOL_COMPUTED,INS_RTKFIXED,0.000,0.000,0.7768,139.889856,0.0212,0*8725c04c
#BESTVELA,FILE,0,36.0,FINESTEERING,2319,305223.650,02000800,10a2,17139;SOL_COMPUTED,INS_RTKFIXED,0.000,0.000,0.8158,140.176192,0.0249,0*6a10237e
#BESTVELA,FILE,0,36.0,FINESTEERING,2319,305223.750,02000800,10a2,17139;SOL_COMPUTED,INS_RTKFIXED,0.000,0.000,0.8257,139.944836,-0.0026,0*062009ff
#BESTVELA,FILE,0,36.0,FINESTEERING,2319,305223.900,02000800,10a2,17139;SOL_COMPUTED,INS_RTKFIXED,0.000,0.000,0.8431,137.291758,0.0062,0*a95e5759
#BESTVELA,FILE,0,36.0,FINESTEERING,2319,305223.950,02000800,10a2,17139;SOL_COMPUTED,INS_RTKFIXED,0.000,0.000,0.8449,136.037617,0.0347,0*f208cc4c
#BESTVELA,FILE,0,36.0,FINESTEERING,2319,305224.050,02000800,10a2,17139;SOL_COMPUTED,INS_RTKFIXED,0.000,0.000,0.8636,137.918096,0.0264,0*6e719f2a
#BESTVELA,FILE,0,33.5,FINESTEERING,2319,305224.100,02000800,10a2,17139;SOL_COMPUTED,INS_RTKFIXED,0.000,0.000,0.9146,138.081854,0.0292,0*fd6c3b34
#BESTVELA,FILE,0,33.5,FINESTEERING,2319,305224.200,02000800,10a2,17139;SOL_COMPUTED,INS_RTKFIXED,0.000,0.000,0.9654,137.698536,0.0064,0*2a5536a1
#BESTVELA,FILE,0,33.5,FINESTEERING,2319,305224.400,02000800,10a2,17139;SOL_COMPUTED,INS_RTKFIXED,0.000,0.000,1.0395,134.772255,0.0345,0*d44df108
#BESTVELA,FILE,0,33.5,FINESTEERING,2319,305224.500,02000800,10a2,17139;SOL_COMPUTED,INS_RTKFIXED,0.000,0.000,1.0646,134.701285,0.0560,0*a162d5bc
#BESTVELA,FILE,0,33.5,FINESTEERING,2319,305224.550,02000800,10a2,17139;SOL_COMPUTED,INS_RTKFIXED,0.000,0.000,1.0758,133.734115,0.0448,0*5d19260a
#BESTVELA,FILE,0,33.5,FINESTEERING,2319,305224.600,02000800,10a2,17139;SOL_COMPUTED,INS_RTKFIXED,0.000,0.000,1.1150,133.025686,0.0241,0*243ab2a2
#BESTVELA,FILE,0,33.5,FINESTEERING,2319,305224.750,02000800,10a2,17139;SOL_COMPUTED,INS_RTKFIXED,0.000,0.000,1.1586,133.578573,-0.0130,0*b6c1cbfe
#BESTVELA,FILE,0,33.5,FINESTEERING,2319,305224.800,02000800,10a2,17139;SOL_COMPUTED,INS_RTKFIXED,0.000,0.000,1.2069,134.902600,-0.0186,0*7584b310
#BESTVELA,FILE,0,33.5,FINESTEERING,2319,305224.850,02000800,10a2,17139;SOL_COMPUTED,INS_RTKFIXED,0.000,0.000,1.2235,133.149144,-0.0029,0*c187e48d
#BESTVELA,FILE,0,33.5,FINESTEERING,2319,305224.900,02000800,10a2,17139;SOL_COMPUTED,INS_RTKFIXED,0.000,0.000,1.2445,131.586370,0.0177,0*0d09c529
#BESTVELA,FILE,0,33.5,FINESTEERING,2319,305224.950,02000800,10a2,17139;SOL_COMPUTED,INS_RTKFIXED,0.000,0.000,1.2827,130.117422,0.0217,0*f1a8831f
#BESTVELA,FILE,0,33.5,FINESTEERING,2319,305225.000,02000800,10a2,17139;SOL_COMPUTED,INS_RTKFIXED,0.000,0.000,1.3126,128.374213,0.0108,0*ededa39f
#BESTVELA,FILE,0,33.5,FINESTEERING,2319,305225.050,02000800,10a2,17139;SOL_COMPUTED,INS_RTKFIXED,0.000,0.000,1.3501,129.151925,-0.0031,0*a5d2fd08
#BESTVELA,FILE,0,33.5,FINESTEERING,2319,305225.100,02000800,10a2,17139;SOL_COMPUTED,INS_RTKFIXED,0.000,0.000,1.3712,129.004294,-0.0143,0*84d5355a
#BESTVELA,FILE,0,36.5,FINESTEERING,2319,305225.150,02000800,10a2,17139;SOL_COMPUTED,INS_RTKFIXED,0.000,0.000,1.4169,128.253207,0.0159,0*4f81cb45
#BESTVELA,FILE,0,36.5,FINESTEERING,2319,305225.200,02000800,10a2,17139;SOL_COMPUTED,INS_RTKFIXED,0.000,0.000,1.4437,129.788566,-0.0193,0*5e08e3d4
#BESTVELA,FILE,0,36.5,FINESTEERING,2319,305225.250,02000800,10a2,17139;SOL_COMPUTED,INS_RTKFIXED,0.000,0.000,1.4930,128.991819,-0.0171,0*4934cee6
#BESTVELA,FILE,0,36.5,FINESTEERING,2319,305225.300,02000800,10a2,17139;SOL_COMPUTED,INS_RTKFIXED,0.000,0.000,1.5407,129.280881,0.0012,0*428e1bf3
#BESTVELA,FILE,0,36.5,FINESTEERING,2319,305225.350,02000800,10a2,17139;SOL_COMPUTED,INS_RTKFIXED,0.000,0.000,1.5925,128.740265,-0.0114,0*7e87cbfc
#BESTVELA,FILE,0,36.5,FINESTEERING,2319,305225.400,02000800,10a2,17139;SOL_COMPUTED,INS_RTKFIXED,0.000,0.000,1.6101,127.919250,0.0061,0*ec4ae12c
#BESTVELA,FILE,0,36.5,FINESTEERING,2319,305225.450,02000000,10a2,17139;SOL_COMPUTED,INS_RTKFIXED,0.000,0.000,1.6521,127.544851,0.0125,0*b100cc80
#BESTVELA,FILE,0,36.5,FINESTEERING,2319,305225.500,02000000,10a2,17139;SOL_COMPUTED,INS_RTKFIXED,0.000,0.000,1.6735,125.806204,0.0119,0*4e3cf11a
#BESTVELA,FILE,0,36.5,FINESTEERING,2319,305225.550,02000000,10a2,17139;SOL_COMPUTED,INS_RTKFIXED,0.000,0.000,1.7374,127.012888,0.0090,0*806ae68d
#BESTVELA,FILE,0,36.5,FINESTEERING,2319,305225.600,02000000,10a2,17139;SOL_COMPUTED,INS_RTKFIXED,0.000,0.000,1.7691,125.822552,0.0044,0*02af9c99
#BESTVELA,FILE,0,36.5,FINESTEERING,2319,305225.650,02000000,10a2,17139;SOL_COMPUTED,INS_RTKFIXED,0.000,0.000,1.8179,125.250546,-0.0100,0*e9eca56c
#BESTVELA,FILE,0,36.5,FINESTEERING,2319,305225.700,02000000,10a2,17139;SOL_COMPUTED,INS_RTKFIXED,0.000,0.000,1.8636,123.855615,-0.0199,0*03914962
#BESTVELA,FILE,0,36.5,FINESTEERING,2319,305225.750,02000000,10a2,17139;SOL_COMPUTED,INS_RTKFIXED,0.000,0.000,1.8891,123.660289,-0.0065,0*b4b917c2
#BESTVELA,FILE,0,36.5,FINESTEERING,2319,305225.800,02000000,10a2,17139;SOL_COMPUTED,INS_RTKFIXED,0.000,0.000,1.9338,123.294915,-0.0020,0*1bc78a1a
#BESTVELA,FILE,0,36.5,FINESTEERING,2319,305225.850,02000000,10a2,17139;SOL_COMPUTED,INS_RTKFIXED,0.000,0.000,1.9541,123.342172,0.0220,0*e9b75d6f
#BESTVELA,FILE,0,36.5,FINESTEERING,2319,305225.900,02000000,10a2,17139;SOL_COMPUTED,INS_RTKFIXED,0.000,0.000,1.9979,123.497855,-0.0238,0*5eb61908
#BESTVELA,FILE,0,36.5,FINESTEERING,2319,305225.950,02000000,10a2,17139;SOL_COMPUTED,INS_RTKFIXED,0.000,0.000,2.0714,122.814996,0.0352,0*b787e6f3
#BESTVELA,FILE,0,36.5,FINESTEERING,2319,305226.000,02000000,10a2,17139;SOL_COMPUTED,INS_RTKFIXED,0.000,0.000,2.1138,123.088783,0.0224,0*d9c24408
#BESTVELA,FILE,0,36.5,FINESTEERING,2319,305226.050,02000000,10a2,17139;SOL_COMPUTED,INS_RTKFIXED,0.000,0.000,2.1523,122.344152,0.0616,0*ee8e1adc
#BESTVELA,FILE,0,26.5,FINESTEERING,2319,305226.100,02000000,10a2,17139;SOL_COMPUTED,INS_RTKFIXED,0.000,0.000,2.2309,121.451218,0.0573,0*5acbe3cd
#BESTVELA,FILE,0,26.5,FINESTEERING,2319,305226.150,02000000,10a2,17139;SOL_COMPUTED,INS_RTKFIXED,0.000,0.000,2.2395,119.920232,0.0733,0*461e152d
#BESTVELA,FILE,0,26.5,FINESTEERING,2319,305226.200,02000000,10a2,17139;SOL_COMPUTED,INS_RTKFIXED,0.000,0.000,2.2988,120.337943,0.0406,0*73eb7edc
#BESTVELA,FILE,0,26.5,FINESTEERING,2319,305226.250,02000000,10a2,17139;SOL_COMPUTED,INS_RTKFIXED,0.000,0.000,2.3311,120.232780,0.0120,0*b6942d13
#BESTVELA,FILE,0,26.5,FINESTEERING,2319,305226.300,02000000,10a2,17139;SOL_COMPUTED,INS_RTKFIXED,0.000,0.000,2.3780,120.126885,0.0103,0*d71f01de
#BESTVELA,FILE,0,26.5,FINESTEERING,2319,305226.350,02000000,10a2,17139;SOL_COMPUTED,INS_RTKFIXED,0.000,0.000,2.4231,118.787032,-0.0132,0*c9535016
#BESTVELA,FILE,0,26.5,FINESTEERING,2319,305226.400,02000000,10a2,17139;SOL_COMPUTED,INS_RTKFIXED,0.000,0.000,2.4557,118.564411,-0.0057,0*ee07191c
#BESTVELA,FILE,0,26.5,FINESTEERING,2319,305226.450,02000000,10a2,17139;SOL_COMPUTED,INS_RTKFIXED,0.000,0.000,2.5030,118.346136,-0.0101,0*3478d18b
#BESTVELA,FILE,0,26.5,FINESTEERING,2319,305226.500,02000000,10a2,17139;SOL_COMPUTED,INS_RTKFIXED,0.000,0.000,2.5914,119.158506,0.0052,0*cd11856c
#BESTVELA,FILE,0,26.5,FINESTEERING,2319,305226.550,02000000,10a2,17139;SOL_COMPUTED,INS_RTKFIXED,0.000,0.000,2.5591,118.500969,0.0309,0*3debabf7
#BESTVELA,FILE,0,26.5,FINESTEERING,2319,305226.600,02000000,10a2,17139;SOL_COMPUTED,INS_RTKFIXED,0.000,0.000,2.6730,119.160305,0.0227,0*7f2e496f
#BESTVELA,FILE,0,26.5,FINESTEERING,2319,305226.650,02000000,10a2,17139;SOL_COMPUTED,INS_RTKFIXED,0.000,0.000,2.6647,117.684388,0.0320,0*39ec419e
#BESTVELA,FILE,0,26.5,FINESTEERING,2319,305226.700,02000000,10a2,17139;SOL_COMPUTED,INS_RTKFIXED,0.000,0.000,2.7226,119.243435,0.0062,0*803e0558
#BESTVELA,FILE,0,26.5,FINESTEERING,2319,305226.750,02000000,10a2,17139;SOL_COMPUTED,INS_RTKFIXED,0.000,0.000,2.7245,117.873123,-0.0024,0*ae7baa13
#BESTVELA,FILE,0,26.5,FINESTEERING,2319,305226.800,02000000,10a2,17139;SOL_COMPUTED,INS_RTKFIXED,0.000,0.000,2.7662,117.611673,-0.0471,0*2e05d247
#BESTVELA,FILE,0,26.5,FINESTEERING,2319,305226.850,02000000,10a2,17139;SOL_COMPUTED,INS_RTKFIXED,0.000,0.000,2.8184,116.428737,-0.0313,0*9c3a4fae
#BESTVELA,FILE,0,26.5,FINESTEERING,2319,305226.900,02000000,10a2,17139;SOL_COMPUTED,INS_RTKFIXED,0.000,0.000,2.8363,116.951614,-0.0647,0*1653cb8f
#BESTVELA,FILE,0,26.5,FINESTEERING,2319,305226.950,02000000,10a2,17139;SOL_COMPUTED,INS_RTKFIXED,0.000,0.000,2.9284,116.268896,-0.0300,0*6a4d2c2f
#BESTVELA,FILE,0,26.5,FINESTEERING,2319,305227.000,02000000,10a2,17139;SOL_COMPUTED,INS_RTKFIXED,0.000,0.000,2.9491,116.040256,-0.0504,0*412c9798
#BESTVELA,FILE,0,26.5,FINESTEERING,2319,305227.050,02000000,10a2,17139;SOL_COMPUTED,INS_RTKFIXED,0.000,0.000,2.9847,115.811323,-0.0367,0*87c89c19
#BESTVELA,FILE,0,26.5,FINESTEERING,2319,305227.100,02000000,10a2,17139;SOL_COMPUTED,INS_RTKFIXED,0.000,0.000,3.0622,115.779768,-0.0595,0*b85a26ca
#BESTVELA,FILE,0,29.0,FINESTEERING,2319,305227.150,02000000,10a2,17139;SOL_COMPUTED,INS_RTKFIXED,0.000,0.000,3.0428,114.589218,-0.0190,0*53292a27
#BESTVELA,FILE,0,29.0,FINESTEERING,2319,305227.200,02000000,10a2,17139;SOL_COMPUTED,INS_RTKFIXED,0.000,0.000,3.1263,116.065076,-0.0950,0*a6a7ea17
#BESTVELA,FILE,0,29.0,FINESTEERING,2319,305227.250,02000000,10a2,17139;SOL_COMPUTED,INS_RTKFIXED,0.000,0.000,3.1607,115.367462,-0.0429,0*0e18c4cf
#BESTVELA,FILE,0,29.0,FINESTEERING,2319,305227.300,02000000,10a2,17139;SOL_COMPUTED,INS_RTKFIXED,0.000,0.000,3.2063,114.767324,-0.0849,0*c0067ddd
#BESTVELA,FILE,0,29.0,FINESTEERING,2319,305227.350,02000000,10a2,17139;SOL_COMPUTED,INS_RTKFIXED,0.000,0.000,3.2225,114.023567,-0.0808,0*62b94933
#BESTVELA,FILE,0,29.0,FINESTEERING,2319,305227.400,02000000,10a2,17139;SOL_COMPUTED,INS_RTKFIXED,0.000,0.000,3.2644,113.660024,-0.0842,0*84a476c7
#BESTVELA,FILE,0,29.0,FINESTEERING,2319,305227.450,02000000,10a2,17139;SOL_COMPUTED,INS_RTKFIXED,0.000,0.000,3.2513,112.984839,-0.0631,0*4e1968e5
#BESTVELA,FILE,0,29.0,FINESTEERING,2319,305227.500,02000000,10a2,17139;SOL_COMPUTED,INS_RTKFIXED,0.000,0.000,3.2788,112.912608,-0.0604,0*ed76b5b0
#BESTVELA,FILE,0,29.0,FINESTEERING,2319,305227.550,02000000,10a2,17139;SOL_COMPUTED,INS_RTKFIXED,0.000,0.000,3.3732,112.098516,-0.0022,0*ef0b8ce5
#BESTVELA,FILE,0,29.0,FINESTEERING,2319,305227.600,02000000,10a2,17139;SOL_COMPUTED,INS_RTKFIXED,0.000,0.000,3.3912,111.427590,0.0092,0*c0d2e546
#BESTVELA,FILE,0,29.0,FINESTEERING,2319,305227.650,02000000,10a2,17139;SOL_COMPUTED,INS_RTKFIXED,0.000,0.000,3.3989,111.243474,0.0022,0*4a775eb4
#BESTVELA,FILE,0,29.0,FINESTEERING,2319,305227.700,02000000,10a2,17139;SOL_COMPUTED,INS_RTKFIXED,0.000,0.000,3.4959,112.139104,-0.0555,0*32236130
#BESTVELA,FILE,0,29.0,FINESTEERING,2319,305227.750,02000000,10a2,17139;SOL_COMPUTED,INS_RTKFIXED,0.000,0.000,3.4917,111.242432,-0.0959,0*73f530bd
#BESTVELA,FILE,0,29.0,FINESTEERING,2319,305227.800,02000000,10a2,17139;SOL_COMPUTED,INS_RTKFIXED,0.000,0.000,3.4749,111.719442,-0.1627,0*4e0781ab
#BESTVELA,FILE,0,29.0,FINESTEERING,2319,305227.850,02000000,10a2,17139;SOL_COMPUTED,INS_RTKFIXED,0.000,0.000,3.5164,111.424641,-0.1513,0*b3a12f98
#BESTVELA,FILE,0,29.0,FINESTEERING,2319,305227.900,02000000,10a2,17139;SOL_COMPUTED,INS_RTKFIXED,0.000,0.000,3.5084,112.374104,-0.2151,0*bc42e5f9
#BESTVELA,FILE,0,29.0,FINESTEERING,2319,305227.950,02000000,10a2,17139;SOL_COMPUTED,INS_RTKFIXED,0.000,0.000,3.6015,112.668646,-0.1367,0*f3ce1103
#BESTVELA,FILE,0,29.0,FINESTEERING,2319,305228.000,02000000,10a2,17139;SOL_COMPUTED,INS_RTKFIXED,0.000,0.000,3.6418,111.464126,-0.1583,0*6df686a1
#BESTVELA,FILE,0,29.0,FINESTEERING,2319,305228.050,02000000,10a2,17139;SOL_COMPUTED,INS_RTKFIXED,0.000,0.000,3.6438,111.210719,-0.1058,0*f0a19336
#BESTVELA,FILE,0,29.0,FINESTEERING,2319,305228.100,02000000,10a2,17139;SOL_COMPUTED,INS_RTKFIXED,0.000,0.000,3.7086,111.654609,-0.0800,0*f56c92b3
#BESTVELA,FILE,0,32.5,FINESTEERING,2319,305228.150,02000000,10a2,17139;SOL_COMPUTED,INS_RTKFIXED,0.000,0.000,3.7654,111.098786,0.0395,0*b76d8a0d
#BESTVELA,FILE,0,32.5,FINESTEERING,2319,305228.200,02000000,10a2,17139;SOL_COMPUTED,INS_RTKFIXED,0.000,0.000,3.7953,111.019508,0.0215,0*79754114
#BESTVELA,FILE,0,32.5,FINESTEERING,2319,305228.250,02000000,10a2,17139;SOL_COMPUTED,INS_RTKFIXED,0.000,0.000,3.8253,110.353617,-0.0344,0*d47c379e
#BESTVELA,FILE,0,32.5,FINESTEERING,2319,305228.300,02000000,10a2,17139;SOL_COMPUTED,INS_RTKFIXED,0.000,0.000,3.7921,109.622454,-0.0144,0*808e8f17
#BESTVELA,FILE,0,32.5,FINESTEERING,2319,305228.350,02000000,10a2,17139;SOL_COMPUTED,INS_RTKFIXED,0.000,0.000,3.7870,109.086001,-0.0486,0*dbc06500
#BESTVELA,FILE,0,32.5,FINESTEERING,2319,305228.400,02000000,10a2,17139;SOL_COMPUTED,INS_RTKFIXED,0.000,0.000,3.8284,111.400736,-0.1376,0*0d69e1c9
#BESTVELA,FILE,0,32.5,FINESTEERING,2319,305228.450,02000000,10a2,17139;SOL_COMPUTED,INS_RTKFIXED,0.000,0.000,3.8058,111.063802,-0.1631,0*51d739d0
#BESTVELA,FILE,0,32.5,FINESTEERING,2319,305228.500,02000000,10a2,17139;SOL_COMPUTED,INS_RTKFIXED,0.000,0.000,3.8956,111.095172,-0.1368,0*d17830fc
#BESTVELA,FILE,0,32.5,FINESTEERING,2319,305228.550,02000000,10a2,17139;SOL_COMPUTED,INS_RTKFIXED,0.000,0.000,3.8657,109.362070,-0.0524,0*6944ea40
#BESTVELA,FILE,0,32.5,FINESTEERING,2319,305228.600,02000000,10a2,17139;SOL_COMPUTED,INS_RTKFIXED,0.000,0.000,4.0147,110.428900,-0.1332,0*c3673bfb
#BESTVELA,FILE,0,32.5,FINESTEERING,2319,305228.650,02000000,10a2,17139;SOL_COMPUTED,INS_RTKFIXED,0.000,0.000,3.9681,110.062390,-0.1156,0*7bb19412
#BESTVELA,FILE,0,32.5,FINESTEERING,2319,305228.700,02000000,10a2,17139;SOL_COMPUTED,INS_RTKFIXED,0.000,0.000,3.9475,110.246356,-0.1325,0*01d25a8a
#BESTVELA,FILE,0,32.5,FINESTEERING,2319,305228.750,02000000,10a2,17139;SOL_COMPUTED,INS_RTKFIXED,0.000,0.000,4.0267,110.253368,-0.0782,0*c0a6cf7a
#BESTVELA,FILE,0,32.5,FINESTEERING,2319,305228.800,02000000,10a2,17139;SOL_COMPUTED,INS_RTKFIXED,0.000,0.000,3.9968,109.111435,-0.1130,0*bdf8cb38
#BESTVELA,FILE,0,32.5,FINESTEERING,2319,305228.850,02000000,10a2,17139;SOL_COMPUTED,INS_RTKFIXED,0.000,0.000,3.9351,109.975261,-0.1150,0*58506e7d
#BESTVELA,FILE,0,32.5,FINESTEERING,2319,305228.900,02000000,10a2,17139;SOL_COMPUTED,INS_RTKFIXED,0.000,0.000,4.0373,108.849661,-0.0276,0*ef2d9961
#BESTVELA,FILE,0,32.5,FINESTEERING,2319,305228.950,02000000,10a2,17139;SOL_COMPUTED,INS_RTKFIXED,0.000,0.000,4.0040,110.537937,-0.0561,0*ead93909
#BESTVELA,FILE,0,32.5,FINESTEERING,2319,305229.000,02000000,10a2,17139;SOL_COMPUTED,INS_RTKFIXED,0.000,0.000,4.0467,111.280773,-0.0377,0*388faa83
#BESTVELA,FILE,0,32.5,FINESTEERING,2319,305229.050,02000000,10a2,17139;SOL_COMPUTED,INS_RTKFIXED,0.000,0.000,4.1485,112.006121,-0.0793,0*a597bb7e
#BESTVELA,FILE,0,31.5,FINESTEERING,2319,305229.100,02000000,10a2,17139;SOL_COMPUTED,INS_RTKFIXED,0.000,0.000,4.1402,111.751773,-0.1132,0*2a8d8d99
#BESTVELA,FILE,0,31.5,FINESTEERING,2319,305229.150,02000000,10a2,17139;SOL_COMPUTED,INS_RTKFIXED,0.000,0.000,4.1324,111.543474,-0.0904,0*f18355e8
#BESTVELA,FILE,0,31.5,FINESTEERING,2319,305229.200,02000000,10a2,17139;SOL_COMPUTED,INS_RTKFIXED,0.000,0.000,4.1842,110.181141,-0.1252,0*908f049a
#BESTVELA,FILE,0,31.5,FINESTEERING,2319,305229.250,02000000,10a2,17139;SOL_COMPUTED,INS_RTKFIXED,0.000,0.000,4.2111,111.513560,-0.2658,0*b84c30be
#BESTVELA,FILE,0,31.5,FINESTEERING,2319,305229.300,02000000,10a2,17139;SOL_COMPUTED,INS_RTKFIXED,0.000,0.000,4.1881,110.185960,-0.0742,0*1834007e
#BESTVELA,FILE,0,31.5,FINESTEERING,2319,305229.350,02000000,10a2,17139;SOL_COMPUTED,INS_RTKFIXED,0.000,0.000,4.2846,109.964398,-0.0725,0*65e6ab56
#BESTVELA,FILE,0,31.5,FINESTEERING,2319,305229.400,02000000,10a2,17139;SOL_COMPUTED,INS_RTKFIXED,0.000,0.000,4.2808,110.131675,0.0574,0*9f8864c5
#BESTVELA,FILE,0,31.5,FINESTEERING,2319,305229.450,02000000,10a2,17139;SOL_COMPUTED,INS_RTKFIXED,0.000,0.000,4.2772,109.078846,0.1277,0*73059db6
#BESTVELA,FILE,0,31.5,FINESTEERING,2319,305229.500,02000000,10a2,17139;SOL_COMPUTED,INS_RTKFIXED,0.000,0.000,4.3781,111.217235,0.0774,0*224c9f4c
#BESTVELA,FILE,0,31.5,FINESTEERING,2319,305229.550,02000000,10a2,17139;SOL_COMPUTED,INS_RTKFIXED,0.000,0.000,4.3302,112.344112,0.0727,0*bc69e1b7
#BESTVELA,FILE,0,31.5,FINESTEERING,2319,305229.600,02000000,10a2,17139;SOL_COMPUTED,INS_RTKFIXED,0.000,0.000,4.3667,113.170350,0.0206,0*ff854d6a
#BESTVELA,FILE,0,31.5,FINESTEERING,2319,305229.650,02000000,10a2,17139;SOL_COMPUTED,INS_RTKFIXED,0.000,0.000,4.3481,112.747493,-0.0525,0*cb24db0e
#BESTVELA,FILE,0,31.5,FINESTEERING,2319,305229.700,02000000,10a2,17139;SOL_COMPUTED,INS_RTKFIXED,0.000,0.000,4.3848,112.734885,-0.0894,0*49a5e6bf
#BESTVELA,FILE,0,31.5,FINESTEERING,2319,305229.750,02000000,10a2,17139;SOL_COMPUTED,INS_RTKFIXED,0.000,0.000,4.3725,111.815643,-0.1622,0*874dd74a
#BESTVELA,FILE,0,31.5,FINESTEERING,2319,305229.800,02000000,10a2,17139;SOL_COMPUTED,INS_RTKFIXED,0.000,0.000,4.3436,111.447840,-0.1712,0*e72674f0
#BESTVELA,FILE,0,31.5,FINESTEERING,2319,305229.850,02000000,10a2,17139;SOL_COMPUTED,INS_RTKFIXED,0.000,0.000,4.4131,110.207961,-0.0549,0*3ba69ef6
#BESTVELA,FILE,0,31.5,FINESTEERING,2319,305229.900,02000000,10a2,17139;SOL_COMPUTED,INS_RTKFIXED,0.000,0.000,4.4465,110.178520,-0.1136,0*b7aee6c6
#BESTVELA,FILE,0,31.5,FINESTEERING,2319,305229.950,02000000,10a2,17139;SOL_COMPUTED,INS_RTKFIXED,0.000,0.000,4.4351,109.361235,0.0285,0*2555d1ba
#BESTVELA,FILE,0,31.5,FINESTEERING,2319,305230.000,02000000,10a2,17139;SOL_COMPUTED,INS_RTKFIXED,0.000,0.000,4.4494,109.348483,0.1095,0*30b13b5b
#BESTVELA,FILE,0,31.5,FINESTEERING,2319,305230.050,02000000,10a2,17139;SOL_COMPUTED,INS_RTKFIXED,0.000,0.000,4.4997,110.295046,0.1180,0*0c48618d
#BESTVELA,FILE,0,29.5,FINESTEERING,2319,305230.100,02000000,10a2,17139;SOL_COMPUTED,INS_RTKFIXED,0.000,0.000,4.5043,111.378855,0.1140,0*46e4413b
#BESTVELA,FILE,0,29.5,FINESTEERING,2319,305230.150,02000000,10a2,17139;SOL_COMPUTED,INS_RTKFIXED,0.000,0.000,4.5498,112.068786,0.1176,0*06e31738
#BESTVELA,FILE,0,29.5,FINESTEERING,2319,305230.200,02000000,10a2,17139;SOL_COMPUTED,INS_RTKFIXED,0.000,0.000,4.5623,112.316178,0.0489,0*06ae7d6a
#BESTVELA,FILE,0,29.5,FINESTEERING,2319,305230.250,02000000,10a2,17139;SOL_COMPUTED,INS_RTKFIXED,0.000,0.000,4.5020,112.933704,-0.0692,0*009c0802
#BESTVELA,FILE,0,29.5,FINESTEERING,2319,305230.300,02000000,10a2,17139;SOL_COMPUTED,INS_RTKFIXED,0.000,0.000,4.4870,114.487486,-0.1874,0*e852fecc
#BESTVELA,FILE,0,29.5,FINESTEERING,2319,305230.350,02000000,10a2,17139;SOL_COMPUTED,INS_RTKFIXED,0.000,0.000,4.4958,115.245154,-0.1737,0*22c30791
#BESTVELA,FILE,0,29.5,FINESTEERING,2319,305230.400,02000000,10a2,17139;SOL_COMPUTED,INS_RTKFIXED,0.000,0.000,4.5125,115.286385,-0.1871,0*ea0511e4
#BESTVELA,FILE,0,29.5,FINESTEERING,2319,305230.450,02000000,10a2,17139;SOL_COMPUTED,INS_RTKFIXED,0.000,0.000,4.4954,113.255733,-0.1111,0*d045fd22
#BESTVELA,FILE,0,29.5,FINESTEERING,2319,305230.500,02000000,10a2,17139;SOL_COMPUTED,INS_RTKFIXED,0.000,0.000,4.5687,113.041259,-0.0590,0*4e48c82a
#BESTVELA,FILE,0,29.5,FINESTEERING,2319,305230.550,02000000,10a2,17139;SOL_COMPUTED,INS_RTKFIXED,0.000,0.000,4.5793,112.415660,0.1212,0*a31cb696
#BESTVELA,FILE,0,29.5,FINESTEERING,2319,305230.600,02000000,10a2,17139;SOL_COMPUTED,INS_RTKFIXED,0.000,0.000,4.6484,112.120621,0.1710,0*ba4bb0b6
#BESTVELA,FILE,0,29.5,FINESTEERING,2319,305230.650,02000000,10a2,17139;SOL_COMPUTED,INS_RTKFIXED,0.000,0.000,4.6458,112.970490,0.1507,0*a4d15953
#BESTVELA,FILE,0,29.5,FINESTEERING,2319,305230.700,02000000,10a2,17139;SOL_COMPUTED,INS_RTKFIXED,0.000,0.000,4.6355,113.465027,0.0413,0*2a1cb914
#BESTVELA,FILE,0,29.5,FINESTEERING,2319,305230.750,02000000,10a2,17139;SOL_COMPUTED,INS_RTKFIXED,0.000,0.000,4.6551,113.703463,0.0404,0*ec286fc7
#BESTVELA,FILE,0,29.5,FINESTEERING,2319,305230.800,02000000,10a2,17139;SOL_COMPUTED,INS_RTKFIXED,0.000,0.000,4.5930,114.336244,0.0162,0*f6dbaa80
#BESTVELA,FILE,0,29.5,FINESTEERING,2319,305230.850,02000000,10a2,17139;SOL_COMPUTED,INS_RTKFIXED,0.000,0.000,4.6636,115.380022,0.0001,0*22c4d95c
#BESTVELA,FILE,0,29.5,FINESTEERING,2319,305230.900,02000000,10a2,17139;SOL_COMPUTED,INS_RTKFIXED,0.000,0.000,4.6748,116.052042,-0.0226,0*626af71f
#BESTVELA,FILE,0,29.5,FINESTEERING,2319,305230.950,02000000,10a2,17139;SOL_COMPUTED,INS_RTKFIXED,0.000,0.000,4.6853,116.992893,-0.0006,0*04f3c2ec
#BESTVELA,FILE,0,29.5,FINESTEERING,2319,305231.000,02000000,10a2,17139;SOL_COMPUTED,INS_RTKFIXED,0.000,0.000,4.7216,117.341215,0.0155,0*732424ad
#BESTVELA,FILE,0,29.5,FINESTEERING,2319,305231.050,02000000,10a2,17139;SOL_COMPUTED,INS_RTKFIXED,0.000,0.000,4.6648,116.894979,0.0306,0*2245e133
#BESTVELA,FILE,0,29.5,FINESTEERING,2319,305231.100,02000000,10a2,17139;SOL_COMPUTED,INS_RTKFIXED,0.000,0.000,4.6892,117.897228,-0.0434,0*de03f0cc
#BESTVELA,FILE,0,29.5,FINESTEERING,2319,305231.150,02000000,10a2,17139;SOL_COMPUTED,INS_RTKFIXED,0.000,0.000,4.7513,118.223486,0.0305,0*7d5f21ac
#BESTVELA,FILE,0,29.5,FINESTEERING,2319,305231.200,02000000,10a2,17139;SOL_COMPUTED,INS_RTKFIXED,0.000,0.000,4.7630,118.204677,0.0321,0*703def7b
#BESTVELA,FILE,0,29.5,FINESTEERING,2319,305231.250,02000000,10a2,17139;SOL_COMPUTED,INS_RTKFIXED,0.000,0.000,4.7258,117.353392,0.0613,0*237c39d3
#BESTVELA,FILE,0,29.5,FINESTEERING,2319,305231.300,02000000,10a2,17139;SOL_COMPUTED,INS_RTKFIXED,0.000,0.000,4.8328,118.173134,0.1052,0*58c04220
#BESTVELA,FILE,0,29.5,FINESTEERING,2319,305231.350,02000000,10a2,17139;SOL_COMPUTED,INS_RTKFIXED,0.000,0.000,4.8415,117.833121,0.0862,0*af28b655
#BESTVELA,FILE,0,29.5,FINESTEERING,2319,305231.400,02000000,10a2,17139;SOL_COMPUTED,INS_RTKFIXED,0.000,0.000,4.8247,118.177517,0.0774,0*26606bf3
#BESTVELA,FILE,0,29.5,FINESTEERING,2319,305231.450,02000000,10a2,17139;SOL_COMPUTED,INS_RTKFIXED,0.000,0.000,4.8942,118.729740,0.1060,0*4f430e2d
#BESTVELA,FILE,0,29.5,FINESTEERING,2319,305231.500,02000000,10a2,17139;SOL_COMPUTED,INS_RTKFIXED,0.000,0.000,4.8696,119.787885,-0.0425,0*607c221b
#BESTVELA,FILE,0,29.5,FINESTEERING,2319,305231.550,02000000,10a2,17139;SOL_COMPUTED,INS_RTKFIXED,0.000,0.000,4.8114,119.874165,0.0384,0*8f785026
#BESTVELA,FILE,0,29.5,FINESTEERING,2319,305231.600,02000000,10a2,17139;SOL_COMPUTED,INS_RTKFIXED,0.000,0.000,4.9177,120.759433,0.0097,0*e82dc426
#BESTVELA,FILE,0,29.5,FINESTEERING,2319,305231.650,02000000,10a2,17139;SOL_COMPUTED,INS_RTKFIXED,0.000,0.000,4.8906,121.436912,0.0284,0*447afe6a
#BESTVELA,FILE,0,29.5,FINESTEERING,2319,305231.700,02000000,10a2,17139;SOL_COMPUTED,INS_RTKFIXED,0.000,0.000,4.9111,121.356752,0.0497,0*94e77d21
#BESTVELA,FILE,0,29.5,FINESTEERING,2319,305231.750,02000000,10a2,17139;SOL_COMPUTED,INS_RTKFIXED,0.000,0.000,4.9253,121.695604,0.1167,0*35768e87
#BESTVELA,FILE,0,29.5,FINESTEERING,2319,305231.800,02000000,10a2,17139;SOL_COMPUTED,INS_RTKFIXED,0.000,0.000,4.9674,122.199285,0.0763,0*eda6c116
#BESTVELA,FILE,0,29.5,FINESTEERING,2319,305231.850,02000000,10a2,17139;SOL_COMPUTED,INS_RTKFIXED,0.000,0.000,4.9262,123.166356,-0.0042,0*4a5253c1
#BESTVELA,FILE,0,29.5,FINESTEERING,2319,305231.900,02000000,10a2,17139;SOL_COMPUTED,INS_RTKFIXED,0.000,0.000,4.9217,123.817490,-0.0017,0*ba536cea
#BESTVELA,FILE,0,29.5,FINESTEERING,2319,305231.950,02000000,10a2,17139;SOL_COMPUTED,INS_RTKFIXED,0.000,0.000,4.9304,124.317271,-0.0641,0*c560ab9f
#BESTVELA,FILE,0,29.5,FINESTEERING,2319,305232.000,02000000,10a2,17139;SOL_COMPUTED,INS_RTKFIXED,0.000,0.000,4.9595,124.451066,-0.0210,0*dca0eba6
#BESTVELA,FILE,0,29.5,FINESTEERING,2319,305232.050,02000000,10a2,17139;SOL_COMPUTED,INS_RTKFIXED,0.000,0.000,4.9131,125.021144,-0.0231,0*b5e1b111
#BESTVELA,FILE,0,29.5,FINESTEERING,2319,305232.100,02000000,10a2,17139;SOL_COMPUTED,INS_RTKFIXED,0.000,0.000,4.9476,125.663271,-0.0642,0*664b2c78
#BESTVELA,FILE,0,31.0,FINESTEERING,2319,305232.150,02000000,10a2,17139;SOL_COMPUTED,INS_RTKFIXED,0.000,0.000,4.9150,126.061831,-0.0208,0*f144e4a9
#BESTVELA,FILE,0,31.0,FINESTEERING,2319,305232.200,02000000,10a2,17139;SOL_COMPUTED,INS_RTKFIXED,0.000,0.000,4.9511,126.576886,0.0323,0*58386f29
#BESTVELA,FILE,0,31.0,FINESTEERING,2319,305232.250,02000000,10a2,17139;SOL_COMPUTED,INS_RTKFIXED,0.000,0.000,4.9589,127.390694,0.0150,0*a3027f77
#BESTVELA,FILE,0,31.0,FINESTEERING,2319,305232.300,02000000,10a2,17139;SOL_COMPUTED,INS_RTKFIXED,0.000,0.000,4.9613,127.606177,0.0363,0*003b26b4
#BESTVELA,FILE,0,31.0,FINESTEERING,2319,305232.350,02000000,10a2,17139;SOL_COMPUTED,INS_RTKFIXED,0.000,0.000,4.9999,128.878414,0.0295,0*37a1da84
#BESTVELA,FILE,0,31.0,FINESTEERING,2319,305232.400,02000000,10a2,17139;SOL_COMPUTED,INS_RTKFIXED,0.000,0.000,5.0173,129.559647,-0.0064,0*a0c3e6b8
#BESTVELA,FILE,0,31.0,FINESTEERING,2319,305232.450,02000000,10a2,17139;SOL_COMPUTED,INS_RTKFIXED,0.000,0.000,4.9735,129.779110,-0.0644,0*907af42d
#BESTVELA,FILE,0,31.0,FINESTEERING,2319,305232.500,02000000,10a2,17139;SOL_COMPUTED,INS_RTKFIXED,0.000,0.000,5.0066,130.514182,-0.0329,0*4e73e7c1
#BESTVELA,FILE,0,31.0,FINESTEERING,2319,305232.550,02000000,10a2,17139;SOL_COMPUTED,INS_RTKFIXED,0.000,0.000,5.0168,130.504894,-0.0094,0*0242a9f4
#BESTVELA,FILE,0,31.0,FINESTEERING,2319,305232.600,02000000,10a2,17139;SOL_COMPUTED,INS_RTKFIXED,0.000,0.000,5.0085,131.711314,-0.0284,0*95282fb4
#BESTVELA,FILE,0,31.0,FINESTEERING,2319,305232.650,02000000,10a2,17139;SOL_COMPUTED,INS_RTKFIXED,0.000,0.000,5.0954,131.517068,0.0736,0*2544b169
#BESTVELA,FILE,0,31.0,FINESTEERING,2319,305232.700,02000000,10a2,17139;SOL_COMPUTED,INS_RTKFIXED,0.000,0.000,5.0348,131.957321,0.1256,0*89cb689b
#BESTVELA,FILE,0,31.0,FINESTEERING,2319,305232.750,02000000,10a2,17139;SOL_COMPUTED,INS_RTKFIXED,0.000,0.000,5.0853,133.294655,0.0885,0*958d9e01
#BESTVELA,FILE,0,31.0,FINESTEERING,2319,305232.800,02000000,10a2,17139;SOL_COMPUTED,INS_RTKFIXED,0.000,0.000,5.0394,134.869058,0.0495,0*8676d5c1
#BESTVELA,FILE,0,31.0,FINESTEERING,2319,305232.850,02000000,10a2,17139;SOL_COMPUTED,INS_RTKFIXED,0.000,0.000,4.9775,134.676971,0.0493,0*7bbc4b3b
#BESTVELA,FILE,0,31.0,FINESTEERING,2319,305232.900,02000000,10a2,17139;SOL_COMPUTED,INS_RTKFIXED,0.000,0.000,4.9720,136.164247,0.0244,0*b22cf6f0
#BESTVELA,FILE,0,31.0,FINESTEERING,2319,305232.950,02000000,10a2,17139;SOL_COMPUTED,INS_RTKFIXED,0.000,0.000,4.9547,137.266766,-0.0165,0*d7cf7643
#BESTVELA,FILE,0,31.0,FINESTEERING,2319,305233.000,02000000,10a2,17139;SOL_COMPUTED,INS_RTKFIXED,0.000,0.000,4.9718,139.057537,-0.0659,0*2b85ca43
#BESTVELA,FILE,0,31.0,FINESTEERING,2319,305233.050,02000000,10a2,17139;SOL_COMPUTED,INS_RTKFIXED,0.000,0.000,4.9982,139.396887,-0.0775,0*cf32acac
#BESTVELA,FILE,0,30.5,FINESTEERING,2319,305233.100,02000000,10a2,17139;SOL_COMPUTED,INS_RTKFIXED,0.000,0.000,5.0032,140.398920,-0.0942,0*40ae3070
#BESTVELA,FILE,0,30.5,FINESTEERING,2319,305233.150,02000000,10a2,17139;SOL_COMPUTED,INS_RTKFIXED,0.000,0.000,5.0775,141.498993,-0.1038,0*6b4576c8
#BESTVELA,FILE,0,30.5,FINESTEERING,2319,305233.200,02000000,10a2,17139;SOL_COMPUTED,INS_RTKFIXED,0.000,0.000,5.0508,142.549639,0.0583,0*65609bef
#BESTVELA,FILE,0,30.5,FINESTEERING,2319,305233.250,02000000,10a2,17139;SOL_COMPUTED,INS_RTKFIXED,0.000,0.000,5.1600,144.139976,0.0824,0*2969f461
#BESTVELA,FILE,0,30.5,FINESTEERING,2319,305233.300,02000000,10a2,17139;SOL_COMPUTED,INS_RTKFIXED,0.000,0.000,5.1891,145.461778,0.1499,0*99f88a8e
#BESTVELA,FILE,0,30.5,FINESTEERING,2319,305233.350,02000000,10a2,17139;SOL_COMPUTED,INS_RTKFIXED,0.000,0.000,5.2169,146.256435,0.1881,0*e54a01ee
#BESTVELA,FILE,0,30.5,FINESTEERING,2319,305233.400,02000000,10a2,17139;SOL_COMPUTED,INS_RTKFIXED,0.000,0.000,5.2136,146.692879,0.1602,0*5e7a28eb
#BESTVELA,FILE,0,30.5,FINESTEERING,2319,305233.450,02000000,10a2,17139;SOL_COMPUTED,INS_RTKFIXED,0.000,0.000,5.1989,148.109544,0.1039,0*4dc0ef73
#BESTVELA,FILE,0,30.5,FINESTEERING,2319,305233.500,02000000,10a2,17139;SOL_COMPUTED,INS_RTKFIXED,0.000,0.000,5.1988,147.816724,0.1017,0*5cd34237
#BESTVELA,FILE,0,30.5,FINESTEERING,2319,305233.550,02000000,10a2,17139;SOL_COMPUTED,INS_RTKFIXED,0.000,0.000,5.1869,148.805740,0.0131,0*bbf30ae2
#BESTVELA,FILE,0,30.5,FINESTEERING,2319,305233.600,02000000,10a2,17139;SOL_COMPUTED,INS_RTKFIXED,0.000,0.000,5.1893,150.252661,0.0144,0*09008d7b
#BESTVELA,FILE,0,30.5,FINESTEERING,2319,305233.650,02000000,10a2,17139;SOL_COMPUTED,INS_RTKFIXED,0.000,0.000,5.1381,151.928277,-0.0677,0*14f2bb47
#BESTVELA,FILE,0,30.5,FINESTEERING,2319,305233.700,02000000,10a2,17139;SOL_COMPUTED,INS_RTKFIXED,0.000,0.000,5.1778,153.091889,-0.1039,0*6152cd0e
#BESTVELA,FILE,0,30.5,FINESTEERING,2319,305233.750,02000000,10a2,17139;SOL_COMPUTED,INS_RTKFIXED,0.000,0.000,5.1745,154.103413,-0.0553,0*207a5ec9
#BESTVELA,FILE,0,30.5,FINESTEERING,2319,305233.800,02000000,10a2,17139;SOL_COMPUTED,INS_RTKFIXED,0.000,0.000,5.2058,155.952342,-0.0443,0*7d197af0
#BESTVELA,FILE,0,30.5,FINESTEERING,2319,305233.850,02000000,10a2,17139;SOL_COMPUTED,INS_RTKFIXED,0.000,0.000,5.1733,157.157837,-0.0689,0*ea5f6513
#BESTVELA,FILE,0,30.5,FINESTEERING,2319,305233.900,02000000,10a2,17139;SOL_COMPUTED,INS_RTKFIXED,0.000,0.000,5.2309,158.388065,-0.0506,0*281ed759
#BESTVELA,FILE,0,30.5,FINESTEERING,2319,305233.950,02000000,10a2,17139;SOL_COMPUTED,INS_RTKFIXED,0.000,0.000,5.2460,158.668877,0.0044,0*1ce4130e
#BESTVELA,FILE,0,30.5,FINESTEERING,2319,305234.000,02000000,10a2,17139;SOL_COMPUTED,INS_RTKFIXED,0.000,0.000,5.2869,159.734940,-0.0681,0*c22794c0
#BESTVELA,FILE,0,30.5,FINESTEERING,2319,305234.050,02000000,10a2,17139;SOL_COMPUTED,INS_RTKFIXED,0.000,0.000,5.2459,160.905899,-0.0651,0*e1d3bcf3
#BESTVELA,FILE,0,30.5,FINESTEERING,2319,305234.100,02000000,10a2,17139;SOL_COMPUTED,INS_RTKFIXED,0.000,0.000,5.2913,161.798544,-0.0478,0*38789d1f
#BESTVELA,FILE,0,30.5,FINESTEERING,2319,305234.150,02000000,10a2,17139;SOL_COMPUTED,INS_RTKFIXED,0.000,0.000,5.3322,162.929138,0.0199,0*17935fd7
#BESTVELA,FILE,0,30.5,FINESTEERING,2319,305234.200,02000000,10a2,17139;SOL_COMPUTED,INS_RTKFIXED,0.000,0.000,5.3814,163.315062,0.0259,0*d78b0dff
#BESTVELA,FILE,0,30.5,FINESTEERING,2319,305234.250,02000000,10a2,17139;SOL_COMPUTED,INS_RTKFIXED,0.000,0.000,5.3735,164.719708,0.0925,0*3fddb814
#BESTVELA,FILE,0,30.5,FINESTEERING,2319,305234.300,02000000,10a2,17139;SOL_COMPUTED,INS_RTKFIXED,0.000,0.000,5.3856,165.451945,0.0238,0*debb27c6
#BESTVELA,FILE,0,30.5,FINESTEERING,2319,305234.350,02000000,10a2,17139;SOL_COMPUTED,INS_RTKFIXED,0.000,0.000,5.3470,165.810008,0.0411,0*0270f52f
#BESTVELA,FILE,0,30.5,FINESTEERING,2319,305234.400,02000000,10a2,17139;SOL_COMPUTED,INS_RTKFIXED,0.000,0.000,5.3706,167.294837,0.0193,0*cc266f0f
#BESTVELA,FILE,0,30.5,FINESTEERING,2319,305234.450,02000000,10a2,17139;SOL_COMPUTED,INS_RTKFIXED,0.000,0.000,5.3161,168.545828,-0.0628,0*30481886
#BESTVELA,FILE,0,30.5,FINESTEERING,2319,305234.500,02000000,10a2,17139;SOL_COMPUTED,INS_RTKFIXED,0.000,0.000,5.3097,168.899279,-0.0782,0*e188dc91
#BESTVELA,FILE,0,30.5,FINESTEERING,2319,305234.550,02000000,10a2,17139;SOL_COMPUTED,INS_RTKFIXED,0.000,0.000,5.3499,169.871003,-0.1234,0*87be43f6
#BESTVELA,FILE,0,30.5,FINESTEERING,2319,305234.600,02000000,10a2,17139;SOL_COMPUTED,INS_RTKFIXED,0.000,0.000,5.3258,170.253855,-0.1829,0*1dd09a7b
#BESTVELA,FILE,0,30.5,FINESTEERING,2319,305234.650,02000000,10a2,17139;SOL_COMPUTED,INS_RTKFIXED,0.000,0.000,5.4087,172.044442,-0.1109,0*4f69a1e4
#BESTVELA,FILE,0,30.5,FINESTEERING,2319,305234.700,02000000,10a2,17139;SOL_COMPUTED,INS_RTKFIXED,0.000,0.000,5.4245,173.237184,-0.0327,0*6173adbc
#BESTVELA,FILE,0,30.5,FINESTEERING,2319,305234.750,02000000,10a2,17139;SOL_COMPUTED,INS_RTKFIXED,0.000,0.000,5.4856,174.601172,0.0829,0*d6704dd8
#BESTVELA,FILE,0,30.5,FINESTEERING,2319,305234.800,02000000,10a2,17139;SOL_COMPUTED,INS_RTKFIXED,0.000,0.000,5.5270,175.374815,0.1124,0*2f88a223
#BESTVELA,FILE,0,30.5,FINESTEERING,2319,305234.850,02000000,10a2,17139;SOL_COMPUTED,INS_RTKFIXED,0.000,0.000,5.5512,176.128282,0.1657,0*038c0cf9
#BESTVELA,FILE,0,30.5,FINESTEERING,2319,305234.900,02000000,10a2,17139;SOL_COMPUTED,INS_RTKFIXED,0.000,0.000,5.6297,176.390003,0.1494,0*0fc30c50
#BESTVELA,FILE,0,30.5,FINESTEERING,2319,305234.950,02000000,10a2,17139;SOL_COMPUTED,INS_RTKFIXED,0.000,0.000,5.5495,177.557705,0.0905,0*ed1332bd
#BESTVELA,FILE,0,30.5,FINESTEERING,2319,305235.000,02000000,10a2,17139;SOL_COMPUTED,INS_RTKFIXED,0.000,0.000,5.5440,178.321908,-0.0057,0*8635f2dd
#BESTVELA,FILE,0,30.5,FINESTEERING,2319,305235.050,02000000,10a2,17139;SOL_COMPUTED,INS_RTKFIXED,0.000,0.000,5.4954,178.849192,-0.0290,0*56c718a1
#BESTVELA,FILE,0,30.5,FINESTEERING,2319,305235.100,02000000,10a2,17139;SOL_COMPUTED,INS_RTKFIXED,0.000,0.000,5.4806,179.340544,-0.0630,0*e2417976
#BESTVELA,FILE,0,31.5,FINESTEERING,2319,305235.150,02000000,10a2,17139;SOL_COMPUTED,INS_RTKFIXED,0.000,0.000,5.4821,179.936628,-0.0818,0*5f6ec4c9
#BESTVELA,FILE,0,31.5,FINESTEERING,2319,305235.200,02000000,10a2,17139;SOL_COMPUTED,INS_RTKFIXED,0.000,0.000,5.4951,180.474330,-0.0254,0*fe52e4fb
#BESTVELA,FILE,0,31.5,FINESTEERING,2319,305235.250,02000000,10a2,17139;SOL_COMPUTED,INS_RTKFIXED,0.000,0.000,5.5142,181.651524,0.0095,0*406ebe4e
#BESTVELA,FILE,0,31.5,FINESTEERING,2319,305235.300,02000000,10a2,17139;SOL_COMPUTED,INS_RTKFIXED,0.000,0.000,5.5555,182.733144,-0.0257,0*bdb9a951
#BESTVELA,FILE,0,31.5,FINESTEERING,2319,305235.350,02000000,10a2,17139;SOL_COMPUTED,INS_RTKFIXED,0.000,0.000,5.5689,184.027647,0.0865,0*d56fe528
#BESTVELA,FILE,0,31.5,FINESTEERING,2319,305235.400,02000000,10a2,17139;SOL_COMPUTED,INS_RTKFIXED,0.000,0.000,5.6921,186.350703,0.0876,0*07b3589a
#BESTVELA,FILE,0,31.5,FINESTEERING,2319,305235.450,02000000,10a2,17139;SOL_COMPUTED,INS_RTKFIXED,0.000,0.000,5.6255,187.353104,0.0549,0*a7a1ea6b
#BESTVELA,FILE,0,31.5,FINESTEERING,2319,305235.500,02000000,10a2,17139;SOL_COMPUTED,INS_RTKFIXED,0.000,0.000,5.6502,188.181088,0.0361,0*7a8bea40
#BESTVELA,FILE,0,31.5,FINESTEERING,2319,305235.550,02000000,10a2,17139;SOL_COMPUTED,INS_RTKFIXED,0.000,0.000,5.6356,188.235316,0.0774,0*7eba48ac
#BESTVELA,FILE,0,31.5,FINESTEERING,2319,305235.600,02000000,10a2,17139;SOL_COMPUTED,INS_RTKFIXED,0.000,0.000,5.6795,188.509511,0.0716,0*391b6781
#BESTVELA,FILE,0,31.5,FINESTEERING,2319,305235.650,02000000,10a2,17139;SOL_COMPUTED,INS_RTKFIXED,0.000,0.000,5.6854,188.913547,0.0478,0*b400b747
#BESTVELA,FILE,0,31.5,FINESTEERING,2319,305235.700,02000000,10a2,17139;SOL_COMPUTED,INS_RTKFIXED,0.000,0.000,5.7202,189.941697,0.0601,0*7274e013
#BESTVELA,FILE,0,31.5,FINESTEERING,2319,305235.750,02000000,10a2,17139;SOL_COMPUTED,INS_RTKFIXED,0.000,0.000,5.6815,191.094614,0.0108,0*2ecba085
#BESTVELA,FILE,0,31.5,FINESTEERING,2319,305235.800,02000000,10a2,17139;SOL_COMPUTED,INS_RTKFIXED,0.000,0.000,5.6980,192.376867,0.0158,0*bb3ba04c
#BESTVELA,FILE,0,31.5,FINESTEERING,2319,305235.850,02000000,10a2,17139;SOL_COMPUTED,INS_RTKFIXED,0.000,0.000,5.7121,193.230575,0.0448,0*e9688b5f
#BESTVELA,FILE,0,31.5,FINESTEERING,2319,305235.900,02000000,10a2,17139;SOL_COMPUTED,INS_RTKFIXED,0.000,0.000,5.7211,195.904425,-0.0098,0*756befc2
#BESTVELA,FILE,0,31.5,FINESTEERING,2319,305235.950,02000000,10a2,17139;SOL_COMPUTED,INS_RTKFIXED,0.000,0.000,5.7181,196.360849,-0.0281,0*f24d3cd5
#BESTVELA,FILE,0,31.5,FINESTEERING,2319,305236.000,02000000,10a2,17139;SOL_COMPUTED,INS_RTKFIXED,0.000,0.000,5.7394,197.400087,-0.0796,0*08b7e54b
#BESTVELA,FILE,0,31.5,FINESTEERING,2319,305236.050,02000000,10a2,17139;SOL_COMPUTED,INS_RTKFIXED,0.000,0.000,5.7227,197.958451,-0.0682,0*28f59cdd
#BESTVELA,FILE,0,28.0,FINESTEERING,2319,305236.100,02000000,10a2,17139;SOL_COMPUTED,INS_RTKFIXED,0.000,0.000,5.7398,199.024677,-0.1348,0*f6cf6c87
#BESTVELA,FILE,0,28.0,FINESTEERING,2319,305236.150,02000000,10a2,17139;SOL_COMPUTED,INS_RTKFIXED,0.000,0.000,5.7440,199.091462,-0.0524,0*8e3706e5
#BESTVELA,FILE,0,28.0,FINESTEERING,2319,305236.200,02000000,10a2,17139;SOL_COMPUTED,INS_RTKFIXED,0.000,0.000,5.7746,199.669241,-0.0399,0*6ad85f17
#BESTVELA,FILE,0,28.0,FINESTEERING,2319,305236.250,02000000,10a2,17139;SOL_COMPUTED,INS_RTKFIXED,0.000,0.000,5.7824,200.460494,0.0195,0*b9500a19
#BESTVELA,FILE,0,28.0,FINESTEERING,2319,305236.300,02000000,10a2,17139;SOL_COMPUTED,INS_RTKFIXED,0.000,0.000,5.7871,200.826894,-0.0660,0*c1bbbecc
#BESTVELA,FILE,0,28.0,FINESTEERING,2319,305236.350,02000000,10a2,17139;SOL_COMPUTED,INS_RTKFIXED,0.000,0.000,5.7229,201.861586,-0.0022,0*bce0170d
#BESTVELA,FILE,0,28.0,FINESTEERING,2319,305236.400,02000000,10a2,17139;SOL_COMPUTED,INS_RTKFIXED,0.000,0.000,5.8439,203.263850,0.0279,0*dd191085
#BESTVELA,FILE,0,28.0,FINESTEERING,2319,305236.450,02000000,10a2,17139;SOL_COMPUTED,INS_RTKFIXED,0.000,0.000,5.7429,203.947526,-0.0218,0*9f34d2a8
#BESTVELA,FILE,0,28.0,FINESTEERING,2319,305236.500,02000000,10a2,17139;SOL_COMPUTED,INS_RTKFIXED,0.000,0.000,5.8079,205.254456,-0.0452,0*0d5dd53b
#BESTVELA,FILE,0,28.0,FINESTEERING,2319,305236.550,02000000,10a2,17139;SOL_COMPUTED,INS_RTKFIXED,0.000,0.000,5.7640,206.566873,-0.0877,0*dd9c1a31
#BESTVELA,FILE,0,28.0,FINESTEERING,2319,305236.600,02000000,10a2,17139;SOL_COMPUTED,INS_RTKFIXED,0.000,0.000,5.7731,206.933395,-0.0383,0*9c3c7797
#BESTVELA,FILE,0,28.0,FINESTEERING,2319,305236.650,02000000,10a2,17139;SOL_COMPUTED,INS_RTKFIXED,0.000,0.000,5.8243,206.934295,0.0344,0*beaf8549
#BESTVELA,FILE,0,28.0,FINESTEERING,2319,305236.700,02000000,10a2,17139;SOL_COMPUTED,INS_RTKFIXED,0.000,0.000,5.8278,207.553593,0.0151,0*03b76c8d
#BESTVELA,FILE,0,28.0,FINESTEERING,2319,305236.750,02000000,10a2,17139;SOL_COMPUTED,INS_RTKFIXED,0.000,0.000,5.8287,208.571931,0.1053,0*b5fa95f4
#BESTVELA,FILE,0,28.0,FINESTEERING,2319,305236.800,02000000,10a2,17139;SOL_COMPUTED,INS_RTKFIXED,0.000,0.000,5.8495,209.661996,0.0180,0*7e636e71
#BESTVELA,FILE,0,28.0,FINESTEERING,2319,305236.850,02000000,10a2,17139;SOL_COMPUTED,INS_RTKFIXED,0.000,0.000,5.8026,211.658902,0.1185,0*bf0758db
#BESTVELA,FILE,0,28.0,FINESTEERING,2319,305236.900,02000000,10a2,17139;SOL_COMPUTED,INS_RTKFIXED,0.000,0.000,5.8633,214.519691,0.0234,0*71a1c8e5
#BESTVELA,FILE,0,28.0,FINESTEERING,2319,305236.950,02000000,10a2,17139;SOL_COMPUTED,INS_RTKFIXED,0.000,0.000,5.8611,216.085050,0.0701,0*c98311e4
#BESTVELA,FILE,0,28.0,FINESTEERING,2319,305237.000,02000000,10a2,17139;SOL_COMPUTED,INS_RTKFIXED,0.000,0.000,5.8918,216.297128,0.0487,0*674f60b7
#BESTVELA,FILE,0,28.0,FINESTEERING,2319,305237.050,02000000,10a2,17139;SOL_COMPUTED,INS_RTKFIXED,0.000,0.000,5.8349,216.552646,0.0344,0*fd26a0eb
#BESTVELA,FILE,0,28.0,FINESTEERING,2319,305237.100,02000000,10a2,17139;SOL_COMPUTED,INS_RTKFIXED,0.000,0.000,5.8750,216.871395,0.0124,0*372437e9
#BESTVELA,FILE,0,32.0,FINESTEERING,2319,305237.150,02000000,10a2,17139;SOL_COMPUTED,INS_RTKFIXED,0.000,0.000,5.8589,217.664342,-0.0888,0*f6d5cc33
#BESTVELA,FILE,0,32.0,FINESTEERING,2319,305237.200,02000000,10a2,17139;SOL_COMPUTED,INS_RTKFIXED,0.000,0.000,5.8839,218.135020,0.0617,0*4dc261ae
#BESTVELA,FILE,0,32.0,FINESTEERING,2319,305237.250,02000000,10a2,17139;SOL_COMPUTED,INS_RTKFIXED,0.000,0.000,5.8906,220.040742,-0.0160,0*be1f76e3
#BESTVELA,FILE,0,32.0,FINESTEERING,2319,305237.300,02000000,10a2,17139;SOL_COMPUTED,INS_RTKFIXED,0.000,0.000,5.8543,221.050583,0.0493,0*db1e2aab
#BESTVELA,FILE,0,32.0,FINESTEERING,2319,305237.350,02000000,10a2,17139;SOL_COMPUTED,INS_RTKFIXED,0.000,0.000,5.9390,222.010816,0.0700,0*38ac0201
#BESTVELA,FILE,0,32.0,FINESTEERING,2319,305237.400,02000000,10a2,17139;SOL_COMPUTED,INS_RTKFIXED,0.000,0.000,5.8909,223.342333,0.0315,0*bd50a971
#BESTVELA,FILE,0,32.0,FINESTEERING,2319,305237.450,02000000,10a2,17139;SOL_COMPUTED,INS_RTKFIXED,0.000,0.000,5.8911,224.147077,0.0806,0*6ead944c
#BESTVELA,FILE,0,32.0,FINESTEERING,2319,305237.500,02000000,10a2,17139;SOL_COMPUTED,INS_RTKFIXED,0.000,0.000,5.8928,225.877199,0.0602,0*2f34840a
#BESTVELA,FILE,0,32.0,FINESTEERING,2319,305237.550,02000000,10a2,17139;SOL_COMPUTED,INS_RTKFIXED,0.000,0.000,5.8920,227.307809,-0.0299,0*f6aeb041
#BESTVELA,FILE,0,32.0,FINESTEERING,2319,305237.600,02000000,10a2,17139;SOL_COMPUTED,INS_RTKFIXED,0.000,0.000,5.8446,227.763854,0.0168,0*c840ff36
#BESTVELA,FILE,0,32.0,FINESTEERING,2319,305237.650,02000000,10a2,17139;SOL_COMPUTED,INS_RTKFIXED,0.000,0.000,5.8480,227.828781,-0.0224,0*6d4429d6
#BESTVELA,FILE,0,32.0,FINESTEERING,2319,305237.700,02000000,10a2,17139;SOL_COMPUTED,INS_RTKFIXED,0.000,0.000,5.9055,229.431634,-0.0078,0*f6beb584
#BESTVELA,FILE,0,32.0,FINESTEERING,2319,305237.750,02000000,10a2,17139;SOL_COMPUTED,INS_RTKFIXED,0.000,0.000,5.9154,230.286250,-0.0068,0*53bafca1
#BESTVELA,FILE,0,32.0,FINESTEERING,2319,305237.800,02000000,10a2,17139;SOL_COMPUTED,INS_RTKFIXED,0.000,0.000,6.0145,231.538309,0.0108,0*a3a6a65e
#BESTVELA,FILE,0,32.0,FINESTEERING,2319,305237.850,02000000,10a2,17139;SOL_COMPUTED,INS_RTKFIXED,0.000,0.000,5.9921,232.910172,0.0463,0*64ce6243
#BESTVELA,FILE,0,32.0,FINESTEERING,2319,305237.900,02000000,10a2,17139;SOL_COMPUTED,INS_RTKFIXED,0.000,0.000,6.0925,233.981135,0.0876,0*2af39015
#BESTVELA,FILE,0,32.0,FINESTEERING,2319,305237.950,02000000,10a2,17139;SOL_COMPUTED,INS_RTKFIXED,0.000,0.000,6.0906,234.670051,0.1346,0*23fda5b8
#BESTVELA,FILE,0,32.0,FINESTEERING,2319,305238.000,02000000,10a2,17139;SOL_COMPUTED,INS_RTKFIXED,0.000,0.000,6.1825,235.851248,0.1079,0*f7bcbe97
#BESTVELA,FILE,0,32.0,FINESTEERING,2319,305238.050,02000000,10a2,17139;SOL_COMPUTED,INS_RTKFIXED,0.000,0.000,6.0397,235.664462,0.0961,0*4f0d69ad
#BESTVELA,FILE,0,30.5,FINESTEERING,2319,305238.100,02000000,10a2,17139;SOL_COMPUTED,INS_RTKFIXED,0.000,0.000,6.0781,236.370153,-0.0171,0*00d97e37
#BESTVELA,FILE,0,30.5,FINESTEERING,2319,305238.150,02000000,10a2,17139;SOL_COMPUTED,INS_RTKFIXED,0.000,0.000,5.9663,237.733018,-0.0943,0*bae44cab
#BESTVELA,FILE,0,30.5,FINESTEERING,2319,305238.200,02000000,10a2,17139;SOL_COMPUTED,INS_RTKFIXED,0.000,0.000,5.9462,238.529756,-0.0647,0*b85b9594
#BESTVELA,FILE,0,30.5,FINESTEERING,2319,305238.250,02000000,10a2,17139;SOL_COMPUTED,INS_RTKFIXED,0.000,0.000,5.9234,239.670690,-0.0988,0*9aa1caf4
#BESTVELA,FILE,0,30.5,FINESTEERING,2319,305238.300,02000000,10a2,17139;SOL_COMPUTED,INS_RTKFIXED,0.000,0.000,5.9587,240.900709,-0.1250,0*8f5164aa
#BESTVELA,FILE,0,30.5,FINESTEERING,2319,305238.350,02000000,10a2,17139;SOL_COMPUTED,INS_RTKFIXED,0.000,0.000,5.8854,241.820784,-0.1899,0*4a28c9f1
#BESTVELA,FILE,0,30.5,FINESTEERING,2319,305238.400,02000000,10a2,17139;SOL_COMPUTED,INS_RTKFIXED,0.000,0.000,5.9809,242.499999,-0.1093,0*18153f66
#BESTVELA,FILE,0,30.5,FINESTEERING,2319,305238.450,02000000,10a2,17139;SOL_COMPUTED,INS_RTKFIXED,0.000,0.000,6.0322,243.749331,-0.0048,0*7342499b
#BESTVELA,FILE,0,30.5,FINESTEERING,2319,305238.500,02000000,10a2,17139;SOL_COMPUTED,INS_RTKFIXED,0.000,0.000,6.1552,244.855224,0.0632,0*32cf0c00
#BESTVELA,FILE,0,30.5,FINESTEERING,2319,305238.550,02000000,10a2,17139;SOL_COMPUTED,INS_RTKFIXED,0.000,0.000,6.1947,245.606661,0.1080,0*4968ed71
#BESTVELA,FILE,0,30.5,FINESTEERING,2319,305238.600,02000000,10a2,17139;SOL_COMPUTED,INS_RTKFIXED,0.000,0.000,6.2337,246.561563,0.1835,0*43d2856f
#BESTVELA,FILE,0,30.5,FINESTEERING,2319,305238.650,02000000,10a2,17139;SOL_COMPUTED,INS_RTKFIXED,0.000,0.000,6.2825,247.836570,0.1591,0*891d641e
#BESTVELA,FILE,0,30.5,FINESTEERING,2319,305238.700,02000000,10a2,17139;SOL_COMPUTED,INS_RTKFIXED,0.000,0.000,6.2035,249.176150,0.0686,0*fa4cf64f
#BESTVELA,FILE,0,30.5,FINESTEERING,2319,305238.750,02000000,10a2,17139;SOL_COMPUTED,INS_RTKFIXED,0.000,0.000,6.1934,250.223257,0.0568,0*ef6ede37
#BESTVELA,FILE,0,30.5,FINESTEERING,2319,305238.800,02000000,10a2,17139;SOL_COMPUTED,INS_RTKFIXED,0.000,0.000,6.1792,249.416851,0.0954,0*4f1d25e4
#BESTVELA,FILE,0,30.5,FINESTEERING,2319,305238.850,02000000,10a2,17139;SOL_COMPUTED,INS_RTKFIXED,0.000,0.000,6.2547,250.897374,-0.0441,0*25c07f71
#BESTVELA,FILE,0,30.5,FINESTEERING,2319,305238.900,02000000,10a2,17139;SOL_COMPUTED,INS_RTKFIXED,0.000,0.000,6.1430,251.197172,-0.0510,0*84497ddd
#BESTVELA,FILE,0,30.5,FINESTEERING,2319,305238.950,02000000,10a2,17139;SOL_COMPUTED,INS_RTKFIXED,0.000,0.000,6.1452,252.594972,-0.1258,0*74aa0612
#BESTVELA,FILE,0,30.5,FINESTEERING,2319,305239.000,02000000,10a2,17139;SOL_COMPUTED,INS_RTKFIXED,0.000,0.000,6.1471,253.200330,-0.1635,0*84f22860
#BESTVELA,FILE,0,30.5,FINESTEERING,2319,305239.050,02000000,10a2,17139;SOL_COMPUTED,INS_RTKFIXED,0.000,0.000,6.1947,255.694603,-0.1502,0*7ff34e08
#BESTVELA,FILE,0,30.5,FINESTEERING,2319,305239.100,02000000,10a2,17139;SOL_COMPUTED,INS_RTKFIXED,0.000,0.000,6.2256,256.303023,-0.0973,0*a6cc70de
#BESTVELA,FILE,0,31.5,FINESTEERING,2319,305239.150,02000000,10a2,17139;SOL_COMPUTED,INS_RTKFIXED,0.000,0.000,6.2196,256.232070,-0.0697,0*593daadf
#BESTVELA,FILE,0,31.5,FINESTEERING,2319,305239.200,02000000,10a2,17139;SOL_COMPUTED,INS_RTKFIXED,0.000,0.000,6.2735,256.141812,-0.0196,0*d2aafafc
#BESTVELA,FILE,0,31.5,FINESTEERING,2319,305239.250,02000000,10a2,17139;SOL_COMPUTED,INS_RTKFIXED,0.000,0.000,6.3019,256.619707,-0.0102,0*d748dfd6
#BESTVELA,FILE,0,31.5,FINESTEERING,2319,305239.300,02000000,10a2,17139;SOL_COMPUTED,INS_RTKFIXED,0.000,0.000,6.2962,257.463177,0.0556,0*98f06f7f
#BESTVELA,FILE,0,31.5,FINESTEERING,2319,305239.350,02000000,10a2,17139;SOL_COMPUTED,INS_RTKFIXED,0.000,0.000,6.3641,258.196419,0.1223,0*7f00af68
#BESTVELA,FILE,0,31.5,FINESTEERING,2319,305239.400,02000000,10a2,17139;SOL_COMPUTED,INS_RTKFIXED,0.000,0.000,6.3471,258.096062,0.0262,0*8e85c88e
#BESTVELA,FILE,0,31.5,FINESTEERING,2319,305239.450,02000000,10a2,17139;SOL_COMPUTED,INS_RTKFIXED,0.000,0.000,6.3032,259.128593,0.0301,0*ababb8b2
#BESTVELA,FILE,0,31.5,FINESTEERING,2319,305239.500,02000000,10a2,17139;SOL_COMPUTED,INS_RTKFIXED,0.000,0.000,6.2862,259.361687,-0.0876,0*0a033d70
#BESTVELA,FILE,0,31.5,FINESTEERING,2319,305239.550,02000000,10a2,17139;SOL_COMPUTED,INS_RTKFIXED,0.000,0.000,6.2654,259.453898,-0.0257,0*a1ac06ba
#BESTVELA,FILE,0,31.5,FINESTEERING,2319,305239.600,02000000,10a2,17139;SOL_COMPUTED,INS_RTKFIXED,0.000,0.000,6.2956,259.622337,0.0070,0*77ce6175
#BESTVELA,FILE,0,31.5,FINESTEERING,2319,305239.650,02000000,10a2,17139;SOL_COMPUTED,INS_RTKFIXED,0.000,0.000,6.3493,260.513718,-0.0642,0*01aefae5
#BESTVELA,FILE,0,31.5,FINESTEERING,2319,305239.700,02000000,10a2,17139;SOL_COMPUTED,INS_RTKFIXED,0.000,0.000,6.3020,260.017243,0.0227,0*92a089fb
#BESTVELA,FILE,0,31.5,FINESTEERING,2319,305239.750,02000000,10a2,17139;SOL_COMPUTED,INS_RTKFIXED,0.000,0.000,6.3808,261.156264,0.1018,0*068341d7
#BESTVELA,FILE,0,31.5,FINESTEERING,2319,305239.800,02000000,10a2,17139;SOL_COMPUTED,INS_RTKFIXED,0.000,0.000,6.4588,260.994031,0.1666,0*ac8c118b
#BESTVELA,FILE,0,31.5,FINESTEERING,2319,305239.850,02000000,10a2,17139;SOL_COMPUTED,INS_RTKFIXED,0.000,0.000,6.4919,261.446357,0.2385,0*7894d518
#BESTVELA,FILE,0,31.5,FINESTEERING,2319,305239.900,02000000,10a2,17139;SOL_COMPUTED,INS_RTKFIXED,0.000,0.000,6.4640,261.872256,0.1688,0*148c53b3
#BESTVELA,FILE,0,31.5,FINESTEERING,2319,305239.950,02000000,10a2,17139;SOL_COMPUTED,INS_RTKFIXED,0.000,0.000,6.4564,261.768327,0.1866,0*d2aff295
#BESTVELA,FILE,0,31.5,FINESTEERING,2319,305240.000,02000000,10a2,17139;SOL_COMPUTED,INS_RTKFIXED,0.000,0.000,6.4610,261.244792,0.1835,0*21ae4369
#BESTVELA,FILE,0,31.5,FINESTEERING,2319,305240.050,02000000,10a2,17139;SOL_COMPUTED,INS_RTKFIXED,0.000,0.000,6.4137,261.533294,0.0875,0*3506b35f
#BESTVELA,FILE,0,29.5,FINESTEERING,2319,305240.100,02000000,10a2,17139;SOL_COMPUTED,INS_RTKFIXED,0.000,0.000,6.3966,261.982987,0.0841,0*2dc18eeb
#BESTVELA,FILE,0,29.5,FINESTEERING,2319,305240.150,02000000,10a2,17139;SOL_COMPUTED,INS_RTKFIXED,0.000,0.000,6.3907,262.344806,-0.0052,0*e4584682
#BESTVELA,FILE,0,29.5,FINESTEERING,2319,305240.200,02000000,10a2,17139;SOL_COMPUTED,INS_RTKFIXED,0.000,0.000,6.3910,261.788635,0.0101,0*46742e3b
#BESTVELA,FILE,0,29.5,FINESTEERING,2319,305240.250,02000000,10a2,17139;SOL_COMPUTED,INS_RTKFIXED,0.000,0.000,6.4074,262.497583,0.0210,0*a4d37e2d
#BESTVELA,FILE,0,29.5,FINESTEERING,2319,305240.300,02000000,10a2,17139;SOL_COMPUTED,INS_RTKFIXED,0.000,0.000,6.3869,262.702089,0.0266,0*be0bea69
#BESTVELA,FILE,0,29.5,FINESTEERING,2319,305240.350,02000000,10a2,17139;SOL_COMPUTED,INS_RTKFIXED,0.000,0.000,6.4599,262.480610,0.1063,0*22cf39dd
#BESTVELA,FILE,0,29.5,FINESTEERING,2319,305240.400,02000000,10a2,17139;SOL_COMPUTED,INS_RTKFIXED,0.000,0.000,6.4972,262.550894,0.1403,0*3836d59a
#BESTVELA,FILE,0,29.5,FINESTEERING,2319,305240.450,02000000,10a2,17139;SOL_COMPUTED,INS_RTKFIXED,0.000,0.000,6.5509,261.952010,0.2023,0*ef534cb5
#BESTVELA,FILE,0,29.5,FINESTEERING,2319,305240.500,02000000,10a2,17139;SOL_COMPUTED,INS_RTKFIXED,0.000,0.000,6.5085,261.664894,0.2152,0*4636d625
#BESTVELA,FILE,0,29.5,FINESTEERING,2319,305240.550,02000000,10a2,17139;SOL_COMPUTED,INS_RTKFIXED,0.000,0.000,6.5152,261.231852,0.2027,0*837a2571
#BESTVELA,FILE,0,29.5,FINESTEERING,2319,305240.600,02000000,10a2,17139;SOL_COMPUTED,INS_RTKFIXED,0.000,0.000,6.5275,262.352304,0.1246,0*47b287e2
#BESTVELA,FILE,0,29.5,FINESTEERING,2319,305240.650,02000000,10a2,17139;SOL_COMPUTED,INS_RTKFIXED,0.000,0.000,6.4239,261.997159,0.1038,0*5cf3407d
#BESTVELA,FILE,0,29.5,FINESTEERING,2319,305240.700,02000000,10a2,17139;SOL_COMPUTED,INS_RTKFIXED,0.000,0.000,6.4222,262.367684,0.0439,0*22858258
#BESTVELA,FILE,0,29.5,FINESTEERING,2319,305240.750,02000000,10a2,17139;SOL_COMPUTED,INS_RTKFIXED,0.000,0.000,6.4202,262.887680,-0.0063,0*0c0d615b
#BESTVELA,FILE,0,29.5,FINESTEERING,2319,305240.800,02000000,10a2,17139;SOL_COMPUTED,INS_RTKFIXED,0.000,0.000,6.3897,262.374858,-0.0044,0*b9b2c499
#BESTVELA,FILE,0,29.5,FINESTEERING,2319,305240.850,02000000,10a2,17139;SOL_COMPUTED,INS_RTKFIXED,0.000,0.000,6.4218,262.125614,-0.0424,0*796fdb50
#BESTVELA,FILE,0,29.5,FINESTEERING,2319,305240.900,02000000,10a2,17139;SOL_COMPUTED,INS_RTKFIXED,0.000,0.000,6.4420,261.220240,0.0072,0*2b22d3d8
#BESTVELA,FILE,0,29.5,FINESTEERING,2319,305240.950,02000000,10a2,17139;SOL_COMPUTED,INS_RTKFIXED,0.000,0.000,6.4833,261.571452,0.1230,0*e563c13a
#BESTVELA,FILE,0,29.5,FINESTEERING,2319,305241.000,02000000,10a2,17139;SOL_COMPUTED,INS_RTKFIXED,0.000,0.000,6.5630,262.187489,0.1607,0*1c53193f
#BESTVELA,FILE,0,29.5,FINESTEERING,2319,305241.050,02000000,10a2,17139;SOL_COMPUTED,INS_RTKFIXED,0.000,0.000,6.5085,262.754791,0.1169,0*9bc38b22
#BESTVELA,FILE,0,29.5,FINESTEERING,2319,305241.100,02000000,10a2,17139;SOL_COMPUTED,INS_RTKFIXED,0.000,0.000,6.5209,263.392798,0.1182,0*4f17afb0
#BESTVELA,FILE,0,30.5,FINESTEERING,2319,305241.150,02000000,10a2,17139;SOL_COMPUTED,INS_RTKFIXED,0.000,0.000,6.4619,263.252323,0.1495,0*7a70f7a0
#BESTVELA,FILE,0,30.5,FINESTEERING,2319,305241.200,02000000,10a2,17139;SOL_COMPUTED,INS_RTKFIXED,0.000,0.000,6.4722,263.217359,0.0312,0*8a5fac70
#BESTVELA,FILE,0,30.5,FINESTEERING,2319,305241.250,02000000,10a2,17139;SOL_COMPUTED,INS_RTKFIXED,0.000,0.000,6.3595,262.749003,0.0180,0*1754b37b
#BESTVELA,FILE,0,30.5,FINESTEERING,2319,305241.300,02000000,10a2,17139;SOL_COMPUTED,INS_RTKFIXED,0.000,0.000,6.3617,262.205188,-0.0724,0*1600af30
#BESTVELA,FILE,0,30.5,FINESTEERING,2319,305241.350,02000000,10a2,17139;SOL_COMPUTED,INS_RTKFIXED,0.000,0.000,6.3509,262.631927,-0.0841,0*93a292b9
#BESTVELA,FILE,0,30.5,FINESTEERING,2319,305241.400,02000000,10a2,17139;SOL_COMPUTED,INS_RTKFIXED,0.000,0.000,6.3545,262.131315,-0.1114,0*5d749880
#BESTVELA,FILE,0,30.5,FINESTEERING,2319,305241.450,02000000,10a2,17139;SOL_COMPUTED,INS_RTKFIXED,0.000,0.000,6.3772,262.682657,-0.0175,0*b20e917d
#BESTVELA,FILE,0,30.5,FINESTEERING,2319,305241.500,02000000,10a2,17139;SOL_COMPUTED,INS_RTKFIXED,0.000,0.000,6.4897,262.274450,0.1314,0*089e04fa
#BESTVELA,FILE,0,30.5,FINESTEERING,2319,305241.550,02000000,10a2,17139;SOL_COMPUTED,INS_RTKFIXED,0.000,0.000,6.4906,261.548330,0.1784,0*ef23ea2f
#BESTVELA,FILE,0,30.5,FINESTEERING,2319,305241.600,02000000,10a2,17139;SOL_COMPUTED,INS_RTKFIXED,0.000,0.000,6.5434,261.281309,0.1872,0*2ad11639
#BESTVELA,FILE,0,30.5,FINESTEERING,2319,305241.650,02000000,10a2,17139;SOL_COMPUTED,INS_RTKFIXED,0.000,0.000,6.6379,261.937372,0.2948,0*c3b82017
#BESTVELA,FILE,0,30.5,FINESTEERING,2319,305241.700,02000000,10a2,17139;SOL_COMPUTED,INS_RTKFIXED,0.000,0.000,6.6194,261.585869,0.2576,0*92a446cd
#BESTVELA,FILE,0,30.5,FINESTEERING,2319,305241.750,02000000,10a2,17139;SOL_COMPUTED,INS_RTKFIXED,0.000,0.000,6.5864,262.941513,0.0413,0*f5ed01c3
#BESTVELA,FILE,0,30.5,FINESTEERING,2319,305241.800,02000000,10a2,17139;SOL_COMPUTED,INS_RTKFIXED,0.000,0.000,6.5014,261.817177,0.0364,0*4e429d71
#BESTVELA,FILE,0,30.5,FINESTEERING,2319,305241.850,02000000,10a2,17139;SOL_COMPUTED,INS_RTKFIXED,0.000,0.000,6.4277,261.387657,-0.0410,0*fc49cd90
#BESTVELA,FILE,0,30.5,FINESTEERING,2319,305241.900,02000000,10a2,17139;SOL_COMPUTED,INS_RTKFIXED,0.000,0.000,6.4073,260.017821,-0.0927,0*f707d6f1
#BESTVELA,FILE,0,30.5,FINESTEERING,2319,305241.950,02000000,10a2,17139;SOL_COMPUTED,INS_RTKFIXED,0.000,0.000,6.2842,259.493471,-0.2245,0*bb12f134
#BESTVELA,FILE,0,30.5,FINESTEERING,2319,305242.000,02000000,10a2,17139;SOL_COMPUTED,INS_RTKFIXED,0.000,0.000,6.3048,259.649151,-0.2332,0*1df4cc69
#BESTVELA,FILE,0,30.5,FINESTEERING,2319,305242.050,02000000,10a2,17139;SOL_COMPUTED,INS_RTKFIXED,0.000,0.000,6.2275,259.829774,-0.3482,0*a7465144
#BESTVELA,FILE,0,30.5,FINESTEERING,2319,305242.100,02000000,10a2,17139;SOL_COMPUTED,INS_RTKFIXED,0.000,0.000,6.2657,259.224357,-0.2643,0*b6badbf3
#BESTVELA,FILE,0,30.5,FINESTEERING,2319,305242.150,02000000,10a2,17139;SOL_COMPUTED,INS_RTKFIXED,0.000,0.000,6.3060,259.865931,-0.1729,0*2e8ec644
#BESTVELA,FILE,0,30.5,FINESTEERING,2319,305242.200,02000000,10a2,17139;SOL_COMPUTED,INS_RTKFIXED,0.000,0.000,6.3703,260.937891,-0.2175,0*93a43ce2
#BESTVELA,FILE,0,30.5,FINESTEERING,2319,305242.250,02000000,10a2,17139;SOL_COMPUTED,INS_RTKFIXED,0.000,0.000,6.3733,259.826779,-0.1639,0*2167794b
#BESTVELA,FILE,0,30.5,FINESTEERING,2319,305242.300,02000000,10a2,17139;SOL_COMPUTED,INS_RTKFIXED,0.000,0.000,6.3437,259.799971,-0.1596,0*f7ab0599
#BESTVELA,FILE,0,30.5,FINESTEERING,2319,305242.350,02000000,10a2,17139;SOL_COMPUTED,INS_RTKFIXED,0.000,0.000,6.3554,258.999369,-0.1109,0*26a0f489
#BESTVELA,FILE,0,30.5,FINESTEERING,2319,305242.400,02000000,10a2,17139;SOL_COMPUTED,INS_RTKFIXED,0.000,0.000,6.3009,259.071515,-0.1694,0*6697e793
#BESTVELA,FILE,0,30.5,FINESTEERING,2319,305242.450,02000000,10a2,17139;SOL_COMPUTED,INS_RTKFIXED,0.000,0.000,6.1865,258.402392,-0.2015,0*6106fde7
#BESTVELA,FILE,0,30.5,FINESTEERING,2319,305242.500,02000000,10a2,17139;SOL_COMPUTED,INS_RTKFIXED,0.000,0.000,6.1255,259.217037,-0.3314,0*8147b6f0
#BESTVELA,FILE,0,30.5,FINESTEERING,2319,305242.550,02000000,10a2,17139;SOL_COMPUTED,INS_RTKFIXED,0.000,0.000,6.0372,258.746862,-0.3517,0*fb75b780
#BESTVELA,FILE,0,30.5,FINESTEERING,2319,305242.600,02000000,10a2,17139;SOL_COMPUTED,INS_RTKFIXED,0.000,0.000,5.9837,258.503845,-0.3580,0*4b7a7ee5
#BESTVELA,FILE,0,30.5,FINESTEERING,2319,305242.650,02000000,10a2,17139;SOL_COMPUTED,INS_RTKFIXED,0.000,0.000,5.8714,259.577460,-0.4586,0*790a047b
#BESTVELA,FILE,0,30.5,FINESTEERING,2319,305242.700,02000000,10a2,17139;SOL_COMPUTED,INS_RTKFIXED,0.000,0.000,5.8437,258.526664,-0.4691,0*296bf4ab
#BESTVELA,FILE,0,30.5,FINESTEERING,2319,305242.750,02000000,10a2,17139;SOL_COMPUTED,INS_RTKFIXED,0.000,0.000,5.8657,258.504291,-0.3460,0*7acd11c2
#BESTVELA,FILE,0,30.5,FINESTEERING,2319,305242.800,02000000,10a2,17139;SOL_COMPUTED,INS_RTKFIXED,0.000,0.000,5.9010,257.462942,-0.2952,0*e9cc5a2d
#BESTVELA,FILE,0,30.5,FINESTEERING,2319,305242.850,02000000,10a2,17139;SOL_COMPUTED,INS_RTKFIXED,0.000,0.000,5.9699,258.545045,-0.2218,0*ea5575f4
#BESTVELA,FILE,0,30.5,FINESTEERING,2319,305242.900,02000000,10a2,17139;SOL_COMPUTED,INS_RTKFIXED,0.000,0.000,6.0068,257.745812,-0.0224,0*7aea7256
#BESTVELA,FILE,0,30.5,FINESTEERING,2319,305242.950,02000000,10a2,17139;SOL_COMPUTED,INS_RTKFIXED,0.000,0.000,6.0889,257.688578,0.0513,0*b277da06
#BESTVELA,FILE,0,30.5,FINESTEERING,2319,305243.000,02000000,10a2,17139;SOL_COMPUTED,INS_RTKFIXED,0.000,0.000,6.0852,256.554077,0.1432,0*81746ef7
#BESTVELA,FILE,0,30.5,FINESTEERING,2319,305243.050,02000000,10a2,17139;SOL_COMPUTED,INS_RTKFIXED,0.000,0.000,6.0948,256.729572,0.1859,0*a3a0b5c8
#BESTVELA,FILE,0,29.0,FINESTEERING,2319,305243.100,02000000,10a2,17139;SOL_COMPUTED,INS_RTKFIXED,0.000,0.000,6.1664,256.907581,0.1852,0*91afad86
#BESTVELA,FILE,0,29.0,FINESTEERING,2319,305243.150,02000000,10a2,17139;SOL_COMPUTED,INS_RTKFIXED,0.000,0.000,6.1555,256.034892,0.1445,0*4dbedab4
#BESTVELA,FILE,0,29.0,FINESTEERING,2319,305243.200,02000000,10a2,17139;SOL_COMPUTED,INS_RTKFIXED,0.000,0.000,6.0922,255.245475,0.0766,0*9dc1c17b
#BESTVELA,FILE,0,29.0,FINESTEERING,2319,305243.250,02000000,10a2,17139;SOL_COMPUTED,INS_RTKFIXED,0.000,0.000,5.9968,255.826786,-0.0218,0*e8a810ab
#BESTVELA,FILE,0,29.0,FINESTEERING,2319,305243.300,02000000,10a2,17139;SOL_COMPUTED,INS_RTKFIXED,0.000,0.000,5.9431,255.281549,-0.1271,0*b1660b5e
#BESTVELA,FILE,0,29.0,FINESTEERING,2319,305243.350,02000000,10a2,17139;SOL_COMPUTED,INS_RTKFIXED,0.000,0.000,5.8281,254.161919,-0.1561,0*2241b2df
#BESTVELA,FILE,0,29.0,FINESTEERING,2319,305243.400,02000000,10a2,17139;SOL_COMPUTED,INS_RTKFIXED,0.000,0.000,5.9361,253.480584,-0.1377,0*cb041004
