#BESTPOSA,FILE,0,34.5,FINESTEERING,2319,305221.250,02000800,cdba,17139;SOL_COMPUTED,INS_RTKFIXED,17.58802868381,78.12097807040,528.9546,-76.3000,WGS84,0.7179,0.6946,1.4801,"",0.000,0.000,54,39,39,39,00,06,39,33*7f7a46f4
#BESTPOSA,FILE,0,34.5,FINESTEERING,2319,305221.350,02000800,cdba,17139;SOL_COMPUTED,INS_RTKFIXED,17.58802848316,78.12097820906,528.9553,-76.3000,WGS84,0.7179,0.6946,1.4801,"",0.000,0.000,54,39,39,39,00,06,39,33*7c2a1f14
#BESTPOSA,FILE,0,34.5,FINESTEERING,2319,305221.450,02000800,cdba,17139;SOL_COMPUTED,INS_RTKFIXED,17.58802826898,78.12097835250,528.9552,-76.3000,WGS84,0.7179,0.6946,1.4801,"",0.000,0.000,54,39,39,39,00,06,39,33*99749aac
#BESTPOSA,FILE,0,34.5,FINESTEERING,2319,305221.600,02000800,cdba,17139;SOL_COMPUTED,INS_RTKFIXED,17.58802791810,78.12097858637,528.9561,-76.3000,WGS84,0.7179,0.6946,1.4801,"",0.000,0.000,54,39,39,39,00,06,39,33*cc8bdc60
#BESTPOSA,FILE,0,34.5,FINESTEERING,2319,305221.650,02000800,cdba,17139;SOL_COMPUTED,INS_RTKFIXED,17.58802780016,78.12097867082,528.9564,-76.3000,WGS84,0.7179,0.6946,1.4801,"",0.000,0.000,54,39,39,39,00,06,39,33*a1c2ea06
#BESTPOSA,FILE,0,34.5,FINESTEERING,2319,305221.700,02000800,cdba,17139;SOL_COMPUTED,INS_RTKFIXED,17.58802768228,78.12097876271,528.9569,-76.3000,WGS84,0.7179,0.6946,1.4801,"",0.000,0.000,54,39,39,39,00,06,39,33*17aa4594
#BESTPOSA,FILE,0,34.5,FINESTEERING,2319,305221.800,02000800,cdba,17139;SOL_COMPUTED,INS_RTKFIXED,17.58802743983,78.12097895988,528.9583,-76.3000,WGS84,0.7179,0.6946,1.4801,"",0.000,0.000,54,39,39,39,00,06,39,33*973891c3
#BESTPOSA,FILE,0,34.5,FINESTEERING,2319,305221.900,02000800,cdba,17139;SOL_COMPUTED,INS_RTKFIXED,17.58802716944,78.12097914837,528.9584,-76.3000,WGS84,0.7179,0.6946,1.4801,"",0.000,0.000,54,39,39,39,00,06,39,33*94426e76
#BESTPOSA,FILE,0,34.5,FINESTEERING,2319,305222.000,02000800,cdba,17139;SOL_COMPUTED,INS_RTKFIXED,17.58802687002,78.12097935203,528.9589,-76.3000,WGS84,0.7179,0.6946,1.4801,"",0.000,0.000,54,39,39,39,00,06,39,33*aed559c6
#BESTPOSA,FILE,0,34.5,FINESTEERING,2319,305222.150,02000800,cdba,17139;SOL_COMPUTED,INS_RTKFIXED,17.58802637888,78.12097968164,528.9593,-76.3000,WGS84,0.7178,0.6934,1.4806,"",0.000,0.000,54,39,39,39,00,06,39,33*c7e2c6f4
#BESTPOSA,FILE,0,37.0,FINESTEERING,2319,305222.250,02000800,cdba,17139;SOL_COMPUTED,INS_RTKFIXED,17.58802603032,78.12097992074,528.9611,-76.3000,WGS84,0.7178,0.6934,1.4806,"",0.000,0.000,54,39,39,39,00,06,39,33*d67e6912
#BESTPOSA,FILE,0,37.0,FINESTEERING,2319,305222.350,02000800,cdba,17139;SOL_COMPUTED,INS_RTKFIXED,17.58802567021,78.12098019250,528.9635,-76.3000,WGS84,0.7178,0.6934,1.4806,"",0.000,0.000,54,39,39,39,00,06,39,33*71cf6f97
#BESTPOSA,FILE,0,37.0,FINESTEERING,2319,305222.500,02000800,cdba,17139;SOL_COMPUTED,INS_RTKFIXED,17.58802512487,78.12098066402,528.9672,-76.3000,WGS84,0.7178,0.6934,1.4806,"",0.000,0.000,54,39,39,39,00,06,39,33*ecc22d04
#BESTPOSA,FILE,0,37.0,FINESTEERING,2319,305222.550,02000800,cdba,17139;SOL_COMPUTED,INS_RTKFIXED,17.58802492632,78.12098082664,528.9685,-76.3000,WGS84,0.7178,0.6934,1.4806,"",0.000,0.000,54,39,39,39,00,06,39,33*d41459e5
#BESTPOSA,FILE,0,37.0,FINESTEERING,2319,305222.650,02000800,cdba,17139;SOL_COMPUTED,INS_RTKFIXED,17.58802450427,78.12098111789,528.9672,-76.3000,WGS84,0.7178,0.6934,1.4806,"",0.000,0.000,54,39,39,39,00,06,39,33*55fcb7ff
#BESTPOSA,FILE,0,37.0,FINESTEERING,2319,305222.800,02000800,cdba,17139;SOL_COMPUTED,INS_RTKFIXED,17.58802382626,78.12098158274,528.9667,-76.3000,WGS84,0.7178,0.6934,1.4806,"",0.000,0.000,54,39,39,39,00,06,39,33*36b79f6f
#BESTPOSA,FILE,0,37.0,FINESTEERING,2319,305222.850,02000800,cdba,17139;SOL_COMPUTED,INS_RTKFIXED,17.58802358608,78.12098174131,528.9658,-76.3000,WGS84,0.7178,0.6934,1.4806,"",0.000,0.000,54,39,39,39,00,06,39,33*59adfa88
#BESTPOSA,FILE,0,37.0,FINESTEERING,2319,305223.000,02000800,cdba,17139;SOL_COMPUTED,INS_RTKFIXED,17.58802287341,78.12098229253,528.9703,-76.3000,WGS84,0.7178,0.6934,1.4806,"",0.000,0.000,54,39,39,39,00,06,39,33*a4dd949e
#BESTPOSA,FILE,0,37.0,FINESTEERING,2319,305223.050,02000800,cdba,17139;SOL_COMPUTED,INS_RTKFIXED,17.58802264361,78.12098249750,528.9719,-76.3000,WGS84,0.7184,0.6933,1.4804,"",0.000,0.000,54,39,39,39,00,06,39,33*f8958c3c
#BESTPOSA,FILE,0,36.0,FINESTEERING,2319,305223.150,02000800,cdba,17139;SOL_COMPUTED,INS_RTKFIXED,17.58802218587,78.12098292617,528.9752,-76.3000,WGS84,0.7184,0.6933,1.4804,"",0.000,0.000,54,39,39,39,00,06,39,33*9b099e8d
#BESTPOSA,FILE,0,36.0,FINESTEERING,2319,305223.250,02000800,cdba,17139;SOL_COMPUTED,INS_RTKFIXED,17.58802169632,78.12098335393,528.9768,-76.3000,WGS84,0.7184,0.6933,1.4804,"",0.000,0.000,54,39,39,39,00,06,39,33*21883c02
#BESTPOSA,FILE,0,36.0,FINESTEERING,2319,305223.300,02000800,cdba,17139;SOL_COMPUTED,INS_RTKFIXED,17.58802143994,78.12098356802,528.9778,-76.3000,WGS84,0.7184,0.6933,1.4804,"",0.000,0.000,54,39,39,39,00,06,39,33*996b4aa9
#BESTPOSA,FILE,0,36.0,FINESTEERING,2319,305223.400,02000800,cdba,17139;SOL_COMPUTED,INS_RTKFIXED,17.58802091266,78.12098399340,528.9786,-76.3000,WGS84,0.7184,0.6933,1.4804,"",0.000,0.000,54,39,39,39,00,06,39,33*eb77f87d
#BESTPOSA,FILE,0,36.0,FINESTEERING,2319,305223.550,02000800,cdba,17139;SOL_COMPUTED,INS_RTKFIXED,17.58802011836,78.12098467721,528.9820,-76.3000,WGS84,0.7184,0.6933,1.4804,"",0.000,0.000,54,39,39,39,00,06,39,33*51d1b09e
#BESTPOSA,FILE,0,36.0,FINESTEERING,2319,305223.600,02000800,cdba,17139;SOL_COMPUTED,INS_RTKFIXED,17.58801984150,78.12098491565,528.9834,-76.3000,WGS84,0.7184,0.6933,1.4804,"",0.000,0.000,54,39,39,39,00,06,39,33*3b8210d6
#BESTPOSA,FILE,0,36.0,FINESTEERING,2319,305223.700,02000800,cdba,17139;SOL_COMPUTED,INS_RTKFIXED,17.58801929825,78.12098541671,528.9869,-76.3000,WGS84,0.7184,0.6933,1.4804,"",0.000,0.000,54,39,39,39,00,06,39,33*75e9155c
#BESTPOSA,FILE,0,36.0,FINESTEERING,2319,305223.750,02000800,cdba,17139;SOL_COMPUTED,INS_RTKFIXED,17.58801901989,78.12098566333,528.9871,-76.3000,WGS84,0.7184,0.6933,1.4804,"",0.000,0.000,54,39,39,39,00,06,39,33*bf3fc29f
#BESTPOSA,FILE,0,36.0,FINESTEERING,2319,305223.900,02000800,cdba,17139;SOL_COMPUTED,INS_RTKFIXED,17.58801818872,78.12098645294,528.9880,-76.3000,WGS84,0.7184,0.6933,1.4804,"",0.000,0.000,54,39,39,39,00,06,39,33*35e6fd2d
#BESTPOSA,FILE,0,36.0,FINESTEERING,2319,305224.050,02000800,cdba,17139;SOL_COMPUTED,INS_RTKFIXED,17.58801735647,78.12098727576,528.9921,-76.3000,WGS84,0.7199,0.6945,1.4791,"",0.000,0.000,54,39,39,39,00,06,39,33*30519d42
#BESTPOSA,FILE,0,33.5,FINESTEERING,2319,305224.100,02000800,cdba,17139;SOL_COMPUTED,INS_RTKFIXED,17.58801707081,78.12098756731,528.9935,-76.3000,WGS84,0.7199,0.6945,1.4791,"",0.000,0.000,54,39,39,39,00,06,39,33*64b9dda7
#BESTPOSA,FILE,0,33.5,FINESTEERING,2319,305224.200,02000800,cdba,17139;SOL_COMPUTED,INS_RTKFIXED,17.58801648126,78.12098817525,528.9956,-76.3000,WGS84,0.7199,0.6945,1.4791,"",0.000,0.000,54,39,39,39,00,06,39,33*533eb43b
#BESTPOSA,FILE,0,33.5,FINESTEERING,2319,305224.300,02000800,cdba,17139;SOL_COMPUTED,INS_RTKFIXED,17.58801588209,78.12098882691,528.9973,-76.3000,WGS84,0.7199,0.6945,1.4791,"",0.000,0.000,54,39,39,39,00,06,39,33*d1639b98
#BESTPOSA,FILE,0,33.5,FINESTEERING,2319,305224.400,02000800,cdba,17139;SOL_COMPUTED,INS_RTKFIXED,17.58801527557,78.12098951871,529.0002,-76.3000,WGS84,0.7199,0.6945,1.4791,"",0.000,0.000,54,39,39,39,00,06,39,33*7e1ff577
#BESTPOSA,FILE,0,33.5,FINESTEERING,2319,305224.450,02000800,cdba,17139;SOL_COMPUTED,INS_RTKFIXED,17.58801496159,78.12098986693,529.0022,-76.3000,WGS84,0.7199,0.6945,1.4791,"",0.000,0.000,54,39,39,39,00,06,39,33*2fae7fbd
#BESTPOSA,FILE,0,33.5,FINESTEERING,2319,305224.550,02000800,cdba,17139;SOL_COMPUTED,INS_RTKFIXED,17.58801432520,78.12099059604,529.0074,-76.3000,WGS84,0.7199,0.6945,1.4791,"",0.000,0.000,54,39,39,39,00,06,39,33*4adae470
#BESTPOSA,FILE,0,33.5,FINESTEERING,2319,305224.650,02000800,cdba,17139;SOL_COMPUTED,INS_RTKFIXED,17.58801367655,78.12099136379,529.0103,-76.3000,WGS84,0.7199,0.6945,1.4791,"",0.000,0.000,54,39,39,39,00,06,39,33*e77e7001
#BESTPOSA,FILE,0,33.5,FINESTEERING,2319,305224.750,02000800,cdba,17139;SOL_COMPUTED,INS_RTKFIXED,17.58801300542,78.12099215292,529.0098,-76.3000,WGS84,0.7199,0.6945,1.4791,"",0.000,0.000,54,39,39,39,00,06,39,33*b3655b40
#BESTPOSA,FILE,0,33.5,FINESTEERING,2319,305224.850,02000800,cdba,17139;SOL_COMPUTED,INS_RTKFIXED,17.58801228437,78.12099297958,529.0087,-76.3000,WGS84,0.7199,0.6945,1.4791,"",0.000,0.000,54,39,39,39,00,06,39,33*8ba0a421
#BESTPOSA,FILE,0,33.5,FINESTEERING,2319,305224.900,02000800,cdba,17139;SOL_COMPUTED,INS_RTKFIXED,17.58801192103,78.12099341724,529.0092,-76.3000,WGS84,0.7199,0.6945,1.4791,"",0.000,0.000,54,39,39,39,00,06,39,33*136dab90
#BESTPOSA,FILE,0,33.5,FINESTEERING,2319,305224.950,02000800,cdba,17139;SOL_COMPUTED,INS_RTKFIXED,17.58801156549,78.12099387695,529.0105,-76.3000,WGS84,0.7199,0.6945,1.4791,"",0.000,0.000,54,39,39,39,00,06,39,33*2177e26c
#BESTPOSA,FILE,0,33.5,FINESTEERING,2319,305225.000,02000800,cdba,17139;SOL_COMPUTED,INS_RTKFIXED,17.58801121227,78.12099435843,529.0117,-76.3000,WGS84,0.7199,0.6945,1.4791,"",0.000,0.000,54,39,39,39,00,06,39,33*844be317
#BESTPOSA,FILE,0,33.5,FINESTEERING,2319,305225.050,02000800,cdba,17139;SOL_COMPUTED,INS_RTKFIXED,17.58801086105,78.12099484478,529.0118,-76.3000,WGS84,0.7222,0.6967,1.4772,"",0.000,0.000,54,39,39,39,00,06,39,33*bb63b930
#BESTPOSA,FILE,0,33.5,FINESTEERING,2319,305225.100,02000800,cdba,17139;SOL_COMPUTED,INS_RTKFIXED,17.58801051925,78.12099534634,529.0123,-76.3000,WGS84,0.7222,0.6967,1.4772,"",0.000,0.000,54,39,39,39,00,06,39,33*e2744ee9
#BESTPOSA,FILE,0,36.5,FINESTEERING,2319,305225.150,02000800,cdba,17139;SOL_COMPUTED,INS_RTKFIXED,17.58801016141,78.12099586431,529.0133,-76.3000,WGS84,0.7222,0.6967,1.4772,"",0.000,0.000,54,39,39,39,00,06,39,33*33091242
#BESTPOSA,FILE,0,36.5,FINESTEERING,2319,305225.200,02000800,cdba,17139;SOL_COMPUTED,INS_RTKFIXED,17.58800979161,78.12099638308,529.0134,-76.3000,WGS84,0.7222,0.6967,1.4772,"",0.000,0.000,54,39,39,39,00,06,39,33*8f06d86e
#BESTPOSA,FILE,0,36.5,FINESTEERING,2319,305225.250,02000800,cdba,17139;SOL_COMPUTED,INS_RTKFIXED,17.58800940637,78.12099692514,529.0134,-76.3000,WGS84,0.7222,0.6967,1.4772,"",0.000,0.000,54,39,39,39,00,06,39,33*29a725fd
#BESTPOSA,FILE,0,36.5,FINESTEERING,2319,305225.300,02000800,cdba,17139;SOL_COMPUTED,INS_RTKFIXED,17.58800900308,78.12099747696,529.0134,-76.3000,WGS84,0.7222,0.6967,1.4772,"",0.000,0.000,54,39,39,39,00,06,39,33*7be58a92
#BESTPOSA,FILE,0,36.5,FINESTEERING,2319,305225.350,02000800,cdba,17139;SOL_COMPUTED,INS_RTKFIXED,17.58800859789,78.12099805002,529.0138,-76.3000,WGS84,0.7222,0.6967,1.4772,"",0.000,0.000,54,39,39,39,00,06,39,33*1783dd79
#BESTPOSA,FILE,0,36.5,FINESTEERING,2319,305225.400,02000800,cdba,17139;SOL_COMPUTED,INS_RTKFIXED,17.58800818432,78.12099863707,529.0143,-76.3000,WGS84,0.7222,0.6967,1.4772,"",0.000,0.000,54,39,39,39,00,06,39,33*996f0eb1
#BESTPOSA,FILE,0,36.5,FINESTEERING,2319,305225.450,02000000,cdba,17139;SOL_COMPUTED,INS_RTKFIXED,17.58800776652,78.12099924669,529.0152,-76.3000,WGS84,0.7222,0.6967,1.4772,"",0.000,0.000,54,39,39,39,00,06,39,33*d259b7ad
#BESTPOSA,FILE,0,36.5,FINESTEERING,2319,305225.500,02000000,cdba,17139;SOL_COMPUTED,INS_RTKFIXED,17.58800735769,78.12099987519,529.0170,-76.3000,WGS84,0.7222,0.6967,1.4772,"",0.000,0.000,54,39,39,39,00,06,39,33*f8551ec4
#BESTPOSA,FILE,0,36.5,FINESTEERING,2319,305225.550,02000000,cdba,17139;SOL_COMPUTED,INS_RTKFIXED,17.58800690926,78.12100052096,529.0173,-76.3000,WGS84,0.7222,0.6967,1.4772,"",0.000,0.000,54,39,39,39,00,06,39,33*ebf5ddb8
#BESTPOSA,FILE,0,36.5,FINESTEERING,2319,305225.600,02000000,cdba,17139;SOL_COMPUTED,INS_RTKFIXED,17.58800648363,78.12100118003,529.0184,-76.3000,WGS84,0.7222,0.6967,1.4772,"",0.000,0.000,54,39,39,39,00,06,39,33*04338a91
#BESTPOSA,FILE,0,36.5,FINESTEERING,2319,305225.650,02000000,cdba,17139;SOL_COMPUTED,INS_RTKFIXED,17.58800603790,78.12100187030,529.0182,-76.3000,WGS84,0.7222,0.6967,1.4772,"",0.000,0.000,54,39,39,39,00,06,39,33*b1a87c6a
#BESTPOSA,FILE,0,36.5,FINESTEERING,2319,305225.700,02000000,cdba,17139;SOL_COMPUTED,INS_RTKFIXED,17.58800560778,78.12100258589,529.0186,-76.3000,WGS84,0.7222,0.6967,1.4772,"",0.000,0.000,54,39,39,39,00,06,39,33*e6356ee9
#BESTPOSA,FILE,0,36.5,FINESTEERING,2319,305225.750,02000000,cdba,17139;SOL_COMPUTED,INS_RTKFIXED,17.58800516466,78.12100331839,529.0184,-76.3000,WGS84,0.7222,0.6967,1.4772,"",0.000,0.000,54,39,39,39,00,06,39,33*2442ed7a
#BESTPOSA,FILE,0,36.5,FINESTEERING,2319,305225.800,02000000,cdba,17139;SOL_COMPUTED,INS_RTKFIXED,17.58800472399,78.12100406424,529.0185,-76.3000,WGS84,0.7222,0.6967,1.4772,"",0.000,0.000,54,39,39,39,00,06,39,33*7274059b
#BESTPOSA,FILE,0,36.5,FINESTEERING,2319,305225.850,02000000,cdba,17139;SOL_COMPUTED,INS_RTKFIXED,17.58800426643,78.12100483328,529.0189,-76.3000,WGS84,0.7222,0.6967,1.4772,"",0.000,0.000,54,39,39,39,00,06,39,33*33ff1f65
#BESTPOSA,FILE,0,36.5,FINESTEERING,2319,305225.900,02000000,cdba,17139;SOL_COMPUTED,INS_RTKFIXED,17.58800380754,78.12100561352,529.0196,-76.3000,WGS84,0.7222,0.6967,1.4772,"",0.000,0.000,54,39,39,39,00,06,39,33*aac54d99
#BESTPOSA,FILE,0,36.5,FINESTEERING,2319,305225.950,02000000,cdba,17139;SOL_COMPUTED,INS_RTKFIXED,17.58800332296,78.12100642620,529.0214,-76.3000,WGS84,0.7222,0.6967,1.4772,"",0.000,0.000,54,39,39,39,00,06,39,33*41b41b73
#BESTPOSA,FILE,0,36.5,FINESTEERING,2319,305226.000,02000000,cdba,17139;SOL_COMPUTED,INS_RTKFIXED,17.58800283997,78.12100723480,529.0230,-76.3000,WGS84,0.7222,0.6967,1.4772,"",0.000,0.000,54,39,39,39,00,06,39,33*f77dcdfd
#BESTPOSA,FILE,0,36.5,FINESTEERING,2319,305226.050,02000000,cdba,17139;SOL_COMPUTED,INS_RTKFIXED,17.58800233745,78.12100808232,529.0251,-76.3000,WGS84,0.7246,0.6991,1.4750,"",0.000,0.000,53,38,38,38,00,06,39,33*e74d919b
#BESTPOSA,FILE,0,26.5,FINESTEERING,2319,305226.100,02000000,cdba,17139;SOL_COMPUTED,INS_RTKFIXED,17.58800184897,78.12100895930,529.0282,-76.3000,WGS84,0.7246,0.6991,1.4750,"",0.000,0.000,53,38,38,38,00,06,39,33*2b5bfc11
#BESTPOSA,FILE,0,26.5,FINESTEERING,2319,305226.150,02000000,cdba,17139;SOL_COMPUTED,INS_RTKFIXED,17.58800137596,78.12100985474,529.0316,-76.3000,WGS84,0.7246,0.6991,1.4750,"",0.000,0.000,53,38,38,38,00,06,39,33*0354f9fc
#BESTPOSA,FILE,0,26.5,FINESTEERING,2319,305226.200,02000000,cdba,17139;SOL_COMPUTED,INS_RTKFIXED,17.58800088553,78.12101077477,529.0338,-76.3000,WGS84,0.7246,0.6991,1.4750,"",0.000,0.000,53,38,38,38,00,06,39,33*910c9565
#BESTPOSA,FILE,0,26.5,FINESTEERING,2319,305226.250,02000000,cdba,17139;SOL_COMPUTED,INS_RTKFIXED,17.58800039580,78.12101171180,529.0352,-76.3000,WGS84,0.7246,0.6991,1.4750,"",0.000,0.000,53,38,38,38,00,06,39,33*91a20458
#BESTPOSA,FILE,0,26.5,FINESTEERING,2319,305226.300,02000000,cdba,17139;SOL_COMPUTED,INS_RTKFIXED,17.58799990239,78.12101266671,529.0359,-76.3000,WGS84,0.7246,0.6991,1.4750,"",0.000,0.000,53,38,38,38,00,06,39,33*7a0a992d
#BESTPOSA,FILE,0,26.5,FINESTEERING,2319,305226.350,02000000,cdba,17139;SOL_COMPUTED,INS_RTKFIXED,17.58799941871,78.12101366916,529.0367,-76.3000,WGS84,0.7246,0.6991,1.4750,"",0.000,0.000,53,38,38,38,00,06,39,33*83599b28
#BESTPOSA,FILE,0,26.5,FINESTEERING,2319,305226.400,02000000,cdba,17139;SOL_COMPUTED,INS_RTKFIXED,17.58799891888,78.12101466289,529.0359,-76.3000,WGS84,0.7246,0.6991,1.4750,"",0.000,0.000,53,38,38,38,00,06,39,33*62abafcd
#BESTPOSA,FILE,0,26.5,FINESTEERING,2319,305226.450,02000000,cdba,17139;SOL_COMPUTED,INS_RTKFIXED,17.58799840293,78.12101569398,529.0351,-76.3000,WGS84,0.7246,0.6991,1.4750,"",0.000,0.000,53,38,38,38,00,06,39,33*072a884c
#BESTPOSA,FILE,0,26.5,FINESTEERING,2319,305226.500,02000000,cdba,17139;SOL_COMPUTED,INS_RTKFIXED,17.58799787624,78.12101672650,529.0340,-76.3000,WGS84,0.7246,0.6991,1.4750,"",0.000,0.000,53,38,38,38,00,06,39,33*5c280729
#BESTPOSA,FILE,0,26.5,FINESTEERING,2319,305226.550,02000000,cdba,17139;SOL_COMPUTED,INS_RTKFIXED,17.58799735159,78.12101778541,529.0349,-76.3000,WGS84,0.7246,0.6991,1.4750,"",0.000,0.000,53,38,38,38,00,06,39,33*178b942a
#BESTPOSA,FILE,0,26.5,FINESTEERING,2319,305226.600,02000000,cdba,17139;SOL_COMPUTED,INS_RTKFIXED,17.58799680375,78.12101886876,529.0354,-76.3000,WGS84,0.7246,0.6991,1.4750,"",0.000,0.000,53,38,38,38,00,06,39,33*14c0e8cd
#BESTPOSA,FILE,0,26.5,FINESTEERING,2319,305226.650,02000000,cdba,17139;SOL_COMPUTED,INS_RTKFIXED,17.58799627407,78.12101996453,529.0374,-76.3000,WGS84,0.7246,0.6991,1.4750,"",0.000,0.000,53,38,38,38,00,06,39,33*540f1fe2
#BESTPOSA,FILE,0,26.5,FINESTEERING,2319,305226.700,02000000,cdba,17139;SOL_COMPUTED,INS_RTKFIXED,17.58799569206,78.12102107091,529.0363,-76.3000,WGS84,0.7246,0.6991,1.4750,"",0.000,0.000,53,38,38,38,00,06,39,33*90bc107d
#BESTPOSA,FILE,0,26.5,FINESTEERING,2319,305226.750,02000000,cdba,17139;SOL_COMPUTED,INS_RTKFIXED,17.58799515441,78.12102219276,529.0376,-76.3000,WGS84,0.7246,0.6991,1.4750,"",0.000,0.000,53,38,38,38,00,06,39,33*df01dc28
#BESTPOSA,FILE,0,26.5,FINESTEERING,2319,305226.800,02000000,cdba,17139;SOL_COMPUTED,INS_RTKFIXED,17.58799459223,78.12102333897,529.0364,-76.3000,WGS84,0.7246,0.6991,1.4750,"",0.000,0.000,53,38,38,38,00,06,39,33*bf378716
#BESTPOSA,FILE,0,26.5,FINESTEERING,2319,305226.850,02000000,cdba,17139;SOL_COMPUTED,INS_RTKFIXED,17.58799405213,78.12102450373,529.0356,-76.3000,WGS84,0.7246,0.6991,1.4750,"",0.000,0.000,53,38,38,38,00,06,39,33*22386175
#BESTPOSA,FILE,0,26.5,FINESTEERING,2319,305226.900,02000000,cdba,17139;SOL_COMPUTED,INS_RTKFIXED,17.58799349336,78.12102568328,529.0323,-76.3000,WGS84,0.7246,0.6991,1.4750,"",0.000,0.000,53,38,38,38,00,06,39,33*a72941a9
#BESTPOSA,FILE,0,26.5,FINESTEERING,2319,305226.950,02000000,cdba,17139;SOL_COMPUTED,INS_RTKFIXED,17.58799293163,78.12102691367,529.0307,-76.3000,WGS84,0.7246,0.6991,1.4750,"",0.000,0.000,53,38,38,38,00,06,39,33*e87f640d
#BESTPOSA,FILE,0,26.5,FINESTEERING,2319,305227.000,02000000,cdba,17139;SOL_COMPUTED,INS_RTKFIXED,17.58799238019,78.12102813786,529.0288,-76.3000,WGS84,0.7246,0.6991,1.4750,"",0.000,0.000,53,38,38,38,00,06,39,33*95dcca61
#BESTPOSA,FILE,0,26.5,FINESTEERING,2319,305227.050,02000000,cdba,17139;SOL_COMPUTED,INS_RTKFIXED,17.58799179805,78.12102940686,529.0270,-76.3000,WGS84,0.7266,0.7011,1.4731,"",0.000,0.000,54,39,39,39,00,06,39,33*d723ae6d
#BESTPOSA,FILE,0,26.5,FINESTEERING,2319,305227.100,02000000,cdba,17139;SOL_COMPUTED,INS_RTKFIXED,17.58799121468,78.12103068525,529.0245,-76.3000,WGS84,0.7266,0.7011,1.4731,"",0.000,0.000,54,39,39,39,00,06,39,33*9ec9327b
#BESTPOSA,FILE,0,29.0,FINESTEERING,2319,305227.150,02000000,cdba,17139;SOL_COMPUTED,INS_RTKFIXED,17.58799064269,78.12103197250,529.0233,-76.3000,WGS84,0.7266,0.7011,1.4731,"",0.000,0.000,54,39,39,39,00,06,39,33*3ad9ce7c
#BESTPOSA,FILE,0,29.0,FINESTEERING,2319,305227.200,02000000,cdba,17139;SOL_COMPUTED,INS_RTKFIXED,17.58799002697,78.12103328477,529.0187,-76.3000,WGS84,0.7266,0.7011,1.4731,"",0.000,0.000,54,39,39,39,00,06,39,33*48e5a049
#BESTPOSA,FILE,0,29.0,FINESTEERING,2319,305227.250,02000000,cdba,17139;SOL_COMPUTED,INS_RTKFIXED,17.58798942189,78.12103461199,529.0155,-76.3000,WGS84,0.7266,0.7011,1.4731,"",0.000,0.000,54,39,39,39,00,06,39,33*4773f5bb
#BESTPOSA,FILE,0,29.0,FINESTEERING,2319,305227.300,02000000,cdba,17139;SOL_COMPUTED,INS_RTKFIXED,17.58798883236,78.12103596954,529.0122,-76.3000,WGS84,0.7266,0.7011,1.4731,"",0.000,0.000,54,39,39,39,00,06,39,33*728420e1
#BESTPOSA,FILE,0,29.0,FINESTEERING,2319,305227.350,02000000,cdba,17139;SOL_COMPUTED,INS_RTKFIXED,17.58798824284,78.12103734219,529.0074,-76.3000,WGS84,0.7266,0.7011,1.4731,"",0.000,0.000,54,39,39,39,00,06,39,33*11d3f8d8
#BESTPOSA,FILE,0,29.0,FINESTEERING,2319,305227.400,02000000,cdba,17139;SOL_COMPUTED,INS_RTKFIXED,17.58798765522,78.12103872530,529.0025,-76.3000,WGS84,0.7266,0.7011,1.4731,"",0.000,0.000,54,39,39,39,00,06,39,33*21a89c5a
#BESTPOSA,FILE,0,29.0,FINESTEERING,2319,305227.450,02000000,cdba,17139;SOL_COMPUTED,INS_RTKFIXED,17.58798707707,78.12104010387,528.9977,-76.3000,WGS84,0.7266,0.7011,1.4731,"",0.000,0.000,54,39,39,39,00,06,39,33*4e85a483
#BESTPOSA,FILE,0,29.0,FINESTEERING,2319,305227.500,02000000,cdba,17139;SOL_COMPUTED,INS_RTKFIXED,17.58798650730,78.12104151936,528.9938,-76.3000,WGS84,0.7266,0.7011,1.4731,"",0.000,0.000,54,39,39,39,00,06,39,33*367faa01
#BESTPOSA,FILE,0,29.0,FINESTEERING,2319,305227.550,02000000,cdba,17139;SOL_COMPUTED,INS_RTKFIXED,17.58798595185,78.12104297963,528.9930,-76.3000,WGS84,0.7266,0.7011,1.4731,"",0.000,0.000,54,39,39,39,00,06,39,33*932b2266
#BESTPOSA,FILE,0,29.0,FINESTEERING,2319,305227.600,02000000,cdba,17139;SOL_COMPUTED,INS_RTKFIXED,17.58798540809,78.12104444628,528.9932,-76.3000,WGS84,0.7266,0.7011,1.4731,"",0.000,0.000,54,39,39,39,00,06,39,33*13964a53
#BESTPOSA,FILE,0,29.0,FINESTEERING,2319,305227.650,02000000,cdba,17139;SOL_COMPUTED,INS_RTKFIXED,17.58798485756,78.12104592734,528.9930,-76.3000,WGS84,0.7266,0.7011,1.4731,"",0.000,0.000,54,39,39,39,00,06,39,33*f7977459
#BESTPOSA,FILE,0,29.0,FINESTEERING,2319,305227.700,02000000,cdba,17139;SOL_COMPUTED,INS_RTKFIXED,17.58798428157,78.12104744481,528.9900,-76.3000,WGS84,0.7266,0.7011,1.4731,"",0.000,0.000,54,39,39,39,00,06,39,33*ebd94680
#BESTPOSA,FILE,0,29.0,FINESTEERING,2319,305227.750,02000000,cdba,17139;SOL_COMPUTED,INS_RTKFIXED,17.58798373292,78.12104895019,528.9867,-76.3000,WGS84,0.7266,0.7011,1.4731,"",0.000,0.000,54,39,39,39,00,06,39,33*dcc7b340
#BESTPOSA,FILE,0,29.0,FINESTEERING,2319,305227.800,02000000,cdba,17139;SOL_COMPUTED,INS_RTKFIXED,17.58798316198,78.12105047423,528.9789,-76.3000,WGS84,0.7266,0.7011,1.4731,"",0.000,0.000,54,39,39,39,00,06,39,33*dd8ee003
#BESTPOSA,FILE,0,29.0,FINESTEERING,2319,305227.850,02000000,cdba,17139;SOL_COMPUTED,INS_RTKFIXED,17.58798260027,78.12105199993,528.9714,-76.3000,WGS84,0.7266,0.7011,1.4731,"",0.000,0.000,54,39,39,39,00,06,39,33*e2b92a07
#BESTPOSA,FILE,0,29.0,FINESTEERING,2319,305227.900,02000000,cdba,17139;SOL_COMPUTED,INS_RTKFIXED,17.58798202338,78.12105352519,528.9627,-76.3000,WGS84,0.7266,0.7011,1.4731,"",0.000,0.000,54,39,39,39,00,06,39,33*f5a1578b
#BESTPOSA,FILE,0,29.0,FINESTEERING,2319,305227.950,02000000,cdba,17139;SOL_COMPUTED,INS_RTKFIXED,17.58798140703,78.12105508831,528.9547,-76.3000,WGS84,0.7266,0.7011,1.4731,"",0.000,0.000,54,39,39,39,00,06,39,33*1afc078e
#BESTPOSA,FILE,0,29.0,FINESTEERING,2319,305228.000,02000000,cdba,17139;SOL_COMPUTED,INS_RTKFIXED,17.58798082563,78.12105666523,528.9481,-76.3000,WGS84,0.7266,0.7011,1.4731,"",0.000,0.000,54,39,39,39,00,06,39,33*97faee9b
#BESTPOSA,FILE,0,29.0,FINESTEERING,2319,305228.050,02000000,cdba,17139;SOL_COMPUTED,INS_RTKFIXED,17.58798021780,78.12105824794,528.9412,-76.3000,WGS84,0.7284,0.7029,1.4716,"",0.000,0.000,54,39,39,39,00,06,39,33*020804aa
#BESTPOSA,FILE,0,29.0,FINESTEERING,2319,305228.100,02000000,cdba,17139;SOL_COMPUTED,INS_RTKFIXED,17.58797960231,78.12105987041,528.9380,-76.3000,WGS84,0.7284,0.7029,1.4716,"",0.000,0.000,54,39,39,39,00,06,39,33*b457b87a
#BESTPOSA,FILE,0,32.5,FINESTEERING,2319,305228.150,02000000,cdba,17139;SOL_COMPUTED,INS_RTKFIXED,17.58797898400,78.12106149705,528.9391,-76.3000,WGS84,0.7284,0.7029,1.4716,"",0.000,0.000,54,39,39,39,00,06,39,33*1c03d9d7
#BESTPOSA,FILE,0,32.5,FINESTEERING,2319,305228.200,02000000,cdba,17139;SOL_COMPUTED,INS_RTKFIXED,17.58797837096,78.12106316296,528.9412,-76.3000,WGS84,0.7284,0.7029,1.4716,"",0.000,0.000,54,39,39,39,00,06,39,33*54d199c5
#BESTPOSA,FILE,0,32.5,FINESTEERING,2319,305228.250,02000000,cdba,17139;SOL_COMPUTED,INS_RTKFIXED,17.58797777031,78.12106483557,528.9422,-76.3000,WGS84,0.7284,0.7029,1.4716,"",0.000,0.000,54,39,39,39,00,06,39,33*c5ca732c
#BESTPOSA,FILE,0,32.5,FINESTEERING,2319,305228.300,02000000,cdba,17139;SOL_COMPUTED,INS_RTKFIXED,17.58797718717,78.12106649981,528.9426,-76.3000,WGS84,0.7284,0.7029,1.4716,"",0.000,0.000,54,39,39,39,00,06,39,33*efd01c79
#BESTPOSA,FILE,0,32.5,FINESTEERING,2319,305228.350,02000000,cdba,17139;SOL_COMPUTED,INS_RTKFIXED,17.58797660436,78.12106816923,528.9412,-76.3000,WGS84,0.7284,0.7029,1.4716,"",0.000,0.000,54,39,39,39,00,06,39,33*efe7c939
#BESTPOSA,FILE,0,32.5,FINESTEERING,2319,305228.400,02000000,cdba,17139;SOL_COMPUTED,INS_RTKFIXED,17.58797597104,78.12106982318,528.9346,-76.3000,WGS84,0.7284,0.7029,1.4716,"",0.000,0.000,54,39,39,39,00,06,39,33*1da22b7b
#BESTPOSA,FILE,0,32.5,FINESTEERING,2319,305228.450,02000000,cdba,17139;SOL_COMPUTED,INS_RTKFIXED,17.58797534435,78.12107147835,528.9273,-76.3000,WGS84,0.7284,0.7029,1.4716,"",0.000,0.000,54,39,39,39,00,06,39,33*708b86c9
#BESTPOSA,FILE,0,32.5,FINESTEERING,2319,305228.500,02000000,cdba,17139;SOL_COMPUTED,INS_RTKFIXED,17.58797470171,78.12107316683,528.9202,-76.3000,WGS84,0.7284,0.7029,1.4716,"",0.000,0.000,54,39,39,39,00,06,39,33*4cf15b1a
#BESTPOSA,FILE,0,32.5,FINESTEERING,2319,305228.550,02000000,cdba,17139;SOL_COMPUTED,INS_RTKFIXED,17.58797411124,78.12107486608,528.9168,-76.3000,WGS84,0.7284,0.7029,1.4716,"",0.000,0.000,54,39,39,39,00,06,39,33*081bf72a
#BESTPOSA,FILE,0,32.5,FINESTEERING,2319,305228.600,02000000,cdba,17139;SOL_COMPUTED,INS_RTKFIXED,17.58797347787,78.12107660799,528.9100,-76.3000,WGS84,0.7284,0.7029,1.4716,"",0.000,0.000,54,39,39,39,00,06,39,33*e1947df5
#BESTPOSA,FILE,0,32.5,FINESTEERING,2319,305228.650,02000000,cdba,17139;SOL_COMPUTED,INS_RTKFIXED,17.58797287493,78.12107833680,528.9047,-76.3000,WGS84,0.7284,0.7029,1.4716,"",0.000,0.000,54,39,39,39,00,06,39,33*bb795f41
#BESTPOSA,FILE,0,32.5,FINESTEERING,2319,305228.700,02000000,cdba,17139;SOL_COMPUTED,INS_RTKFIXED,17.58797225951,78.12108008809,528.9001,-76.3000,WGS84,0.7284,0.7029,1.4716,"",0.000,0.000,54,39,39,39,00,06,39,33*48238049
#BESTPOSA,FILE,0,32.5,FINESTEERING,2319,305228.750,02000000,cdba,17139;SOL_COMPUTED,INS_RTKFIXED,17.58797162097,78.12108186544,528.8959,-76.3000,WGS84,0.7284,0.7029,1.4716,"",0.000,0.000,54,39,39,39,00,06,39,33*0582b899
#BESTPOSA,FILE,0,32.5,FINESTEERING,2319,305228.800,02000000,cdba,17139;SOL_COMPUTED,INS_RTKFIXED,17.58797104287,78.12108361627,528.8925,-76.3000,WGS84,0.7284,0.7029,1.4716,"",0.000,0.000,54,39,39,39,00,06,39,33*9c02a338
#BESTPOSA,FILE,0,32.5,FINESTEERING,2319,305228.850,02000000,cdba,17139;SOL_COMPUTED,INS_RTKFIXED,17.58797042019,78.12108535293,528.8857,-76.3000,WGS84,0.7284,0.7029,1.4716,"",0.000,0.000,54,39,39,39,00,06,39,33*dfb6100c
#BESTPOSA,FILE,0,32.5,FINESTEERING,2319,305228.900,02000000,cdba,17139;SOL_COMPUTED,INS_RTKFIXED,17.58796982943,78.12108713221,528.8842,-76.3000,WGS84,0.7284,0.7029,1.4716,"",0.000,0.000,54,39,39,39,00,06,39,33*d8f853d1
#BESTPOSA,FILE,0,32.5,FINESTEERING,2319,305228.950,02000000,cdba,17139;SOL_COMPUTED,INS_RTKFIXED,17.58796918951,78.12108888546,528.8807,-76.3000,WGS84,0.7284,0.7029,1.4716,"",0.000,0.000,54,39,39,39,00,06,39,33*4997cc81
#BESTPOSA,FILE,0,32.5,FINESTEERING,2319,305229.000,02000000,cdba,17139;SOL_COMPUTED,INS_RTKFIXED,17.58796852620,78.12109065759,528.8791,-76.3000,WGS84,0.7284,0.7029,1.4716,"",0.000,0.000,54,39,39,39,00,06,39,33*10320fd1
#BESTPOSA,FILE,0,32.5,FINESTEERING,2319,305229.050,02000000,cdba,17139;SOL_COMPUTED,INS_RTKFIXED,17.58796780738,78.12109244528,528.8761,-76.3000,WGS84,0.7302,0.7043,1.4711,"",0.000,0.000,54,39,39,39,00,06,39,33*cb4032f2
#BESTPOSA,FILE,0,31.5,FINESTEERING,2319,305229.100,02000000,cdba,17139;SOL_COMPUTED,INS_RTKFIXED,17.58796707849,78.12109423305,528.8724,-76.3000,WGS84,0.7302,0.7043,1.4711,"",0.000,0.000,54,39,39,39,00,06,39,33*76d8b90f
#BESTPOSA,FILE,0,31.5,FINESTEERING,2319,305229.150,02000000,cdba,17139;SOL_COMPUTED,INS_RTKFIXED,17.58796633795,78.12109604571,528.8679,-76.3000,WGS84,0.7302,0.7043,1.4711,"",0.000,0.000,54,39,39,39,00,06,39,33*4923fbbd
#BESTPOSA,FILE,0,31.5,FINESTEERING,2319,305229.200,02000000,cdba,17139;SOL_COMPUTED,INS_RTKFIXED,17.58796564633,78.12109788116,528.8650,-76.3000,WGS84,0.7302,0.7043,1.4711,"",0.000,0.000,54,39,39,39,00,06,39,33*a7f97b89
#BESTPOSA,FILE,0,31.5,FINESTEERING,2319,305229.250,02000000,cdba,17139;SOL_COMPUTED,INS_RTKFIXED,17.58796491926,78.12109972473,528.8553,-76.3000,WGS84,0.7302,0.7043,1.4711,"",0.000,0.000,54,39,39,39,00,06,39,33*72a83db9
#BESTPOSA,FILE,0,31.5,FINESTEERING,2319,305229.300,02000000,cdba,17139;SOL_COMPUTED,INS_RTKFIXED,17.58796423335,78.12110156720,528.8503,-76.3000,WGS84,0.7302,0.7043,1.4711,"",0.000,0.000,54,39,39,39,00,06,39,33*9e88143c
#BESTPOSA,FILE,0,31.5,FINESTEERING,2319,305229.350,02000000,cdba,17139;SOL_COMPUTED,INS_RTKFIXED,17.58796356377,78.12110347957,528.8472,-76.3000,WGS84,0.7302,0.7043,1.4711,"",0.000,0.000,54,39,39,39,00,06,39,33*be12e695
#BESTPOSA,FILE,0,31.5,FINESTEERING,2319,305229.400,02000000,cdba,17139;SOL_COMPUTED,INS_RTKFIXED,17.58796287216,78.12110534962,528.8478,-76.3000,WGS84,0.7302,0.7043,1.4711,"",0.000,0.000,54,39,39,39,00,06,39,33*0077f6d7
#BESTPOSA,FILE,0,31.5,FINESTEERING,2319,305229.450,02000000,cdba,17139;SOL_COMPUTED,INS_RTKFIXED,17.58796220858,78.12110726949,528.8556,-76.3000,WGS84,0.7302,0.7043,1.4711,"",0.000,0.000,54,39,39,39,00,06,39,33*ee922c6f
#BESTPOSA,FILE,0,31.5,FINESTEERING,2319,305229.500,02000000,cdba,17139;SOL_COMPUTED,INS_RTKFIXED,17.58796146640,78.12110917794,528.8597,-76.3000,WGS84,0.7302,0.7043,1.4711,"",0.000,0.000,54,39,39,39,00,06,39,33*81a036a1
#BESTPOSA,FILE,0,31.5,FINESTEERING,2319,305229.550,02000000,cdba,17139;SOL_COMPUTED,INS_RTKFIXED,17.58796072127,78.12111106819,528.8657,-76.3000,WGS84,0.7302,0.7043,1.4711,"",0.000,0.000,54,39,39,39,00,06,39,33*848d1576
#BESTPOSA,FILE,0,31.5,FINESTEERING,2319,305229.600,02000000,cdba,17139;SOL_COMPUTED,INS_RTKFIXED,17.58795993290,78.12111295964,528.8697,-76.3000,WGS84,0.7302,0.7043,1.4711,"",0.000,0.000,54,39,39,39,00,06,39,33*d63dd57e
#BESTPOSA,FILE,0,31.5,FINESTEERING,2319,305229.650,02000000,cdba,17139;SOL_COMPUTED,INS_RTKFIXED,17.58795915962,78.12111484252,528.8708,-76.3000,WGS84,0.7302,0.7043,1.4711,"",0.000,0.000,54,39,39,39,00,06,39,33*a05de977
#BESTPOSA,FILE,0,31.5,FINESTEERING,2319,305229.700,02000000,cdba,17139;SOL_COMPUTED,INS_RTKFIXED,17.58795836622,78.12111673923,528.8682,-76.3000,WGS84,0.7302,0.7043,1.4711,"",0.000,0.000,54,39,39,39,00,06,39,33*35a6df22
#BESTPOSA,FILE,0,31.5,FINESTEERING,2319,305229.750,02000000,cdba,17139;SOL_COMPUTED,INS_RTKFIXED,17.58795760690,78.12111863717,528.8639,-76.3000,WGS84,0.7302,0.7043,1.4711,"",0.000,0.000,54,39,39,39,00,06,39,33*7d3de142
#BESTPOSA,FILE,0,31.5,FINESTEERING,2319,305229.800,02000000,cdba,17139;SOL_COMPUTED,INS_RTKFIXED,17.58795682543,78.12112054065,528.8563,-76.3000,WGS84,0.7302,0.7043,1.4711,"",0.000,0.000,54,39,39,39,00,06,39,33*b9b98f2b
#BESTPOSA,FILE,0,31.5,FINESTEERING,2319,305229.850,02000000,cdba,17139;SOL_COMPUTED,INS_RTKFIXED,17.58795609134,78.12112247945,528.8524,-76.3000,WGS84,0.7302,0.7043,1.4711,"",0.000,0.000,54,39,39,39,00,06,39,33*5d97cb3a
#BESTPOSA,FILE,0,31.5,FINESTEERING,2319,305229.900,02000000,cdba,17139;SOL_COMPUTED,INS_RTKFIXED,17.58795539871,78.12112442988,528.8483,-76.3000,WGS84,0.7302,0.7043,1.4711,"",0.000,0.000,54,39,39,39,00,06,39,33*47bd08fe
#BESTPOSA,FILE,0,31.5,FINESTEERING,2319,305229.950,02000000,cdba,17139;SOL_COMPUTED,INS_RTKFIXED,17.58795471500,78.12112640235,528.8488,-76.3000,WGS84,0.7302,0.7043,1.4711,"",0.000,0.000,54,39,39,39,00,06,39,33*c6b0c728
#BESTPOSA,FILE,0,31.5,FINESTEERING,2319,305230.000,02000000,cdba,17139;SOL_COMPUTED,INS_RTKFIXED,17.58795401789,78.12112838704,528.8529,-76.3000,WGS84,0.7302,0.7043,1.4711,"",0.000,0.000,54,39,39,39,00,06,39,33*65253e5d
#BESTPOSA,FILE,0,31.5,FINESTEERING,2319,305230.050,02000000,cdba,17139;SOL_COMPUTED,INS_RTKFIXED,17.58795328357,78.12113037837,528.8584,-76.3000,WGS84,0.7317,0.7053,1.4702,"",0.000,0.000,54,39,39,39,00,06,39,37*38e720f9
#BESTPOSA,FILE,0,29.5,FINESTEERING,2319,305230.100,02000000,cdba,17139;SOL_COMPUTED,INS_RTKFIXED,17.58795252908,78.12113237366,528.8646,-76.3000,WGS84,0.7317,0.7053,1.4702,"",0.000,0.000,54,39,39,39,00,06,39,37*3c4041dc
#BESTPOSA,FILE,0,29.5,FINESTEERING,2319,305230.150,02000000,cdba,17139;SOL_COMPUTED,INS_RTKFIXED,17.58795172525,78.12113437713,528.8701,-76.3000,WGS84,0.7317,0.7053,1.4702,"",0.000,0.000,54,39,39,39,00,06,39,37*26c201b7
#BESTPOSA,FILE,0,29.5,FINESTEERING,2319,305230.200,02000000,cdba,17139;SOL_COMPUTED,INS_RTKFIXED,17.58795092996,78.12113636346,528.8741,-76.3000,WGS84,0.7317,0.7053,1.4702,"",0.000,0.000,54,39,39,39,00,06,39,37*61ed417b
#BESTPOSA,FILE,0,29.5,FINESTEERING,2319,305230.250,02000000,cdba,17139;SOL_COMPUTED,INS_RTKFIXED,17.58795010723,78.12113832664,528.8723,-76.3000,WGS84,0.7317,0.7053,1.4702,"",0.000,0.000,54,39,39,39,00,06,39,37*ad30d3f4
#BESTPOSA,FILE,0,29.5,FINESTEERING,2319,305230.300,02000000,cdba,17139;SOL_COMPUTED,INS_RTKFIXED,17.58794924154,78.12114026232,528.8653,-76.3000,WGS84,0.7317,0.7053,1.4702,"",0.000,0.000,54,39,39,39,00,06,39,37*f4b9e3b1
#BESTPOSA,FILE,0,29.5,FINESTEERING,2319,305230.350,02000000,cdba,17139;SOL_COMPUTED,INS_RTKFIXED,17.58794834934,78.12114219449,528.8564,-76.3000,WGS84,0.7317,0.7053,1.4702,"",0.000,0.000,54,39,39,39,00,06,39,37*cb652066
#BESTPOSA,FILE,0,29.5,FINESTEERING,2319,305230.400,02000000,cdba,17139;SOL_COMPUTED,INS_RTKFIXED,17.58794747485,78.12114412924,528.8474,-76.3000,WGS84,0.7317,0.7053,1.4702,"",0.000,0.000,54,39,39,39,00,06,39,37*3a128b19
#BESTPOSA,FILE,0,29.5,FINESTEERING,2319,305230.450,02000000,cdba,17139;SOL_COMPUTED,INS_RTKFIXED,17.58794665543,78.12114608977,528.8424,-76.3000,WGS84,0.7317,0.7053,1.4702,"",0.000,0.000,54,39,39,39,00,06,39,37*5780df41
#BESTPOSA,FILE,0,29.5,FINESTEERING,2319,305230.500,02000000,cdba,17139;SOL_COMPUTED,INS_RTKFIXED,17.58794582889,78.12114808608,528.8390,-76.3000,WGS84,0.7317,0.7053,1.4702,"",0.000,0.000,54,39,39,39,00,06,39,37*053f87f2
#BESTPOSA,FILE,0,29.5,FINESTEERING,2319,305230.550,02000000,cdba,17139;SOL_COMPUTED,INS_RTKFIXED,17.58794501893,78.12115009250,528.8425,-76.3000,WGS84,0.7317,0.7053,1.4702,"",0.000,0.000,54,39,39,39,00,06,39,37*7c5c5064
#BESTPOSA,FILE,0,29.5,FINESTEERING,2319,305230.600,02000000,cdba,17139;SOL_COMPUTED,INS_RTKFIXED,17.58794421084,78.12115214961,528.8504,-76.3000,WGS84,0.7317,0.7053,1.4702,"",0.000,0.000,54,39,39,39,00,06,39,37*4ad81d86
#BESTPOSA,FILE,0,29.5,FINESTEERING,2319,305230.650,02000000,cdba,17139;SOL_COMPUTED,INS_RTKFIXED,17.58794337894,78.12115417583,528.8569,-76.3000,WGS84,0.7317,0.7053,1.4702,"",0.000,0.000,54,39,39,39,00,06,39,37*dd6256af
#BESTPOSA,FILE,0,29.5,FINESTEERING,2319,305230.700,02000000,cdba,17139;SOL_COMPUTED,INS_RTKFIXED,17.58794254833,78.12115621934,528.8624,-76.3000,WGS84,0.7317,0.7053,1.4702,"",0.000,0.000,54,39,39,39,00,06,39,37*ac9d1bef
#BESTPOSA,FILE,0,29.5,FINESTEERING,2319,305230.750,02000000,cdba,17139;SOL_COMPUTED,INS_RTKFIXED,17.58794169743,78.12115823832,528.8664,-76.3000,WGS84,0.7317,0.7053,1.4702,"",0.000,0.000,54,39,39,39,00,06,39,37*4f76cd21
#BESTPOSA,FILE,0,29.5,FINESTEERING,2319,305230.800,02000000,cdba,17139;SOL_COMPUTED,INS_RTKFIXED,17.58794082998,78.12116023452,528.8687,-76.3000,WGS84,0.7317,0.7053,1.4702,"",0.000,0.000,54,39,39,39,00,06,39,37*ad59d47c
#BESTPOSA,FILE,0,29.5,FINESTEERING,2319,305230.850,02000000,cdba,17139;SOL_COMPUTED,INS_RTKFIXED,17.58793991815,78.12116222887,528.8686,-76.3000,WGS84,0.7317,0.7053,1.4702,"",0.000,0.000,54,39,39,39,00,06,39,37*f7c35989
#BESTPOSA,FILE,0,29.5,FINESTEERING,2319,305230.900,02000000,cdba,17139;SOL_COMPUTED,INS_RTKFIXED,17.58793898696,78.12116421186,528.8674,-76.3000,WGS84,0.7317,0.7053,1.4702,"",0.000,0.000,54,39,39,39,00,06,39,37*be1279e8
#BESTPOSA,FILE,0,29.5,FINESTEERING,2319,305230.950,02000000,cdba,17139;SOL_COMPUTED,INS_RTKFIXED,17.58793800554,78.12116618643,528.8659,-76.3000,WGS84,0.7317,0.7053,1.4702,"",0.000,0.000,54,39,39,39,00,06,39,37*a0232973
#BESTPOSA,FILE,0,29.5,FINESTEERING,2319,305231.000,02000000,cdba,17139;SOL_COMPUTED,INS_RTKFIXED,17.58793703043,78.12116817154,528.8660,-76.3000,WGS84,0.7317,0.7053,1.4702,"",0.000,0.000,54,39,39,39,00,06,39,37*24e863c0
#BESTPOSA,FILE,0,29.5,FINESTEERING,2319,305231.050,02000000,cdba,17139;SOL_COMPUTED,INS_RTKFIXED,17.58793605426,78.12117015296,528.8677,-76.3000,WGS84,0.7332,0.7059,1.4694,"",0.000,0.000,54,39,39,39,00,06,39,37*daa3ab27
#BESTPOSA,FILE,0,29.5,FINESTEERING,2319,305231.100,02000000,cdba,17139;SOL_COMPUTED,INS_RTKFIXED,17.58793500069,78.12117215003,528.8688,-76.3000,WGS84,0.7332,0.7059,1.4694,"",0.000,0.000,54,39,39,39,00,06,39,37*34183b37
#BESTPOSA,FILE,0,29.5,FINESTEERING,2319,305231.150,02000000,cdba,17139;SOL_COMPUTED,INS_RTKFIXED,17.58793392870,78.12117414864,528.8718,-76.3000,WGS84,0.7332,0.7059,1.4694,"",0.000,0.000,54,39,39,39,00,06,39,37*1578389c
#BESTPOSA,FILE,0,29.5,FINESTEERING,2319,305231.200,02000000,cdba,17139;SOL_COMPUTED,INS_RTKFIXED,17.58793286430,78.12117612906,528.8746,-76.3000,WGS84,0.7332,0.7059,1.4694,"",0.000,0.000,54,39,39,39,00,06,39,37*a891fe0a
#BESTPOSA,FILE,0,29.5,FINESTEERING,2319,305231.250,02000000,cdba,17139;SOL_COMPUTED,INS_RTKFIXED,17.58793179992,78.12117811830,528.8788,-76.3000,WGS84,0.7332,0.7059,1.4694,"",0.000,0.000,54,39,39,39,00,06,39,37*85ae2712
#BESTPOSA,FILE,0,29.5,FINESTEERING,2319,305231.300,02000000,cdba,17139;SOL_COMPUTED,INS_RTKFIXED,17.58793069270,78.12118012927,528.8830,-76.3000,WGS84,0.7332,0.7059,1.4694,"",0.000,0.000,54,39,39,39,00,06,39,37*af752239
#BESTPOSA,FILE,0,29.5,FINESTEERING,2319,305231.350,02000000,cdba,17139;SOL_COMPUTED,INS_RTKFIXED,17.58792961564,78.12118213692,528.8887,-76.3000,WGS84,0.7332,0.7059,1.4694,"",0.000,0.000,54,39,39,39,00,06,39,37*65403ac2
#BESTPOSA,FILE,0,29.5,FINESTEERING,2319,305231.400,02000000,cdba,17139;SOL_COMPUTED,INS_RTKFIXED,17.58792851050,78.12118414849,528.8930,-76.3000,WGS84,0.7332,0.7059,1.4694,"",0.000,0.000,54,39,39,39,00,06,39,37*f1bb2199
#BESTPOSA,FILE,0,29.5,FINESTEERING,2319,305231.450,02000000,cdba,17139;SOL_COMPUTED,INS_RTKFIXED,17.58792737671,78.12118616840,528.8973,-76.3000,WGS84,0.7332,0.7059,1.4694,"",0.000,0.000,54,39,39,39,00,06,39,37*9544a5f5
#BESTPOSA,FILE,0,29.5,FINESTEERING,2319,305231.500,02000000,cdba,17139;SOL_COMPUTED,INS_RTKFIXED,17.58792624288,78.12118815805,528.8983,-76.3000,WGS84,0.7332,0.7059,1.4694,"",0.000,0.000,54,39,39,39,00,06,39,37*304df911
#BESTPOSA,FILE,0,29.5,FINESTEERING,2319,305231.550,02000000,cdba,17139;SOL_COMPUTED,INS_RTKFIXED,17.58792509290,78.12119014342,528.8998,-76.3000,WGS84,0.7332,0.7059,1.4694,"",0.000,0.000,54,39,39,39,00,06,39,37*38609847
#BESTPOSA,FILE,0,29.5,FINESTEERING,2319,305231.600,02000000,cdba,17139;SOL_COMPUTED,INS_RTKFIXED,17.58792392001,78.12119215191,528.9006,-76.3000,WGS84,0.7332,0.7059,1.4694,"",0.000,0.000,54,39,39,39,00,06,39,37*41c34c74
#BESTPOSA,FILE,0,29.5,FINESTEERING,2319,305231.650,02000000,cdba,17139;SOL_COMPUTED,INS_RTKFIXED,17.58792272738,78.12119411934,528.9018,-76.3000,WGS84,0.7332,0.7059,1.4694,"",0.000,0.000,54,39,39,39,00,06,39,37*566161a0
#BESTPOSA,FILE,0,29.5,FINESTEERING,2319,305231.700,02000000,cdba,17139;SOL_COMPUTED,INS_RTKFIXED,17.58792152921,78.12119611040,528.9064,-76.3000,WGS84,0.7332,0.7059,1.4694,"",0.000,0.000,54,39,39,39,00,06,39,37*eb0a4973
#BESTPOSA,FILE,0,29.5,FINESTEERING,2319,305231.750,02000000,cdba,17139;SOL_COMPUTED,INS_RTKFIXED,17.58792030155,78.12119807921,528.9104,-76.3000,WGS84,0.7332,0.7059,1.4694,"",0.000,0.000,54,39,39,39,00,06,39,37*66259d31
#BESTPOSA,FILE,0,29.5,FINESTEERING,2319,305231.800,02000000,cdba,17139;SOL_COMPUTED,INS_RTKFIXED,17.58791905987,78.12120005565,528.9147,-76.3000,WGS84,0.7332,0.7059,1.4694,"",0.000,0.000,54,39,39,39,00,06,39,37*471b4608
#BESTPOSA,FILE,0,29.5,FINESTEERING,2319,305231.850,02000000,cdba,17139;SOL_COMPUTED,INS_RTKFIXED,17.58791779833,78.12120200392,528.9165,-76.3000,WGS84,0.7332,0.7059,1.4694,"",0.000,0.000,54,39,39,39,00,06,39,37*12cd9e93
#BESTPOSA,FILE,0,29.5,FINESTEERING,2319,305231.900,02000000,cdba,17139;SOL_COMPUTED,INS_RTKFIXED,17.58791651512,78.12120394157,528.9174,-76.3000,WGS84,0.7332,0.7059,1.4694,"",0.000,0.000,54,39,39,39,00,06,39,37*fd453bfe
#BESTPOSA,FILE,0,29.5,FINESTEERING,2319,305231.950,02000000,cdba,17139;SOL_COMPUTED,INS_RTKFIXED,17.58791522443,78.12120588203,528.9170,-76.3000,WGS84,0.7332,0.7059,1.4694,"",0.000,0.000,54,39,39,39,00,06,39,37*5a845f54
#BESTPOSA,FILE,0,29.5,FINESTEERING,2319,305232.000,02000000,cdba,17139;SOL_COMPUTED,INS_RTKFIXED,17.58791391486,78.12120781303,528.9162,-76.3000,WGS84,0.7332,0.7059,1.4694,"",0.000,0.000,54,39,39,39,00,06,39,37*a1051294
#BESTPOSA,FILE,0,29.5,FINESTEERING,2319,305232.050,02000000,cdba,17139;SOL_COMPUTED,INS_RTKFIXED,17.58791258331,78.12120971925,528.9150,-76.3000,WGS84,0.7342,0.7065,1.4689,"",0.000,0.000,53,38,38,38,00,06,39,37*015b0b95
#BESTPOSA,FILE,0,29.5,FINESTEERING,2319,305232.100,02000000,cdba,17139;SOL_COMPUTED,INS_RTKFIXED,17.58791122779,78.12121163020,528.9131,-76.3000,WGS84,0.7342,0.7065,1.4689,"",0.000,0.000,53,38,38,38,00,06,39,37*d043dd27
#BESTPOSA,FILE,0,31.0,FINESTEERING,2319,305232.150,02000000,cdba,17139;SOL_COMPUTED,INS_RTKFIXED,17.58790986755,78.12121352515,528.9128,-76.3000,WGS84,0.7342,0.7065,1.4689,"",0.000,0.000,53,38,38,38,00,06,39,37*b417a86a
#BESTPOSA,FILE,0,31.0,FINESTEERING,2319,305232.200,02000000,cdba,17139;SOL_COMPUTED,INS_RTKFIXED,17.58790848312,78.12121541924,528.9147,-76.3000,WGS84,0.7342,0.7065,1.4689,"",0.000,0.000,53,38,38,38,00,06,39,37*22aafe27
#BESTPOSA,FILE,0,31.0,FINESTEERING,2319,305232.250,02000000,cdba,17139;SOL_COMPUTED,INS_RTKFIXED,17.58790708388,78.12121729829,528.9167,-76.3000,WGS84,0.7342,0.7065,1.4689,"",0.000,0.000,53,38,38,38,00,06,39,37*d0facd10
#BESTPOSA,FILE,0,31.0,FINESTEERING,2319,305232.300,02000000,cdba,17139;SOL_COMPUTED,INS_RTKFIXED,17.58790566178,78.12121916959,528.9189,-76.3000,WGS84,0.7342,0.7065,1.4689,"",0.000,0.000,53,38,38,38,00,06,39,37*14e44f8f
#BESTPOSA,FILE,0,31.0,FINESTEERING,2319,305232.350,02000000,cdba,17139;SOL_COMPUTED,INS_RTKFIXED,17.58790419937,78.12122101885,528.9199,-76.3000,WGS84,0.7342,0.7065,1.4689,"",0.000,0.000,53,38,38,38,00,06,39,37*66f13406
#BESTPOSA,FILE,0,31.0,FINESTEERING,2319,305232.400,02000000,cdba,17139;SOL_COMPUTED,INS_RTKFIXED,17.58790273023,78.12122286543,528.9205,-76.3000,WGS84,0.7342,0.7065,1.4689,"",0.000,0.000,53,38,38,38,00,06,39,37*30d83087
#BESTPOSA,FILE,0,31.0,FINESTEERING,2319,305232.450,02000000,cdba,17139;SOL_COMPUTED,INS_RTKFIXED,17.58790124798,78.12122468372,528.9201,-76.3000,WGS84,0.7342,0.7065,1.4689,"",0.000,0.000,53,38,38,38,00,06,39,37*0595e8cc
#BESTPOSA,FILE,0,31.0,FINESTEERING,2319,305232.500,02000000,cdba,17139;SOL_COMPUTED,INS_RTKFIXED,17.58789972211,78.12122649488,528.9184,-76.3000,WGS84,0.7342,0.7065,1.4689,"",0.000,0.000,53,38,38,38,00,06,39,37*6dee9868
#BESTPOSA,FILE,0,31.0,FINESTEERING,2319,305232.550,02000000,cdba,17139;SOL_COMPUTED,INS_RTKFIXED,17.58789820904,78.12122829626,528.9175,-76.3000,WGS84,0.7342,0.7065,1.4689,"",0.000,0.000,53,38,38,38,00,06,39,37*f2e060e4
#BESTPOSA,FILE,0,31.0,FINESTEERING,2319,305232.600,02000000,cdba,17139;SOL_COMPUTED,INS_RTKFIXED,17.58789664635,78.12123007790,528.9153,-76.3000,WGS84,0.7342,0.7065,1.4689,"",0.000,0.000,53,38,38,38,00,06,39,37*a2d21848
#BESTPOSA,FILE,0,31.0,FINESTEERING,2319,305232.650,02000000,cdba,17139;SOL_COMPUTED,INS_RTKFIXED,17.58789507063,78.12123188128,528.9180,-76.3000,WGS84,0.7342,0.7065,1.4689,"",0.000,0.000,53,38,38,38,00,06,39,37*d591aa3d
#BESTPOSA,FILE,0,31.0,FINESTEERING,2319,305232.700,02000000,cdba,17139;SOL_COMPUTED,INS_RTKFIXED,17.58789347697,78.12123364553,528.9219,-76.3000,WGS84,0.7342,0.7065,1.4689,"",0.000,0.000,53,38,38,38,00,06,39,37*dbb71833
#BESTPOSA,FILE,0,31.0,FINESTEERING,2319,305232.750,02000000,cdba,17139;SOL_COMPUTED,INS_RTKFIXED,17.58789183805,78.12123539096,528.9254,-76.3000,WGS84,0.7342,0.7065,1.4689,"",0.000,0.000,53,38,38,38,00,06,39,37*c3c9f0c7
#BESTPOSA,FILE,0,31.0,FINESTEERING,2319,305232.800,02000000,cdba,17139;SOL_COMPUTED,INS_RTKFIXED,17.58789018845,78.12123707634,528.9273,-76.3000,WGS84,0.7342,0.7065,1.4689,"",0.000,0.000,53,38,38,38,00,06,39,37*1ca4550b
#BESTPOSA,FILE,0,31.0,FINESTEERING,2319,305232.850,02000000,cdba,17139;SOL_COMPUTED,INS_RTKFIXED,17.58788856017,78.12123875531,528.9313,-76.3000,WGS84,0.7342,0.7065,1.4689,"",0.000,0.000,53,38,38,38,00,06,39,37*ec6dd50f
#BESTPOSA,FILE,0,31.0,FINESTEERING,2319,305232.900,02000000,cdba,17139;SOL_COMPUTED,INS_RTKFIXED,17.58788688074,78.12124038666,528.9318,-76.3000,WGS84,0.7342,0.7065,1.4689,"",0.000,0.000,53,38,38,38,00,06,39,37*49e38bb2
#BESTPOSA,FILE,0,31.0,FINESTEERING,2319,305232.950,02000000,cdba,17139;SOL_COMPUTED,INS_RTKFIXED,17.58788519865,78.12124198804,528.9321,-76.3000,WGS84,0.7342,0.7065,1.4689,"",0.000,0.000,53,38,38,38,00,06,39,37*f198507a
#BESTPOSA,FILE,0,31.0,FINESTEERING,2319,305233.000,02000000,cdba,17139;SOL_COMPUTED,INS_RTKFIXED,17.58788345709,78.12124355366,528.9292,-76.3000,WGS84,0.7342,0.7065,1.4689,"",0.000,0.000,53,38,38,38,00,06,39,37*c4fca9da
#BESTPOSA,FILE,0,31.0,FINESTEERING,2319,305233.050,02000000,cdba,17139;SOL_COMPUTED,INS_RTKFIXED,17.58788170900,78.12124509450,528.9275,-76.3000,WGS84,0.7366,0.7074,1.4692,"",0.000,0.000,54,39,39,39,00,06,39,33*60b613da
#BESTPOSA,FILE,0,30.5,FINESTEERING,2319,305233.100,02000000,cdba,17139;SOL_COMPUTED,INS_RTKFIXED,17.58787989104,78.12124659981,528.9249,-76.3000,WGS84,0.7366,0.7074,1.4692,"",0.000,0.000,54,39,39,39,00,06,39,33*78af0019
#BESTPOSA,FILE,0,30.5,FINESTEERING,2319,305233.150,02000000,cdba,17139;SOL_COMPUTED,INS_RTKFIXED,17.58787804292,78.12124808732,528.9217,-76.3000,WGS84,0.7366,0.7074,1.4692,"",0.000,0.000,54,39,39,39,00,06,39,33*bc1a1047
#BESTPOSA,FILE,0,30.5,FINESTEERING,2319,305233.200,02000000,cdba,17139;SOL_COMPUTED,INS_RTKFIXED,17.58787614726,78.12124951928,528.9219,-76.3000,WGS84,0.7366,0.7074,1.4692,"",0.000,0.000,54,39,39,39,00,06,39,33*13b64037
#BESTPOSA,FILE,0,30.5,FINESTEERING,2319,305233.250,02000000,cdba,17139;SOL_COMPUTED,INS_RTKFIXED,17.58787418927,78.12125094809,528.9259,-76.3000,WGS84,0.7366,0.7074,1.4692,"",0.000,0.000,54,39,39,39,00,06,39,33*96fee074
#BESTPOSA,FILE,0,30.5,FINESTEERING,2319,305233.300,02000000,cdba,17139;SOL_COMPUTED,INS_RTKFIXED,17.58787218538,78.12125233277,528.9319,-76.3000,WGS84,0.7366,0.7074,1.4692,"",0.000,0.000,54,39,39,39,00,06,39,33*ac904736
#BESTPOSA,FILE,0,30.5,FINESTEERING,2319,305233.350,02000000,cdba,17139;SOL_COMPUTED,INS_RTKFIXED,17.58787015684,78.12125369711,528.9408,-76.3000,WGS84,0.7366,0.7074,1.4692,"",0.000,0.000,54,39,39,39,00,06,39,33*74b52f37
#BESTPOSA,FILE,0,30.5,FINESTEERING,2319,305233.400,02000000,cdba,17139;SOL_COMPUTED,INS_RTKFIXED,17.58786811732,78.12125503843,528.9512,-76.3000,WGS84,0.7366,0.7074,1.4692,"",0.000,0.000,54,39,39,39,00,06,39,33*2e02a5fd
#BESTPOSA,FILE,0,30.5,FINESTEERING,2319,305233.450,02000000,cdba,17139;SOL_COMPUTED,INS_RTKFIXED,17.58786605373,78.12125632407,528.9591,-76.3000,WGS84,0.7366,0.7074,1.4692,"",0.000,0.000,54,39,39,39,00,06,39,33*f0b2427b
#BESTPOSA,FILE,0,30.5,FINESTEERING,2319,305233.500,02000000,cdba,17139;SOL_COMPUTED,INS_RTKFIXED,17.58786399494,78.12125762429,528.9669,-76.3000,WGS84,0.7366,0.7074,1.4692,"",0.000,0.000,54,39,39,39,00,06,39,33*49f94e29
#BESTPOSA,FILE,0,30.5,FINESTEERING,2319,305233.550,02000000,cdba,17139;SOL_COMPUTED,INS_RTKFIXED,17.58786192220,78.12125887957,528.9701,-76.3000,WGS84,0.7366,0.7074,1.4692,"",0.000,0.000,54,39,39,39,00,06,39,33*b9580cf5
#BESTPOSA,FILE,0,30.5,FINESTEERING,2319,305233.600,02000000,cdba,17139;SOL_COMPUTED,INS_RTKFIXED,17.58785982554,78.12126009375,528.9715,-76.3000,WGS84,0.7366,0.7074,1.4692,"",0.000,0.000,54,39,39,39,00,06,39,33*f47042cf
#BESTPOSA,FILE,0,30.5,FINESTEERING,2319,305233.650,02000000,cdba,17139;SOL_COMPUTED,INS_RTKFIXED,17.58785773161,78.12126124465,528.9694,-76.3000,WGS84,0.7366,0.7074,1.4692,"",0.000,0.000,54,39,39,39,00,06,39,33*b969c81c
#BESTPOSA,FILE,0,30.5,FINESTEERING,2319,305233.700,02000000,cdba,17139;SOL_COMPUTED,INS_RTKFIXED,17.58785559955,78.12126236940,528.9665,-76.3000,WGS84,0.7366,0.7074,1.4692,"",0.000,0.000,54,39,39,39,00,06,39,33*87a18065
#BESTPOSA,FILE,0,30.5,FINESTEERING,2319,305233.750,02000000,cdba,17139;SOL_COMPUTED,INS_RTKFIXED,17.58785344912,78.12126343438,528.9640,-76.3000,WGS84,0.7366,0.7074,1.4692,"",0.000,0.000,54,39,39,39,00,06,39,33*0fd6f07f
#BESTPOSA,FILE,0,30.5,FINESTEERING,2319,305233.800,02000000,cdba,17139;SOL_COMPUTED,INS_RTKFIXED,17.58785124550,78.12126444637,528.9614,-76.3000,WGS84,0.7366,0.7074,1.4692,"",0.000,0.000,54,39,39,39,00,06,39,33*4c69dca1
#BESTPOSA,FILE,0,30.5,FINESTEERING,2319,305233.850,02000000,cdba,17139;SOL_COMPUTED,INS_RTKFIXED,17.58784903303,78.12126541247,528.9601,-76.3000,WGS84,0.7366,0.7074,1.4692,"",0.000,0.000,54,39,39,39,00,06,39,33*7cb182f6
#BESTPOSA,FILE,0,30.5,FINESTEERING,2319,305233.900,02000000,cdba,17139;SOL_COMPUTED,INS_RTKFIXED,17.58784676176,78.12126633512,528.9586,-76.3000,WGS84,0.7366,0.7074,1.4692,"",0.000,0.000,54,39,39,39,00,06,39,33*0a30ad51
#BESTPOSA,FILE,0,30.5,FINESTEERING,2319,305233.950,02000000,cdba,17139;SOL_COMPUTED,INS_RTKFIXED,17.58784450028,78.12126723949,528.9591,-76.3000,WGS84,0.7366,0.7074,1.4692,"",0.000,0.000,54,39,39,39,00,06,39,33*02231517
#BESTPOSA,FILE,0,30.5,FINESTEERING,2319,305234.000,02000000,cdba,17139;SOL_COMPUTED,INS_RTKFIXED,17.58784220475,78.12126810874,528.9580,-76.3000,WGS84,0.7366,0.7074,1.4692,"",0.000,0.000,54,39,39,39,00,06,39,33*44dbf257
#BESTPOSA,FILE,0,30.5,FINESTEERING,2319,305234.050,02000000,cdba,17139;SOL_COMPUTED,INS_RTKFIXED,17.58783990288,78.12126891354,528.9556,-76.3000,WGS84,0.7403,0.7090,1.4681,"",0.000,0.000,54,38,38,38,00,06,39,33*7c2aec83
#BESTPOSA,FILE,0,30.5,FINESTEERING,2319,305234.100,02000000,cdba,17139;SOL_COMPUTED,INS_RTKFIXED,17.58783755144,78.12126965450,528.9528,-76.3000,WGS84,0.7403,0.7090,1.4681,"",0.000,0.000,54,38,38,38,00,06,39,33*c4c04d26
#BESTPOSA,FILE,0,30.5,FINESTEERING,2319,305234.150,02000000,cdba,17139;SOL_COMPUTED,INS_RTKFIXED,17.58783517381,78.12127035375,528.9516,-76.3000,WGS84,0.7403,0.7090,1.4681,"",0.000,0.000,54,38,38,38,00,06,39,33*b6ae7922
#BESTPOSA,FILE,0,30.5,FINESTEERING,2319,305234.200,02000000,cdba,17139;SOL_COMPUTED,INS_RTKFIXED,17.58783276406,78.12127105471,528.9529,-76.3000,WGS84,0.7403,0.7090,1.4681,"",0.000,0.000,54,38,38,38,00,06,39,33*e60d784b
#BESTPOSA,FILE,0,30.5,FINESTEERING,2319,305234.250,02000000,cdba,17139;SOL_COMPUTED,INS_RTKFIXED,17.58783034423,78.12127168287,528.9544,-76.3000,WGS84,0.7403,0.7090,1.4681,"",0.000,0.000,54,38,38,38,00,06,39,33*fe11868f
#BESTPOSA,FILE,0,30.5,FINESTEERING,2319,305234.300,02000000,cdba,17139;SOL_COMPUTED,INS_RTKFIXED,17.58782792490,78.12127231004,528.9569,-76.3000,WGS84,0.7403,0.7090,1.4681,"",0.000,0.000,54,38,38,38,00,06,39,33*3ef6e310
#BESTPOSA,FILE,0,30.5,FINESTEERING,2319,305234.350,02000000,cdba,17139;SOL_COMPUTED,INS_RTKFIXED,17.58782551012,78.12127289871,528.9608,-76.3000,WGS84,0.7403,0.7090,1.4681,"",0.000,0.000,54,38,38,38,00,06,39,33*69b652af
#BESTPOSA,FILE,0,30.5,FINESTEERING,2319,305234.400,02000000,cdba,17139;SOL_COMPUTED,INS_RTKFIXED,17.58782306835,78.12127341856,528.9620,-76.3000,WGS84,0.7403,0.7090,1.4681,"",0.000,0.000,54,38,38,38,00,06,39,33*83c552d1
#BESTPOSA,FILE,0,30.5,FINESTEERING,2319,305234.450,02000000,cdba,17139;SOL_COMPUTED,INS_RTKFIXED,17.58782065162,78.12127389792,528.9608,-76.3000,WGS84,0.7403,0.7090,1.4681,"",0.000,0.000,54,38,38,38,00,06,39,33*e62c3109
#BESTPOSA,FILE,0,30.5,FINESTEERING,2319,305234.500,02000000,cdba,17139;SOL_COMPUTED,INS_RTKFIXED,17.58781822083,78.12127435949,528.9585,-76.3000,WGS84,0.7403,0.7090,1.4681,"",0.000,0.000,54,38,38,38,00,06,39,33*86426e85
#BESTPOSA,FILE,0,30.5,FINESTEERING,2319,305234.550,02000000,cdba,17139;SOL_COMPUTED,INS_RTKFIXED,17.58781577886,78.12127479230,528.9534,-76.3000,WGS84,0.7403,0.7090,1.4681,"",0.000,0.000,54,38,38,38,00,06,39,33*3dce0080
#BESTPOSA,FILE,0,30.5,FINESTEERING,2319,305234.600,02000000,cdba,17139;SOL_COMPUTED,INS_RTKFIXED,17.58781334429,78.12127520101,528.9474,-76.3000,WGS84,0.7403,0.7090,1.4681,"",0.000,0.000,54,38,38,38,00,06,39,33*3ddbb228
#BESTPOSA,FILE,0,30.5,FINESTEERING,2319,305234.650,02000000,cdba,17139;SOL_COMPUTED,INS_RTKFIXED,17.58781084486,78.12127551925,528.9405,-76.3000,WGS84,0.7403,0.7090,1.4681,"",0.000,0.000,54,38,38,38,00,06,39,33*4ad21443
#BESTPOSA,FILE,0,30.5,FINESTEERING,2319,305234.700,02000000,cdba,17139;SOL_COMPUTED,INS_RTKFIXED,17.58780834997,78.12127581186,528.9371,-76.3000,WGS84,0.7403,0.7090,1.4681,"",0.000,0.000,54,38,38,38,00,06,39,33*92b6a89b
#BESTPOSA,FILE,0,30.5,FINESTEERING,2319,305234.750,02000000,cdba,17139;SOL_COMPUTED,INS_RTKFIXED,17.58780580494,78.12127603862,528.9383,-76.3000,WGS84,0.7403,0.7090,1.4681,"",0.000,0.000,54,38,38,38,00,06,39,33*c60f24e8
#BESTPOSA,FILE,0,30.5,FINESTEERING,2319,305234.800,02000000,cdba,17139;SOL_COMPUTED,INS_RTKFIXED,17.58780324409,78.12127623741,528.9434,-76.3000,WGS84,0.7403,0.7090,1.4681,"",0.000,0.000,54,38,38,38,00,06,39,33*b0e4de86
#BESTPOSA,FILE,0,30.5,FINESTEERING,2319,305234.850,02000000,cdba,17139;SOL_COMPUTED,INS_RTKFIXED,17.58780066143,78.12127638453,528.9506,-76.3000,WGS84,0.7403,0.7090,1.4681,"",0.000,0.000,54,38,38,38,00,06,39,33*2419aa3b
#BESTPOSA,FILE,0,30.5,FINESTEERING,2319,305234.900,02000000,cdba,17139;SOL_COMPUTED,INS_RTKFIXED,17.58779806095,78.12127653468,528.9594,-76.3000,WGS84,0.7403,0.7090,1.4681,"",0.000,0.000,54,38,38,38,00,06,39,33*403e1aca
#BESTPOSA,FILE,0,30.5,FINESTEERING,2319,305234.950,02000000,cdba,17139;SOL_COMPUTED,INS_RTKFIXED,17.58779550163,78.12127662260,528.9639,-76.3000,WGS84,0.7403,0.7090,1.4681,"",0.000,0.000,54,38,38,38,00,06,39,33*a82f2534
#BESTPOSA,FILE,0,30.5,FINESTEERING,2319,305235.000,02000000,cdba,17139;SOL_COMPUTED,INS_RTKFIXED,17.58779292999,78.12127669187,528.9662,-76.3000,WGS84,0.7403,0.7090,1.4681,"",0.000,0.000,54,38,38,38,00,06,39,33*874dd0bf
#BESTPOSA,FILE,0,30.5,FINESTEERING,2319,305235.050,02000000,cdba,17139;SOL_COMPUTED,INS_RTKFIXED,17.58779039462,78.12127669393,528.9659,-76.3000,WGS84,0.7409,0.7118,1.4671,"",0.000,0.000,54,39,39,39,00,06,39,33*dd360749
#BESTPOSA,FILE,0,30.5,FINESTEERING,2319,305235.100,02000000,cdba,17139;SOL_COMPUTED,INS_RTKFIXED,17.58778786975,78.12127664139,528.9630,-76.3000,WGS84,0.7409,0.7118,1.4671,"",0.000,0.000,54,39,39,39,00,06,39,33*87c6a308
#BESTPOSA,FILE,0,31.5,FINESTEERING,2319,305235.150,02000000,cdba,17139;SOL_COMPUTED,INS_RTKFIXED,17.58778533979,78.12127655415,528.9596,-76.3000,WGS84,0.7409,0.7118,1.4671,"",0.000,0.000,54,39,39,39,00,06,39,33*aff49ffc
#BESTPOSA,FILE,0,31.5,FINESTEERING,2319,305235.200,02000000,cdba,17139;SOL_COMPUTED,INS_RTKFIXED,17.58778281540,78.12127645146,528.9577,-76.3000,WGS84,0.7409,0.7118,1.4671,"",0.000,0.000,54,39,39,39,00,06,39,33*e40b088e
#BESTPOSA,FILE,0,31.5,FINESTEERING,2319,305235.250,02000000,cdba,17139;SOL_COMPUTED,INS_RTKFIXED,17.58778027563,78.12127629534,528.9564,-76.3000,WGS84,0.7409,0.7118,1.4671,"",0.000,0.000,54,39,39,39,00,06,39,33*92b6d6f8
#BESTPOSA,FILE,0,31.5,FINESTEERING,2319,305235.300,02000000,cdba,17139;SOL_COMPUTED,INS_RTKFIXED,17.58777772757,78.12127610420,528.9555,-76.3000,WGS84,0.7409,0.7118,1.4671,"",0.000,0.000,54,39,39,39,00,06,39,33*800dc7bf
#BESTPOSA,FILE,0,31.5,FINESTEERING,2319,305235.350,02000000,cdba,17139;SOL_COMPUTED,INS_RTKFIXED,17.58777515070,78.12127583280,528.9579,-76.3000,WGS84,0.7409,0.7118,1.4671,"",0.000,0.000,54,39,39,39,00,06,39,33*1a9b3629
#BESTPOSA,FILE,0,31.5,FINESTEERING,2319,305235.400,02000000,cdba,17139;SOL_COMPUTED,INS_RTKFIXED,17.58777255573,78.12127546848,528.9607,-76.3000,WGS84,0.7409,0.7118,1.4671,"",0.000,0.000,54,39,39,39,00,06,39,33*dff6a128
#BESTPOSA,FILE,0,31.5,FINESTEERING,2319,305235.450,02000000,cdba,17139;SOL_COMPUTED,INS_RTKFIXED,17.58776998572,78.12127506246,528.9643,-76.3000,WGS84,0.7409,0.7118,1.4671,"",0.000,0.000,54,39,39,39,00,06,39,33*db27c944
#BESTPOSA,FILE,0,31.5,FINESTEERING,2319,305235.500,02000000,cdba,17139;SOL_COMPUTED,INS_RTKFIXED,17.58776739587,78.12127460874,528.9673,-76.3000,WGS84,0.7409,0.7118,1.4671,"",0.000,0.000,54,39,39,39,00,06,39,33*cef88ed9
#BESTPOSA,FILE,0,31.5,FINESTEERING,2319,305235.550,02000000,cdba,17139;SOL_COMPUTED,INS_RTKFIXED,17.58776483045,78.12127415253,528.9713,-76.3000,WGS84,0.7409,0.7118,1.4671,"",0.000,0.000,54,39,39,39,00,06,39,33*b6f7530a
#BESTPOSA,FILE,0,31.5,FINESTEERING,2319,305235.600,02000000,cdba,17139;SOL_COMPUTED,INS_RTKFIXED,17.58776223292,78.12127369016,528.9753,-76.3000,WGS84,0.7409,0.7118,1.4671,"",0.000,0.000,54,39,39,39,00,06,39,33*631fc103
#BESTPOSA,FILE,0,31.5,FINESTEERING,2319,305235.650,02000000,cdba,17139;SOL_COMPUTED,INS_RTKFIXED,17.58775965506,78.12127320148,528.9793,-76.3000,WGS84,0.7409,0.7118,1.4671,"",0.000,0.000,54,39,39,39,00,06,39,33*e7a810d3
#BESTPOSA,FILE,0,31.5,FINESTEERING,2319,305235.700,02000000,cdba,17139;SOL_COMPUTED,INS_RTKFIXED,17.58775705583,78.12127266214,528.9820,-76.3000,WGS84,0.7409,0.7118,1.4671,"",0.000,0.000,54,39,39,39,00,06,39,33*d807b117
#BESTPOSA,FILE,0,31.5,FINESTEERING,2319,305235.750,02000000,cdba,17139;SOL_COMPUTED,INS_RTKFIXED,17.58775448747,78.12127209257,528.9837,-76.3000,WGS84,0.7409,0.7118,1.4671,"",0.000,0.000,54,39,39,39,00,06,39,33*70785e2d
#BESTPOSA,FILE,0,31.5,FINESTEERING,2319,305235.800,02000000,cdba,17139;SOL_COMPUTED,INS_RTKFIXED,17.58775190983,78.12127145406,528.9851,-76.3000,WGS84,0.7409,0.7118,1.4671,"",0.000,0.000,54,39,39,39,00,06,39,33*aaf0eaf7
#BESTPOSA,FILE,0,31.5,FINESTEERING,2319,305235.850,02000000,cdba,17139;SOL_COMPUTED,INS_RTKFIXED,17.58774934436,78.12127076883,528.9884,-76.3000,WGS84,0.7409,0.7118,1.4671,"",0.000,0.000,54,39,39,39,00,06,39,33*3294358d
#BESTPOSA,FILE,0,31.5,FINESTEERING,2319,305235.900,02000000,cdba,17139;SOL_COMPUTED,INS_RTKFIXED,17.58774678515,78.12126997765,528.9877,-76.3000,WGS84,0.7409,0.7118,1.4671,"",0.000,0.000,54,39,39,39,00,06,39,33*2a7275f2
#BESTPOSA,FILE,0,31.5,FINESTEERING,2319,305235.950,02000000,cdba,17139;SOL_COMPUTED,INS_RTKFIXED,17.58774424622,78.12126918525,528.9889,-76.3000,WGS84,0.7409,0.7118,1.4671,"",0.000,0.000,54,39,39,39,00,06,39,33*3cc6d89b
#BESTPOSA,FILE,0,31.5,FINESTEERING,2319,305236.000,02000000,cdba,17139;SOL_COMPUTED,INS_RTKFIXED,17.58774171096,78.12126833991,528.9867,-76.3000,WGS84,0.7409,0.7118,1.4671,"",0.000,0.000,54,39,39,39,00,06,39,33*d123ecb5
#BESTPOSA,FILE,0,31.5,FINESTEERING,2319,305236.050,02000000,cdba,17139;SOL_COMPUTED,INS_RTKFIXED,17.58773923328,78.12126743889,528.9836,-76.3000,WGS84,0.7402,0.7158,1.4661,"",0.000,0.000,55,40,40,40,00,06,39,33*2d528413
#BESTPOSA,FILE,0,28.0,FINESTEERING,2319,305236.100,02000000,cdba,17139;SOL_COMPUTED,INS_RTKFIXED,17.58773677888,78.12126649840,528.9777,-76.3000,WGS84,0.7402,0.7158,1.4661,"",0.000,0.000,55,40,40,40,00,06,39,33*6772cb0e
#BESTPOSA,FILE,0,28.0,FINESTEERING,2319,305236.150,02000000,cdba,17139;SOL_COMPUTED,INS_RTKFIXED,17.58773433731,78.12126554174,528.9745,-76.3000,WGS84,0.7402,0.7158,1.4661,"",0.000,0.000,55,40,40,40,00,06,39,33*2302d331
#BESTPOSA,FILE,0,28.0,FINESTEERING,2319,305236.200,02000000,cdba,17139;SOL_COMPUTED,INS_RTKFIXED,17.58773189708,78.12126454354,528.9712,-76.3000,WGS84,0.7402,0.7158,1.4661,"",0.000,0.000,55,40,40,40,00,06,39,33*e5b8a1da
#BESTPOSA,FILE,0,28.0,FINESTEERING,2319,305236.250,02000000,cdba,17139;SOL_COMPUTED,INS_RTKFIXED,17.58772946990,78.12126351833,528.9691,-76.3000,WGS84,0.7402,0.7158,1.4661,"",0.000,0.000,55,40,40,40,00,06,39,33*145009d9
#BESTPOSA,FILE,0,28.0,FINESTEERING,2319,305236.300,02000000,cdba,17139;SOL_COMPUTED,INS_RTKFIXED,17.58772704049,78.12126247678,528.9667,-76.3000,WGS84,0.7402,0.7158,1.4661,"",0.000,0.000,55,40,40,40,00,06,39,33*04a1db13
#BESTPOSA,FILE,0,28.0,FINESTEERING,2319,305236.350,02000000,cdba,17139;SOL_COMPUTED,INS_RTKFIXED,17.58772464122,78.12126136771,528.9652,-76.3000,WGS84,0.7402,0.7158,1.4661,"",0.000,0.000,55,40,40,40,00,06,39,33*2652186a
#BESTPOSA,FILE,0,28.0,FINESTEERING,2319,305236.400,02000000,cdba,17139;SOL_COMPUTED,INS_RTKFIXED,17.58772221205,78.12126020695,528.9648,-76.3000,WGS84,0.7402,0.7158,1.4661,"",0.000,0.000,55,40,40,40,00,06,39,33*c095a079
#BESTPOSA,FILE,0,28.0,FINESTEERING,2319,305236.450,02000000,cdba,17139;SOL_COMPUTED,INS_RTKFIXED,17.58771984424,78.12125904894,528.9643,-76.3000,WGS84,0.7402,0.7158,1.4661,"",0.000,0.000,55,40,40,40,00,06,39,33*3550416e
#BESTPOSA,FILE,0,28.0,FINESTEERING,2319,305236.500,02000000,cdba,17139;SOL_COMPUTED,INS_RTKFIXED,17.58771745611,78.12125781634,528.9616,-76.3000,WGS84,0.7402,0.7158,1.4661,"",0.000,0.000,55,40,40,40,00,06,39,33*71dbaeea
