#CORRIMUDATAA,FILE,0,34.5,FINESTEERING,2319,305221.250,02000800,e5fc,17139;2319,305221.250000000,0.0000849839967434,0.0000599153071124,0.0008505244139472,-0.0035941421639976,0.0057633385343939,0.0049800783754798*a2a21d59
#CORRIMUDATAA,FILE,0,34.5,FINESTEERING,2319,305221.350,02000800,e5fc,17139;2319,305221.350000000,0.0000829222378544,0.0003513501601613,0.0003200365418242,-0.0059762405475796,0.0081924534736186,-0.0047112472518046*2c64ad75
#CORRIMUDATAA,FILE,0,34.5,FINESTEERING,2319,305221.450,02000800,e5fc,17139;2319,305221.450000000,0.0000590898515801,0.0004404921979446,0.0004273153594514,0.0089711484758736,0.0044748727895747,0.0021928235577235*211172df
#CORRIMUDATAA,FILE,0,34.5,FINESTEERING,2319,305221.550,02000800,e5fc,17139;2319,305221.550000000,-0.0001306803385256,-0.0000382397803577,0.0012184005306178,0.0024462365456718,0.0042001510080505,-0.0012415934204882*605c9fd9
#CORRIMUDATAA,FILE,0,34.5,FINESTEERING,2319,305221.600,02000800,e5fc,17139;2319,305221.600000000,0.0000403318301856,0.0000406780038025,0.0013108839468527,-0.0099641259061804,0.0098398169713751,-0.0018043406071649*9ef1fe13
#CORRIMUDATAA,FILE,0,34.5,FINESTEERING,2319,305221.700,02000800,e5fc,17139;2319,305221.700000000,0.0001481528176671,0.0000102886625348,0.0009670615601522,-0.0022905625089078,0.0092776083486012,-0.0004430063362632*7522c738
#CORRIMUDATAA,FILE,0,34.5,FINESTEERING,2319,305221.850,02000800,e5fc,17139;2319,305221.850000000,0.0000541829493599,-0.0001236595759691,0.0012070197306241,0.0092097421821022,0.0087235292234464,-0.0061007449033403*70f9c4bb
#CORRIMUDATAA,FILE,0,34.5,FINESTEERING,2319,305221.900,02000800,e5fc,17139;2319,305221.900000000,0.0001550128451281,0.0000515844094781,0.0015754768622263,0.0083921699511722,0.0110380509644304,-0.0002135846187445*4baa0420
#CORRIMUDATAA,FILE,0,34.5,FINESTEERING,2319,305222.050,02000800,e5fc,17139;2319,305222.050000000,-0.0000981429142950,0.0004560092614665,0.0017753609952777,-0.0010492267792303,0.0146078297537486,-0.0015040930882566*65dcc8d5
#CORRIMUDATAA,FILE,0,34.5,FINESTEERING,2319,305222.150,02000800,e5fc,17139;2319,305222.150000000,-0.0003123348768135,0.0007233852713981,0.0015667820227099,-0.0004189186076961,0.0072909836544517,-0.0017571219039513*1fc88be6
#CORRIMUDATAA,FILE,0,37.0,FINESTEERING,2319,305222.250,02000800,e5fc,17139;2319,305222.250000000,-0.0006047853966184,0.0002685237120083,0.0021299751532995,0.0066866666950333,0.0067760980303316,0.0070512427183400*afd61d69
#CORRIMUDATAA,FILE,0,37.0,FINESTEERING,2319,305222.350,02000800,e5fc,17139;2319,305222.350000000,-0.0004665284321388,-0.0002618029048003,0.0026108805582146,-0.0169140604736271,0.0204705756619364,-0.0084280783326612*2a06c6eb
#CORRIMUDATAA,FILE,0,37.0,FINESTEERING,2319,305222.400,02000800,e5fc,17139;2319,305222.400000000,-0.0002994141146994,-0.0000594961042134,0.0023818037985375,-0.0153917223362444,0.0194253002775913,-0.0044765154501218*45544fcb
#CORRIMUDATAA,FILE,0,37.0,FINESTEERING,2319,305222.500,02000800,e5fc,17139;2319,305222.500000000,-0.0003329496888845,-0.0011716406920539,0.0022130371568151,0.0090382947843836,0.0088279748318564,0.0088978764649721*0e5f9841
#CORRIMUDATAA,FILE,0,37.0,FINESTEERING,2319,305222.600,02000800,e5fc,17139;2319,305222.600000000,-0.0001194116637244,-0.0001710679803853,0.0027580212805153,0.0014801972925156,0.0105224816380599,-0.0124005649543691*128cb818
#CORRIMUDATAA,FILE,0,37.0,FINESTEERING,2319,305222.750,02000800,e5fc,17139;2319,305222.750000000,-0.0000172103584668,0.0006152409678641,0.0028299308904199,-0.0013625094222551,0.0136108860806946,0.0072237012732518*e44ced4b
#CORRIMUDATAA,FILE,0,37.0,FINESTEERING,2319,305222.800,02000800,e5fc,17139;2319,305222.800000000,-0.0002271916032853,0.0007800839471670,0.0026436651273390,-0.0139562518475554,0.0138562669131794,0.0002066272663621*47691642
#CORRIMUDATAA,FILE,0,37.0,FINESTEERING,2319,305222.900,02000800,e5fc,17139;2319,305222.900000000,-0.0003187097955040,0.0021216957102564,0.0027015086005830,0.0038103064184830,0.0068380019501096,0.0227209352917037*4b594c1c
#CORRIMUDATAA,FILE,0,37.0,FINESTEERING,2319,305222.950,02000800,e5fc,17139;2319,305222.950000000,-0.0006263241027383,0.0006571623522789,0.0029806164809151,0.0084973128624778,0.0079486407021377,0.0057874082149639*c1051099
#CORRIMUDATAA,FILE,0,37.0,FINESTEERING,2319,305223.050,02000800,e5fc,17139;2319,305223.050000000,-0.0005982594172274,-0.0006520446645596,0.0032533696031905,-0.0142412390789697,0.0110134193825102,-0.0095698614168886*c626261e
#CORRIMUDATAA,FILE,0,36.0,FINESTEERING,2319,305223.200,02000800,e5fc,17139;2319,305223.200000000,-0.0002273615713063,-0.0005629482454027,0.0035271556332270,0.0126627370544754,0.0121568108219240,-0.0147195223297853*678611d7
#CORRIMUDATAA,FILE,0,36.0,FINESTEERING,2319,305223.300,02000800,e5fc,17139;2319,305223.300000000,-0.0001745557569232,-0.0005492268860470,0.0043168827857587,0.0021072311099760,0.0056917483424257,0.0091744028574062*aec0884d
#CORRIMUDATAA,FILE,0,36.0,FINESTEERING,2319,305223.450,02000800,e5fc,17139;2319,305223.450000000,-0.0001184393080916,0.0007853018724071,0.0043662273467414,0.0074238524629835,0.0108897844339052,0.0042678637356844*dbe4b8fd
#CORRIMUDATAA,FILE,0,36.0,FINESTEERING,2319,305223.500,02000800,e5fc,17139;2319,305223.500000000,-0.0003368696222517,0.0000745042524505,0.0043270591017553,-0.0038447378786329,0.0078715491384457,0.0074259631441686*08d76501
#CORRIMUDATAA,FILE,0,36.0,FINESTEERING,2319,305223.600,02000800,e5fc,17139;2319,305223.600000000,-0.0008272541539754,0.0010755766379691,0.0039577731592223,-0.0050897376104221,0.0099632495131512,0.0075767874400139*2a292f3d
#CORRIMUDATAA,FILE,0,36.0,FINESTEERING,2319,305223.700,02000800,e5fc,17139;2319,305223.700000000,-0.0006056642397066,-0.0005208842050613,0.0048898719005884,0.0094250198148976,0.0111413821105396,-0.0148084240889239*23953b74
#CORRIMUDATAA,FILE,0,36.0,FINESTEERING,2319,305223.800,02000800,e5fc,17139;2319,305223.800000000,-0.0000800860131280,0.0001106890938517,0.0050876639586563,-0.0123630220624656,0.0146324369152316,0.0029959789620208*55794e9d
#CORRIMUDATAA,FILE,0,36.0,FINESTEERING,2319,305223.850,02000800,e5fc,17139;2319,305223.850000000,-0.0000434701304309,0.0002620218188676,0.0047823580887689,-0.0159830038375729,0.0116434090092548,-0.0039563017972998*4172be60
#CORRIMUDATAA,FILE,0,36.0,FINESTEERING,2319,305224.000,02000800,e5fc,17139;2319,305224.000000000,0.0000111050806217,0.0000037514872470,0.0043802905284498,-0.0003116352084770,0.0074185236875879,0.0023508999289402*da4f951f
#CORRIMUDATAA,FILE,0,36.0,FINESTEERING,2319,305224.050,02000800,e5fc,17139;2319,305224.050000000,-0.0000268130610731,0.0002861863751580,0.0047490391372867,0.0059747844729965,0.0085470295449293,0.0042132283074082*0c9c13a0
#CORRIMUDATAA,FILE,0,33.5,FINESTEERING,2319,305224.150,02000800,e5fc,17139;2319,305224.150000000,-0.0002900009577798,-0.0002061461198390,0.0055672517472304,0.0016695057965749,0.0252110348860343,-0.0057815475796905*58bc47c6
#CORRIMUDATAA,FILE,0,33.5,FINESTEERING,2319,305224.250,02000800,e5fc,17139;2319,305224.250000000,-0.0003967285519187,0.0004390773874245,0.0055212107332687,-0.0082285201277065,0.0185376413341596,-0.0020630110524189*103406c3
#CORRIMUDATAA,FILE,0,33.5,FINESTEERING,2319,305224.350,02000800,e5fc,17139;2319,305224.350000000,-0.0005682148886759,0.0000245730384036,0.0051059167896697,-0.0078719707640521,0.0155307889613257,-0.0011245611828857*5c93fbd5
#CORRIMUDATAA,FILE,0,33.5,FINESTEERING,2319,305224.450,02000800,e5fc,17139;2319,305224.450000000,-0.0004742033150662,0.0000105629575465,0.0056406776721167,0.0078865238231318,0.0100739154424301,0.0092058411541281*67f1255a
#CORRIMUDATAA,FILE,0,33.5,FINESTEERING,2319,305224.550,02000800,e5fc,17139;2319,305224.550000000,-0.0006438160494539,0.0000259850015260,0.0061029804898472,-0.0169617067913186,0.0197476583479158,0.0036897013169788*71f71347
#CORRIMUDATAA,FILE,0,33.5,FINESTEERING,2319,305224.650,02000800,e5fc,17139;2319,305224.650000000,-0.0003465501282493,0.0005189511608431,0.0053795210539037,-0.0147197849436326,0.0272554178168784,-0.0079810118719665*6340a82f
#CORRIMUDATAA,FILE,0,33.5,FINESTEERING,2319,305224.750,02000800,e5fc,17139;2319,305224.750000000,0.0005339116953392,0.0002989649710544,0.0057123322714072,0.0045561055638072,0.0244090203170643,-0.0032088880926055*061dc117
#CORRIMUDATAA,FILE,0,33.5,FINESTEERING,2319,305224.850,02000800,e5fc,17139;2319,305224.850000000,0.0004357093180765,0.0004045518121556,0.0068496291500594,-0.0001807763643089,0.0198379738196176,0.0077345518225803*7a84b088
#CORRIMUDATAA,FILE,0,33.5,FINESTEERING,2319,305224.900,02000800,e5fc,17139;2319,305224.900000000,-0.0000258020154969,0.0003667088090541,0.0070361752883785,-0.0189503607817173,0.0212957250041043,0.0101842386862153*2615ec0a
#CORRIMUDATAA,FILE,0,33.5,FINESTEERING,2319,305224.950,02000800,e5fc,17139;2319,305224.950000000,-0.0000566792720001,-0.0001855503850014,0.0067114513805877,-0.0231475678492525,0.0287802247790793,0.0086001500810211*4e191f8b
#CORRIMUDATAA,FILE,0,33.5,FINESTEERING,2319,305225.000,02000800,e5fc,17139;2319,305225.000000000,-0.0001897139547849,-0.0005496021311656,0.0063973999137930,-0.0216436931793568,0.0393266301372090,-0.0091452891543360*b894e0a5
#CORRIMUDATAA,FILE,0,33.5,FINESTEERING,2319,305225.050,02000800,e5fc,17139;2319,305225.050000000,0.0002700858878911,-0.0001294403943974,0.0060285387270479,-0.0155377037033227,0.0393422256168739,-0.0139877637678850*5d926e37
#CORRIMUDATAA,FILE,0,33.5,FINESTEERING,2319,305225.100,02000800,e5fc,17139;2319,305225.100000000,0.0002573406814770,-0.0004258865429323,0.0060289376983102,0.0034667418982300,0.0335711604742060,-0.0053274177380889*7b9298f9
#CORRIMUDATAA,FILE,0,36.5,FINESTEERING,2319,305225.150,02000800,e5fc,17139;2319,305225.150000000,-0.0001038154518554,-0.0004370138752994,0.0063514893484878,0.0099875034359787,0.0264692901740648,0.0098448626749265*2b185c44
#CORRIMUDATAA,FILE,0,36.5,FINESTEERING,2319,305225.200,02000800,e5fc,17139;2319,305225.200000000,0.0000943432075583,-0.0004470211551041,0.0065414342390700,-0.0043997947356706,0.0317512165365152,-0.0067388075888061*dc806c74
#CORRIMUDATAA,FILE,0,36.5,FINESTEERING,2319,305225.250,02000800,e5fc,17139;2319,305225.250000000,-0.0001178410030805,0.0002976852256019,0.0067858871363333,0.0001621585434282,0.0443063778098367,-0.0045161577877459*30ab4b76
#CORRIMUDATAA,FILE,0,36.5,FINESTEERING,2319,305225.300,02000800,e5fc,17139;2319,305225.300000000,-0.0002576081423655,0.0010106698918456,0.0067868965567157,-0.0167731823343121,0.0322882456271107,0.0190937372743826*49d37fc3
#CORRIMUDATAA,FILE,0,36.5,FINESTEERING,2319,305225.350,02000800,e5fc,17139;2319,305225.350000000,-0.0002081827569533,0.0008498070584056,0.0067350944378844,-0.0012164117723362,0.0436638497937127,-0.0041462976748981*5eb868f3
#CORRIMUDATAA,FILE,0,36.5,FINESTEERING,2319,305225.400,02000800,e5fc,17139;2319,305225.400000000,-0.0007375306992423,0.0012531264673083,0.0064040471667571,-0.0102461434314675,0.0384413468961665,0.0057512355214221*faca4c1c
#CORRIMUDATAA,FILE,0,36.5,FINESTEERING,2319,305225.450,02000000,e5fc,17139;2319,305225.450000000,-0.0006366162443893,0.0004983487289618,0.0062616273559026,-0.0048619157058971,0.0341303542044071,0.0038635664331945*60ecc6d7
#CORRIMUDATAA,FILE,0,36.5,FINESTEERING,2319,305225.500,02000000,e5fc,17139;2319,305225.500000000,-0.0005070805067716,0.0001473907784071,0.0062627580046131,-0.0200628320381948,0.0433037198710263,0.0069398763116835*027f7886
#CORRIMUDATAA,FILE,0,36.5,FINESTEERING,2319,305225.550,02000000,e5fc,17139;2319,305225.550000000,-0.0010773811653971,0.0015213135110322,0.0063138630568441,-0.0068998191969165,0.0357084581225750,-0.0039384226056888*e8a285f6
#CORRIMUDATAA,FILE,0,36.5,FINESTEERING,2319,305225.600,02000000,e5fc,17139;2319,305225.600000000,-0.0000254613326546,0.0004475747525856,0.0066848642151917,0.0008804726033072,0.0420703406418639,-0.0087460549598099*35760e30
#CORRIMUDATAA,FILE,0,36.5,FINESTEERING,2319,305225.650,02000000,e5fc,17139;2319,305225.650000000,-0.0007046137661807,0.0004005000131961,0.0067789077881474,-0.0124851340567818,0.0500526112372606,-0.0206799044348973*7b438e1b
#CORRIMUDATAA,FILE,0,36.5,FINESTEERING,2319,305225.700,02000000,e5fc,17139;2319,305225.700000000,-0.0001590801220563,-0.0006816943992356,0.0065882645614945,-0.0185935480266245,0.0469492871672310,-0.0074131322087188*f56589fe
#CORRIMUDATAA,FILE,0,36.5,FINESTEERING,2319,305225.750,02000000,e5fc,17139;2319,305225.750000000,-0.0006679708187209,-0.0000615197017652,0.0060806888814177,-0.0296356751897807,0.0383764692967963,0.0058404338355363*5a1969eb
#CORRIMUDATAA,FILE,0,36.5,FINESTEERING,2319,305225.800,02000000,e5fc,17139;2319,305225.800000000,0.0000477143351215,0.0002643478371165,0.0056367167497210,-0.0129190013052828,0.0487109344221775,0.0023452484363726*914de0ef
#CORRIMUDATAA,FILE,0,36.5,FINESTEERING,2319,305225.850,02000000,e5fc,17139;2319,305225.850000000,-0.0009188317860058,0.0005288884732259,0.0054887243824010,-0.0034565145284299,0.0352211157033873,0.0109096511750671*fc2e7584
#CORRIMUDATAA,FILE,0,36.5,FINESTEERING,2319,305225.900,02000000,e5fc,17139;2319,305225.900000000,-0.0001052005170137,0.0000216776360073,0.0056753234786804,0.0050277858234422,0.0437975903998033,-0.0050790084093268*5619ae87
#CORRIMUDATAA,FILE,0,36.5,FINESTEERING,2319,305225.950,02000000,e5fc,17139;2319,305225.950000000,-0.0008478848254408,0.0003394128186987,0.0061978703053416,0.0107886852260847,0.0381058152327657,0.0233236252554882*cfc3c9bc
#CORRIMUDATAA,FILE,0,36.5,FINESTEERING,2319,305226.000,02000000,e5fc,17139;2319,305226.000000000,0.0002934668060235,0.0000961513384477,0.0062884090764261,-0.0173247038863535,0.0466545895154809,0.0102084264798255*35898c34
#CORRIMUDATAA,FILE,0,36.5,FINESTEERING,2319,305226.050,02000000,e5fc,17139;2319,305226.050000000,-0.0016426089423688,0.0014537990687010,0.0059126242199240,-0.0197363403325045,0.0420857918552957,0.0188690232367529*718bde4c
#CORRIMUDATAA,FILE,0,26.5,FINESTEERING,2319,305226.100,02000000,e5fc,17139;2319,305226.100000000,-0.0014944923862438,0.0002386820687192,0.0053315307985586,-0.0207311410700601,0.0424153514874254,0.0068355066015203*bbd2b586
#CORRIMUDATAA,FILE,0,26.5,FINESTEERING,2319,305226.150,02000000,e5fc,17139;2319,305226.150000000,-0.0019467117899426,-0.0001469770702692,0.0047905870041849,-0.0218751502740746,0.0431823346898687,-0.0063632268444553*edb93d49
#CORRIMUDATAA,FILE,0,26.5,FINESTEERING,2319,305226.200,02000000,e5fc,17139;2319,305226.200000000,-0.0018198124601101,-0.0003858896126753,0.0047867398306725,-0.0154795592367404,0.0486010747871903,-0.0141233314027348*b6479128
#CORRIMUDATAA,FILE,0,26.5,FINESTEERING,2319,305226.250,02000000,e5fc,17139;2319,305226.250000000,-0.0014959268143855,-0.0002047076458495,0.0049944356156472,-0.0090771709602717,0.0455501709555662,-0.0190326199432600*54551e93
#CORRIMUDATAA,FILE,0,26.5,FINESTEERING,2319,305226.300,02000000,e5fc,17139;2319,305226.300000000,-0.0009671436365086,-0.0005495909688074,0.0052234514450349,0.0047670602501975,0.0509560206974951,-0.0193719035362600*b1f12007
#CORRIMUDATAA,FILE,0,26.5,FINESTEERING,2319,305226.350,02000000,e5fc,17139;2319,305226.350000000,-0.0016041777313633,-0.0025199506167776,0.0054118197570609,-0.0005181998182715,0.0452860116308824,-0.0291057056037478*1ff075e9
#CORRIMUDATAA,FILE,0,26.5,FINESTEERING,2319,305226.400,02000000,e5fc,17139;2319,305226.400000000,-0.0006996108757680,-0.0011354514573261,0.0051943561274385,-0.0241742695040439,0.0508540315375676,0.0002732445863064*8b817875
#CORRIMUDATAA,FILE,0,26.5,FINESTEERING,2319,305226.450,02000000,e5fc,17139;2319,305226.450000000,-0.0017895826431241,-0.0003736844183347,0.0047607867371974,-0.0256049683575953,0.0367416293224525,0.0102357507286869*0ab0b357
#CORRIMUDATAA,FILE,0,26.5,FINESTEERING,2319,305226.500,02000000,e5fc,17139;2319,305226.500000000,-0.0003366449709662,0.0006057133077354,0.0043117060327899,-0.0101829672628737,0.0550245300315374,0.0078981341145036*d6bf05f6
#CORRIMUDATAA,FILE,0,26.5,FINESTEERING,2319,305226.550,02000000,e5fc,17139;2319,305226.550000000,-0.0024135405359137,0.0003669107440914,0.0042937131687186,-0.0003350920612931,0.0313772160403015,0.0270720616864637*3345859e
#CORRIMUDATAA,FILE,0,26.5,FINESTEERING,2319,305226.600,02000000,e5fc,17139;2319,305226.600000000,-0.0012687289317316,0.0005189183226302,0.0041604370295615,-0.0052043994567471,0.0467987848127258,0.0017932507987213*c47f1396
#CORRIMUDATAA,FILE,0,26.5,FINESTEERING,2319,305226.650,02000000,e5fc,17139;2319,305226.650000000,-0.0014462442639350,0.0000631684761019,0.0044574970291315,0.0132967509494250,0.0485871150205003,0.0003549288849884*ff5f3e79
#CORRIMUDATAA,FILE,0,26.5,FINESTEERING,2319,305226.700,02000000,e5fc,17139;2319,305226.700000000,-0.0013892375224609,0.0008554275385731,0.0050083915827944,0.0012073762581864,0.0333025152785418,-0.0160430604653387*3057d3c1
#CORRIMUDATAA,FILE,0,26.5,FINESTEERING,2319,305226.750,02000000,e5fc,17139;2319,305226.750000000,-0.0004082710757279,0.0001302197148575,0.0048446513238650,-0.0297506521186490,0.0444751916728149,0.0145001687098802*9a93d858
#CORRIMUDATAA,FILE,0,26.5,FINESTEERING,2319,305226.800,02000000,e5fc,17139;2319,305226.800000000,-0.0007916104630634,0.0009204773504738,0.0048790290707411,-0.0181911660125543,0.0408668749354702,-0.0302212245349627*5d3730f3
#CORRIMUDATAA,FILE,0,26.5,FINESTEERING,2319,305226.850,02000000,e5fc,17139;2319,305226.850000000,0.0004750416268474,0.0003448457094358,0.0046454276019846,-0.0167990026319533,0.0503808482414856,-0.0110971804866243*996306c6
#CORRIMUDATAA,FILE,0,26.5,FINESTEERING,2319,305226.900,02000000,e5fc,17139;2319,305226.900000000,-0.0001127108486705,0.0001346870753964,0.0048919760610906,-0.0052706319111341,0.0415697582351330,-0.0332279019058401*4893f0a5
#CORRIMUDATAA,FILE,0,26.5,FINESTEERING,2319,305226.950,02000000,e5fc,17139;2319,305226.950000000,-0.0008484847611781,-0.0002623793446831,0.0050479980364622,-0.0087839685716763,0.0337206788082368,0.0181477613223733*005f09f7
#CORRIMUDATAA,FILE,0,26.5,FINESTEERING,2319,305227.000,02000000,e5fc,17139;2319,305227.000000000,-0.0001413644787070,-0.0006057387835560,0.0052209762153218,-0.0111727293061721,0.0400457075392734,-0.0061042923128546*71e255f7
#CORRIMUDATAA,FILE,0,26.5,FINESTEERING,2319,305227.050,02000000,e5fc,17139;2319,305227.050000000,-0.0024745760285142,0.0004351591074979,0.0053432818523011,-0.0117656366092210,0.0362970836077293,0.0159245094836043*b5816e09
#CORRIMUDATAA,FILE,0,26.5,FINESTEERING,2319,305227.100,02000000,e5fc,17139;2319,305227.100000000,-0.0009754269676418,-0.0002200089026830,0.0051284908924163,-0.0323644578889642,0.0418014127412311,-0.0051957601166839*d60a43e6
#CORRIMUDATAA,FILE,0,29.0,FINESTEERING,2319,305227.150,02000000,e5fc,17139;2319,305227.150000000,-0.0014890820675849,0.0006813573818628,0.0048678684218683,-0.0157347019735638,0.0464137379548394,0.0174626764583346*0ce645df
#CORRIMUDATAA,FILE,0,29.0,FINESTEERING,2319,305227.200,02000000,e5fc,17139;2319,305227.200000000,-0.0012371196036249,0.0017332388024041,0.0046315280943728,-0.0095278252328839,0.0496489545351370,-0.0293598490207575*675de7e0
#CORRIMUDATAA,FILE,0,29.0,FINESTEERING,2319,305227.250,02000000,e5fc,17139;2319,305227.250000000,-0.0010148065811013,0.0020342262624124,0.0050223034397894,0.0077240808555086,0.0385044427617778,0.0113498165595657*e5430f7f
#CORRIMUDATAA,FILE,0,29.0,FINESTEERING,2319,305227.300,02000000,e5fc,17139;2319,305227.300000000,-0.0008404265954392,-0.0006246646016015,0.0052821975610825,0.0010500613814681,0.0423475570513041,-0.0281739877119453*33b97eeb
#CORRIMUDATAA,FILE,0,29.0,FINESTEERING,2319,305227.350,02000000,e5fc,17139;2319,305227.350000000,-0.0008214154114740,-0.0000871878272854,0.0054153156499886,-0.0244937783592790,0.0371749083797792,-0.0228957221294996*386a1dc5
#CORRIMUDATAA,FILE,0,29.0,FINESTEERING,2319,305227.400,02000000,e5fc,17139;2319,305227.400000000,0.0002737646992000,-0.0002491447397563,0.0054471725644162,-0.0196820512756551,0.0368063980789183,0.0014203231488925*e41a9482
#CORRIMUDATAA,FILE,0,29.0,FINESTEERING,2319,305227.450,02000000,e5fc,17139;2319,305227.450000000,0.0009573118089921,0.0008172567857189,0.0047545801044239,-0.0402752848405924,0.0401206333512184,0.0127200165997114*a5c3f2a8
#CORRIMUDATAA,FILE,0,29.0,FINESTEERING,2319,305227.500,02000000,e5fc,17139;2319,305227.500000000,0.0003364118801023,-0.0003433124811792,0.0040488157216079,-0.0196510702328818,0.0345140282943453,0.0075028814572179*13c99ff3
#CORRIMUDATAA,FILE,0,29.0,FINESTEERING,2319,305227.550,02000000,e5fc,17139;2319,305227.550000000,-0.0001477374930191,-0.0014312210560346,0.0036639141810938,-0.0186852615036829,0.0301866050237887,0.0373707424552141*0efcae61
#CORRIMUDATAA,FILE,0,29.0,FINESTEERING,2319,305227.600,02000000,e5fc,17139;2319,305227.600000000,-0.0004612990891491,-0.0018665802106834,0.0035060844487515,-0.0170157373530692,0.0352994976198289,0.0165508282205326*9e890439
#CORRIMUDATAA,FILE,0,29.0,FINESTEERING,2319,305227.650,02000000,e5fc,17139;2319,305227.650000000,-0.0006925103916691,-0.0016826110854387,0.0034879919342772,-0.0109590440271044,0.0438675433502491,0.0012507889156295*058143bc
#CORRIMUDATAA,FILE,0,29.0,FINESTEERING,2319,305227.700,02000000,e5fc,17139;2319,305227.700000000,-0.0008242048905306,-0.0015635216631237,0.0035260703895809,-0.0015745356803444,0.0349364872051194,-0.0466925197390953*f6be04ec
#CORRIMUDATAA,FILE,0,29.0,FINESTEERING,2319,305227.750,02000000,e5fc,17139;2319,305227.750000000,0.0004263089971790,-0.0016066722065324,0.0033629315811720,-0.0153248602603974,0.0502163810986641,-0.0181714837383084*fcfb5c8f
#CORRIMUDATAA,FILE,0,29.0,FINESTEERING,2319,305227.800,02000000,e5fc,17139;2319,305227.800000000,-0.0003867139982651,-0.0007254992012704,0.0027629444451947,-0.0151089421448296,0.0285197938976945,-0.0673594636798112*1db1056b
#CORRIMUDATAA,FILE,0,29.0,FINESTEERING,2319,305227.850,02000000,e5fc,17139;2319,305227.850000000,0.0015311058351251,-0.0001049742983031,0.0023864209559442,-0.0127127877408733,0.0351965643987479,0.0019222354975933*c199db62
#CORRIMUDATAA,FILE,0,29.0,FINESTEERING,2319,305227.900,02000000,e5fc,17139;2319,305227.900000000,0.0015471737101454,-0.0002852804298261,0.0026299538351526,0.0200681709815023,0.0310013227428298,-0.0167371222315414*650fa4c2
#CORRIMUDATAA,FILE,0,29.0,FINESTEERING,2319,305227.950,02000000,e5fc,17139;2319,305227.950000000,0.0007390209938106,0.0010909628277342,0.0034143595291431,0.0223493566044680,0.0282820715255271,0.0326102200643974*016d8e4d
#CORRIMUDATAA,FILE,0,29.0,FINESTEERING,2319,305228.000,02000000,e5fc,17139;2319,305228.000000000,0.0011190462969656,-0.0008221268781487,0.0031856582359953,-0.0221926799240831,0.0392340503873819,0.0007442690298098*7ad4a9aa
#CORRIMUDATAA,FILE,0,29.0,FINESTEERING,2319,305228.050,02000000,e5fc,17139;2319,305228.050000000,-0.0001956267210855,0.0012011859016224,0.0022467914607562,-0.0425994528691007,0.0310212804234540,0.0234247663939788*ca200f0c
#CORRIMUDATAA,FILE,0,29.0,FINESTEERING,2319,305228.100,02000000,e5fc,17139;2319,305228.100000000,-0.0009506455614345,0.0005260483729597,0.0015270714078796,-0.0128934275754318,0.0186694060005206,0.0485582639863119*6391d0b2
#CORRIMUDATAA,FILE,0,32.5,FINESTEERING,2319,305228.150,02000000,e5fc,17139;2319,305228.150000000,-0.0010828401291487,0.0014758534656659,0.0018449582228552,0.0024202672294613,0.0212985343496019,0.0886717771280155*7e2617af
#CORRIMUDATAA,FILE,0,32.5,FINESTEERING,2319,305228.200,02000000,e5fc,17139;2319,305228.200000000,-0.0028417475479551,-0.0008081471256245,0.0020466596167223,0.0037478115797248,0.0239415051500995,0.0008663596683979*423af910
#CORRIMUDATAA,FILE,0,32.5,FINESTEERING,2319,305228.250,02000000,e5fc,17139;2319,305228.250000000,-0.0020063786747104,-0.0010760286928253,0.0019323123829781,-0.0184602289950025,0.0370679353583618,-0.0314261371471934*c7202cb7
#CORRIMUDATAA,FILE,0,32.5,FINESTEERING,2319,305228.300,02000000,e5fc,17139;2319,305228.300000000,-0.0011175670050222,-0.0013804429401968,0.0015497542183579,-0.0147936766581129,0.0285755713331639,-0.0178046481122662*4008ea11
#CORRIMUDATAA,FILE,0,32.5,FINESTEERING,2319,305228.350,02000000,e5fc,17139;2319,305228.350000000,-0.0000745976313794,-0.0010079453256051,0.0013355850472851,-0.0208212783582546,0.0369651499416952,-0.0259121366718082*f3350798
#CORRIMUDATAA,FILE,0,32.5,FINESTEERING,2319,305228.400,02000000,e5fc,17139;2319,305228.400000000,0.0016876013982942,0.0003170496771742,0.0014924211807083,0.0236885817882697,0.0234430928787706,-0.0559209647093393*386c342a
#CORRIMUDATAA,FILE,0,32.5,FINESTEERING,2319,305228.450,02000000,e5fc,17139;2319,305228.450000000,0.0019511501565105,0.0020187569991084,0.0017325956338993,0.0088036673516865,0.0295083011691213,-0.0252260399189024*3c932a4b
#CORRIMUDATAA,FILE,0,32.5,FINESTEERING,2319,305228.500,02000000,e5fc,17139;2319,305228.500000000,0.0017027697271219,0.0016319274602589,0.0015605053980365,-0.0044704199101604,0.0215533072119704,0.0119151370899867*03892e79
#CORRIMUDATAA,FILE,0,32.5,FINESTEERING,2319,305228.550,02000000,e5fc,17139;2319,305228.550000000,0.0007292364487255,-0.0001230028535299,0.0009757006336867,-0.0152716155366511,0.0198735862523887,0.0290153639949458*e77b12ac
#CORRIMUDATAA,FILE,0,32.5,FINESTEERING,2319,305228.600,02000000,e5fc,17139;2319,305228.600000000,0.0004568056647413,-0.0002611181676938,0.0006524652409156,-0.0262187213543988,0.0342433205427190,-0.0317933196747332*8428810c
#CORRIMUDATAA,FILE,0,32.5,FINESTEERING,2319,305228.650,02000000,e5fc,17139;2319,305228.650000000,0.0000830519119027,0.0002676455206787,0.0004424111155427,0.0005913786107915,0.0282573344934667,0.0052522512454496*fc30b89b
#CORRIMUDATAA,FILE,0,32.5,FINESTEERING,2319,305228.700,02000000,e5fc,17139;2319,305228.700000000,-0.0007331795546325,-0.0003816756706589,0.0005190367429361,0.0095985299060230,0.0221915461597528,0.0132564336432571*ea2d867c
#CORRIMUDATAA,FILE,0,32.5,FINESTEERING,2319,305228.750,02000000,e5fc,17139;2319,305228.750000000,-0.0009342700992702,0.0007200397092796,0.0004132199858346,-0.0096608703373576,0.0177546116865915,0.0290927129942551*2ea647bf
#CORRIMUDATAA,FILE,0,32.5,FINESTEERING,2319,305228.800,02000000,e5fc,17139;2319,305228.800000000,0.0015860908321415,-0.0018540993008132,-0.0001473524118853,-0.0074409139463333,0.0353197525778023,-0.0279488798323412*1585c62b
#CORRIMUDATAA,FILE,0,32.5,FINESTEERING,2319,305228.850,02000000,e5fc,17139;2319,305228.850000000,0.0017388670567757,0.0004047238283508,-0.0005285860760910,-0.0003482401338449,0.0187903092425419,-0.0191503089205591*63113207
#CORRIMUDATAA,FILE,0,32.5,FINESTEERING,2319,305228.900,02000000,e5fc,17139;2319,305228.900000000,0.0031060374530876,-0.0014445179153934,-0.0005517182444186,0.0120593312573944,0.0295085495032129,0.0562469786194098*cbf74e91
#CORRIMUDATAA,FILE,0,32.5,FINESTEERING,2319,305228.950,02000000,e5fc,17139;2319,305228.950000000,0.0023362929807935,-0.0004919672538037,-0.0004368777543410,0.0022810831526141,0.0089999782403661,0.0160327869485535*5b4b2b80
#CORRIMUDATAA,FILE,0,32.5,FINESTEERING,2319,305229.000,02000000,e5fc,17139;2319,305229.000000000,0.0018383250303517,0.0020780743812975,-0.0006137618539363,-0.0072558118252573,0.0192733766095209,0.0557990938058947*49273096
#CORRIMUDATAA,FILE,0,32.5,FINESTEERING,2319,305229.050,02000000,e5fc,17139;2319,305229.050000000,0.0014125940061879,0.0039329868786948,-0.0005009953269809,0.0370359600151152,0.0218410029873663,-0.0183916970228530*0102fee8
#CORRIMUDATAA,FILE,0,31.5,FINESTEERING,2319,305229.100,02000000,e5fc,17139;2319,305229.100000000,0.0014512892063969,0.0037873512961633,-0.0004481294048849,0.0222085497661851,0.0360486387982180,-0.0374083602107354*d98e03e2
#CORRIMUDATAA,FILE,0,31.5,FINESTEERING,2319,305229.150,02000000,e5fc,17139;2319,305229.150000000,0.0002419397198914,0.0033802653815514,-0.0005032295237473,0.0053157079478392,0.0117008951617931,-0.0149355425895048*83109b65
#CORRIMUDATAA,FILE,0,31.5,FINESTEERING,2319,305229.200,02000000,e5fc,17139;2319,305229.200000000,0.0013189793308539,0.0008570243428030,-0.0009974101723956,-0.0076391250048691,0.0375243581202926,-0.0218764658112879*fb77df73
#CORRIMUDATAA,FILE,0,31.5,FINESTEERING,2319,305229.250,02000000,e5fc,17139;2319,305229.250000000,0.0006762906548230,0.0005763095641696,-0.0011590066498912,-0.0213035432502074,0.0217570015183823,-0.0965608151620243*78e3e92d
#CORRIMUDATAA,FILE,0,31.5,FINESTEERING,2319,305229.300,02000000,e5fc,17139;2319,305229.300000000,0.0013448011432644,0.0009224063318120,-0.0011539998525451,0.0097269439551987,0.0212419699473410,0.0596251250716521*8b06494e
#CORRIMUDATAA,FILE,0,31.5,FINESTEERING,2319,305229.350,02000000,e5fc,17139;2319,305229.350000000,-0.0001101928657484,-0.0037699716584327,-0.0011103565557745,-0.0048759275300938,0.0099134295876286,0.0002147224003794*a26e17d3
#CORRIMUDATAA,FILE,0,31.5,FINESTEERING,2319,305229.400,02000000,e5fc,17139;2319,305229.400000000,0.0005263458030848,-0.0009628522949541,-0.0013124991563853,-0.0116830571037311,0.0059056715635174,0.1176785687823728*92c7ad86
#CORRIMUDATAA,FILE,0,31.5,FINESTEERING,2319,305229.450,02000000,e5fc,17139;2319,305229.450000000,-0.0019559449370479,-0.0027267760086129,-0.0014947691816649,-0.0135232475758804,0.0133990136118603,0.0970210447026223*3c9bbffa
#CORRIMUDATAA,FILE,0,31.5,FINESTEERING,2319,305229.500,02000000,e5fc,17139;2319,305229.500000000,-0.0010475689480533,0.0003718711215502,-0.0017898783528082,0.0101034127677608,0.0229090627835922,0.0012156713071229*a4ef6bfd
#CORRIMUDATAA,FILE,0,31.5,FINESTEERING,2319,305229.550,02000000,e5fc,17139;2319,305229.550000000,-0.0012630612928380,0.0013620374879523,-0.0014542828903823,0.0340040377974563,0.0122436495824045,0.0334117304612260*30a7c5db
#CORRIMUDATAA,FILE,0,31.5,FINESTEERING,2319,305229.600,02000000,e5fc,17139;2319,305229.600000000,-0.0005742689698713,0.0029453590342470,-0.0009064863654394,0.0496533550641830,0.0184038541068994,-0.0206233369335998*e991d11c
#CORRIMUDATAA,FILE,0,31.5,FINESTEERING,2319,305229.650,02000000,e5fc,17139;2319,305229.650000000,0.0006103613998997,0.0021300614075590,-0.0006653475162231,0.0130079314266397,0.0274031411229913,-0.0786373108354509*4119604f
#CORRIMUDATAA,FILE,0,31.5,FINESTEERING,2319,305229.700,02000000,e5fc,17139;2319,305229.700000000,0.0007815361223363,0.0027594018509226,-0.0006810106334637,0.0059110637530685,0.0182144601098390,-0.0554399573158861*2d648a21
#CORRIMUDATAA,FILE,0,31.5,FINESTEERING,2319,305229.750,02000000,e5fc,17139;2319,305229.750000000,0.0017566741457310,0.0013319064371048,-0.0005677195018196,-0.0101741123572545,0.0298237187086265,-0.0674867528058048*5a1efaaa
#CORRIMUDATAA,FILE,0,31.5,FINESTEERING,2319,305229.800,02000000,e5fc,17139;2319,305229.800000000,0.0010172670320506,0.0028775031190727,-0.0007896886973765,-0.0076544114763698,0.0130059636951687,-0.0359508013687608*e1b57da8
#CORRIMUDATAA,FILE,0,31.5,FINESTEERING,2319,305229.850,02000000,e5fc,17139;2319,305229.850000000,0.0016010160115181,-0.0004524584339238,-0.0009753759582350,0.0056410376408014,0.0126301183546635,0.0135115571067680*9f657cf6
#CORRIMUDATAA,FILE,0,31.5,FINESTEERING,2319,305229.900,02000000,e5fc,17139;2319,305229.900000000,0.0022412391551418,-0.0048488980300297,-0.0011771428682341,-0.0254948075605962,0.0216285606170787,-0.0357799623292942*37eef3bb
#CORRIMUDATAA,FILE,0,31.5,FINESTEERING,2319,305229.950,02000000,e5fc,17139;2319,305229.950000000,0.0006443065624527,-0.0050061254679545,-0.0010402789223638,-0.0105529223901919,0.0108896073274776,0.0804724611298122*e0c8dd45
#CORRIMUDATAA,FILE,0,31.5,FINESTEERING,2319,305230.000,02000000,e5fc,17139;2319,305230.000000000,-0.0000427829229623,-0.0045920634509609,-0.0014220106566969,-0.0072810240236078,0.0052611737923220,0.0844042778326216*8f119044
#CORRIMUDATAA,FILE,0,31.5,FINESTEERING,2319,305230.050,02000000,e5fc,17139;2319,305230.050000000,-0.0004372159819230,-0.0031782903943793,-0.0018515222416434,-0.0136322064382180,0.0148553020594903,0.0692009593686460*ffd28f84
#CORRIMUDATAA,FILE,0,29.5,FINESTEERING,2319,305230.100,02000000,e5fc,17139;2319,305230.100000000,-0.0009469895266532,-0.0014831664984860,-0.0024890128566827,0.0291616727497251,0.0160188849055347,0.0388340406352295*b7cb50a0
#CORRIMUDATAA,FILE,0,29.5,FINESTEERING,2319,305230.150,02000000,e5fc,17139;2319,305230.150000000,-0.0018083875616562,0.0008205163167197,-0.0025992064560898,0.0400633556937457,0.0126683715890041,0.0146401466483171*c0d7a5de
#CORRIMUDATAA,FILE,0,29.5,FINESTEERING,2319,305230.200,02000000,e5fc,17139;2319,305230.200000000,-0.0004297311572314,-0.0000753234421253,-0.0029593349131610,0.0325984029974420,0.0192327362254704,-0.0495654895545128*725c2ec2
#CORRIMUDATAA,FILE,0,29.5,FINESTEERING,2319,305230.250,02000000,e5fc,17139;2319,305230.250000000,-0.0000835524628358,0.0020215766056729,-0.0033195495000533,0.0009555144152445,0.0221524095167241,-0.0829768817990107*b8594583
#CORRIMUDATAA,FILE,0,29.5,FINESTEERING,2319,305230.300,02000000,e5fc,17139;2319,305230.300000000,0.0021194090187655,0.0048386504650416,-0.0034745778707429,0.0235651513621438,0.0235856115083300,-0.0575923225020717*e1a971f4
#CORRIMUDATAA,FILE,0,29.5,FINESTEERING,2319,305230.350,02000000,e5fc,17139;2319,305230.350000000,0.0025910924138248,0.0061566321105693,-0.0029811815151795,0.0530302062283887,0.0099218610475102,-0.0285615013325595*34526035
#CORRIMUDATAA,FILE,0,29.5,FINESTEERING,2319,305230.400,02000000,e5fc,17139;2319,305230.400000000,0.0036557685556434,0.0041720770156073,-0.0029811763775650,0.0257183755022146,0.0136020184515843,-0.0290003481338695*d57891b7
#CORRIMUDATAA,FILE,0,29.5,FINESTEERING,2319,305230.450,02000000,e5fc,17139;2319,305230.450000000,0.0032852239744113,0.0015920971895124,-0.0033610080136073,-0.0166253631383670,0.0158903466746264,0.0213365174466503*aebaaede
#CORRIMUDATAA,FILE,0,29.5,FINESTEERING,2319,305230.500,02000000,e5fc,17139;2319,305230.500000000,0.0024443116079759,-0.0007918879300260,-0.0035769386526917,-0.0032551602162042,0.0101719728975993,0.0241553024614470*d9ee6411
#CORRIMUDATAA,FILE,0,29.5,FINESTEERING,2319,305230.550,02000000,e5fc,17139;2319,305230.550000000,0.0010443440749051,-0.0014577043646259,-0.0038510114564222,0.0030595401733105,0.0032677403799712,0.1195139851979922*5df01c9f
#CORRIMUDATAA,FILE,0,29.5,FINESTEERING,2319,305230.600,02000000,e5fc,17139;2319,305230.600000000,-0.0014226169732465,-0.0036772747272530,-0.0040885034048620,-0.0061203607502395,0.0066410043577092,0.0656585529099355*c21863ca
#CORRIMUDATAA,FILE,0,29.5,FINESTEERING,2319,305230.650,02000000,e5fc,17139;2319,305230.650000000,-0.0011953990760738,-0.0022977527860693,-0.0049956831666639,-0.0032634725749175,0.0189855496693676,0.0081724776891951*c5b8f27e
#CORRIMUDATAA,FILE,0,29.5,FINESTEERING,2319,305230.700,02000000,e5fc,17139;2319,305230.700000000,-0.0018386124826551,-0.0027654455471314,-0.0055761684960272,0.0298753817071281,0.0131985782500806,-0.0483795615130117*f1ef6320
#CORRIMUDATAA,FILE,0,29.5,FINESTEERING,2319,305230.750,02000000,e5fc,17139;2319,305230.750000000,0.0000792760074364,-0.0016482804059597,-0.0059196643187632,0.0407242511113280,0.0196818299544271,-0.0177966840792585*ac5a18a9
#CORRIMUDATAA,FILE,0,29.5,FINESTEERING,2319,305230.800,02000000,e5fc,17139;2319,305230.800000000,0.0002637469297543,-0.0020010219206768,-0.0060229936689348,0.0394633863757444,0.0116491601120664,-0.0188011070466924*30a77f4b
#CORRIMUDATAA,FILE,0,29.5,FINESTEERING,2319,305230.850,02000000,e5fc,17139;2319,305230.850000000,0.0015449250925602,-0.0006682390871849,-0.0061607813679918,0.0502527533094350,0.0150466069054994,-0.0254127098064830*69a3ff50
#CORRIMUDATAA,FILE,0,29.5,FINESTEERING,2319,305230.900,02000000,e5fc,17139;2319,305230.900000000,0.0014749586691565,0.0000007001567588,-0.0061640320641978,0.0431713741509070,0.0143590922956654,-0.0163014443082346*0fed77bb
#CORRIMUDATAA,FILE,0,29.5,FINESTEERING,2319,305230.950,02000000,e5fc,17139;2319,305230.950000000,0.0004806666350419,0.0023044484303281,-0.0062454636765116,0.0274146376582850,0.0098733064904237,0.0328675116771842*462b47ff
#CORRIMUDATAA,FILE,0,29.5,FINESTEERING,2319,305231.000,02000000,e5fc,17139;2319,305231.000000000,0.0007514867805222,0.0014219741639366,-0.0068318355963159,0.0320887324842087,0.0101412765228027,0.0124528471989348*61d54084
#CORRIMUDATAA,FILE,0,29.5,FINESTEERING,2319,305231.050,02000000,e5fc,17139;2319,305231.050000000,-0.0000120090014447,0.0003976068245716,-0.0069673285439945,0.0344997083073545,0.0150466229148022,-0.0016625159931766*556aa7da
#CORRIMUDATAA,FILE,0,29.5,FINESTEERING,2319,305231.100,02000000,e5fc,17139;2319,305231.100000000,-0.0009126741961362,0.0003533900254649,-0.0068592313080931,0.0321636249740247,0.0140430935214749,-0.0103946749564951*ce7204d2
#CORRIMUDATAA,FILE,0,29.5,FINESTEERING,2319,305231.150,02000000,e5fc,17139;2319,305231.150000000,-0.0003756728742015,0.0005610872795876,-0.0061766375026504,0.0354675938771150,0.0069916316327551,0.0366458374761705*fead6f56
#CORRIMUDATAA,FILE,0,29.5,FINESTEERING,2319,305231.200,02000000,e5fc,17139;2319,305231.200000000,0.0009764406731178,-0.0001449454398002,-0.0060328048378040,0.0314496933029732,0.0182211450346991,-0.0074251407268995*a4bf14cb
#CORRIMUDATAA,FILE,0,29.5,FINESTEERING,2319,305231.250,02000000,e5fc,17139;2319,305231.250000000,0.0000437077586379,-0.0001792691379912,-0.0060130110767309,0.0151314522358992,0.0160682557616743,0.0131479814684923*9b84945c
#CORRIMUDATAA,FILE,0,29.5,FINESTEERING,2319,305231.300,02000000,e5fc,17139;2319,305231.300000000,-0.0002823358182310,-0.0005436286308643,-0.0062920010214592,0.0082288960053686,0.0066870609066205,0.0261044167704485*38b9556e
#CORRIMUDATAA,FILE,0,29.5,FINESTEERING,2319,305231.350,02000000,e5fc,17139;2319,305231.350000000,-0.0001838093487334,-0.0010931730436444,-0.0066819097036134,0.0186088937416039,0.0167247415826949,-0.0054535203377223*86b519ec
#CORRIMUDATAA,FILE,0,29.5,FINESTEERING,2319,305231.400,02000000,e5fc,17139;2319,305231.400000000,-0.0015002363536308,-0.0014529289109767,-0.0064974656593822,0.0361014131581878,0.0109749757706556,-0.0221048365149433*f4591677
#CORRIMUDATAA,FILE,0,29.5,FINESTEERING,2319,305231.450,02000000,e5fc,17139;2319,305231.450000000,-0.0011728228284176,-0.0010890828178390,-0.0062754523122217,0.0325812005767139,0.0121428628104239,0.0107531843807165*e563ae30
#CORRIMUDATAA,FILE,0,29.5,FINESTEERING,2319,305231.500,02000000,e5fc,17139;2319,305231.500000000,0.0000385166921161,-0.0018362818840671,-0.0060728250538668,0.0345075869086192,0.0193691387268762,-0.0690164071311932*e5d611fc
#CORRIMUDATAA,FILE,0,29.5,FINESTEERING,2319,305231.550,02000000,e5fc,17139;2319,305231.550000000,-0.0005231011257676,0.0000100712169495,-0.0061596576495354,0.0223069024085330,0.0106235641527425,0.0219256831190423*535352ce
#CORRIMUDATAA,FILE,0,29.5,FINESTEERING,2319,305231.600,02000000,e5fc,17139;2319,305231.600000000,0.0003113524998661,-0.0018464684698295,-0.0061869748865778,0.0317253410068358,0.0092845849695885,-0.0164261249882838*ee963886
#CORRIMUDATAA,FILE,0,29.5,FINESTEERING,2319,305231.650,02000000,e5fc,17139;2319,305231.650000000,0.0002597871517606,0.0000340508499575,-0.0062393707340946,0.0520648549258354,0.0023774366399580,0.0244210596281936*5c4a34c6
#CORRIMUDATAA,FILE,0,29.5,FINESTEERING,2319,305231.700,02000000,e5fc,17139;2319,305231.700000000,-0.0006134547247788,-0.0010998382190568,-0.0062991839306837,0.0316756333843512,0.0089859125539271,0.0444720289632655*d50e0e44
#CORRIMUDATAA,FILE,0,29.5,FINESTEERING,2319,305231.750,02000000,e5fc,17139;2319,305231.750000000,-0.0004956929943078,0.0004074045732718,-0.0067276092778949,0.0196845577836751,0.0072935724283318,0.0198121453994823*7112c5b5
#CORRIMUDATAA,FILE,0,29.5,FINESTEERING,2319,305231.800,02000000,e5fc,17139;2319,305231.800000000,-0.0007070294752269,0.0000694009401608,-0.0073301780402903,0.0346606120630075,0.0177060576825240,-0.0026440415811215*5ed6d755
#CORRIMUDATAA,FILE,0,29.5,FINESTEERING,2319,305231.850,02000000,e5fc,17139;2319,305231.850000000,-0.0006504452358786,0.0004191234673314,-0.0076036854923482,0.0496714762535144,0.0098056637197377,-0.0424412467932520*dbd07e8b
#CORRIMUDATAA,FILE,0,29.5,FINESTEERING,2319,305231.900,02000000,e5fc,17139;2319,305231.900000000,-0.0000446091247628,0.0013370743741907,-0.0080384010474109,0.0529771548724719,0.0155337702990181,-0.0178329155924969*23bb17b7
#CORRIMUDATAA,FILE,0,29.5,FINESTEERING,2319,305231.950,02000000,e5fc,17139;2319,305231.950000000,0.0000202480613620,-0.0002701743788542,-0.0081983241403221,0.0360263567610369,0.0103911186899699,-0.0349466000903063*4ef2408a
#CORRIMUDATAA,FILE,0,29.5,FINESTEERING,2319,305232.000,02000000,e5fc,17139;2319,305232.000000000,0.0003981386479231,0.0010274989273831,-0.0089102215876228,0.0401902405619103,0.0126779033947453,-0.0031004557907159*9edd1677
#CORRIMUDATAA,FILE,0,29.5,FINESTEERING,2319,305232.050,02000000,e5fc,17139;2319,305232.050000000,0.0003339307322351,0.0006765073105687,-0.0094793352951485,0.0315236170391854,0.0033897215872732,0.0113127413058368*5fc7276e
#CORRIMUDATAA,FILE,0,29.5,FINESTEERING,2319,305232.100,02000000,e5fc,17139;2319,305232.100000000,0.0005700911336931,0.0006831782395070,-0.0102698142353143,0.0411065061248452,0.0161731788930158,-0.0126706191203359*5546165f
#CORRIMUDATAA,FILE,0,31.0,FINESTEERING,2319,305232.150,02000000,e5fc,17139;2319,305232.150000000,0.0003367537145265,0.0001635167147629,-0.0106884379389557,0.0514600154460302,0.0028020616524681,0.0233766743757464*b1d63a22
#CORRIMUDATAA,FILE,0,31.0,FINESTEERING,2319,305232.200,02000000,e5fc,17139;2319,305232.200000000,0.0004062594761297,-0.0002156833498344,-0.0109346018257475,0.0424280898214346,0.0093501325057432,0.0518442446644148*019774b3
#CORRIMUDATAA,FILE,0,31.0,FINESTEERING,2319,305232.250,02000000,e5fc,17139;2319,305232.250000000,0.0005281777497550,-0.0007293020298265,-0.0113509540661490,0.0595096192672294,0.0116534147505399,0.0016233881585342*2d798bdf
#CORRIMUDATAA,FILE,0,31.0,FINESTEERING,2319,305232.300,02000000,e5fc,17139;2319,305232.300000000,0.0000794113144708,-0.0000523997739522,-0.0116157963896437,0.0612573571117258,0.0099621116467804,0.0020179691250850*69c1fdc2
#CORRIMUDATAA,FILE,0,31.0,FINESTEERING,2319,305232.350,02000000,e5fc,17139;2319,305232.350000000,0.0002418411202748,-0.0001237196117484,-0.0118771249990196,0.0640532234309782,0.0093059218917321,-0.0059159886337543*87b5d660
#CORRIMUDATAA,FILE,0,31.0,FINESTEERING,2319,305232.400,02000000,e5fc,17139;2319,305232.400000000,0.0001774875259013,-0.0010642447779943,-0.0119965519397758,0.0591245814921793,0.0071685796424441,-0.0302461075319674*630135bb
#CORRIMUDATAA,FILE,0,31.0,FINESTEERING,2319,305232.450,02000000,e5fc,17139;2319,305232.450000000,0.0004372342368559,-0.0000247030799032,-0.0123194531780915,0.0551944319962878,0.0168789641684671,-0.0178769285041220*678fd437
#CORRIMUDATAA,FILE,0,31.0,FINESTEERING,2319,305232.500,02000000,e5fc,17139;2319,305232.500000000,0.0003735008941552,-0.0000110027957267,-0.0124822675980592,0.0699894552921299,0.0081803161919473,-0.0128289199453809*1b3a1791
#CORRIMUDATAA,FILE,0,31.0,FINESTEERING,2319,305232.550,02000000,e5fc,17139;2319,305232.550000000,0.0013604386980804,-0.0014130342947969,-0.0129894558730159,0.0600650470228286,0.0174165480496929,-0.0067840785993537*1d789755
#CORRIMUDATAA,FILE,0,31.0,FINESTEERING,2319,305232.600,02000000,e5fc,17139;2319,305232.600000000,-0.0001366012812315,-0.0008080670262247,-0.0135231868498406,0.0471841685190565,0.0046350742830151,0.0031412172658447*97b977ed
#CORRIMUDATAA,FILE,0,31.0,FINESTEERING,2319,305232.650,02000000,e5fc,17139;2319,305232.650000000,-0.0004776487177056,-0.0013670249977279,-0.0140297793833396,0.0733546882166590,0.0097108931002418,0.0588378223156878*72e95515
#CORRIMUDATAA,FILE,0,31.0,FINESTEERING,2319,305232.700,02000000,e5fc,17139;2319,305232.700000000,-0.0016665986819355,-0.0019126158261110,-0.0142485917445315,0.0794570617544385,-0.0051939128443437,0.0306595546084103*d3a2ad30
#CORRIMUDATAA,FILE,0,31.0,FINESTEERING,2319,305232.750,02000000,e5fc,17139;2319,305232.750000000,-0.0011675248884768,-0.0023834948698216,-0.0144921862575798,0.0764023264844855,0.0084999761528270,0.0050904808427638*c071ce59
#CORRIMUDATAA,FILE,0,31.0,FINESTEERING,2319,305232.800,02000000,e5fc,17139;2319,305232.800000000,0.0002238376868338,-0.0011810260928147,-0.0149938247511723,0.0696257218821040,0.0072644514099514,-0.0138151897341388*64ea05f9
#CORRIMUDATAA,FILE,0,31.0,FINESTEERING,2319,305232.850,02000000,e5fc,17139;2319,305232.850000000,0.0013731617673142,-0.0022500835706143,-0.0156953566484136,0.0757309943524770,0.0147306295075814,0.0006439388117188*4a14bd0c
#CORRIMUDATAA,FILE,0,31.0,FINESTEERING,2319,305232.900,02000000,e5fc,17139;2319,305232.900000000,0.0022399463155134,-0.0016591808369611,-0.0162133990114547,0.0706495734898610,0.0077614957673554,-0.0235496718416129*541aeff7
#CORRIMUDATAA,FILE,0,31.0,FINESTEERING,2319,305232.950,02000000,e5fc,17139;2319,305232.950000000,0.0034528149726642,-0.0012881180968055,-0.0170625736851294,0.0752159865325827,0.0135760593116889,-0.0109470620361757*a712344c
#CORRIMUDATAA,FILE,0,31.0,FINESTEERING,2319,305233.000,02000000,e5fc,17139;2319,305233.000000000,0.0025610036619158,0.0001244634965431,-0.0174596074242009,0.0874381253861672,-0.0006791323942655,-0.0336089639167479*60912abd
#CORRIMUDATAA,FILE,0,31.0,FINESTEERING,2319,305233.050,02000000,e5fc,17139;2319,305233.050000000,0.0042313444421607,-0.0013740828807763,-0.0177943165529630,0.1111419790274911,0.0130014118164598,-0.0240974176931847*69ed5abd
#CORRIMUDATAA,FILE,0,30.5,FINESTEERING,2319,305233.100,02000000,e5fc,17139;2319,305233.100000000,0.0020043079251702,-0.0016631500352316,-0.0177356412060306,0.0922557979665077,0.0076069045788364,-0.0199653249502140*84817d55
#CORRIMUDATAA,FILE,0,30.5,FINESTEERING,2319,305233.150,02000000,e5fc,17139;2319,305233.150000000,0.0024995690068692,-0.0020319979102753,-0.0180701568194225,0.0724444687179009,0.0082590242324108,-0.0111381029438281*3d81f8f6
#CORRIMUDATAA,FILE,0,30.5,FINESTEERING,2319,305233.200,02000000,e5fc,17139;2319,305233.200000000,0.0000707872405292,0.0009036190989213,-0.0181118272488662,0.0897018141341713,-0.0085861625615433,0.1060124904396554*08a43473
#CORRIMUDATAA,FILE,0,30.5,FINESTEERING,2319,305233.250,02000000,e5fc,17139;2319,305233.250000000,-0.0014169520847480,0.0001654016711976,-0.0180868681180319,0.1117252804815830,0.0066081302008847,0.0680345190067013*6a01bf4d
#CORRIMUDATAA,FILE,0,30.5,FINESTEERING,2319,305233.300,02000000,e5fc,17139;2319,305233.300000000,-0.0034346438452170,0.0010539625189610,-0.0175413599008815,0.1174113562667037,-0.0050233531862714,0.0469887244580471*3ccf225b
#CORRIMUDATAA,FILE,0,30.5,FINESTEERING,2319,305233.350,02000000,e5fc,17139;2319,305233.350000000,-0.0043006851957145,0.0002629632217912,-0.0174976857766190,0.0999520241320556,0.0002993998163752,0.0408292493241782*676c442a
#CORRIMUDATAA,FILE,0,30.5,FINESTEERING,2319,305233.400,02000000,e5fc,17139;2319,305233.400000000,-0.0043971117049901,-0.0006496907497179,-0.0174996973384006,0.0872299717295679,0.0085192607330646,0.0111417651041580*27e45849
#CORRIMUDATAA,FILE,0,30.5,FINESTEERING,2319,305233.450,02000000,e5fc,17139;2319,305233.450000000,-0.0034152909070524,0.0000981321137825,-0.0176593261675764,0.0780037658773892,0.0230194536942564,-0.0267587690775358*d5ec042d
#CORRIMUDATAA,FILE,0,30.5,FINESTEERING,2319,305233.500,02000000,e5fc,17139;2319,305233.500000000,-0.0025589728890944,-0.0017302346333376,-0.0175906979071012,0.0914354118323465,0.0209444280316710,-0.0504269297418326*0c941cd4
#CORRIMUDATAA,FILE,0,30.5,FINESTEERING,2319,305233.550,02000000,e5fc,17139;2319,305233.550000000,-0.0012646235031232,-0.0031068018640617,-0.0176935448961538,0.0731326597459301,0.0186678536177636,-0.0764398625547373*d8ea4a9c
#CORRIMUDATAA,FILE,0,30.5,FINESTEERING,2319,305233.600,02000000,e5fc,17139;2319,305233.600000000,-0.0005345362162075,-0.0025535380149780,-0.0178665474066346,0.0795273648427119,0.0071494576776963,-0.0208690698050494*5dcb775e
#CORRIMUDATAA,FILE,0,30.5,FINESTEERING,2319,305233.650,02000000,e5fc,17139;2319,305233.650000000,0.0013658873547240,-0.0014201643499087,-0.0179866121493786,0.0911179628955370,0.0110271457105009,-0.0544691722807361*3f07251a
#CORRIMUDATAA,FILE,0,30.5,FINESTEERING,2319,305233.700,02000000,e5fc,17139;2319,305233.700000000,0.0018571344280149,-0.0014249275344089,-0.0178484443131769,0.1106234619416624,0.0148040241263013,-0.0249578950577574*24e98391
#CORRIMUDATAA,FILE,0,30.5,FINESTEERING,2319,305233.750,02000000,e5fc,17139;2319,305233.750000000,0.0023194086834931,-0.0004202079896345,-0.0176176203786590,0.1114910073980967,0.0083882068506395,0.0246070111950028*8c2c9a0a
#CORRIMUDATAA,FILE,0,30.5,FINESTEERING,2319,305233.800,02000000,e5fc,17139;2319,305233.800000000,0.0013264797044881,0.0002182995736474,-0.0173762858833943,0.1106433384588941,0.0052222402269040,0.0195220888257457*973bb7f2
#CORRIMUDATAA,FILE,0,30.5,FINESTEERING,2319,305233.850,02000000,e5fc,17139;2319,305233.850000000,0.0011423683214933,0.0012672289803603,-0.0171898009374297,0.1043222343508167,0.0084886632755382,0.0227612904559707*df7ae7ba
#CORRIMUDATAA,FILE,0,30.5,FINESTEERING,2319,305233.900,02000000,e5fc,17139;2319,305233.900000000,-0.0000281793400100,0.0022758560993118,-0.0172247857440314,0.0934513073037887,0.0057985658584003,0.0177828006267018*2db86a87
#CORRIMUDATAA,FILE,0,30.5,FINESTEERING,2319,305233.950,02000000,e5fc,17139;2319,305233.950000000,0.0007463432108980,0.0017718959731457,-0.0176379815771202,0.0966281976658593,0.0079158380305843,0.0113676508393249*765f799a
#CORRIMUDATAA,FILE,0,30.5,FINESTEERING,2319,305234.000,02000000,e5fc,17139;2319,305234.000000000,0.0002759871159145,0.0006271459138779,-0.0175744214076329,0.0937632571880448,0.0193987370350281,-0.0368718606448618*a193f74c
#CORRIMUDATAA,FILE,0,30.5,FINESTEERING,2319,305234.050,02000000,e5fc,17139;2319,305234.050000000,0.0006098727313402,0.0016155745409588,-0.0176357741568907,0.0759383614364949,0.0138796799132974,-0.0012823867636074*8215ec6a
#CORRIMUDATAA,FILE,0,30.5,FINESTEERING,2319,305234.100,02000000,e5fc,17139;2319,305234.100000000,0.0006284719392450,0.0026382787604616,-0.0171886776782566,0.1077914638898606,0.0164627275116540,0.0079586163405685*325a1da3
#CORRIMUDATAA,FILE,0,30.5,FINESTEERING,2319,305234.150,02000000,e5fc,17139;2319,305234.150000000,-0.0001361437856290,0.0020846680598076,-0.0170842413838930,0.0994416806463685,0.0050168847872684,0.0413502508697488*2fe24128
#CORRIMUDATAA,FILE,0,30.5,FINESTEERING,2319,305234.200,02000000,e5fc,17139;2319,305234.200000000,-0.0018777607402969,0.0008895651176636,-0.0167564045149546,0.0795064897624054,0.0090852987946873,0.0237238124430566*3298cce0
#CORRIMUDATAA,FILE,0,30.5,FINESTEERING,2319,305234.250,02000000,e5fc,17139;2319,305234.250000000,-0.0021273251826751,0.0021923467322106,-0.0169480514492776,0.0949744936685197,-0.0018312848251888,0.0370804905830119*bc8afaa1
#CORRIMUDATAA,FILE,0,30.5,FINESTEERING,2319,305234.300,02000000,e5fc,17139;2319,305234.300000000,-0.0010456064565662,-0.0004710925526740,-0.0163953668376101,0.1011414017532789,0.0111862798170339,-0.0256630251150602*16143921
#CORRIMUDATAA,FILE,0,30.5,FINESTEERING,2319,305234.350,02000000,e5fc,17139;2319,305234.350000000,-0.0003934117982724,-0.0005840279816500,-0.0162889269993923,0.0842491921408994,0.0111941806924126,0.0241120191135759*16881fd6
#CORRIMUDATAA,FILE,0,30.5,FINESTEERING,2319,305234.400,02000000,e5fc,17139;2319,305234.400000000,0.0004099911888147,0.0006252349234236,-0.0159399638060355,0.0788136180467243,0.0136245694519952,-0.0112381393384948*114d0493
#CORRIMUDATAA,FILE,0,30.5,FINESTEERING,2319,305234.450,02000000,e5fc,17139;2319,305234.450000000,0.0022232253146141,0.0007173465766008,-0.0161932150443770,0.0948540808158990,0.0165581548093286,-0.0532038776749759*deb69082
#CORRIMUDATAA,FILE,0,30.5,FINESTEERING,2319,305234.500,02000000,e5fc,17139;2319,305234.500000000,0.0027537242697802,0.0002086197666697,-0.0160424452913818,0.0994920844596526,0.0136616985705175,-0.0458147088178618*f2ceda3e
#CORRIMUDATAA,FILE,0,30.5,FINESTEERING,2319,305234.550,02000000,e5fc,17139;2319,305234.550000000,0.0036481347727416,-0.0016403012200119,-0.0162180514066246,0.0856278079380142,0.0127801525978659,-0.0575092166362681*154720b5
#CORRIMUDATAA,FILE,0,30.5,FINESTEERING,2319,305234.600,02000000,e5fc,17139;2319,305234.600000000,0.0040807557050570,-0.0016935468362216,-0.0162681680899070,0.0726320606882955,0.0165366962841987,-0.0313473667763254*a4a8c894
#CORRIMUDATAA,FILE,0,30.5,FINESTEERING,2319,305234.650,02000000,e5fc,17139;2319,305234.650000000,0.0020307500002783,0.0016080493935233,-0.0164421449129365,0.0720033711500692,0.0014392865383257,0.0490125547076458*5829852c
#CORRIMUDATAA,FILE,0,30.5,FINESTEERING,2319,305234.700,02000000,e5fc,17139;2319,305234.700000000,0.0017072714585645,0.0012489819058440,-0.0162840788951892,0.1128039257741256,-0.0053685873780826,0.0496414063408697*40c8b8d8
#CORRIMUDATAA,FILE,0,30.5,FINESTEERING,2319,305234.750,02000000,e5fc,17139;2319,305234.750000000,-0.0011450430218424,0.0024325002524323,-0.0158664831720572,0.1085954815308015,-0.0027909490094285,0.1110350651018061*0e4d701c
#CORRIMUDATAA,FILE,0,30.5,FINESTEERING,2319,305234.800,02000000,e5fc,17139;2319,305234.800000000,-0.0022539683963484,0.0017676675541431,-0.0156389286389981,0.1057236148981254,0.0029722249817558,0.0587350416160812*e9ee2dc9
#CORRIMUDATAA,FILE,0,30.5,FINESTEERING,2319,305234.850,02000000,e5fc,17139;2319,305234.850000000,-0.0039140346319274,0.0024341473559244,-0.0155404704280215,0.0937588514067449,0.0047859255318235,0.0539410744904613*5ef1c275
#CORRIMUDATAA,FILE,0,30.5,FINESTEERING,2319,305234.900,02000000,e5fc,17139;2319,305234.900000000,-0.0038994628306476,-0.0006147715012644,-0.0154965561447901,0.0869507437693708,0.0096188956944894,-0.0124801427900290*4c184432
#CORRIMUDATAA,FILE,0,30.5,FINESTEERING,2319,305234.950,02000000,e5fc,17139;2319,305234.950000000,-0.0026628533461995,0.0003116700703256,-0.0157755729068571,0.0532667176812548,0.0170498465709093,-0.0499887590304596*492546d9
#CORRIMUDATAA,FILE,0,30.5,FINESTEERING,2319,305235.000,02000000,e5fc,17139;2319,305235.000000000,-0.0016629949169219,0.0005810594529870,-0.0161759713368887,0.0666029194118692,0.0181972833402420,-0.0572964664171087*8259984a
#CORRIMUDATAA,FILE,0,30.5,FINESTEERING,2319,305235.050,02000000,e5fc,17139;2319,305235.050000000,0.0012253354333891,0.0011186633733160,-0.0162359032311641,0.0959137102989845,0.0189346151237718,-0.0441299082904472*806b23c4
#CORRIMUDATAA,FILE,0,30.5,FINESTEERING,2319,305235.100,02000000,e5fc,17139;2319,305235.100000000,0.0026076513709224,-0.0009366918440965,-0.0159596531242905,0.1123802278729221,0.0162365101765273,-0.0963655982928693*f118b141
#CORRIMUDATAA,FILE,0,31.5,FINESTEERING,2319,305235.150,02000000,e5fc,17139;2319,305235.150000000,0.0031481454116889,-0.0019389871513029,-0.0155438184162921,0.0847015736103751,0.0090026687013271,-0.0110358311089557*474baae5
#CORRIMUDATAA,FILE,0,31.5,FINESTEERING,2319,305235.200,02000000,e5fc,17139;2319,305235.200000000,0.0040069051174980,-0.0032368263477756,-0.0157320750880463,0.0761856008043889,0.0047827465406027,0.0184544859715198*61a8ddc1
#CORRIMUDATAA,FILE,0,31.5,FINESTEERING,2319,305235.250,02000000,e5fc,17139;2319,305235.250000000,0.0028453800039437,-0.0026907718253951,-0.0159068969959963,0.0763217981181186,0.0061842935436436,0.0351579352259863*98873a2d
#CORRIMUDATAA,FILE,0,31.5,FINESTEERING,2319,305235.300,02000000,e5fc,17139;2319,305235.300000000,0.0027872577382483,-0.0024504020947525,-0.0162289145397117,0.0838192872282648,0.0138361041259877,0.0020609258622143*10734b4c
#CORRIMUDATAA,FILE,0,31.5,FINESTEERING,2319,305235.350,02000000,e5fc,17139;2319,305235.350000000,-0.0003197529345510,0.0000875677918288,-0.0160235945030859,0.0887001919589201,-0.0084755411867810,0.1050302503478466*6d148745
#CORRIMUDATAA,FILE,0,31.5,FINESTEERING,2319,305235.400,02000000,e5fc,17139;2319,305235.400000000,-0.0004628333393058,0.0020983871511619,-0.0157457876204886,0.1029247911818427,0.0022123847430568,0.0553838903232397*7d89fd84
#CORRIMUDATAA,FILE,0,31.5,FINESTEERING,2319,305235.450,02000000,e5fc,17139;2319,305235.450000000,-0.0016157153959337,0.0034177424155381,-0.0154238667564163,0.1412649350481436,0.0050784713886719,-0.0093532693200731*e9991b6c
#CORRIMUDATAA,FILE,0,31.5,FINESTEERING,2319,305235.500,02000000,e5fc,17139;2319,305235.500000000,-0.0018543703750276,0.0023941810521547,-0.0151220881033812,0.0907526077052458,0.0077138395906254,-0.0087041876225606*fe0168c3
#CORRIMUDATAA,FILE,0,31.5,FINESTEERING,2319,305235.550,02000000,e5fc,17139;2319,305235.550000000,-0.0004540054054443,0.0015201709325362,-0.0159197081410304,0.0874209448332305,0.0110765322953306,-0.0082893228255738*6709417d
#CORRIMUDATAA,FILE,0,31.5,FINESTEERING,2319,305235.600,02000000,e5fc,17139;2319,305235.600000000,-0.0016723014135333,-0.0018470558191877,-0.0158536737869918,0.0652547230337384,0.0097915368691371,-0.0303992902561929*501709ac
#CORRIMUDATAA,FILE,0,31.5,FINESTEERING,2319,305235.650,02000000,e5fc,17139;2319,305235.650000000,-0.0007717949004127,-0.0014412198819310,-0.0165057763072286,0.0497026201273900,0.0226301737873740,0.0087406560417711*558d304e
#CORRIMUDATAA,FILE,0,31.5,FINESTEERING,2319,305235.700,02000000,e5fc,17139;2319,305235.700000000,-0.0019049593107909,-0.0013947325037179,-0.0163027881210821,0.0859373608083265,0.0049801449317890,-0.0155453063369897*1f2f9687
#CORRIMUDATAA,FILE,0,31.5,FINESTEERING,2319,305235.750,02000000,e5fc,17139;2319,305235.750000000,-0.0007627296967930,-0.0016930308093664,-0.0163672740245835,0.0810724297955183,0.0141716230980711,-0.0181217256464274*cd4f0587
#CORRIMUDATAA,FILE,0,31.5,FINESTEERING,2319,305235.800,02000000,e5fc,17139;2319,305235.800000000,-0.0012092551977081,-0.0001833663841397,-0.0160270623106574,0.1102650293972165,0.0007826638848876,0.0073352984680168*60c87379
#CORRIMUDATAA,FILE,0,31.5,FINESTEERING,2319,305235.850,02000000,e5fc,17139;2319,305235.850000000,-0.0008019929328027,-0.0000604767577878,-0.0154716141710073,0.1097535150604477,0.0166001017212429,0.0396575174448575*df68d416
#CORRIMUDATAA,FILE,0,31.5,FINESTEERING,2319,305235.900,02000000,e5fc,17139;2319,305235.900000000,-0.0016187258320998,0.0018360660350303,-0.0152714254953906,0.1208118672554318,-0.0013443822127031,-0.0237816349388695*d3ad97a7
#CORRIMUDATAA,FILE,0,31.5,FINESTEERING,2319,305235.950,02000000,e5fc,17139;2319,305235.950000000,-0.0000225528581274,0.0012919900871048,-0.0147548504437832,0.0958662834189813,0.0121004487627259,-0.0024037495536952*141f030d
#CORRIMUDATAA,FILE,0,31.5,FINESTEERING,2319,305236.000,02000000,e5fc,17139;2319,305236.000000000,0.0001816164782366,0.0016190218962613,-0.0152013813699309,0.0789399404064178,0.0128543035340034,-0.0557368241042560*f276c486
#CORRIMUDATAA,FILE,0,31.5,FINESTEERING,2319,305236.050,02000000,e5fc,17139;2319,305236.050000000,0.0008991246914570,0.0033349453387142,-0.0155471280963346,0.0759255822768629,0.0211097530116593,0.0130957225328477*7aa63767
#CORRIMUDATAA,FILE,0,28.0,FINESTEERING,2319,305236.100,02000000,e5fc,17139;2319,305236.100000000,0.0005507236104782,0.0014904216515041,-0.0156496189709785,0.1021883541907915,0.0062711652963404,-0.0572106284175580*f14808b3
#CORRIMUDATAA,FILE,0,28.0,FINESTEERING,2319,305236.150,02000000,e5fc,17139;2319,305236.150000000,0.0011439622928267,0.0009060815884711,-0.0152180356416539,0.0977270775343352,0.0060996927276948,0.0294646116012419*4e5543e8
#CORRIMUDATAA,FILE,0,28.0,FINESTEERING,2319,305236.200,02000000,e5fc,17139;2319,305236.200000000,0.0012602241536632,-0.0000227988049556,-0.0149889183123463,0.0825173908491502,0.0126184736500042,0.0037836306355089*4bd52795
#CORRIMUDATAA,FILE,0,28.0,FINESTEERING,2319,305236.250,02000000,e5fc,17139;2319,305236.250000000,0.0014116775509914,-0.0008454384478464,-0.0149664397047587,0.0846245167898866,0.0098457085482067,0.0209609698454088*a9719965
#CORRIMUDATAA,FILE,0,28.0,FINESTEERING,2319,305236.300,02000000,e5fc,17139;2319,305236.300000000,0.0015657970359674,-0.0018710046906060,-0.0151231325609119,0.0746952987285060,0.0198392360775487,-0.0241402049623887*98c42feb
#CORRIMUDATAA,FILE,0,28.0,FINESTEERING,2319,305236.350,02000000,e5fc,17139;2319,305236.350000000,0.0006494476584250,0.0002703422738751,-0.0152568714096189,0.0812474665217750,0.0010838619383289,0.0542924950062972*50bc6009
