#INSPVAXA,FILE,0,34.5,FINESTEERING,2319,305221.300,02000800,46eb,17139;INS_SOLUTION_GOOD,INS_RTKFIXED,17.58803140411,78.12098318683,527.5972,-76.3000,-0.2156,0.1544,0.0093,0.731334593,0.847585734,142.864090459,0.7179,0.6946,1.4801,0.0072,0.0072,0.0066,0.0165,0.0166,0.4544,ab001142,0*353b4a38
#INSPVAXA,FILE,0,34.5,FINESTEERING,2319,305221.400,02000800,46eb,17139;INS_SOLUTION_GOOD,INS_RTKFIXED,17.58803120573,78.12098333796,527.5978,-76.3000,-0.2274,0.1625,-0.0011,0.784669223,0.861621610,142.839401340,0.7179,0.6946,1.4801,0.0072,0.0072,0.0066,0.0165,0.0166,0.4544,ab001142,0*998066c3
#INSPVAXA,FILE,0,34.5,FINESTEERING,2319,305221.450,02000800,46eb,17139;INS_SOLUTION_GOOD,INS_RTKFIXED,17.58803110109,78.12098341250,527.5982,-76.3000,-0.2373,0.1555,0.0047,0.803423726,0.862454280,142.806052981,0.7179,0.6946,1.4801,0.0072,0.0072,0.0066,0.0165,0.0166,0.4544,ab001142,0*2781a71f
#INSPVAXA,FILE,0,34.5,FINESTEERING,2319,305221.500,02000800,46eb,17139;INS_SOLUTION_GOOD,INS_RTKFIXED,17.58803099235,78.12098348452,527.5985,-76.3000,-0.2454,0.1509,0.0035,0.802486868,0.852721260,142.746354034,0.7179,0.6946,1.4801,0.0072,0.0072,0.0066,0.0165,0.0166,0.4544,ab001142,0*0c716c5d
#INSPVAXA,FILE,0,34.5,FINESTEERING,2319,305221.650,02000800,46eb,17139;INS_SOLUTION_GOOD,INS_RTKFIXED,17.58803065728,78.12098371995,527.5995,-76.3000,-0.2496,0.1862,0.0073,0.820585950,0.863116474,142.535733604,0.7179,0.6946,1.4801,0.0072,0.0072,0.0066,0.0165,0.0166,0.4544,ab001142,0*1af102af
#INSPVAXA,FILE,0,34.5,FINESTEERING,2319,305221.850,02000800,46eb,17139;INS_SOLUTION_GOOD,INS_RTKFIXED,17.58803017756,78.12098408221,527.6009,-76.3000,-0.2887,0.1929,-0.0045,0.767440487,0.870445196,142.295467693,0.7179,0.6946,1.4801,0.0072,0.0072,0.0066,0.0165,0.0166,0.4544,ab001142,0*e6fcee12
#INSPVAXA,FILE,0,34.5,FINESTEERING,2319,305221.900,02000800,46eb,17139;INS_SOLUTION_GOOD,INS_RTKFIXED,17.58803004470,78.12098417336,527.6010,-76.3000,-0.3011,0.1954,0.0018,0.767910832,0.883512265,142.197311842,0.7179,0.6946,1.4801,0.0072,0.0072,0.0066,0.0165,0.0166,0.4544,ab001142,0*73db8798
#INSPVAXA,FILE,0,34.5,FINESTEERING,2319,305222.000,02000800,46eb,17139;INS_SOLUTION_GOOD,INS_RTKFIXED,17.58802976534,78.12098436865,527.6016,-76.3000,-0.3208,0.2204,0.0083,0.784081975,0.882982709,141.985271122,0.7179,0.6946,1.4801,0.0072,0.0072,0.0066,0.0165,0.0166,0.4544,ab001142,0*90e6e3fa
#INSPVAXA,FILE,0,34.5,FINESTEERING,2319,305222.150,02000800,46eb,17139;INS_SOLUTION_GOOD,INS_RTKFIXED,17.58802931824,78.12098469651,527.6031,-76.3000,-0.3416,0.2385,0.0082,0.889716294,0.845753490,141.702790321,0.7178,0.6934,1.4806,0.0093,0.0093,0.0083,0.0171,0.0171,0.4545,ab000142,0*c0390618
#INSPVAXA,FILE,0,37.0,FINESTEERING,2319,305222.250,02000800,46eb,17139;INS_SOLUTION_GOOD,INS_RTKFIXED,17.58802900431,78.12098491896,527.6051,-76.3000,-0.3600,0.2363,0.0239,0.918654708,0.782999842,141.461271521,0.7178,0.6934,1.4806,0.0093,0.0093,0.0083,0.0171,0.0171,0.4545,ab000142,0*9d173455
#INSPVAXA,FILE,0,37.0,FINESTEERING,2319,305222.300,02000800,46eb,17139;INS_SOLUTION_GOOD,INS_RTKFIXED,17.58802884063,78.12098503477,527.6064,-76.3000,-0.3692,0.2536,0.0221,0.908832996,0.746055684,141.308081676,0.7178,0.6934,1.4806,0.0093,0.0093,0.0083,0.0171,0.0171,0.4545,ab000142,0*2c27ffa8
#INSPVAXA,FILE,0,37.0,FINESTEERING,2319,305222.400,02000800,46eb,17139;INS_SOLUTION_GOOD,INS_RTKFIXED,17.58802850591,78.12098530146,527.6079,-76.3000,-0.3803,0.3042,0.0076,0.885188220,0.722234824,141.031581842,0.7178,0.6934,1.4806,0.0093,0.0093,0.0083,0.0171,0.0171,0.4545,ab000142,0*9f3f6732
#INSPVAXA,FILE,0,37.0,FINESTEERING,2319,305222.500,02000800,46eb,17139;INS_SOLUTION_GOOD,INS_RTKFIXED,17.58802814873,78.12098558579,527.6095,-76.3000,-0.4103,0.3004,0.0178,0.761899571,0.696387394,140.779006114,0.7178,0.6934,1.4806,0.0093,0.0093,0.0083,0.0171,0.0171,0.4545,ab000142,0*36358f16
#INSPVAXA,FILE,0,37.0,FINESTEERING,2319,305222.600,02000800,46eb,17139;INS_SOLUTION_GOOD,INS_RTKFIXED,17.58802777110,78.12098587315,527.6103,-76.3000,-0.4308,0.3102,-0.0077,0.738263380,0.671947899,140.464111015,0.7178,0.6934,1.4806,0.0093,0.0093,0.0083,0.0171,0.0171,0.4545,ab000142,0*3f4687bb
#INSPVAXA,FILE,0,37.0,FINESTEERING,2319,305222.700,02000800,46eb,17139;INS_SOLUTION_GOOD,INS_RTKFIXED,17.58802737123,78.12098616845,527.6101,-76.3000,-0.4582,0.3153,0.0079,0.877949923,0.705161697,140.124875960,0.7178,0.6934,1.4806,0.0093,0.0093,0.0083,0.0171,0.0171,0.4545,ab000142,0*693be077
#INSPVAXA,FILE,0,37.0,FINESTEERING,2319,305222.750,02000800,46eb,17139;INS_SOLUTION_GOOD,INS_RTKFIXED,17.58802716377,78.12098632084,527.6105,-76.3000,-0.4646,0.3303,0.0070,0.896638682,0.702279703,139.967894872,0.7178,0.6934,1.4806,0.0093,0.0093,0.0083,0.0171,0.0171,0.4545,ab000142,0*d2179a91
#INSPVAXA,FILE,0,37.0,FINESTEERING,2319,305222.900,02000800,46eb,17139;INS_SOLUTION_GOOD,INS_RTKFIXED,17.58802653395,78.12098682341,527.6129,-76.3000,-0.4785,0.3623,0.0400,1.174402064,0.667326889,139.511737841,0.7178,0.6934,1.4806,0.0093,0.0093,0.0083,0.0171,0.0171,0.4545,ab000142,0*a2f625f4
#INSPVAXA,FILE,0,37.0,FINESTEERING,2319,305222.950,02000800,46eb,17139;INS_SOLUTION_GOOD,INS_RTKFIXED,17.58802631652,78.12098699400,527.6148,-76.3000,-0.4863,0.3630,0.0342,1.176488576,0.623865507,139.333299610,0.7178,0.6934,1.4806,0.0093,0.0093,0.0083,0.0171,0.0171,0.4545,ab000142,0*54ae1f35
#INSPVAXA,FILE,0,37.0,FINESTEERING,2319,305223.050,02000800,46eb,17139;INS_SOLUTION_GOOD,INS_RTKFIXED,17.58802588518,78.12098735236,527.6176,-76.3000,-0.4818,0.3984,0.0204,1.096393134,0.558384870,138.958747789,0.7184,0.6933,1.4804,0.0121,0.0123,0.0111,0.0176,0.0177,0.4546,ab000342,0*e0ea12d6
#INSPVAXA,FILE,0,36.0,FINESTEERING,2319,305223.200,02000800,46eb,17139;INS_SOLUTION_GOOD,INS_RTKFIXED,17.58802522422,78.12098793995,527.6206,-76.3000,-0.5267,0.4140,0.0002,0.998442889,0.524876964,138.361072868,0.7184,0.6933,1.4804,0.0121,0.0123,0.0111,0.0176,0.0177,0.4546,ab000342,0*cf2ebe58
#INSPVAXA,FILE,0,36.0,FINESTEERING,2319,305223.300,02000800,46eb,17139;INS_SOLUTION_GOOD,INS_RTKFIXED,17.58802475217,78.12098832459,527.6217,-76.3000,-0.5384,0.4106,0.0177,0.931595274,0.517520652,137.870321613,0.7184,0.6933,1.4804,0.0121,0.0123,0.0111,0.0176,0.0177,0.4546,ab000342,0*6b2ccfff
#INSPVAXA,FILE,0,36.0,FINESTEERING,2319,305223.400,02000800,46eb,17139;INS_SOLUTION_GOOD,INS_RTKFIXED,17.58802427976,78.12098873105,527.6234,-76.3000,-0.5408,0.4398,0.0087,1.017123539,0.500971591,137.368691177,0.7184,0.6933,1.4804,0.0121,0.0123,0.0111,0.0176,0.0177,0.4546,ab000342,0*d2a151ec
#INSPVAXA,FILE,0,36.0,FINESTEERING,2319,305223.450,02000800,46eb,17139;INS_SOLUTION_GOOD,INS_RTKFIXED,17.58802403698,78.12098893854,527.6243,-76.3000,-0.5579,0.4404,0.0112,1.038910918,0.501696587,137.118531491,0.7184,0.6933,1.4804,0.0121,0.0123,0.0111,0.0176,0.0177,0.4546,ab000342,0*0db9bb63
#INSPVAXA,FILE,0,36.0,FINESTEERING,2319,305223.600,02000800,46eb,17139;INS_SOLUTION_GOOD,INS_RTKFIXED,17.58802331261,78.12098959569,527.6291,-76.3000,-0.5482,0.4778,0.0399,1.114819674,0.407294368,136.416962715,0.7184,0.6933,1.4804,0.0121,0.0123,0.0111,0.0176,0.0177,0.4546,ab000342,0*a3c392ed
#INSPVAXA,FILE,0,36.0,FINESTEERING,2319,305223.700,02000800,46eb,17139;INS_SOLUTION_GOOD,INS_RTKFIXED,17.58802281081,78.12099004418,527.6319,-76.3000,-0.5771,0.4786,0.0097,1.052772094,0.360236422,135.860190936,0.7184,0.6933,1.4804,0.0121,0.0123,0.0111,0.0176,0.0177,0.4546,ab000342,0*41effb57
#INSPVAXA,FILE,0,36.0,FINESTEERING,2319,305223.800,02000800,46eb,17139;INS_SOLUTION_GOOD,INS_RTKFIXED,17.58802229817,78.12099051482,527.6327,-76.3000,-0.5787,0.5171,0.0037,1.060638018,0.373401420,135.277193507,0.7184,0.6933,1.4804,0.0121,0.0123,0.0111,0.0176,0.0177,0.4546,ab000342,0*4856c69a
#INSPVAXA,FILE,0,36.0,FINESTEERING,2319,305223.850,02000800,46eb,17139;INS_SOLUTION_GOOD,INS_RTKFIXED,17.58802204264,78.12099076377,527.6330,-76.3000,-0.5768,0.5337,-0.0016,1.089696007,0.367451247,135.010968339,0.7184,0.6933,1.4804,0.0121,0.0123,0.0111,0.0176,0.0177,0.4546,ab000342,0*b1fe3971
#INSPVAXA,FILE,0,36.0,FINESTEERING,2319,305223.950,02000800,46eb,17139;INS_SOLUTION_GOOD,INS_RTKFIXED,17.58802152801,78.12099127092,527.6344,-76.3000,-0.5789,0.5430,0.0278,1.054783689,0.372826023,134.512344113,0.7184,0.6933,1.4804,0.0121,0.0123,0.0111,0.0176,0.0177,0.4546,ab000342,0*667a7dac
#INSPVAXA,FILE,0,36.0,FINESTEERING,2319,305224.000,02000800,46eb,17139;INS_SOLUTION_GOOD,INS_RTKFIXED,17.58802126868,78.12099152849,527.6358,-76.3000,-0.5868,0.5467,0.0287,1.080877880,0.364511324,134.255732830,0.7184,0.6933,1.4804,0.0121,0.0123,0.0111,0.0176,0.0177,0.4546,ab000342,0*1ae5e0fc
#INSPVAXA,FILE,0,33.5,FINESTEERING,2319,305224.150,02000800,46eb,17139;INS_SOLUTION_GOOD,INS_RTKFIXED,17.58802049316,78.12099233480,527.6404,-76.3000,-0.6368,0.5851,0.0130,1.080882818,0.348797965,133.339268729,0.7199,0.6945,1.4791,0.0153,0.0155,0.0146,0.0185,0.0186,0.4547,ab000342,0*816a0a3c
#INSPVAXA,FILE,0,33.5,FINESTEERING,2319,305224.250,02000800,46eb,17139;INS_SOLUTION_GOOD,INS_RTKFIXED,17.58801995347,78.12099291991,527.6422,-76.3000,-0.6471,0.6283,0.0145,1.146565072,0.316703191,132.704274441,0.7199,0.6945,1.4791,0.0153,0.0155,0.0146,0.0185,0.0186,0.4547,ab000342,0*6bc94220
#INSPVAXA,FILE,0,33.5,FINESTEERING,2319,305224.350,02000800,46eb,17139;INS_SOLUTION_GOOD,INS_RTKFIXED,17.58801940367,78.12099354415,527.6443,-76.3000,-0.6585,0.6676,0.0151,1.138619157,0.270613679,132.115013465,0.7199,0.6945,1.4791,0.0153,0.0155,0.0146,0.0185,0.0186,0.4547,ab000342,0*77f93e48
#INSPVAXA,FILE,0,33.5,FINESTEERING,2319,305224.450,02000800,46eb,17139;INS_SOLUTION_GOOD,INS_RTKFIXED,17.58801883511,78.12099418998,527.6479,-76.3000,-0.6830,0.6758,0.0435,1.133937400,0.226224085,131.472244151,0.7199,0.6945,1.4791,0.0153,0.0155,0.0146,0.0185,0.0186,0.4547,ab000342,0*9474d0f2
#INSPVAXA,FILE,0,33.5,FINESTEERING,2319,305224.550,02000800,46eb,17139;INS_SOLUTION_GOOD,INS_RTKFIXED,17.58801825298,78.12099485947,527.6529,-76.3000,-0.6878,0.7237,0.0448,1.117922699,0.183379730,130.766056307,0.7199,0.6945,1.4791,0.0153,0.0155,0.0146,0.0185,0.0186,0.4547,ab000342,0*00119007
#INSPVAXA,FILE,0,33.5,FINESTEERING,2319,305224.650,02000800,46eb,17139;INS_SOLUTION_GOOD,INS_RTKFIXED,17.58801766058,78.12099558486,527.6563,-76.3000,-0.7056,0.7865,0.0133,1.167562409,0.156225786,130.141537945,0.7199,0.6945,1.4791,0.0153,0.0155,0.0146,0.0185,0.0186,0.4547,ab000342,0*d7cd646e
#INSPVAXA,FILE,0,33.5,FINESTEERING,2319,305224.700,02000800,46eb,17139;INS_SOLUTION_GOOD,INS_RTKFIXED,17.58801735068,78.12099596171,527.6564,-76.3000,-0.7371,0.7945,-0.0046,1.200920083,0.173768884,129.827343971,0.7199,0.6945,1.4791,0.0153,0.0155,0.0146,0.0185,0.0186,0.4547,ab000342,0*8d27b74b
#INSPVAXA,FILE,0,33.5,FINESTEERING,2319,305224.850,02000800,46eb,17139;INS_SOLUTION_GOOD,INS_RTKFIXED,17.58801637087,78.12099713470,527.6562,-76.3000,-0.7795,0.8434,0.0001,1.286249980,0.285800248,128.710833667,0.7199,0.6945,1.4791,0.0153,0.0155,0.0146,0.0185,0.0186,0.4547,ab000342,0*2fbd0724
#INSPVAXA,FILE,0,33.5,FINESTEERING,2319,305224.900,02000800,46eb,17139;INS_SOLUTION_GOOD,INS_RTKFIXED,17.58801603747,78.12099754555,527.6568,-76.3000,-0.7700,0.8779,0.0193,1.302678291,0.290441574,128.310059650,0.7199,0.6945,1.4791,0.0153,0.0155,0.0146,0.0185,0.0186,0.4547,ab000342,0*cd58ff14
#INSPVAXA,FILE,0,33.5,FINESTEERING,2319,305224.950,02000800,46eb,17139;INS_SOLUTION_GOOD,INS_RTKFIXED,17.58801570421,78.12099797362,527.6580,-76.3000,-0.7777,0.9180,0.0179,1.279790739,0.288456441,127.934862985,0.7199,0.6945,1.4791,0.0153,0.0155,0.0146,0.0185,0.0186,0.4547,ab000342,0*fda91d69
#INSPVAXA,FILE,0,33.5,FINESTEERING,2319,305225.000,02000800,46eb,17139;INS_SOLUTION_GOOD,INS_RTKFIXED,17.58801536785,78.12099842239,527.6587,-76.3000,-0.7811,0.9658,0.0020,1.235781890,0.290214266,127.576222395,0.7199,0.6945,1.4791,0.0153,0.0155,0.0146,0.0185,0.0186,0.4547,ab000342,0*afc3894f
#INSPVAXA,FILE,0,33.5,FINESTEERING,2319,305225.050,02000800,46eb,17139;INS_SOLUTION_GOOD,INS_RTKFIXED,17.58801503819,78.12099888848,527.6589,-76.3000,-0.8009,0.9988,-0.0008,1.248766507,0.311775520,127.236862277,0.7222,0.6967,1.4772,0.0182,0.0185,0.0181,0.0195,0.0195,0.4548,ab000342,0*ad548528
#INSPVAXA,FILE,0,33.5,FINESTEERING,2319,305225.100,02000800,46eb,17139;INS_SOLUTION_GOOD,INS_RTKFIXED,17.58801470988,78.12099936305,527.6589,-76.3000,-0.8241,1.0119,-0.0179,1.209984478,0.338219452,126.888976246,0.7222,0.6967,1.4772,0.0182,0.0185,0.0181,0.0195,0.0195,0.4548,ab000342,0*5b483eef
#INSPVAXA,FILE,0,36.5,FINESTEERING,2319,305225.150,02000800,46eb,17139;INS_SOLUTION_GOOD,INS_RTKFIXED,17.58801437081,78.12099984508,527.6595,-76.3000,-0.8424,1.0355,0.0037,1.166391742,0.330054648,126.513229239,0.7222,0.6967,1.4772,0.0182,0.0185,0.0181,0.0195,0.0195,0.4548,ab000342,0*9fcce94b
#INSPVAXA,FILE,0,36.5,FINESTEERING,2319,305225.200,02000800,46eb,17139;INS_SOLUTION_GOOD,INS_RTKFIXED,17.58801402484,78.12100034033,527.6597,-76.3000,-0.8624,1.0638,-0.0123,1.176217232,0.352836062,126.137115156,0.7222,0.6967,1.4772,0.0182,0.0185,0.0181,0.0195,0.0195,0.4548,ab000342,0*6df2843c
#INSPVAXA,FILE,0,36.5,FINESTEERING,2319,305225.250,02000800,46eb,17139;INS_SOLUTION_GOOD,INS_RTKFIXED,17.58801366695,78.12100085209,527.6598,-76.3000,-0.8818,1.1029,-0.0148,1.181492094,0.350408083,125.741784671,0.7222,0.6967,1.4772,0.0182,0.0185,0.0181,0.0195,0.0195,0.4548,ab000342,0*1fd0e838
#INSPVAXA,FILE,0,36.5,FINESTEERING,2319,305225.300,02000800,46eb,17139;INS_SOLUTION_GOOD,INS_RTKFIXED,17.58801330625,78.12100138059,527.6607,-76.3000,-0.8850,1.1394,0.0166,1.264813785,0.329031372,125.354265547,0.7222,0.6967,1.4772,0.0182,0.0185,0.0181,0.0195,0.0195,0.4548,ab000342,0*85e8510d
#INSPVAXA,FILE,0,36.5,FINESTEERING,2319,305225.350,02000800,46eb,17139;INS_SOLUTION_GOOD,INS_RTKFIXED,17.58801293453,78.12100192594,527.6615,-76.3000,-0.9075,1.1756,-0.0002,1.303588391,0.314801460,124.971846287,0.7222,0.6967,1.4772,0.0182,0.0185,0.0181,0.0195,0.0195,0.4548,ab000342,0*61221029
#INSPVAXA,FILE,0,36.5,FINESTEERING,2319,305225.400,02000800,46eb,17139;INS_SOLUTION_GOOD,INS_RTKFIXED,17.58801255686,78.12100248866,527.6626,-76.3000,-0.9221,1.2134,0.0129,1.362731816,0.296992442,124.611515694,0.7222,0.6967,1.4772,0.0182,0.0185,0.0181,0.0195,0.0195,0.4548,ab000342,0*f6afa5f0
#INSPVAXA,FILE,0,36.5,FINESTEERING,2319,305225.450,02000000,46eb,17139;INS_SOLUTION_GOOD,INS_RTKFIXED,17.58801217210,78.12100306604,527.6638,-76.3000,-0.9303,1.2441,0.0202,1.392190921,0.257109545,124.253113620,0.7222,0.6967,1.4772,0.0182,0.0185,0.0181,0.0195,0.0195,0.4548,ab000342,0*33529e57
#INSPVAXA,FILE,0,36.5,FINESTEERING,2319,305225.500,02000000,46eb,17139;INS_SOLUTION_GOOD,INS_RTKFIXED,17.58801178373,78.12100366491,527.6655,-76.3000,-0.9335,1.3014,0.0117,1.380696621,0.260436569,123.894598905,0.7222,0.6967,1.4772,0.0182,0.0185,0.0181,0.0195,0.0195,0.4548,ab000342,0*725f3c9c
#INSPVAXA,FILE,0,36.5,FINESTEERING,2319,305225.550,02000000,46eb,17139;INS_SOLUTION_GOOD,INS_RTKFIXED,17.58801138909,78.12100428025,527.6670,-76.3000,-0.9535,1.3221,0.0235,1.498148710,0.179907700,123.524311151,0.7222,0.6967,1.4772,0.0182,0.0185,0.0181,0.0195,0.0195,0.4548,ab000342,0*255722ec
#INSPVAXA,FILE,0,36.5,FINESTEERING,2319,305225.600,02000000,46eb,17139;INS_SOLUTION_GOOD,INS_RTKFIXED,17.58801098379,78.12100491202,527.6680,-76.3000,-0.9787,1.3661,0.0052,1.492962489,0.208787825,123.132435260,0.7222,0.6967,1.4772,0.0182,0.0185,0.0181,0.0195,0.0195,0.4548,ab000342,0*5fbfd23b
#INSPVAXA,FILE,0,36.5,FINESTEERING,2319,305225.650,02000000,46eb,17139;INS_SOLUTION_GOOD,INS_RTKFIXED,17.58801057068,78.12100556681,527.6681,-76.3000,-0.9877,1.4135,-0.0079,1.517488450,0.173010501,122.745771595,0.7222,0.6967,1.4772,0.0182,0.0185,0.0181,0.0195,0.0195,0.4548,ab000342,0*ae8b88df
#INSPVAXA,FILE,0,36.5,FINESTEERING,2319,305225.700,02000000,46eb,17139;INS_SOLUTION_GOOD,INS_RTKFIXED,17.58801015321,78.12100624473,527.6679,-76.3000,-0.9937,1.4676,-0.0264,1.460068215,0.171555061,122.376076840,0.7222,0.6967,1.4772,0.0182,0.0185,0.0181,0.0195,0.0195,0.4548,ab000342,0*a610cc99
#INSPVAXA,FILE,0,36.5,FINESTEERING,2319,305225.750,02000000,46eb,17139;INS_SOLUTION_GOOD,INS_RTKFIXED,17.58800973753,78.12100694553,527.6679,-76.3000,-0.9848,1.5080,-0.0016,1.478399937,0.138698020,122.042162172,0.7222,0.6967,1.4772,0.0182,0.0185,0.0181,0.0195,0.0195,0.4548,ab000342,0*7ad08d53
#INSPVAXA,FILE,0,36.5,FINESTEERING,2319,305225.800,02000000,46eb,17139;INS_SOLUTION_GOOD,INS_RTKFIXED,17.58800931553,78.12100766922,527.6680,-76.3000,-1.0107,1.5565,0.0001,1.486324006,0.156086345,121.725945885,0.7222,0.6967,1.4772,0.0182,0.0185,0.0181,0.0195,0.0195,0.4548,ab000342,0*ac5f6db3
#INSPVAXA,FILE,0,36.5,FINESTEERING,2319,305225.850,02000000,46eb,17139;INS_SOLUTION_GOOD,INS_RTKFIXED,17.58800888679,78.12100840786,527.6688,-76.3000,-1.0259,1.5772,0.0246,1.516106530,0.118433784,121.406966305,0.7222,0.6967,1.4772,0.0182,0.0185,0.0181,0.0195,0.0195,0.4548,ab000342,0*065c4353
#INSPVAXA,FILE,0,36.5,FINESTEERING,2319,305225.900,02000000,46eb,17139;INS_SOLUTION_GOOD,INS_RTKFIXED,17.58800844574,78.12100916287,527.6694,-76.3000,-1.0616,1.6183,-0.0216,1.514528800,0.133368982,121.075851724,0.7222,0.6967,1.4772,0.0182,0.0185,0.0181,0.0195,0.0195,0.4548,ab000342,0*0a43cbe1
#INSPVAXA,FILE,0,36.5,FINESTEERING,2319,305225.950,02000000,46eb,17139;INS_SOLUTION_GOOD,INS_RTKFIXED,17.58800799120,78.12100993036,527.6711,-76.3000,-1.0756,1.6460,0.0268,1.515181970,0.060191890,120.705695682,0.7222,0.6967,1.4772,0.0182,0.0185,0.0181,0.0195,0.0195,0.4548,ab000342,0*e7e80b29
#INSPVAXA,FILE,0,36.5,FINESTEERING,2319,305226.000,02000000,46eb,17139;INS_SOLUTION_GOOD,INS_RTKFIXED,17.58800753243,78.12101072060,527.6732,-76.3000,-1.0817,1.7080,0.0328,1.556154124,0.098481453,120.349918654,0.7222,0.6967,1.4772,0.0182,0.0185,0.0181,0.0195,0.0195,0.4548,ab000342,0*ca1cc9a0
#INSPVAXA,FILE,0,36.5,FINESTEERING,2319,305226.050,02000000,46eb,17139;INS_SOLUTION_GOOD,INS_RTKFIXED,17.58800707320,78.12101153057,527.6761,-76.3000,-1.0808,1.7490,0.0701,1.635902476,0.002835515,120.023349997,0.7246,0.6991,1.4750,0.0200,0.0202,0.0200,0.0207,0.0206,0.4549,ab000342,0*c65cf3d6
#INSPVAXA,FILE,0,26.5,FINESTEERING,2319,305226.100,02000000,46eb,17139;INS_SOLUTION_GOOD,INS_RTKFIXED,17.58800661587,78.12101236010,527.6792,-76.3000,-1.0797,1.7968,0.0615,1.644590804,-0.116864703,119.729541546,0.7246,0.6991,1.4750,0.0200,0.0202,0.0200,0.0207,0.0206,0.4549,ab000342,0*dbe9420e
#INSPVAXA,FILE,0,26.5,FINESTEERING,2319,305226.150,02000000,46eb,17139;INS_SOLUTION_GOOD,INS_RTKFIXED,17.58800615748,78.12101321268,527.6820,-76.3000,-1.0863,1.8446,0.0597,1.598554716,-0.190940456,119.459083180,0.7246,0.6991,1.4750,0.0200,0.0202,0.0200,0.0207,0.0206,0.4549,ab000342,0*dcc9bd4b
#INSPVAXA,FILE,0,26.5,FINESTEERING,2319,305226.200,02000000,46eb,17139;INS_SOLUTION_GOOD,INS_RTKFIXED,17.58800569455,78.12101408900,527.6842,-76.3000,-1.1015,1.8943,0.0405,1.604462644,-0.292873983,119.176778246,0.7246,0.6991,1.4750,0.0200,0.0202,0.0200,0.0207,0.0206,0.4549,ab000342,0*aa73cd6d
#INSPVAXA,FILE,0,26.5,FINESTEERING,2319,305226.250,02000000,46eb,17139;INS_SOLUTION_GOOD,INS_RTKFIXED,17.58800522573,78.12101498595,527.6854,-76.3000,-1.1203,1.9307,0.0116,1.592381124,-0.359984328,118.883084782,0.7246,0.6991,1.4750,0.0200,0.0202,0.0200,0.0207,0.0206,0.4549,ab000342,0*a8e4e375
#INSPVAXA,FILE,0,26.5,FINESTEERING,2319,305226.300,02000000,46eb,17139;INS_SOLUTION_GOOD,INS_RTKFIXED,17.58800474525,78.12101590332,527.6857,-76.3000,-1.1545,1.9794,0.0060,1.553918022,-0.393800019,118.578243197,0.7246,0.6991,1.4750,0.0200,0.0202,0.0200,0.0207,0.0206,0.4549,ab000342,0*26839d70
#INSPVAXA,FILE,0,26.5,FINESTEERING,2319,305226.350,02000000,46eb,17139;INS_SOLUTION_GOOD,INS_RTKFIXED,17.58800425519,78.12101683982,527.6844,-76.3000,-1.1541,2.0129,-0.0360,1.375812471,-0.492848368,118.264376205,0.7246,0.6991,1.4750,0.0200,0.0202,0.0200,0.0207,0.0206,0.4549,ab000342,0*9b06a2a1
#INSPVAXA,FILE,0,26.5,FINESTEERING,2319,305226.400,02000000,46eb,17139;INS_SOLUTION_GOOD,INS_RTKFIXED,17.58800376338,78.12101780244,527.6831,-76.3000,-1.1586,2.0857,-0.0172,1.333844188,-0.499514968,117.976389833,0.7246,0.6991,1.4750,0.0200,0.0202,0.0200,0.0207,0.0206,0.4549,ab000342,0*3ad40f08
#INSPVAXA,FILE,0,26.5,FINESTEERING,2319,305226.450,02000000,46eb,17139;INS_SOLUTION_GOOD,INS_RTKFIXED,17.58800327357,78.12101878592,527.6823,-76.3000,-1.1445,2.1200,-0.0129,1.333988366,-0.622705682,117.711667264,0.7246,0.6991,1.4750,0.0200,0.0202,0.0200,0.0207,0.0206,0.4549,ab000342,0*dbfc0f3a
#INSPVAXA,FILE,0,26.5,FINESTEERING,2319,305226.500,02000000,46eb,17139;INS_SOLUTION_GOOD,INS_RTKFIXED,17.58800277650,78.12101979507,527.6818,-76.3000,-1.1762,2.1673,0.0165,1.401195283,-0.666383791,117.466765465,0.7246,0.6991,1.4750,0.0200,0.0202,0.0200,0.0207,0.0206,0.4549,ab000342,0*8110454f
#INSPVAXA,FILE,0,26.5,FINESTEERING,2319,305226.550,02000000,46eb,17139;INS_SOLUTION_GOOD,INS_RTKFIXED,17.58800227254,78.12102081753,527.6828,-76.3000,-1.1832,2.1985,0.0341,1.405159718,-0.743165259,117.224253475,0.7246,0.6991,1.4750,0.0200,0.0202,0.0200,0.0207,0.0206,0.4549,ab000342,0*0e9cfb75
#INSPVAXA,FILE,0,26.5,FINESTEERING,2319,305226.600,02000000,46eb,17139;INS_SOLUTION_GOOD,INS_RTKFIXED,17.58800176099,78.12102186079,527.6839,-76.3000,-1.2072,2.2417,0.0393,1.467962227,-0.867337850,116.979630264,0.7246,0.6991,1.4750,0.0200,0.0202,0.0200,0.0207,0.0206,0.4549,ab000342,0*bf24af18
#INSPVAXA,FILE,0,26.5,FINESTEERING,2319,305226.650,02000000,46eb,17139;INS_SOLUTION_GOOD,INS_RTKFIXED,17.58800123445,78.12102292105,527.6852,-76.3000,-1.2360,2.2769,0.0135,1.402053856,-0.891036378,116.712694990,0.7246,0.6991,1.4750,0.0200,0.0202,0.0200,0.0207,0.0206,0.4549,ab000342,0*a442084a
#INSPVAXA,FILE,0,26.5,FINESTEERING,2319,305226.700,02000000,46eb,17139;INS_SOLUTION_GOOD,INS_RTKFIXED,17.58800070090,78.12102399518,527.6855,-76.3000,-1.2421,2.3065,0.0262,1.533224311,-0.981524202,116.409306493,0.7246,0.6991,1.4750,0.0200,0.0202,0.0200,0.0207,0.0206,0.4549,ab000342,0*f3951f31
#INSPVAXA,FILE,0,26.5,FINESTEERING,2319,305226.750,02000000,46eb,17139;INS_SOLUTION_GOOD,INS_RTKFIXED,17.58800017004,78.12102509428,527.6865,-76.3000,-1.2394,2.3613,0.0009,1.510064892,-0.960891342,116.140482802,0.7246,0.6991,1.4750,0.0200,0.0202,0.0200,0.0207,0.0206,0.4549,ab000342,0*0abfdab4
#INSPVAXA,FILE,0,26.5,FINESTEERING,2319,305226.800,02000000,46eb,17139;INS_SOLUTION_GOOD,INS_RTKFIXED,17.58799963876,78.12102621391,527.6861,-76.3000,-1.2338,2.4084,-0.0369,1.581411764,-1.002582992,115.863838913,0.7246,0.6991,1.4750,0.0200,0.0202,0.0200,0.0207,0.0206,0.4549,ab000342,0*55a7a445
#INSPVAXA,FILE,0,26.5,FINESTEERING,2319,305226.850,02000000,46eb,17139;INS_SOLUTION_GOOD,INS_RTKFIXED,17.58799910489,78.12102735831,527.6851,-76.3000,-1.2462,2.4556,-0.0433,1.561488455,-0.970540159,115.593836817,0.7246,0.6991,1.4750,0.0200,0.0202,0.0200,0.0207,0.0206,0.4549,ab000342,0*d055b44b
#INSPVAXA,FILE,0,26.5,FINESTEERING,2319,305226.900,02000000,46eb,17139;INS_SOLUTION_GOOD,INS_RTKFIXED,17.58799856510,78.12102852125,527.6823,-76.3000,-1.2607,2.4972,-0.0614,1.603097805,-0.944597543,115.313210673,0.7246,0.6991,1.4750,0.0200,0.0202,0.0200,0.0207,0.0206,0.4549,ab000342,0*5059587e
#INSPVAXA,FILE,0,26.5,FINESTEERING,2319,305226.950,02000000,46eb,17139;INS_SOLUTION_GOOD,INS_RTKFIXED,17.58799802188,78.12102970056,527.6803,-76.3000,-1.2561,2.5220,-0.0363,1.576851333,-1.049767385,115.016300365,0.7246,0.6991,1.4750,0.0200,0.0202,0.0200,0.0207,0.0206,0.4549,ab000342,0*86b23290
#INSPVAXA,FILE,0,26.5,FINESTEERING,2319,305227.000,02000000,46eb,17139;INS_SOLUTION_GOOD,INS_RTKFIXED,17.58799747624,78.12103089961,527.6781,-76.3000,-1.2674,2.5716,-0.0561,1.547016278,-1.019614052,114.710175753,0.7246,0.6991,1.4750,0.0200,0.0202,0.0200,0.0207,0.0206,0.4549,ab000342,0*6fac47da
#INSPVAXA,FILE,0,26.5,FINESTEERING,2319,305227.050,02000000,46eb,17139;INS_SOLUTION_GOOD,INS_RTKFIXED,17.58799692581,78.12103211488,527.6766,-76.3000,-1.2732,2.6042,-0.0433,1.575741258,-1.154551580,114.396501061,0.7266,0.7011,1.4731,0.0203,0.0202,0.0201,0.0218,0.0217,0.4550,ab000342,0*4dc80afd
#INSPVAXA,FILE,0,26.5,FINESTEERING,2319,305227.100,02000000,46eb,17139;INS_SOLUTION_GOOD,INS_RTKFIXED,17.58799636978,78.12103335191,527.6744,-76.3000,-1.2500,2.6579,-0.0461,1.610814601,-1.245267511,114.115600317,0.7266,0.7011,1.4731,0.0203,0.0202,0.0201,0.0218,0.0217,0.4550,ab000342,0*ff66e222
#INSPVAXA,FILE,0,29.0,FINESTEERING,2319,305227.150,02000000,46eb,17139;INS_SOLUTION_GOOD,INS_RTKFIXED,17.58799581150,78.12103461173,527.6733,-76.3000,-1.2563,2.7176,-0.0251,1.614215277,-1.252255232,113.835646009,0.7266,0.7011,1.4731,0.0203,0.0202,0.0201,0.0218,0.0217,0.4550,ab000342,0*3c96616d
#INSPVAXA,FILE,0,29.0,FINESTEERING,2319,305227.200,02000000,46eb,17139;INS_SOLUTION_GOOD,INS_RTKFIXED,17.58799524943,78.12103589481,527.6705,-76.3000,-1.2832,2.7551,-0.0674,1.787547268,-1.348585258,113.566228563,0.7266,0.7011,1.4731,0.0203,0.0202,0.0201,0.0218,0.0217,0.4550,ab000342,0*9c27a2d9
#INSPVAXA,FILE,0,29.0,FINESTEERING,2319,305227.250,02000000,46eb,17139;INS_SOLUTION_GOOD,INS_RTKFIXED,17.58799467669,78.12103719271,527.6682,-76.3000,-1.3057,2.7883,-0.0359,1.869747694,-1.391498123,113.272557990,0.7266,0.7011,1.4731,0.0203,0.0202,0.0201,0.0218,0.0217,0.4550,ab000342,0*9ad96e13
#INSPVAXA,FILE,0,29.0,FINESTEERING,2319,305227.300,02000000,46eb,17139;INS_SOLUTION_GOOD,INS_RTKFIXED,17.58799409602,78.12103850901,527.6644,-76.3000,-1.3047,2.8348,-0.0837,1.829901390,-1.429232400,112.958978315,0.7266,0.7011,1.4731,0.0203,0.0202,0.0201,0.0218,0.0217,0.4550,ab000342,0*1edb5dde
#INSPVAXA,FILE,0,29.0,FINESTEERING,2319,305227.350,02000000,46eb,17139;INS_SOLUTION_GOOD,INS_RTKFIXED,17.58799351871,78.12103984612,527.6596,-76.3000,-1.2966,2.8748,-0.0878,1.815974464,-1.451953102,112.649695800,0.7266,0.7011,1.4731,0.0203,0.0202,0.0201,0.0218,0.0217,0.4550,ab000342,0*57583ab8
#INSPVAXA,FILE,0,29.0,FINESTEERING,2319,305227.400,02000000,46eb,17139;INS_SOLUTION_GOOD,INS_RTKFIXED,17.58799294273,78.12104120215,527.6546,-76.3000,-1.2851,2.9126,-0.0885,1.814960356,-1.437352221,112.337741820,0.7266,0.7011,1.4731,0.0203,0.0202,0.0201,0.0218,0.0217,0.4550,ab000342,0*3bc3400c
#INSPVAXA,FILE,0,29.0,FINESTEERING,2319,305227.450,02000000,46eb,17139;INS_SOLUTION_GOOD,INS_RTKFIXED,17.58799237657,78.12104258301,527.6504,-76.3000,-1.2677,2.9672,-0.0674,1.867176058,-1.332574881,112.091996820,0.7266,0.7011,1.4731,0.0203,0.0202,0.0201,0.0218,0.0217,0.4550,ab000342,0*56e05fd4
#INSPVAXA,FILE,0,29.0,FINESTEERING,2319,305227.500,02000000,46eb,17139;INS_SOLUTION_GOOD,INS_RTKFIXED,17.58799181277,78.12104398222,527.6464,-76.3000,-1.2681,3.0026,-0.0602,1.861922951,-1.308566842,111.876742232,0.7266,0.7011,1.4731,0.0203,0.0202,0.0201,0.0218,0.0217,0.4550,ab000342,0*fb06e0e8
#INSPVAXA,FILE,0,29.0,FINESTEERING,2319,305227.550,02000000,46eb,17139;INS_SOLUTION_GOOD,INS_RTKFIXED,17.58799125143,78.12104539972,527.6445,-76.3000,-1.2581,3.0327,-0.0153,1.760916973,-1.377452845,111.668685283,0.7266,0.7011,1.4731,0.0203,0.0202,0.0201,0.0218,0.0217,0.4550,ab000342,0*d3e18a29
#INSPVAXA,FILE,0,29.0,FINESTEERING,2319,305227.600,02000000,46eb,17139;INS_SOLUTION_GOOD,INS_RTKFIXED,17.58799069116,78.12104683666,527.6434,-76.3000,-1.2590,3.0760,-0.0149,1.636130024,-1.378652373,111.471370079,0.7266,0.7011,1.4731,0.0203,0.0202,0.0201,0.0218,0.0217,0.4550,ab000342,0*d21c05c3
#INSPVAXA,FILE,0,29.0,FINESTEERING,2319,305227.650,02000000,46eb,17139;INS_SOLUTION_GOOD,INS_RTKFIXED,17.58799012857,78.12104829286,527.6421,-76.3000,-1.2753,3.1311,-0.0237,1.539206871,-1.365898573,111.269160024,0.7266,0.7011,1.4731,0.0203,0.0202,0.0201,0.0218,0.0217,0.4550,ab000342,0*b8b46cb0
#INSPVAXA,FILE,0,29.0,FINESTEERING,2319,305227.700,02000000,46eb,17139;INS_SOLUTION_GOOD,INS_RTKFIXED,17.58798956180,78.12104976433,527.6386,-76.3000,-1.2875,3.1492,-0.0589,1.501421917,-1.477593265,111.063229517,0.7266,0.7011,1.4731,0.0203,0.0202,0.0201,0.0218,0.0217,0.4550,ab000342,0*d2591541
#INSPVAXA,FILE,0,29.0,FINESTEERING,2319,305227.750,02000000,46eb,17139;INS_SOLUTION_GOOD,INS_RTKFIXED,17.58798899319,78.12105126020,527.6342,-76.3000,-1.2749,3.2137,-0.1076,1.395926253,-1.399815684,110.886042735,0.7266,0.7011,1.4731,0.0203,0.0202,0.0201,0.0218,0.0217,0.4550,ab000342,0*0e50b23d
#INSPVAXA,FILE,0,29.0,FINESTEERING,2319,305227.800,02000000,46eb,17139;INS_SOLUTION_GOOD,INS_RTKFIXED,17.58798842686,78.12105277114,527.6264,-76.3000,-1.2729,3.2307,-0.1566,1.392854078,-1.393999828,110.739245511,0.7266,0.7011,1.4731,0.0203,0.0202,0.0201,0.0218,0.0217,0.4550,ab000342,0*e4d9c2f8
#INSPVAXA,FILE,0,29.0,FINESTEERING,2319,305227.850,02000000,46eb,17139;INS_SOLUTION_GOOD,INS_RTKFIXED,17.58798786033,78.12105429989,527.6186,-76.3000,-1.2844,3.2626,-0.1532,1.374265843,-1.311027534,110.606521667,0.7266,0.7011,1.4731,0.0203,0.0202,0.0201,0.0218,0.0217,0.4550,ab000342,0*b3d832c6
#INSPVAXA,FILE,0,29.0,FINESTEERING,2319,305227.900,02000000,46eb,17139;INS_SOLUTION_GOOD,INS_RTKFIXED,17.58798728102,78.12105583872,527.6101,-76.3000,-1.3286,3.2799,-0.2057,1.382061118,-1.175698953,110.447179502,0.7266,0.7011,1.4731,0.0203,0.0202,0.0201,0.0218,0.0217,0.4550,ab000342,0*5fbb673a
#INSPVAXA,FILE,0,29.0,FINESTEERING,2319,305227.950,02000000,46eb,17139;INS_SOLUTION_GOOD,INS_RTKFIXED,17.58798668761,78.12105738689,527.6029,-76.3000,-1.3526,3.3039,-0.1249,1.455345040,-1.178508339,110.236782119,0.7266,0.7011,1.4731,0.0203,0.0202,0.0201,0.0218,0.0217,0.4550,ab000342,0*6f2751a8
#INSPVAXA,FILE,0,29.0,FINESTEERING,2319,305228.000,02000000,46eb,17139;INS_SOLUTION_GOOD,INS_RTKFIXED,17.58798609584,78.12105895514,527.5957,-76.3000,-1.3153,3.3592,-0.1563,1.392891331,-1.121690106,110.074112315,0.7266,0.7011,1.4731,0.0203,0.0202,0.0201,0.0218,0.0217,0.4550,ab000342,0*3767f7b6
#INSPVAXA,FILE,0,29.0,FINESTEERING,2319,305228.050,02000000,46eb,17139;INS_SOLUTION_GOOD,INS_RTKFIXED,17.58798550933,78.12106054039,527.5899,-76.3000,-1.2933,3.4112,-0.0925,1.485846109,-1.105823732,109.972119356,0.7284,0.7029,1.4716,0.0201,0.0197,0.0195,0.0227,0.0226,0.4550,ab000342,0*da848e59
#INSPVAXA,FILE,0,29.0,FINESTEERING,2319,305228.100,02000000,46eb,17139;INS_SOLUTION_GOOD,INS_RTKFIXED,17.58798491501,78.12106213390,527.5870,-76.3000,-1.3053,3.4035,-0.0603,1.533229806,-1.221913957,109.885963891,0.7284,0.7029,1.4716,0.0201,0.0197,0.0195,0.0227,0.0226,0.4550,ab000342,0*ed3d322c
#INSPVAXA,FILE,0,32.5,FINESTEERING,2319,305228.150,02000000,46eb,17139;INS_SOLUTION_GOOD,INS_RTKFIXED,17.58798431606,78.12106373846,527.5887,-76.3000,-1.3239,3.4403,0.0403,1.582993502,-1.291337669,109.768738352,0.7284,0.7029,1.4716,0.0201,0.0197,0.0195,0.0227,0.0226,0.4550,ab000342,0*3fe95aa0
#INSPVAXA,FILE,0,32.5,FINESTEERING,2319,305228.200,02000000,46eb,17139;INS_SOLUTION_GOOD,INS_RTKFIXED,17.58798371102,78.12106535347,527.5903,-76.3000,-1.3266,3.4585,0.0220,1.539082060,-1.461374984,109.646445468,0.7284,0.7029,1.4716,0.0201,0.0197,0.0195,0.0227,0.0226,0.4550,ab000342,0*a6b80e1a
#INSPVAXA,FILE,0,32.5,FINESTEERING,2319,305228.250,02000000,46eb,17139;INS_SOLUTION_GOOD,INS_RTKFIXED,17.58798310785,78.12106698652,527.5904,-76.3000,-1.3107,3.4996,-0.0406,1.466891661,-1.576115067,109.544723905,0.7284,0.7029,1.4716,0.0201,0.0197,0.0195,0.0227,0.0226,0.4550,ab000342,0*8ebc904b
#INSPVAXA,FILE,0,32.5,FINESTEERING,2319,305228.300,02000000,46eb,17139;INS_SOLUTION_GOOD,INS_RTKFIXED,17.58798250675,78.12106863449,527.5897,-76.3000,-1.3055,3.5397,-0.0338,1.362043249,-1.575018074,109.458758868,0.7284,0.7029,1.4716,0.0201,0.0197,0.0195,0.0227,0.0226,0.4550,ab000342,0*1e2642d1
#INSPVAXA,FILE,0,32.5,FINESTEERING,2319,305228.350,02000000,46eb,17139;INS_SOLUTION_GOOD,INS_RTKFIXED,17.58798190986,78.12107030034,527.5875,-76.3000,-1.2998,3.5882,-0.0738,1.293741658,-1.536562954,109.393409941,0.7284,0.7029,1.4716,0.0201,0.0197,0.0195,0.0227,0.0226,0.4550,ab000342,0*5d56e1bb
#INSPVAXA,FILE,0,32.5,FINESTEERING,2319,305228.400,02000000,46eb,17139;INS_SOLUTION_GOOD,INS_RTKFIXED,17.58798130058,78.12107197267,527.5824,-76.3000,-1.3380,3.5940,-0.1070,1.426248264,-1.449355221,109.290811094,0.7284,0.7029,1.4716,0.0201,0.0197,0.0195,0.0227,0.0226,0.4550,ab000342,0*82dc0afa
#INSPVAXA,FILE,0,32.5,FINESTEERING,2319,305228.450,02000000,46eb,17139;INS_SOLUTION_GOOD,INS_RTKFIXED,17.58798068426,78.12107365804,527.5761,-76.3000,-1.3527,3.6130,-0.1460,1.515761107,-1.298449432,109.206948009,0.7284,0.7029,1.4716,0.0201,0.0197,0.0195,0.0227,0.0226,0.4550,ab000342,0*af990147
#INSPVAXA,FILE,0,32.5,FINESTEERING,2319,305228.500,02000000,46eb,17139;INS_SOLUTION_GOOD,INS_RTKFIXED,17.58798006520,78.12107535340,527.5704,-76.3000,-1.3452,3.6341,-0.1119,1.629215057,-1.266189861,109.121560896,0.7284,0.7029,1.4716,0.0201,0.0197,0.0195,0.0227,0.0226,0.4550,ab000342,0*b565f0d7
#INSPVAXA,FILE,0,32.5,FINESTEERING,2319,305228.550,02000000,46eb,17139;INS_SOLUTION_GOOD,INS_RTKFIXED,17.58797944906,78.12107706046,527.5658,-76.3000,-1.3427,3.6684,-0.0755,1.526280866,-1.174914053,109.085134815,0.7284,0.7029,1.4716,0.0201,0.0197,0.0195,0.0227,0.0226,0.4550,ab000342,0*c737578d
#INSPVAXA,FILE,0,32.5,FINESTEERING,2319,305228.600,02000000,46eb,17139;INS_SOLUTION_GOOD,INS_RTKFIXED,17.58797883936,78.12107878676,527.5599,-76.3000,-1.3264,3.7031,-0.1106,1.607857177,-1.262454578,109.051846546,0.7284,0.7029,1.4716,0.0201,0.0197,0.0195,0.0227,0.0226,0.4550,ab000342,0*d3b442cb
#INSPVAXA,FILE,0,32.5,FINESTEERING,2319,305228.650,02000000,46eb,17139;INS_SOLUTION_GOOD,INS_RTKFIXED,17.58797822633,78.12108052559,527.5543,-76.3000,-1.3557,3.7171,-0.1149,1.577466316,-1.192568230,109.028381776,0.7284,0.7029,1.4716,0.0201,0.0197,0.0195,0.0227,0.0226,0.4550,ab000342,0*493473c3
#INSPVAXA,FILE,0,32.5,FINESTEERING,2319,305228.700,02000000,46eb,17139;INS_SOLUTION_GOOD,INS_RTKFIXED,17.58797760715,78.12108227196,527.5494,-76.3000,-1.3781,3.7335,-0.1327,1.553098667,-1.193138764,108.998694912,0.7284,0.7029,1.4716,0.0201,0.0197,0.0195,0.0227,0.0226,0.4550,ab000342,0*b8f35585
#INSPVAXA,FILE,0,32.5,FINESTEERING,2319,305228.750,02000000,46eb,17139;INS_SOLUTION_GOOD,INS_RTKFIXED,17.58797698838,78.12108402853,527.5457,-76.3000,-1.3718,3.7577,-0.0718,1.610371155,-1.306095380,108.986022900,0.7284,0.7029,1.4716,0.0201,0.0197,0.0195,0.0227,0.0226,0.4550,ab000342,0*f63e73a3
#INSPVAXA,FILE,0,32.5,FINESTEERING,2319,305228.800,02000000,46eb,17139;INS_SOLUTION_GOOD,INS_RTKFIXED,17.58797636747,78.12108580182,527.5407,-76.3000,-1.3607,3.8061,-0.1307,1.453703240,-1.153297702,109.007708469,0.7284,0.7029,1.4716,0.0201,0.0197,0.0195,0.0227,0.0226,0.4550,ab000342,0*7af7eda6
#INSPVAXA,FILE,0,32.5,FINESTEERING,2319,305228.850,02000000,46eb,17139;INS_SOLUTION_GOOD,INS_RTKFIXED,17.58797574445,78.12108758217,527.5347,-76.3000,-1.3803,3.8150,-0.1105,1.517425098,-0.987058956,109.050223016,0.7284,0.7029,1.4716,0.0201,0.0197,0.0195,0.0227,0.0226,0.4550,ab000342,0*71e2a817
#INSPVAXA,FILE,0,32.5,FINESTEERING,2319,305228.900,02000000,46eb,17139;INS_SOLUTION_GOOD,INS_RTKFIXED,17.58797511176,78.12108937462,527.5315,-76.3000,-1.3983,3.8346,-0.0659,1.351746837,-0.880431443,109.082955202,0.7284,0.7029,1.4716,0.0201,0.0197,0.0195,0.0227,0.0226,0.4550,ab000342,0*639f728b
#INSPVAXA,FILE,0,32.5,FINESTEERING,2319,305228.950,02000000,46eb,17139;INS_SOLUTION_GOOD,INS_RTKFIXED,17.58797447613,78.12109117125,527.5290,-76.3000,-1.3961,3.8346,-0.0372,1.435458095,-0.715196659,109.109547644,0.7284,0.7029,1.4716,0.0201,0.0197,0.0195,0.0227,0.0226,0.4550,ab000342,0*61ec21ca
#INSPVAXA,FILE,0,32.5,FINESTEERING,2319,305229.000,02000000,46eb,17139;INS_SOLUTION_GOOD,INS_RTKFIXED,17.58797383870,78.12109297831,527.5293,-76.3000,-1.4059,3.8587,0.0054,1.603470248,-0.631661745,109.162229433,0.7284,0.7029,1.4716,0.0201,0.0197,0.0195,0.0227,0.0226,0.4550,ab000342,0*022afc46
#INSPVAXA,FILE,0,32.5,FINESTEERING,2319,305229.050,02000000,46eb,17139;INS_SOLUTION_GOOD,INS_RTKFIXED,17.58797316877,78.12109479290,527.5292,-76.3000,-1.4406,3.8705,-0.0249,1.854006829,-0.615385771,109.176640495,0.7302,0.7043,1.4711,0.0192,0.0190,0.0188,0.0234,0.0233,0.4550,ab000342,0*fe1b2696
#INSPVAXA,FILE,0,31.5,FINESTEERING,2319,305229.100,02000000,46eb,17139;INS_SOLUTION_GOOD,INS_RTKFIXED,17.58797246682,78.12109662391,527.5277,-76.3000,-1.4685,3.9047,-0.0730,2.039729338,-0.490226587,109.212992623,0.7302,0.7043,1.4711,0.0192,0.0190,0.0188,0.0234,0.0233,0.4550,ab000342,0*c197d10a
#INSPVAXA,FILE,0,31.5,FINESTEERING,2319,305229.150,02000000,46eb,17139;INS_SOLUTION_GOOD,INS_RTKFIXED,17.58797176060,78.12109845820,527.5253,-76.3000,-1.4630,3.9117,-0.0533,2.226590883,-0.469884635,109.251653355,0.7302,0.7043,1.4711,0.0192,0.0190,0.0188,0.0234,0.0233,0.4550,ab000342,0*317857c5
#INSPVAXA,FILE,0,31.5,FINESTEERING,2319,305229.200,02000000,46eb,17139;INS_SOLUTION_GOOD,INS_RTKFIXED,17.58797105200,78.12110030999,527.5219,-76.3000,-1.4852,3.9547,-0.1385,2.178028130,-0.405164709,109.318952738,0.7302,0.7043,1.4711,0.0192,0.0190,0.0188,0.0234,0.0233,0.4550,ab000342,0*6eab024d
#INSPVAXA,FILE,0,31.5,FINESTEERING,2319,305229.250,02000000,46eb,17139;INS_SOLUTION_GOOD,INS_RTKFIXED,17.58797035056,78.12110217525,527.5139,-76.3000,-1.4632,3.9696,-0.2196,2.328065284,-0.393172948,109.403044351,0.7302,0.7043,1.4711,0.0192,0.0190,0.0188,0.0234,0.0233,0.4550,ab000342,0*d8c2ce89
#INSPVAXA,FILE,0,31.5,FINESTEERING,2319,305229.300,02000000,46eb,17139;INS_SOLUTION_GOOD,INS_RTKFIXED,17.58796964090,78.12110404848,527.5083,-76.3000,-1.4953,4.0048,-0.0822,2.271204928,-0.253399664,109.464555050,0.7302,0.7043,1.4711,0.0192,0.0190,0.0188,0.0234,0.0233,0.4550,ab000342,0*5deb7910
#INSPVAXA,FILE,0,31.5,FINESTEERING,2319,305229.350,02000000,46eb,17139;INS_SOLUTION_GOOD,INS_RTKFIXED,17.58796893151,78.12110592742,527.5026,-76.3000,-1.4863,3.9961,-0.0889,2.046140218,-0.364325196,109.531886594,0.7302,0.7043,1.4711,0.0192,0.0190,0.0188,0.0234,0.0233,0.4550,ab000342,0*03fa40ac
#INSPVAXA,FILE,0,31.5,FINESTEERING,2319,305229.400,02000000,46eb,17139;INS_SOLUTION_GOOD,INS_RTKFIXED,17.58796822638,78.12110780985,527.5028,-76.3000,-1.4834,4.0045,0.0501,2.007919705,-0.326828538,109.609822926,0.7302,0.7043,1.4711,0.0192,0.0190,0.0188,0.0234,0.0233,0.4550,ab000342,0*395bccf1
#INSPVAXA,FILE,0,31.5,FINESTEERING,2319,305229.450,02000000,46eb,17139;INS_SOLUTION_GOOD,INS_RTKFIXED,17.58796752333,78.12110970189,527.5081,-76.3000,-1.4736,4.0271,0.0918,1.794093278,-0.427185179,109.706118243,0.7302,0.7043,1.4711,0.0192,0.0190,0.0188,0.0234,0.0233,0.4550,ab000342,0*9e12c56e
#INSPVAXA,FILE,0,31.5,FINESTEERING,2319,305229.500,02000000,46eb,17139;INS_SOLUTION_GOOD,INS_RTKFIXED,17.58796681359,78.12111160298,527.5136,-76.3000,-1.5198,4.0398,0.0978,1.929990614,-0.554200074,109.798986403,0.7302,0.7043,1.4711,0.0192,0.0190,0.0188,0.0234,0.0233,0.4550,ab000342,0*58011e31
#INSPVAXA,FILE,0,31.5,FINESTEERING,2319,305229.550,02000000,46eb,17139;INS_SOLUTION_GOOD,INS_RTKFIXED,17.58796608812,78.12111350455,527.5208,-76.3000,-1.5707,4.0272,0.1101,2.037450294,-0.576986670,109.881797888,0.7302,0.7043,1.4711,0.0192,0.0190,0.0188,0.0234,0.0233,0.4550,ab000342,0*840cdea4
#INSPVAXA,FILE,0,31.5,FINESTEERING,2319,305229.600,02000000,46eb,17139;INS_SOLUTION_GOOD,INS_RTKFIXED,17.58796533841,78.12111540570,527.5269,-76.3000,-1.6188,4.0325,0.0682,2.225376277,-0.614093458,109.915078703,0.7302,0.7043,1.4711,0.0192,0.0190,0.0188,0.0234,0.0233,0.4550,ab000342,0*a2c2b508
#INSPVAXA,FILE,0,31.5,FINESTEERING,2319,305229.650,02000000,46eb,17139;INS_SOLUTION_GOOD,INS_RTKFIXED,17.58796457868,78.12111731660,527.5292,-76.3000,-1.6151,4.0661,-0.0120,2.330764718,-0.540161796,109.964070354,0.7302,0.7043,1.4711,0.0192,0.0190,0.0188,0.0234,0.0233,0.4550,ab000342,0*109e504a
#INSPVAXA,FILE,0,31.5,FINESTEERING,2319,305229.700,02000000,46eb,17139;INS_SOLUTION_GOOD,INS_RTKFIXED,17.58796381350,78.12111923431,527.5285,-76.3000,-1.6196,4.0810,-0.0485,2.490263324,-0.512699323,109.997814324,0.7302,0.7043,1.4711,0.0192,0.0190,0.0188,0.0234,0.0233,0.4550,ab000342,0*38149365
#INSPVAXA,FILE,0,31.5,FINESTEERING,2319,305229.750,02000000,46eb,17139;INS_SOLUTION_GOOD,INS_RTKFIXED,17.58796304934,78.12112116662,527.5246,-76.3000,-1.6062,4.1175,-0.1422,2.524119245,-0.380576326,110.044650900,0.7302,0.7043,1.4711,0.0192,0.0190,0.0188,0.0234,0.0233,0.4550,ab000342,0*6a52b254
#INSPVAXA,FILE,0,31.5,FINESTEERING,2319,305229.800,02000000,46eb,17139;INS_SOLUTION_GOOD,INS_RTKFIXED,17.58796228723,78.12112310496,527.5188,-76.3000,-1.6053,4.1297,-0.1613,2.666873102,-0.288468897,110.096359683,0.7302,0.7043,1.4711,0.0192,0.0190,0.0188,0.0234,0.0233,0.4550,ab000342,0*7ff758bb
#INSPVAXA,FILE,0,31.5,FINESTEERING,2319,305229.850,02000000,46eb,17139;INS_SOLUTION_GOOD,INS_RTKFIXED,17.58796152191,78.12112505012,527.5134,-76.3000,-1.6270,4.1512,-0.0991,2.540597173,-0.241872404,110.162479261,0.7302,0.7043,1.4711,0.0192,0.0190,0.0188,0.0234,0.0233,0.4550,ab000342,0*d6338c45
#INSPVAXA,FILE,0,31.5,FINESTEERING,2319,305229.900,02000000,46eb,17139;INS_SOLUTION_GOOD,INS_RTKFIXED,17.58796076569,78.12112700937,527.5064,-76.3000,-1.6174,4.1685,-0.1518,2.275305063,-0.137457565,110.240758665,0.7302,0.7043,1.4711,0.0192,0.0190,0.0188,0.0234,0.0233,0.4550,ab000342,0*01f38e77
#INSPVAXA,FILE,0,31.5,FINESTEERING,2319,305229.950,02000000,46eb,17139;INS_SOLUTION_GOOD,INS_RTKFIXED,17.58796001019,78.12112897406,527.5033,-76.3000,-1.6023,4.1846,-0.0293,1.948034575,-0.081291123,110.301450399,0.7302,0.7043,1.4711,0.0192,0.0190,0.0188,0.0234,0.0233,0.4550,ab000342,0*94727598
#INSPVAXA,FILE,0,31.5,FINESTEERING,2319,305230.000,02000000,46eb,17139;INS_SOLUTION_GOOD,INS_RTKFIXED,17.58795925656,78.12113094207,527.5043,-76.3000,-1.6114,4.1831,0.0471,1.676211939,-0.101827446,110.392586442,0.7302,0.7043,1.4711,0.0192,0.0190,0.0188,0.0234,0.0233,0.4550,ab000342,0*b2a34e4e
#INSPVAXA,FILE,0,31.5,FINESTEERING,2319,305230.050,02000000,46eb,17139;INS_SOLUTION_GOOD,INS_RTKFIXED,17.58795850148,78.12113292506,527.5087,-76.3000,-1.6098,4.2095,0.0948,1.573780514,-0.164698261,110.520003477,0.7317,0.7053,1.4702,0.0189,0.0188,0.0186,0.0238,0.0239,0.4550,ab000342,0*ab4a70c2
#INSPVAXA,FILE,0,29.5,FINESTEERING,2319,305230.100,02000000,46eb,17139;INS_SOLUTION_GOOD,INS_RTKFIXED,17.58795773378,78.12113491929,527.5142,-76.3000,-1.6636,4.2042,0.1068,1.519632846,-0.216758049,110.668103526,0.7317,0.7053,1.4702,0.0189,0.0188,0.0186,0.0238,0.0239,0.4550,ab000342,0*4a4d9f48
#INSPVAXA,FILE,0,29.5,FINESTEERING,2319,305230.150,02000000,46eb,17139;INS_SOLUTION_GOOD,INS_RTKFIXED,17.58795694764,78.12113691224,527.5203,-76.3000,-1.6980,4.1990,0.1190,1.586194986,-0.363358346,110.822906328,0.7317,0.7053,1.4702,0.0189,0.0188,0.0186,0.0238,0.0239,0.4550,ab000342,0*f6f242d1
#INSPVAXA,FILE,0,29.5,FINESTEERING,2319,305230.200,02000000,46eb,17139;INS_SOLUTION_GOOD,INS_RTKFIXED,17.58795614572,78.12113891029,527.5242,-76.3000,-1.7240,4.2136,0.0511,1.582000515,-0.385030436,110.997501446,0.7317,0.7053,1.4702,0.0189,0.0188,0.0186,0.0238,0.0239,0.4550,ab000342,0*d900a95e
#INSPVAXA,FILE,0,29.5,FINESTEERING,2319,305230.250,02000000,46eb,17139;INS_SOLUTION_GOOD,INS_RTKFIXED,17.58795534197,78.12114091878,527.5243,-76.3000,-1.7277,4.2364,-0.0395,1.745931992,-0.322779414,111.200190501,0.7317,0.7053,1.4702,0.0189,0.0188,0.0186,0.0238,0.0239,0.4550,ab000342,0*33410569
#INSPVAXA,FILE,0,29.5,FINESTEERING,2319,305230.300,02000000,46eb,17139;INS_SOLUTION_GOOD,INS_RTKFIXED,17.58795452530,78.12114293132,527.5214,-76.3000,-1.7724,4.2288,-0.1192,2.094781716,-0.180439657,111.402280921,0.7317,0.7053,1.4702,0.0189,0.0188,0.0186,0.0238,0.0239,0.4550,ab000342,0*9f5dc932
#INSPVAXA,FILE,0,29.5,FINESTEERING,2319,305230.350,02000000,46eb,17139;INS_SOLUTION_GOOD,INS_RTKFIXED,17.58795368386,78.12114494096,527.5167,-76.3000,-1.8289,4.2254,-0.1008,2.453350679,-0.023257649,111.569852732,0.7317,0.7053,1.4702,0.0189,0.0188,0.0186,0.0238,0.0239,0.4550,ab000342,0*77b445c3
#INSPVAXA,FILE,0,29.5,FINESTEERING,2319,305230.400,02000000,46eb,17139;INS_SOLUTION_GOOD,INS_RTKFIXED,17.58795283000,78.12114695344,527.5106,-76.3000,-1.8508,4.2369,-0.1185,2.682481907,0.179233256,111.752507765,0.7317,0.7053,1.4702,0.0189,0.0188,0.0186,0.0238,0.0239,0.4550,ab000342,0*106ffe76
#INSPVAXA,FILE,0,29.5,FINESTEERING,2319,305230.450,02000000,46eb,17139;INS_SOLUTION_GOOD,INS_RTKFIXED,17.58795197902,78.12114897369,527.5054,-76.3000,-1.8291,4.2683,-0.1037,2.655022479,0.377966525,111.973054950,0.7317,0.7053,1.4702,0.0189,0.0188,0.0186,0.0238,0.0239,0.4550,ab000342,0*93ee4155
#INSPVAXA,FILE,0,29.5,FINESTEERING,2319,305230.500,02000000,46eb,17139;INS_SOLUTION_GOOD,INS_RTKFIXED,17.58795112705,78.12115099920,527.5015,-76.3000,-1.8238,4.2736,-0.0587,2.603298636,0.445335534,112.177701280,0.7317,0.7053,1.4702,0.0189,0.0188,0.0186,0.0238,0.0239,0.4550,ab000342,0*201c1d0d
#INSPVAXA,FILE,0,29.5,FINESTEERING,2319,305230.550,02000000,46eb,17139;INS_SOLUTION_GOOD,INS_RTKFIXED,17.58795027281,78.12115302410,527.5033,-76.3000,-1.8493,4.2719,0.0852,2.452592604,0.488489132,112.408878634,0.7317,0.7053,1.4702,0.0189,0.0188,0.0186,0.0238,0.0239,0.4550,ab000342,0*2f1fff3e
#INSPVAXA,FILE,0,29.5,FINESTEERING,2319,305230.600,02000000,46eb,17139;INS_SOLUTION_GOOD,INS_RTKFIXED,17.58794941965,78.12115505294,527.5084,-76.3000,-1.8550,4.2759,0.1188,2.218386087,0.332317658,112.652449941,0.7317,0.7053,1.4702,0.0189,0.0188,0.0186,0.0238,0.0239,0.4550,ab000342,0*25303cff
#INSPVAXA,FILE,0,29.5,FINESTEERING,2319,305230.650,02000000,46eb,17139;INS_SOLUTION_GOOD,INS_RTKFIXED,17.58794856486,78.12115708940,527.5140,-76.3000,-1.8683,4.2978,0.1317,2.150800099,0.268834554,112.958561520,0.7317,0.7053,1.4702,0.0189,0.0188,0.0186,0.0238,0.0239,0.4550,ab000342,0*9c8e898b
#INSPVAXA,FILE,0,29.5,FINESTEERING,2319,305230.700,02000000,46eb,17139;INS_SOLUTION_GOOD,INS_RTKFIXED,17.58794769582,78.12115912705,527.5176,-76.3000,-1.9115,4.2808,0.0199,1.988315018,0.157348942,113.286940996,0.7317,0.7053,1.4702,0.0189,0.0188,0.0186,0.0238,0.0239,0.4550,ab000342,0*2090ec4b
#INSPVAXA,FILE,0,29.5,FINESTEERING,2319,305230.750,02000000,46eb,17139;INS_SOLUTION_GOOD,INS_RTKFIXED,17.58794680625,78.12116116636,527.5203,-76.3000,-1.9599,4.2824,0.0077,1.872899290,0.147767511,113.634566706,0.7317,0.7053,1.4702,0.0189,0.0188,0.0186,0.0238,0.0239,0.4550,ab000342,0*7ba257b5
#INSPVAXA,FILE,0,29.5,FINESTEERING,2319,305230.800,02000000,46eb,17139;INS_SOLUTION_GOOD,INS_RTKFIXED,17.58794589763,78.12116320341,527.5217,-76.3000,-1.9900,4.2919,0.0004,1.785587838,0.226443900,113.987858415,0.7317,0.7053,1.4702,0.0189,0.0188,0.0186,0.0238,0.0239,0.4550,ab000342,0*af361901
#INSPVAXA,FILE,0,29.5,FINESTEERING,2319,305230.850,02000000,46eb,17139;INS_SOLUTION_GOOD,INS_RTKFIXED,17.58794496520,78.12116523728,527.5216,-76.3000,-2.0413,4.2932,0.0013,1.786093637,0.261143865,114.341205032,0.7317,0.7053,1.4702,0.0189,0.0188,0.0186,0.0238,0.0239,0.4550,ab000342,0*2d119a13
#INSPVAXA,FILE,0,29.5,FINESTEERING,2319,305230.900,02000000,46eb,17139;INS_SOLUTION_GOOD,INS_RTKFIXED,17.58794401284,78.12116726993,527.5207,-76.3000,-2.0811,4.2893,-0.0127,1.805038437,0.335263904,114.701578410,0.7317,0.7053,1.4702,0.0189,0.0188,0.0186,0.0238,0.0239,0.4550,ab000342,0*d4ef28ae
#INSPVAXA,FILE,0,29.5,FINESTEERING,2319,305230.950,02000000,46eb,17139;INS_SOLUTION_GOOD,INS_RTKFIXED,17.58794304698,78.12116930021,527.5213,-76.3000,-2.1070,4.2995,0.0378,1.994484923,0.359439683,115.065845564,0.7317,0.7053,1.4702,0.0189,0.0188,0.0186,0.0238,0.0239,0.4550,ab000342,0*2e171e78
#INSPVAXA,FILE,0,29.5,FINESTEERING,2319,305231.000,02000000,46eb,17139;INS_SOLUTION_GOOD,INS_RTKFIXED,17.58794206688,78.12117132695,527.5223,-76.3000,-2.1391,4.2796,0.0489,2.072667918,0.345945652,115.469789832,0.7317,0.7053,1.4702,0.0189,0.0188,0.0186,0.0238,0.0239,0.4550,ab000342,0*c9c97c8e
#INSPVAXA,FILE,0,29.5,FINESTEERING,2319,305231.050,02000000,46eb,17139;INS_SOLUTION_GOOD,INS_RTKFIXED,17.58794105596,78.12117335144,527.5235,-76.3000,-2.1874,4.2642,0.0248,2.015657951,0.390940536,115.866459820,0.7332,0.7059,1.4694,0.0191,0.0191,0.0189,0.0243,0.0245,0.4550,ab000342,0*42fcffbc
#INSPVAXA,FILE,0,29.5,FINESTEERING,2319,305231.100,02000000,46eb,17139;INS_SOLUTION_GOOD,INS_RTKFIXED,17.58793999743,78.12117537377,527.5251,-76.3000,-2.2436,4.2514,-0.0367,2.063979188,0.315435035,116.259770670,0.7332,0.7059,1.4694,0.0191,0.0191,0.0189,0.0243,0.0245,0.4550,ab000342,0*5330d108
#INSPVAXA,FILE,0,29.5,FINESTEERING,2319,305231.150,02000000,46eb,17139;INS_SOLUTION_GOOD,INS_RTKFIXED,17.58793892199,78.12117739253,527.5285,-76.3000,-2.2669,4.2527,0.0392,2.106069374,0.242788889,116.596410113,0.7332,0.7059,1.4694,0.0191,0.0191,0.0189,0.0243,0.0245,0.4550,ab000342,0*0fd552b8
#INSPVAXA,FILE,0,29.5,FINESTEERING,2319,305231.200,02000000,46eb,17139;INS_SOLUTION_GOOD,INS_RTKFIXED,17.58793782895,78.12117941160,527.5311,-76.3000,-2.2930,4.2602,0.0311,2.080776251,0.291753157,116.946131762,0.7332,0.7059,1.4694,0.0191,0.0191,0.0189,0.0243,0.0245,0.4550,ab000342,0*1c713e7e
#INSPVAXA,FILE,0,29.5,FINESTEERING,2319,305231.250,02000000,46eb,17139;INS_SOLUTION_GOOD,INS_RTKFIXED,17.58793672595,78.12118143315,527.5344,-76.3000,-2.3090,4.2797,0.0266,2.002260295,0.335067790,117.299598494,0.7332,0.7059,1.4694,0.0191,0.0191,0.0189,0.0243,0.0245,0.4550,ab000342,0*63059028
#INSPVAXA,FILE,0,29.5,FINESTEERING,2319,305231.300,02000000,46eb,17139;INS_SOLUTION_GOOD,INS_RTKFIXED,17.58793561764,78.12118345520,527.5388,-76.3000,-2.3111,4.2818,0.0990,2.038110016,0.207033455,117.665081195,0.7332,0.7059,1.4694,0.0191,0.0191,0.0189,0.0243,0.0245,0.4550,ab000342,0*82e46038
#INSPVAXA,FILE,0,29.5,FINESTEERING,2319,305231.350,02000000,46eb,17139;INS_SOLUTION_GOOD,INS_RTKFIXED,17.58793449904,78.12118548198,527.5432,-76.3000,-2.3457,4.2834,0.0523,1.923285310,0.188393464,118.054905134,0.7332,0.7059,1.4694,0.0191,0.0191,0.0189,0.0243,0.0245,0.4550,ab000342,0*f2f9302a
#INSPVAXA,FILE,0,29.5,FINESTEERING,2319,305231.400,02000000,46eb,17139;INS_SOLUTION_GOOD,INS_RTKFIXED,17.58793336363,78.12118750482,527.5466,-76.3000,-2.3838,4.2850,0.0435,1.838257790,0.125912908,118.421777049,0.7332,0.7059,1.4694,0.0191,0.0191,0.0189,0.0243,0.0245,0.4550,ab000342,0*19e8037e
#INSPVAXA,FILE,0,29.5,FINESTEERING,2319,305231.450,02000000,46eb,17139;INS_SOLUTION_GOOD,INS_RTKFIXED,17.58793221300,78.12118952523,527.5501,-76.3000,-2.4242,4.2793,0.0741,1.784837265,0.001089680,118.769080416,0.7332,0.7059,1.4694,0.0191,0.0191,0.0189,0.0243,0.0245,0.4550,ab000342,0*ea463401
#INSPVAXA,FILE,0,29.5,FINESTEERING,2319,305231.500,02000000,46eb,17139;INS_SOLUTION_GOOD,INS_RTKFIXED,17.58793104548,78.12119154583,527.5505,-76.3000,-2.4677,4.2777,-0.0480,1.728653776,0.034224836,119.119494898,0.7332,0.7059,1.4694,0.0191,0.0191,0.0189,0.0243,0.0245,0.4550,ab000342,0*05bba4f2
#INSPVAXA,FILE,0,29.5,FINESTEERING,2319,305231.550,02000000,46eb,17139;INS_SOLUTION_GOOD,INS_RTKFIXED,17.58792986657,78.12119356423,527.5517,-76.3000,-2.5119,4.2723,0.0198,1.698566849,0.058119366,119.484564397,0.7332,0.7059,1.4694,0.0191,0.0191,0.0189,0.0243,0.0245,0.4550,ab000342,0*e748d8e4
#INSPVAXA,FILE,0,29.5,FINESTEERING,2319,305231.600,02000000,46eb,17139;INS_SOLUTION_GOOD,INS_RTKFIXED,17.58792867169,78.12119557908,527.5517,-76.3000,-2.5371,4.2568,0.0095,1.637991696,-0.032301918,119.837989832,0.7332,0.7059,1.4694,0.0191,0.0191,0.0189,0.0243,0.0245,0.4550,ab000342,0*75a9c7f6
#INSPVAXA,FILE,0,29.5,FINESTEERING,2319,305231.650,02000000,46eb,17139;INS_SOLUTION_GOOD,INS_RTKFIXED,17.58792745619,78.12119758380,527.5530,-76.3000,-2.5835,4.2291,0.0310,1.643887008,0.000324552,120.191996521,0.7332,0.7059,1.4694,0.0191,0.0191,0.0189,0.0243,0.0245,0.4550,ab000342,0*ff31d3dd
#INSPVAXA,FILE,0,29.5,FINESTEERING,2319,305231.700,02000000,46eb,17139;INS_SOLUTION_GOOD,INS_RTKFIXED,17.58792622632,78.12119958573,527.5566,-76.3000,-2.6091,4.2293,0.0388,1.555653877,-0.057457994,120.564970336,0.7332,0.7059,1.4694,0.0191,0.0191,0.0189,0.0243,0.0245,0.4550,ab000342,0*21398254
#INSPVAXA,FILE,0,29.5,FINESTEERING,2319,305231.750,02000000,46eb,17139;INS_SOLUTION_GOOD,INS_RTKFIXED,17.58792498715,78.12120158580,527.5609,-76.3000,-2.6289,4.2418,0.1149,1.597563607,-0.097334568,120.966342746,0.7332,0.7059,1.4694,0.0191,0.0191,0.0189,0.0243,0.0245,0.4550,ab000342,0*9a77af41
#INSPVAXA,FILE,0,29.5,FINESTEERING,2319,305231.800,02000000,46eb,17139;INS_SOLUTION_GOOD,INS_RTKFIXED,17.58792372991,78.12120358350,527.5653,-76.3000,-2.6744,4.2309,0.0734,1.601635955,-0.179772383,121.396366471,0.7332,0.7059,1.4694,0.0191,0.0191,0.0189,0.0243,0.0245,0.4550,ab000342,0*c4b1e83a
#INSPVAXA,FILE,0,29.5,FINESTEERING,2319,305231.850,02000000,46eb,17139;INS_SOLUTION_GOOD,INS_RTKFIXED,17.58792245181,78.12120557301,527.5676,-76.3000,-2.7248,4.2045,0.0070,1.649764951,-0.188722534,121.837995893,0.7332,0.7059,1.4694,0.0191,0.0191,0.0189,0.0243,0.0245,0.4550,ab000342,0*743514c4
#INSPVAXA,FILE,0,29.5,FINESTEERING,2319,305231.900,02000000,46eb,17139;INS_SOLUTION_GOOD,INS_RTKFIXED,17.58792115063,78.12120755710,527.5691,-76.3000,-2.7980,4.1779,0.0011,1.707673457,-0.191518262,122.314519847,0.7332,0.7059,1.4694,0.0191,0.0191,0.0189,0.0243,0.0245,0.4550,ab000342,0*157e07ba
#INSPVAXA,FILE,0,29.5,FINESTEERING,2319,305231.950,02000000,46eb,17139;INS_SOLUTION_GOOD,INS_RTKFIXED,17.58791983383,78.12120953674,527.5688,-76.3000,-2.8186,4.1804,-0.0479,1.717680039,-0.204084355,122.795876962,0.7332,0.7059,1.4694,0.0191,0.0191,0.0189,0.0243,0.0245,0.4550,ab000342,0*d89f2461
#INSPVAXA,FILE,0,29.5,FINESTEERING,2319,305232.000,02000000,46eb,17139;INS_SOLUTION_GOOD,INS_RTKFIXED,17.58791849864,78.12121151145,527.5682,-76.3000,-2.8630,4.1622,-0.0216,1.744119854,-0.220673185,123.318673013,0.7332,0.7059,1.4694,0.0191,0.0191,0.0189,0.0243,0.0245,0.4550,ab000342,0*39d5974e
#INSPVAXA,FILE,0,29.5,FINESTEERING,2319,305232.050,02000000,46eb,17139;INS_SOLUTION_GOOD,INS_RTKFIXED,17.58791713869,78.12121347979,527.5679,-76.3000,-2.8935,4.1479,-0.0142,1.797227703,-0.180286049,123.885475630,0.7342,0.7065,1.4689,0.0198,0.0200,0.0195,0.0247,0.0250,0.4551,ab000342,0*bcc6b506
#INSPVAXA,FILE,0,29.5,FINESTEERING,2319,305232.100,02000000,46eb,17139;INS_SOLUTION_GOOD,INS_RTKFIXED,17.58791575394,78.12121544312,527.5664,-76.3000,-2.9433,4.1266,-0.0542,1.839636790,-0.195797271,124.491104656,0.7342,0.7065,1.4689,0.0198,0.0200,0.0195,0.0247,0.0250,0.4551,ab000342,0*0ebfcd21
#INSPVAXA,FILE,0,31.0,FINESTEERING,2319,305232.150,02000000,46eb,17139;INS_SOLUTION_GOOD,INS_RTKFIXED,17.58791434776,78.12121739386,527.5660,-76.3000,-2.9928,4.1022,-0.0185,1.829724057,-0.162856642,125.114879490,0.7342,0.7065,1.4689,0.0198,0.0200,0.0195,0.0247,0.0250,0.4551,ab000342,0*593cfe37
#INSPVAXA,FILE,0,31.0,FINESTEERING,2319,305232.200,02000000,46eb,17139;INS_SOLUTION_GOOD,INS_RTKFIXED,17.58791292258,78.12121933542,527.5678,-76.3000,-3.0362,4.0935,0.0369,1.822361695,-0.181580379,125.754355480,0.7342,0.7065,1.4689,0.0198,0.0200,0.0195,0.0247,0.0250,0.4551,ab000342,0*1bd15155
#INSPVAXA,FILE,0,31.0,FINESTEERING,2319,305232.250,02000000,46eb,17139;INS_SOLUTION_GOOD,INS_RTKFIXED,17.58791147287,78.12122126491,527.5694,-76.3000,-3.0922,4.0664,0.0250,1.789807223,-0.171849409,126.414524211,0.7342,0.7065,1.4689,0.0198,0.0200,0.0195,0.0247,0.0250,0.4551,ab000342,0*adc0027c
#INSPVAXA,FILE,0,31.0,FINESTEERING,2319,305232.300,02000000,46eb,17139;INS_SOLUTION_GOOD,INS_RTKFIXED,17.58790999895,78.12122318141,527.5711,-76.3000,-3.1526,4.0362,0.0247,1.742346484,-0.182219457,127.087209301,0.7342,0.7065,1.4689,0.0198,0.0200,0.0195,0.0247,0.0250,0.4551,ab000342,0*4a6439c5
#INSPVAXA,FILE,0,31.0,FINESTEERING,2319,305232.350,02000000,46eb,17139;INS_SOLUTION_GOOD,INS_RTKFIXED,17.58790849966,78.12122508440,527.5724,-76.3000,-3.2154,4.0101,0.0397,1.777914785,-0.209016212,127.771343825,0.7342,0.7065,1.4689,0.0198,0.0200,0.0195,0.0247,0.0250,0.4551,ab000342,0*c4008474
#INSPVAXA,FILE,0,31.0,FINESTEERING,2319,305232.400,02000000,46eb,17139;INS_SOLUTION_GOOD,INS_RTKFIXED,17.58790697713,78.12122697289,527.5724,-76.3000,-3.2594,3.9800,0.0072,1.722934895,-0.232490260,128.460988856,0.7342,0.7065,1.4689,0.0198,0.0200,0.0195,0.0247,0.0250,0.4551,ab000342,0*8bf023c9
#INSPVAXA,FILE,0,31.0,FINESTEERING,2319,305232.450,02000000,46eb,17139;INS_SOLUTION_GOOD,INS_RTKFIXED,17.58790543068,78.12122885063,527.5716,-76.3000,-3.3185,3.9578,-0.0673,1.682844234,-0.175688829,129.181156453,0.7342,0.7065,1.4689,0.0198,0.0200,0.0195,0.0247,0.0250,0.4551,ab000342,0*4d200cfc
#INSPVAXA,FILE,0,31.0,FINESTEERING,2319,305232.500,02000000,46eb,17139;INS_SOLUTION_GOOD,INS_RTKFIXED,17.58790385773,78.12123071129,527.5698,-76.3000,-3.3718,3.9198,-0.0361,1.681730792,-0.203879722,129.902253654,0.7342,0.7065,1.4689,0.0198,0.0200,0.0195,0.0247,0.0250,0.4551,ab000342,0*7afbcfa4
#INSPVAXA,FILE,0,31.0,FINESTEERING,2319,305232.550,02000000,46eb,17139;INS_SOLUTION_GOOD,INS_RTKFIXED,17.58790226010,78.12123256101,527.5675,-76.3000,-3.4310,3.9023,-0.0378,1.548426126,-0.138782952,130.660855750,0.7342,0.7065,1.4689,0.0198,0.0200,0.0195,0.0247,0.0250,0.4551,ab000342,0*541b334a
#INSPVAXA,FILE,0,31.0,FINESTEERING,2319,305232.600,02000000,46eb,17139;INS_SOLUTION_GOOD,INS_RTKFIXED,17.58790064571,78.12123439709,527.5654,-76.3000,-3.4677,3.8712,-0.0283,1.556777490,-0.166771908,131.452578008,0.7342,0.7065,1.4689,0.0198,0.0200,0.0195,0.0247,0.0250,0.4551,ab000342,0*77404723
#INSPVAXA,FILE,0,31.0,FINESTEERING,2319,305232.650,02000000,46eb,17139;INS_SOLUTION_GOOD,INS_RTKFIXED,17.58789900278,78.12123621329,527.5662,-76.3000,-3.5291,3.8249,0.0277,1.390657156,-0.294025785,132.264845735,0.7342,0.7065,1.4689,0.0198,0.0200,0.0195,0.0247,0.0250,0.4551,ab000342,0*4f540469
#INSPVAXA,FILE,0,31.0,FINESTEERING,2319,305232.700,02000000,46eb,17139;INS_SOLUTION_GOOD,INS_RTKFIXED,17.58789733467,78.12123800260,527.5682,-76.3000,-3.5884,3.7681,0.0628,1.239132644,-0.354700247,133.081650153,0.7342,0.7065,1.4689,0.0198,0.0200,0.0195,0.0247,0.0250,0.4551,ab000342,0*fd720423
#INSPVAXA,FILE,0,31.0,FINESTEERING,2319,305232.750,02000000,46eb,17139;INS_SOLUTION_GOOD,INS_RTKFIXED,17.58789563789,78.12123977050,527.5706,-76.3000,-3.6481,3.7241,0.0459,1.140278993,-0.482118088,133.919134543,0.7342,0.7065,1.4689,0.0198,0.0200,0.0195,0.0247,0.0250,0.4551,ab000342,0*5bc6df78
#INSPVAXA,FILE,0,31.0,FINESTEERING,2319,305232.800,02000000,46eb,17139;INS_SOLUTION_GOOD,INS_RTKFIXED,17.58789391580,78.12124151830,527.5723,-76.3000,-3.7089,3.6686,0.0360,1.122240407,-0.450311192,134.798597369,0.7342,0.7065,1.4689,0.0198,0.0200,0.0195,0.0247,0.0250,0.4551,ab000342,0*90354c91
#INSPVAXA,FILE,0,31.0,FINESTEERING,2319,305232.850,02000000,46eb,17139;INS_SOLUTION_GOOD,INS_RTKFIXED,17.58789216501,78.12124324558,527.5741,-76.3000,-3.7829,3.6328,-0.0026,0.903946704,-0.312045861,135.716168199,0.7342,0.7065,1.4689,0.0198,0.0200,0.0195,0.0247,0.0250,0.4551,ab000342,0*2823698c
#INSPVAXA,FILE,0,31.0,FINESTEERING,2319,305232.900,02000000,46eb,17139;INS_SOLUTION_GOOD,INS_RTKFIXED,17.58789039073,78.12124495105,527.5743,-76.3000,-3.8317,3.5923,0.0059,0.871208465,-0.196301960,136.667302073,0.7342,0.7065,1.4689,0.0198,0.0200,0.0195,0.0247,0.0250,0.4551,ab000342,0*0f4d70a1
#INSPVAXA,FILE,0,31.0,FINESTEERING,2319,305232.950,02000000,46eb,17139;INS_SOLUTION_GOOD,INS_RTKFIXED,17.58788858867,78.12124663498,527.5740,-76.3000,-3.9105,3.5332,-0.0310,0.800216372,0.012195112,137.663378607,0.7342,0.7065,1.4689,0.0198,0.0200,0.0195,0.0247,0.0250,0.4551,ab000342,0*a4cf1888
#INSPVAXA,FILE,0,31.0,FINESTEERING,2319,305233.000,02000000,46eb,17139;INS_SOLUTION_GOOD,INS_RTKFIXED,17.58788676023,78.12124828949,527.5719,-76.3000,-3.9707,3.4578,-0.0512,0.868687677,0.117505584,138.679819318,0.7342,0.7065,1.4689,0.0198,0.0200,0.0195,0.0247,0.0250,0.4551,ab000342,0*09a1968c
#INSPVAXA,FILE,0,31.0,FINESTEERING,2319,305233.050,02000000,46eb,17139;INS_SOLUTION_GOOD,INS_RTKFIXED,17.58788487650,78.12124989978,527.5691,-76.3000,-4.0598,3.3823,-0.0987,0.720401692,0.339242287,139.700152641,0.7366,0.7074,1.4692,0.0217,0.0218,0.0198,0.0252,0.0255,0.4552,ab000342,0*19dc09b5
#INSPVAXA,FILE,0,30.5,FINESTEERING,2319,305233.100,02000000,46eb,17139;INS_SOLUTION_GOOD,INS_RTKFIXED,17.58788294756,78.12125146343,527.5657,-76.3000,-4.1201,3.3202,-0.1119,0.638672242,0.440030511,140.726093440,0.7366,0.7074,1.4692,0.0217,0.0218,0.0198,0.0252,0.0255,0.4552,ab000342,0*8180ac59
#INSPVAXA,FILE,0,30.5,FINESTEERING,2319,305233.150,02000000,46eb,17139;INS_SOLUTION_GOOD,INS_RTKFIXED,17.58788099475,78.12125300253,527.5618,-76.3000,-4.1564,3.2636,-0.1090,0.564418140,0.496048119,141.767327542,0.7366,0.7074,1.4692,0.0217,0.0218,0.0198,0.0252,0.0255,0.4552,ab000342,0*e678b8ae
