#BESTPOSA,FILE,0,37.0,FINESTEERING,2319,305045.850,02000800,cdba,17139;SOL_COMPUTED,INS_RTKFIXED,17.58810949393,78.12090781144,529.0731,-76.3000,WGS84,0.7252,0.7570,1.5021,"",0.000,0.000,55,39,39,39,00,06,3d,33*65037d4e
#BESTPOSA,FILE,0,37.0,FINESTEERING,2319,305045.950,02000800,cdba,17139;SOL_COMPUTED,INS_RTKFIXED,17.58810949515,78.12090780820,529.0728,-76.3000,WGS84,0.7252,0.7570,1.5021,"",0.000,0.000,55,39,39,39,00,06,3d,33*63ccae27
#BESTPOSA,FILE,0,37.0,FINESTEERING,2319,305046.050,02000800,cdba,17139;SOL_COMPUTED,INS_RTKFIXED,17.58810949476,78.12090780721,529.0724,-76.3000,WGS84,0.7255,0.7572,1.5025,"",0.000,0.000,55,39,39,38,00,06,3d,33*03ca7d5c
#BESTPOSA,FILE,0,37.0,FINESTEERING,2319,305046.100,02000800,cdba,17139;SOL_COMPUTED,INS_RTKFIXED,17.58810949583,78.12090780739,529.0724,-76.3000,WGS84,0.7255,0.7572,1.5025,"",0.000,0.000,55,39,39,38,00,06,3d,33*a5f0e662
#BESTPOSA,FILE,0,37.5,FINESTEERING,2319,305046.200,02000800,cdba,17139;SOL_COMPUTED,INS_RTKFIXED,17.58810949839,78.12090780676,529.0722,-76.3000,WGS84,0.7255,0.7572,1.5025,"",0.000,0.000,55,39,39,38,00,06,3d,33*a6e517aa
#BESTPOSA,FILE,0,37.5,FINESTEERING,2319,305046.300,02000800,cdba,17139;SOL_COMPUTED,INS_RTKFIXED,17.58810949886,78.12090780660,529.0720,-76.3000,WGS84,0.7255,0.7572,1.5025,"",0.000,0.000,55,39,39,38,00,06,3d,33*57144deb
#BESTPOSA,FILE,0,37.5,FINESTEERING,2319,305046.450,02000800,cdba,17139;SOL_COMPUTED,INS_RTKFIXED,17.58810950025,78.12090780790,529.0717,-76.3000,WGS84,0.7255,0.7572,1.5025,"",0.000,0.000,55,39,39,38,00,06,3d,33*640c77f2
#BESTPOSA,FILE,0,37.5,FINESTEERING,2319,305046.550,02000800,cdba,17139;SOL_COMPUTED,INS_RTKFIXED,17.58810950175,78.12090780803,529.0714,-76.3000,WGS84,0.7255,0.7572,1.5025,"",0.000,0.000,55,39,39,38,00,06,3d,33*aa6fccbc
#BESTPOSA,FILE,0,37.5,FINESTEERING,2319,305046.650,02000800,cdba,17139;SOL_COMPUTED,INS_RTKFIXED,17.58810950289,78.12090780678,529.0712,-76.3000,WGS84,0.7255,0.7572,1.5025,"",0.000,0.000,55,39,39,38,00,06,3d,33*4b0d380b
#BESTPOSA,FILE,0,37.5,FINESTEERING,2319,305046.800,02000800,cdba,17139;SOL_COMPUTED,INS_RTKFIXED,17.58810950575,78.12090780409,529.0711,-76.3000,WGS84,0.7255,0.7572,1.5025,"",0.000,0.000,55,39,39,38,00,06,3d,33*d18f24a6
#BESTPOSA,FILE,0,37.5,FINESTEERING,2319,305046.900,02000800,cdba,17139;SOL_COMPUTED,INS_RTKFIXED,17.58810950693,78.12090780378,529.0709,-76.3000,WGS84,0.7255,0.7572,1.5025,"",0.000,0.000,55,39,39,38,00,06,3d,33*1426be60
#BESTPOSA,FILE,0,37.5,FINESTEERING,2319,305047.000,02000800,cdba,17139;SOL_COMPUTED,INS_RTKFIXED,17.58810950820,78.12090780566,529.0706,-76.3000,WGS84,0.7255,0.7572,1.5025,"",0.000,0.000,55,39,39,38,00,06,3d,33*8626e9b4
#BESTPOSA,FILE,0,37.0,FINESTEERING,2319,305047.100,02000800,cdba,17139;SOL_COMPUTED,INS_RTKFIXED,17.58810950974,78.12090780634,529.0705,-76.3000,WGS84,0.7257,0.7574,1.5028,"",0.000,0.000,55,39,39,38,00,06,3d,33*7f30af0d
#BESTPOSA,FILE,0,37.0,FINESTEERING,2319,305047.200,02000800,cdba,17139;SOL_COMPUTED,INS_RTKFIXED,17.58810951148,78.12090780570,529.0706,-76.3000,WGS84,0.7257,0.7574,1.5028,"",0.000,0.000,55,39,39,38,00,06,3d,33*02cb367c
#BESTPOSA,FILE,0,37.0,FINESTEERING,2319,305047.250,02000800,cdba,17139;SOL_COMPUTED,INS_RTKFIXED,17.58810951164,78.12090780549,529.0706,-76.3000,WGS84,0.7257,0.7574,1.5028,"",0.000,0.000,55,39,39,38,00,06,3d,33*145c8f04
#BESTPOSA,FILE,0,37.0,FINESTEERING,2319,305047.400,02000800,cdba,17139;SOL_COMPUTED,INS_RTKFIXED,17.58810951308,78.12090780298,529.0706,-76.3000,WGS84,0.7257,0.7574,1.5028,"",0.000,0.000,55,39,39,38,00,06,3d,33*d473b9c1
#BESTPOSA,FILE,0,37.0,FINESTEERING,2319,305047.450,02000800,cdba,17139;SOL_COMPUTED,INS_RTKFIXED,17.58810951409,78.12090780238,529.0706,-76.3000,WGS84,0.7257,0.7574,1.5028,"",0.000,0.000,55,39,39,38,00,06,3d,33*134a3710
#BESTPOSA,FILE,0,37.0,FINESTEERING,2319,305047.600,02000800,cdba,17139;SOL_COMPUTED,INS_RTKFIXED,17.58810951580,78.12090780278,529.0706,-76.3000,WGS84,0.7257,0.7574,1.5028,"",0.000,0.000,55,39,39,38,00,06,3d,33*ad8338bc
#BESTPOSA,FILE,0,37.0,FINESTEERING,2319,305047.650,02000800,cdba,17139;SOL_COMPUTED,INS_RTKFIXED,17.58810951666,78.12090780320,529.0706,-76.3000,WGS84,0.7257,0.7574,1.5028,"",0.000,0.000,55,39,39,38,00,06,3d,33*fe9a0748
#BESTPOSA,FILE,0,37.0,FINESTEERING,2319,305047.750,02000800,cdba,17139;SOL_COMPUTED,INS_RTKFIXED,17.58810951871,78.12090780409,529.0707,-76.3000,WGS84,0.7257,0.7574,1.5028,"",0.000,0.000,55,39,39,38,00,06,3d,33*6deca01c
#BESTPOSA,FILE,0,37.0,FINESTEERING,2319,305047.850,02000800,cdba,17139;SOL_COMPUTED,INS_RTKFIXED,17.58810951700,78.12090780296,529.0706,-76.3000,WGS84,0.7257,0.7574,1.5028,"",0.000,0.000,55,39,39,38,00,06,3d,33*0ddcc552
#BESTPOSA,FILE,0,37.0,FINESTEERING,2319,305047.950,02000800,cdba,17139;SOL_COMPUTED,INS_RTKFIXED,17.58810951423,78.12090780071,529.0702,-76.3000,WGS84,0.7257,0.7574,1.5028,"",0.000,0.000,55,39,39,38,00,06,3d,33*adcf6ef7
#BESTPOSA,FILE,0,37.0,FINESTEERING,2319,305048.050,02000800,cdba,17139;SOL_COMPUTED,INS_RTKFIXED,17.58810951015,78.12090779383,529.0688,-76.3000,WGS84,0.7232,0.7562,1.5051,"",0.000,0.000,55,39,39,38,00,06,3d,33*f76a2be7
#BESTPOSA,FILE,0,37.0,FINESTEERING,2319,305048.150,02000800,cdba,17139;SOL_COMPUTED,INS_RTKFIXED,17.58810952218,78.12090778369,529.0655,-76.3000,WGS84,0.7232,0.7562,1.5051,"",0.000,0.000,55,39,39,38,00,06,3d,33*82ffce18
#BESTPOSA,FILE,0,37.5,FINESTEERING,2319,305048.250,02000800,cdba,17139;SOL_COMPUTED,INS_RTKFIXED,17.58810957487,78.12090777740,529.0623,-76.3000,WGS84,0.7232,0.7562,1.5051,"",0.000,0.000,55,39,39,38,00,06,3d,33*83390286
#BESTPOSA,FILE,0,37.5,FINESTEERING,2319,305048.350,02000800,cdba,17139;SOL_COMPUTED,INS_RTKFIXED,17.58810968420,78.12090775586,529.0610,-76.3000,WGS84,0.7232,0.7562,1.5051,"",0.000,0.000,55,39,39,38,00,06,3d,33*24721991
#BESTPOSA,FILE,0,37.5,FINESTEERING,2319,305048.450,02000800,cdba,17139;SOL_COMPUTED,INS_RTKFIXED,17.58810985674,78.12090772501,529.0613,-76.3000,WGS84,0.7232,0.7562,1.5051,"",0.000,0.000,55,39,39,38,00,06,3d,33*ee1e39bb
#BESTPOSA,FILE,0,37.5,FINESTEERING,2319,305048.550,02000800,cdba,17139;SOL_COMPUTED,INS_RTKFIXED,17.58811007734,78.12090769830,529.0631,-76.3000,WGS84,0.7232,0.7562,1.5051,"",0.000,0.000,55,39,39,38,00,06,3d,33*d9c9f7f8
#BESTPOSA,FILE,0,37.5,FINESTEERING,2319,305048.650,02000800,cdba,17139;SOL_COMPUTED,INS_RTKFIXED,17.58811032243,78.12090766344,529.0635,-76.3000,WGS84,0.7232,0.7562,1.5051,"",0.000,0.000,55,39,39,38,00,06,3d,33*5efa9ad0
#BESTPOSA,FILE,0,37.5,FINESTEERING,2319,305048.800,02000800,cdba,17139;SOL_COMPUTED,INS_RTKFIXED,17.58811075696,78.12090759944,529.0619,-76.3000,WGS84,0.7232,0.7562,1.5051,"",0.000,0.000,55,39,39,38,00,06,3d,33*9d181a32
#BESTPOSA,FILE,0,37.5,FINESTEERING,2319,305048.850,02000800,cdba,17139;SOL_COMPUTED,INS_RTKFIXED,17.58811092109,78.12090757634,529.0615,-76.3000,WGS84,0.7232,0.7562,1.5051,"",0.000,0.000,55,39,39,38,00,06,3d,33*ffebe59f
#BESTPOSA,FILE,0,37.5,FINESTEERING,2319,305048.900,02000800,cdba,17139;SOL_COMPUTED,INS_RTKFIXED,17.58811109299,78.12090755056,529.0611,-76.3000,WGS84,0.7232,0.7562,1.5051,"",0.000,0.000,55,39,39,38,00,06,3d,33*76e8607a
#BESTPOSA,FILE,0,37.5,FINESTEERING,2319,305049.000,02000800,cdba,17139;SOL_COMPUTED,INS_RTKFIXED,17.58811146690,78.12090749397,529.0610,-76.3000,WGS84,0.7232,0.7562,1.5051,"",0.000,0.000,55,39,39,38,00,06,3d,33*3cd29b80
#BESTPOSA,FILE,0,37.0,FINESTEERING,2319,305049.100,02000800,cdba,17139;SOL_COMPUTED,INS_RTKFIXED,17.58811187347,78.12090743261,529.0609,-76.3000,WGS84,0.7214,0.7542,1.5073,"",0.000,0.000,55,39,39,39,00,06,3d,33*41e57df7
#BESTPOSA,FILE,0,37.0,FINESTEERING,2319,305049.200,02000800,cdba,17139;SOL_COMPUTED,INS_RTKFIXED,17.58811231648,78.12090737229,529.0598,-76.3000,WGS84,0.7214,0.7542,1.5073,"",0.000,0.000,55,39,39,39,00,06,3d,33*f15b70c5
#BESTPOSA,FILE,0,37.0,FINESTEERING,2319,305049.300,02000800,cdba,17139;SOL_COMPUTED,INS_RTKFIXED,17.58811279965,78.12090730972,529.0587,-76.3000,WGS84,0.7214,0.7542,1.5073,"",0.000,0.000,55,39,39,39,00,06,3d,33*4f4109e6
#BESTPOSA,FILE,0,37.0,FINESTEERING,2319,305049.400,02000800,cdba,17139;SOL_COMPUTED,INS_RTKFIXED,17.58811331818,78.12090724467,529.0576,-76.3000,WGS84,0.7214,0.7542,1.5073,"",0.000,0.000,55,39,39,39,00,06,3d,33*f4caa2f2
#BESTPOSA,FILE,0,37.0,FINESTEERING,2319,305049.500,02000800,cdba,17139;SOL_COMPUTED,INS_RTKFIXED,17.58811387422,78.12090717563,529.0572,-76.3000,WGS84,0.7214,0.7542,1.5073,"",0.000,0.000,55,39,39,39,00,06,3d,33*7436cd71
#BESTPOSA,FILE,0,37.0,FINESTEERING,2319,305049.550,02000800,cdba,17139;SOL_COMPUTED,INS_RTKFIXED,17.58811416591,78.12090714203,529.0570,-76.3000,WGS84,0.7214,0.7542,1.5073,"",0.000,0.000,55,39,39,39,00,06,3d,33*699a2d3b
#BESTPOSA,FILE,0,37.0,FINESTEERING,2319,305049.600,02000800,cdba,17139;SOL_COMPUTED,INS_RTKFIXED,17.58811446582,78.12090710816,529.0569,-76.3000,WGS84,0.7214,0.7542,1.5073,"",0.000,0.000,55,39,39,39,00,06,3d,33*41837939
#BESTPOSA,FILE,0,37.0,FINESTEERING,2319,305049.650,02000800,cdba,17139;SOL_COMPUTED,INS_RTKFIXED,17.58811477303,78.12090707430,529.0569,-76.3000,WGS84,0.7214,0.7542,1.5073,"",0.000,0.000,55,39,39,39,00,06,3d,33*1a7ac405
#BESTPOSA,FILE,0,37.0,FINESTEERING,2319,305049.700,02000800,cdba,17139;SOL_COMPUTED,INS_RTKFIXED,17.58811508708,78.12090704115,529.0568,-76.3000,WGS84,0.7214,0.7542,1.5073,"",0.000,0.000,55,39,39,39,00,06,3d,33*7aba1a0a
#BESTPOSA,FILE,0,37.0,FINESTEERING,2319,305049.750,02000800,cdba,17139;SOL_COMPUTED,INS_RTKFIXED,17.58811540743,78.12090700767,529.0568,-76.3000,WGS84,0.7214,0.7542,1.5073,"",0.000,0.000,55,39,39,39,00,06,3d,33*82b89473
#BESTPOSA,FILE,0,37.0,FINESTEERING,2319,305049.800,02000800,cdba,17139;SOL_COMPUTED,INS_RTKFIXED,17.58811573438,78.12090697583,529.0566,-76.3000,WGS84,0.7214,0.7542,1.5073,"",0.000,0.000,55,39,39,39,00,06,3d,33*cb6c7048
#BESTPOSA,FILE,0,37.0,FINESTEERING,2319,305049.850,02000800,cdba,17139;SOL_COMPUTED,INS_RTKFIXED,17.58811606826,78.12090694389,529.0564,-76.3000,WGS84,0.7214,0.7542,1.5073,"",0.000,0.000,55,39,39,39,00,06,3d,33*c694caa8
#BESTPOSA,FILE,0,37.0,FINESTEERING,2319,305049.900,02000800,cdba,17139;SOL_COMPUTED,INS_RTKFIXED,17.58811641098,78.12090691367,529.0560,-76.3000,WGS84,0.7214,0.7542,1.5073,"",0.000,0.000,55,39,39,39,00,06,3d,33*78f97b00
#BESTPOSA,FILE,0,37.0,FINESTEERING,2319,305049.950,02000000,cdba,17139;SOL_COMPUTED,INS_RTKFIXED,17.58811676138,78.12090688257,529.0557,-76.3000,WGS84,0.7214,0.7542,1.5073,"",0.000,0.000,55,39,39,39,00,06,3d,33*884d2742
#BESTPOSA,FILE,0,37.0,FINESTEERING,2319,305050.000,02000000,cdba,17139;SOL_COMPUTED,INS_RTKFIXED,17.58811712141,78.12090685101,529.0554,-76.3000,WGS84,0.7214,0.7542,1.5073,"",0.000,0.000,55,39,39,39,00,06,3d,33*e3ec06aa
#BESTPOSA,FILE,0,37.0,FINESTEERING,2319,305050.050,02000000,cdba,17139;SOL_COMPUTED,INS_RTKFIXED,17.58811749207,78.12090681975,529.0550,-76.3000,WGS84,0.7199,0.7526,1.5085,"",0.000,0.000,55,39,39,39,00,06,3d,33*ad3e2514
#BESTPOSA,FILE,0,34.5,FINESTEERING,2319,305050.100,02000000,cdba,17139;SOL_COMPUTED,INS_RTKFIXED,17.58811787448,78.12090678616,529.0545,-76.3000,WGS84,0.7199,0.7526,1.5085,"",0.000,0.000,55,39,39,39,00,06,3d,33*028d24c6
#BESTPOSA,FILE,0,34.5,FINESTEERING,2319,305050.150,02000000,cdba,17139;SOL_COMPUTED,INS_RTKFIXED,17.58811826968,78.12090675403,529.0538,-76.3000,WGS84,0.7199,0.7526,1.5085,"",0.000,0.000,55,39,39,39,00,06,3d,33*b07e91c9
#BESTPOSA,FILE,0,34.5,FINESTEERING,2319,305050.200,02000000,cdba,17139;SOL_COMPUTED,INS_RTKFIXED,17.58811867695,78.12090672306,529.0531,-76.3000,WGS84,0.7199,0.7526,1.5085,"",0.000,0.000,55,39,39,39,00,06,3d,33*e753dd63
#BESTPOSA,FILE,0,34.5,FINESTEERING,2319,305050.250,02000000,cdba,17139;SOL_COMPUTED,INS_RTKFIXED,17.58811909695,78.12090669363,529.0523,-76.3000,WGS84,0.7199,0.7526,1.5085,"",0.000,0.000,55,39,39,39,00,06,3d,33*0729f570
#BESTPOSA,FILE,0,34.5,FINESTEERING,2319,305050.300,02000000,cdba,17139;SOL_COMPUTED,INS_RTKFIXED,17.58811953244,78.12090666652,529.0513,-76.3000,WGS84,0.7199,0.7526,1.5085,"",0.000,0.000,55,39,39,39,00,06,3d,33*fbd0e978
#BESTPOSA,FILE,0,34.5,FINESTEERING,2319,305050.350,02000000,cdba,17139;SOL_COMPUTED,INS_RTKFIXED,17.58811998462,78.12090664120,529.0502,-76.3000,WGS84,0.7199,0.7526,1.5085,"",0.000,0.000,55,39,39,39,00,06,3d,33*44b2ed9d
#BESTPOSA,FILE,0,34.5,FINESTEERING,2319,305050.400,02000000,cdba,17139;SOL_COMPUTED,INS_RTKFIXED,17.58812045542,78.12090661800,529.0490,-76.3000,WGS84,0.7199,0.7526,1.5085,"",0.000,0.000,55,39,39,39,00,06,3d,33*d4fdb89a
#BESTPOSA,FILE,0,34.5,FINESTEERING,2319,305050.450,02000000,cdba,17139;SOL_COMPUTED,INS_RTKFIXED,17.58812094523,78.12090659842,529.0478,-76.3000,WGS84,0.7199,0.7526,1.5085,"",0.000,0.000,55,39,39,39,00,06,3d,33*10a26515
#BESTPOSA,FILE,0,34.5,FINESTEERING,2319,305050.500,02000000,cdba,17139;SOL_COMPUTED,INS_RTKFIXED,17.58812145683,78.12090658306,529.0467,-76.3000,WGS84,0.7199,0.7526,1.5085,"",0.000,0.000,55,39,39,39,00,06,3d,33*a203205d
#BESTPOSA,FILE,0,34.5,FINESTEERING,2319,305050.550,02000000,cdba,17139;SOL_COMPUTED,INS_RTKFIXED,17.58812199002,78.12090657120,529.0456,-76.3000,WGS84,0.7199,0.7526,1.5085,"",0.000,0.000,55,39,39,39,00,06,3d,33*4f3530d7
#BESTPOSA,FILE,0,34.5,FINESTEERING,2319,305050.600,02000000,cdba,17139;SOL_COMPUTED,INS_RTKFIXED,17.58812254512,78.12090656329,529.0446,-76.3000,WGS84,0.7199,0.7526,1.5085,"",0.000,0.000,55,39,39,39,00,06,3d,33*360dc0c9
#BESTPOSA,FILE,0,34.5,FINESTEERING,2319,305050.650,02000000,cdba,17139;SOL_COMPUTED,INS_RTKFIXED,17.58812312524,78.12090656229,529.0433,-76.3000,WGS84,0.7199,0.7526,1.5085,"",0.000,0.000,55,39,39,39,00,06,3d,33*fdfddf57
#BESTPOSA,FILE,0,34.5,FINESTEERING,2319,305050.700,02000000,cdba,17139;SOL_COMPUTED,INS_RTKFIXED,17.58812372591,78.12090656285,529.0420,-76.3000,WGS84,0.7199,0.7526,1.5085,"",0.000,0.000,55,39,39,39,00,06,3d,33*4c63c441
#BESTPOSA,FILE,0,34.5,FINESTEERING,2319,305050.750,02000000,cdba,17139;SOL_COMPUTED,INS_RTKFIXED,17.58812435289,78.12090657057,529.0403,-76.3000,WGS84,0.7199,0.7526,1.5085,"",0.000,0.000,55,39,39,39,00,06,3d,33*b4c67515
#BESTPOSA,FILE,0,34.5,FINESTEERING,2319,305050.800,02000000,cdba,17139;SOL_COMPUTED,INS_RTKFIXED,17.58812500309,78.12090657998,529.0383,-76.3000,WGS84,0.7199,0.7526,1.5085,"",0.000,0.000,55,39,39,39,00,06,3d,33*0ea91084
#BESTPOSA,FILE,0,34.5,FINESTEERING,2319,305050.850,02000000,cdba,17139;SOL_COMPUTED,INS_RTKFIXED,17.58812567837,78.12090659316,529.0361,-76.3000,WGS84,0.7199,0.7526,1.5085,"",0.000,0.000,55,39,39,39,00,06,3d,33*13110a94
#BESTPOSA,FILE,0,34.5,FINESTEERING,2319,305050.900,02000000,cdba,17139;SOL_COMPUTED,INS_RTKFIXED,17.58812638031,78.12090660927,529.0339,-76.3000,WGS84,0.7199,0.7526,1.5085,"",0.000,0.000,55,39,39,39,00,06,3d,33*c4b4244e
#BESTPOSA,FILE,0,34.5,FINESTEERING,2319,305050.950,02000000,cdba,17139;SOL_COMPUTED,INS_RTKFIXED,17.58812711108,78.12090662873,529.0319,-76.3000,WGS84,0.7199,0.7526,1.5085,"",0.000,0.000,55,39,39,39,00,06,3d,33*d154f4e0
#BESTPOSA,FILE,0,34.5,FINESTEERING,2319,305051.000,02000000,cdba,17139;SOL_COMPUTED,INS_RTKFIXED,17.58812787217,78.12090665290,529.0301,-76.3000,WGS84,0.7199,0.7526,1.5085,"",0.000,0.000,55,39,39,39,00,06,3d,33*261767f9
#BESTPOSA,FILE,0,34.5,FINESTEERING,2319,305051.050,02000000,cdba,17139;SOL_COMPUTED,INS_RTKFIXED,17.58812866405,78.12090668468,529.0287,-76.3000,WGS84,0.7194,0.7522,1.5088,"",0.000,0.000,55,39,39,39,00,06,3d,33*0bad47db
#BESTPOSA,FILE,0,24.0,FINESTEERING,2319,305051.100,02000000,cdba,17139;SOL_COMPUTED,INS_RTKFIXED,17.58812948990,78.12090672525,529.0275,-76.3000,WGS84,0.7194,0.7522,1.5088,"",0.000,0.000,55,39,39,39,00,06,3d,33*691ee349
#BESTPOSA,FILE,0,24.0,FINESTEERING,2319,305051.150,02000000,cdba,17139;SOL_COMPUTED,INS_RTKFIXED,17.58813034341,78.12090676518,529.0262,-76.3000,WGS84,0.7194,0.7522,1.5088,"",0.000,0.000,55,39,39,39,00,06,3d,33*767e4cf5
#BESTPOSA,FILE,0,24.0,FINESTEERING,2319,305051.200,02000000,cdba,17139;SOL_COMPUTED,INS_RTKFIXED,17.58813122381,78.12090680475,529.0248,-76.3000,WGS84,0.7194,0.7522,1.5088,"",0.000,0.000,55,39,39,39,00,06,3d,33*09caa366
#BESTPOSA,FILE,0,24.0,FINESTEERING,2319,305051.250,02000000,cdba,17139;SOL_COMPUTED,INS_RTKFIXED,17.58813213277,78.12090684441,529.0232,-76.3000,WGS84,0.7194,0.7522,1.5088,"",0.000,0.000,55,39,39,39,00,06,3d,33*331a96a9
#BESTPOSA,FILE,0,24.0,FINESTEERING,2319,305051.300,02000000,cdba,17139;SOL_COMPUTED,INS_RTKFIXED,17.58813306922,78.12090688631,529.0213,-76.3000,WGS84,0.7194,0.7522,1.5088,"",0.000,0.000,55,39,39,39,00,06,3d,33*b258a897
#BESTPOSA,FILE,0,24.0,FINESTEERING,2319,305051.350,02000000,cdba,17139;SOL_COMPUTED,INS_RTKFIXED,17.58813403519,78.12090693971,529.0189,-76.3000,WGS84,0.7194,0.7522,1.5088,"",0.000,0.000,55,39,39,39,00,06,3d,33*dfdf8dd3
#BESTPOSA,FILE,0,24.0,FINESTEERING,2319,305051.400,02000000,cdba,17139;SOL_COMPUTED,INS_RTKFIXED,17.58813502964,78.12090700033,529.0162,-76.3000,WGS84,0.7194,0.7522,1.5088,"",0.000,0.000,55,39,39,39,00,06,3d,33*99320aec
#BESTPOSA,FILE,0,24.0,FINESTEERING,2319,305051.450,02000000,cdba,17139;SOL_COMPUTED,INS_RTKFIXED,17.58813604912,78.12090706788,529.0138,-76.3000,WGS84,0.7194,0.7522,1.5088,"",0.000,0.000,55,39,39,39,00,06,3d,33*f78fc186
#BESTPOSA,FILE,0,24.0,FINESTEERING,2319,305051.500,02000000,cdba,17139;SOL_COMPUTED,INS_RTKFIXED,17.58813709774,78.12090714581,529.0115,-76.3000,WGS84,0.7194,0.7522,1.5088,"",0.000,0.000,55,39,39,39,00,06,3d,33*af5951d4
#BESTPOSA,FILE,0,24.0,FINESTEERING,2319,305051.550,02000000,cdba,17139;SOL_COMPUTED,INS_RTKFIXED,17.58813817238,78.12090722696,529.0100,-76.3000,WGS84,0.7194,0.7522,1.5088,"",0.000,0.000,55,39,39,39,00,06,3d,33*5c96f97a
#BESTPOSA,FILE,0,24.0,FINESTEERING,2319,305051.600,02000000,cdba,17139;SOL_COMPUTED,INS_RTKFIXED,17.58813927774,78.12090731456,529.0089,-76.3000,WGS84,0.7194,0.7522,1.5088,"",0.000,0.000,55,39,39,39,00,06,3d,33*947dbb48
#BESTPOSA,FILE,0,24.0,FINESTEERING,2319,305051.650,02000000,cdba,17139;SOL_COMPUTED,INS_RTKFIXED,17.58814040992,78.12090740307,529.0084,-76.3000,WGS84,0.7194,0.7522,1.5088,"",0.000,0.000,55,39,39,39,00,06,3d,33*ba649872
#BESTPOSA,FILE,0,24.0,FINESTEERING,2319,305051.700,02000000,cdba,17139;SOL_COMPUTED,INS_RTKFIXED,17.58814157339,78.12090749149,529.0087,-76.3000,WGS84,0.7194,0.7522,1.5088,"",0.000,0.000,55,39,39,39,00,06,3d,33*8ee64736
#BESTPOSA,FILE,0,24.0,FINESTEERING,2319,305051.750,02000000,cdba,17139;SOL_COMPUTED,INS_RTKFIXED,17.58814276501,78.12090758450,529.0091,-76.3000,WGS84,0.7194,0.7522,1.5088,"",0.000,0.000,55,39,39,39,00,06,3d,33*4ad28c48
#BESTPOSA,FILE,0,24.0,FINESTEERING,2319,305051.800,02000000,cdba,17139;SOL_COMPUTED,INS_RTKFIXED,17.58814397820,78.12090767896,529.0096,-76.3000,WGS84,0.7194,0.7522,1.5088,"",0.000,0.000,55,39,39,39,00,06,3d,33*8d9d15a6
#BESTPOSA,FILE,0,24.0,FINESTEERING,2319,305051.850,02000000,cdba,17139;SOL_COMPUTED,INS_RTKFIXED,17.58814521941,78.12090777689,529.0103,-76.3000,WGS84,0.7194,0.7522,1.5088,"",0.000,0.000,55,39,39,39,00,06,3d,33*2836723f
#BESTPOSA,FILE,0,24.0,FINESTEERING,2319,305051.900,02000000,cdba,17139;SOL_COMPUTED,INS_RTKFIXED,17.58814648196,78.12090787464,529.0114,-76.3000,WGS84,0.7194,0.7522,1.5088,"",0.000,0.000,55,39,39,39,00,06,3d,33*0b663d22
#BESTPOSA,FILE,0,24.0,FINESTEERING,2319,305051.950,02000000,cdba,17139;SOL_COMPUTED,INS_RTKFIXED,17.58814776488,78.12090797886,529.0123,-76.3000,WGS84,0.7194,0.7522,1.5088,"",0.000,0.000,55,39,39,39,00,06,3d,33*873eb5fd
#BESTPOSA,FILE,0,24.0,FINESTEERING,2319,305052.000,02000000,cdba,17139;SOL_COMPUTED,INS_RTKFIXED,17.58814906866,78.12090808394,529.0133,-76.3000,WGS84,0.7194,0.7522,1.5088,"",0.000,0.000,55,39,39,39,00,06,3d,33*e3082440
#BESTPOSA,FILE,0,24.0,FINESTEERING,2319,305052.050,02000000,cdba,17139;SOL_COMPUTED,INS_RTKFIXED,17.58815038883,78.12090819262,529.0140,-76.3000,WGS84,0.7192,0.7520,1.5088,"",0.000,0.000,55,39,39,39,00,06,3d,33*a2d85cb3
#BESTPOSA,FILE,0,24.0,FINESTEERING,2319,305052.100,02000000,cdba,17139;SOL_COMPUTED,INS_RTKFIXED,17.58815172070,78.12090829766,529.0148,-76.3000,WGS84,0.7192,0.7520,1.5088,"",0.000,0.000,55,39,39,39,00,06,3d,33*c25efef0
#BESTPOSA,FILE,0,30.5,FINESTEERING,2319,305052.150,02000000,cdba,17139;SOL_COMPUTED,INS_RTKFIXED,17.58815306035,78.12090840080,529.0156,-76.3000,WGS84,0.7192,0.7520,1.5088,"",0.000,0.000,55,39,39,39,00,06,3d,33*bcdc59e4
#BESTPOSA,FILE,0,30.5,FINESTEERING,2319,305052.200,02000000,cdba,17139;SOL_COMPUTED,INS_RTKFIXED,17.58815440950,78.12090850629,529.0158,-76.3000,WGS84,0.7192,0.7520,1.5088,"",0.000,0.000,55,39,39,39,00,06,3d,33*a60c9565
#BESTPOSA,FILE,0,30.5,FINESTEERING,2319,305052.250,02000000,cdba,17139;SOL_COMPUTED,INS_RTKFIXED,17.58815575493,78.12090861169,529.0154,-76.3000,WGS84,0.7192,0.7520,1.5088,"",0.000,0.000,55,39,39,39,00,06,3d,33*865ef244
#BESTPOSA,FILE,0,30.5,FINESTEERING,2319,305052.300,02000000,cdba,17139;SOL_COMPUTED,INS_RTKFIXED,17.58815709825,78.12090871516,529.0144,-76.3000,WGS84,0.7192,0.7520,1.5088,"",0.000,0.000,55,39,39,39,00,06,3d,33*df4f3eb3
#BESTPOSA,FILE,0,30.5,FINESTEERING,2319,305052.350,02000000,cdba,17139;SOL_COMPUTED,INS_RTKFIXED,17.58815843605,78.12090881438,529.0131,-76.3000,WGS84,0.7192,0.7520,1.5088,"",0.000,0.000,55,39,39,39,00,06,3d,33*bc8fbffa
#BESTPOSA,FILE,0,30.5,FINESTEERING,2319,305052.400,02000000,cdba,17139;SOL_COMPUTED,INS_RTKFIXED,17.58815976953,78.12090891439,529.0116,-76.3000,WGS84,0.7192,0.7520,1.5088,"",0.000,0.000,55,39,39,39,00,06,3d,33*2e2cb7e5
#BESTPOSA,FILE,0,30.5,FINESTEERING,2319,305052.450,02000000,cdba,17139;SOL_COMPUTED,INS_RTKFIXED,17.58816109877,78.12090901902,529.0100,-76.3000,WGS84,0.7192,0.7520,1.5088,"",0.000,0.000,55,39,39,39,00,06,3d,33*50e58fa7
#BESTPOSA,FILE,0,30.5,FINESTEERING,2319,305052.500,02000000,cdba,17139;SOL_COMPUTED,INS_RTKFIXED,17.58816242668,78.12090911971,529.0089,-76.3000,WGS84,0.7192,0.7520,1.5088,"",0.000,0.000,55,39,39,39,00,06,3d,33*40a6a383
#BESTPOSA,FILE,0,30.5,FINESTEERING,2319,305052.550,02000000,cdba,17139;SOL_COMPUTED,INS_RTKFIXED,17.58816375489,78.12090922477,529.0079,-76.3000,WGS84,0.7192,0.7520,1.5088,"",0.000,0.000,55,39,39,39,00,06,3d,33*4f71ae33
#BESTPOSA,FILE,0,30.5,FINESTEERING,2319,305052.600,02000000,cdba,17139;SOL_COMPUTED,INS_RTKFIXED,17.58816508278,78.12090932809,529.0072,-76.3000,WGS84,0.7192,0.7520,1.5088,"",0.000,0.000,55,39,39,39,00,06,3d,33*7aac24a4
#BESTPOSA,FILE,0,30.5,FINESTEERING,2319,305052.650,02000000,cdba,17139;SOL_COMPUTED,INS_RTKFIXED,17.58816641561,78.12090942938,529.0067,-76.3000,WGS84,0.7192,0.7520,1.5088,"",0.000,0.000,55,39,39,39,00,06,3d,33*23ab8ee6
#BESTPOSA,FILE,0,30.5,FINESTEERING,2319,305052.700,02000000,cdba,17139;SOL_COMPUTED,INS_RTKFIXED,17.58816775006,78.12090952815,529.0064,-76.3000,WGS84,0.7192,0.7520,1.5088,"",0.000,0.000,55,39,39,39,00,06,3d,33*c26fa3cf
#BESTPOSA,FILE,0,30.5,FINESTEERING,2319,305052.750,02000000,cdba,17139;SOL_COMPUTED,INS_RTKFIXED,17.58816909172,78.12090961810,529.0064,-76.3000,WGS84,0.7192,0.7520,1.5088,"",0.000,0.000,55,39,39,39,00,06,3d,33*5972b897
#BESTPOSA,FILE,0,30.5,FINESTEERING,2319,305052.800,02000000,cdba,17139;SOL_COMPUTED,INS_RTKFIXED,17.58817044458,78.12090970960,529.0064,-76.3000,WGS84,0.7192,0.7520,1.5088,"",0.000,0.000,55,39,39,39,00,06,3d,33*f1194604
#BESTPOSA,FILE,0,30.5,FINESTEERING,2319,305052.850,02000000,cdba,17139;SOL_COMPUTED,INS_RTKFIXED,17.58817180595,78.12090981359,529.0055,-76.3000,WGS84,0.7192,0.7520,1.5088,"",0.000,0.000,55,39,39,39,00,06,3d,33*6c3fe29a
#BESTPOSA,FILE,0,30.5,FINESTEERING,2319,305052.900,02000000,cdba,17139;SOL_COMPUTED,INS_RTKFIXED,17.58817316937,78.12090992469,529.0044,-76.3000,WGS84,0.7192,0.7520,1.5088,"",0.000,0.000,55,39,39,39,00,06,3d,33*9d41d983
#BESTPOSA,FILE,0,30.5,FINESTEERING,2319,305052.950,02000000,cdba,17139;SOL_COMPUTED,INS_RTKFIXED,17.58817453167,78.12091003140,529.0038,-76.3000,WGS84,0.7192,0.7520,1.5088,"",0.000,0.000,55,39,39,39,00,06,3d,33*925fd930
#BESTPOSA,FILE,0,30.5,FINESTEERING,2319,305053.000,02000000,cdba,17139;SOL_COMPUTED,INS_RTKFIXED,17.58817588050,78.12091013868,529.0034,-76.3000,WGS84,0.7192,0.7520,1.5088,"",0.000,0.000,55,39,39,39,00,06,3d,33*673ed5e5
#BESTPOSA,FILE,0,30.5,FINESTEERING,2319,305053.050,02000000,cdba,17139;SOL_COMPUTED,INS_RTKFIXED,17.58817721349,78.12091024715,529.0028,-76.3000,WGS84,0.7200,0.7524,1.5080,"",0.000,0.000,55,39,39,39,00,06,3d,33*8071ea20
#BESTPOSA,FILE,0,30.5,FINESTEERING,2319,305053.100,02000000,cdba,17139;SOL_COMPUTED,INS_RTKFIXED,17.58817853050,78.12091034874,529.0025,-76.3000,WGS84,0.7200,0.7524,1.5080,"",0.000,0.000,55,39,39,39,00,06,3d,33*10d2570b
#BESTPOSA,FILE,0,31.0,FINESTEERING,2319,305053.150,02000000,cdba,17139;SOL_COMPUTED,INS_RTKFIXED,17.58817984485,78.12091044191,529.0031,-76.3000,WGS84,0.7200,0.7524,1.5080,"",0.000,0.000,55,39,39,39,00,06,3d,33*fc87fc78
#BESTPOSA,FILE,0,31.0,FINESTEERING,2319,305053.200,02000000,cdba,17139;SOL_COMPUTED,INS_RTKFIXED,17.58818115011,78.12091053444,529.0043,-76.3000,WGS84,0.7200,0.7524,1.5080,"",0.000,0.000,55,39,39,39,00,06,3d,33*fff6d3b0
#BESTPOSA,FILE,0,31.0,FINESTEERING,2319,305053.250,02000000,cdba,17139;SOL_COMPUTED,INS_RTKFIXED,17.58818245353,78.12091062993,529.0057,-76.3000,WGS84,0.7200,0.7524,1.5080,"",0.000,0.000,55,39,39,39,00,06,3d,33*f7b436aa
#BESTPOSA,FILE,0,31.0,FINESTEERING,2319,305053.300,02000000,cdba,17139;SOL_COMPUTED,INS_RTKFIXED,17.58818375352,78.12091072637,529.0072,-76.3000,WGS84,0.7200,0.7524,1.5080,"",0.000,0.000,55,39,39,39,00,06,3d,33*e4375deb
#BESTPOSA,FILE,0,31.0,FINESTEERING,2319,305053.350,02000000,cdba,17139;SOL_COMPUTED,INS_RTKFIXED,17.58818505520,78.12091082385,529.0089,-76.3000,WGS84,0.7200,0.7524,1.5080,"",0.000,0.000,55,39,39,39,00,06,3d,33*6370b9e0
#BESTPOSA,FILE,0,31.0,FINESTEERING,2319,305053.400,02000000,cdba,17139;SOL_COMPUTED,INS_RTKFIXED,17.58818635354,78.12091092168,529.0105,-76.3000,WGS84,0.7200,0.7524,1.5080,"",0.000,0.000,55,39,39,39,00,06,3d,33*79411689
#BESTPOSA,FILE,0,31.0,FINESTEERING,2319,305053.450,02000000,cdba,17139;SOL_COMPUTED,INS_RTKFIXED,17.58818765173,78.12091102118,529.0115,-76.3000,WGS84,0.7200,0.7524,1.5080,"",0.000,0.000,55,39,39,39,00,06,3d,33*3c216b76
#BESTPOSA,FILE,0,31.0,FINESTEERING,2319,305053.500,02000000,cdba,17139;SOL_COMPUTED,INS_RTKFIXED,17.58818894151,78.12091112617,529.0113,-76.3000,WGS84,0.7200,0.7524,1.5080,"",0.000,0.000,55,39,39,39,00,06,3d,33*1fab51d1
#BESTPOSA,FILE,0,31.0,FINESTEERING,2319,305053.550,02000000,cdba,17139;SOL_COMPUTED,INS_RTKFIXED,17.58819022520,78.12091121665,529.0110,-76.3000,WGS84,0.7200,0.7524,1.5080,"",0.000,0.000,55,39,39,39,00,06,3d,33*2ed33ceb
#BESTPOSA,FILE,0,31.0,FINESTEERING,2319,305053.600,02000000,cdba,17139;SOL_COMPUTED,INS_RTKFIXED,17.58819149748,78.12091129577,529.0091,-76.3000,WGS84,0.7200,0.7524,1.5080,"",0.000,0.000,55,39,39,39,00,06,3d,33*3529b991
#BESTPOSA,FILE,0,31.0,FINESTEERING,2319,305053.650,02000000,cdba,17139;SOL_COMPUTED,INS_RTKFIXED,17.58819276384,78.12091137988,529.0048,-76.3000,WGS84,0.7200,0.7524,1.5080,"",0.000,0.000,55,39,39,39,00,06,3d,33*8e607a46
#BESTPOSA,FILE,0,31.0,FINESTEERING,2319,305053.700,02000000,cdba,17139;SOL_COMPUTED,INS_RTKFIXED,17.58819402014,78.12091146684,528.9984,-76.3000,WGS84,0.7200,0.7524,1.5080,"",0.000,0.000,55,39,39,39,00,06,3d,33*d87c3a0c
#BESTPOSA,FILE,0,31.0,FINESTEERING,2319,305053.750,02000000,cdba,17139;SOL_COMPUTED,INS_RTKFIXED,17.58819527206,78.12091155868,528.9908,-76.3000,WGS84,0.7200,0.7524,1.5080,"",0.000,0.000,55,39,39,39,00,06,3d,33*7b86f906
#BESTPOSA,FILE,0,31.0,FINESTEERING,2319,305053.800,02000000,cdba,17139;SOL_COMPUTED,INS_RTKFIXED,17.58819652414,78.12091164828,528.9835,-76.3000,WGS84,0.7200,0.7524,1.5080,"",0.000,0.000,55,39,39,39,00,06,3d,33*810cd52d
#BESTPOSA,FILE,0,31.0,FINESTEERING,2319,305053.850,02000000,cdba,17139;SOL_COMPUTED,INS_RTKFIXED,17.58819777616,78.12091174453,528.9777,-76.3000,WGS84,0.7200,0.7524,1.5080,"",0.000,0.000,55,39,39,39,00,06,3d,33*5da702ba
#BESTPOSA,FILE,0,31.0,FINESTEERING,2319,305053.900,02000000,cdba,17139;SOL_COMPUTED,INS_RTKFIXED,17.58819904013,78.12091183702,528.9751,-76.3000,WGS84,0.7200,0.7524,1.5080,"",0.000,0.000,55,39,39,39,00,06,3d,33*93e534b3
#BESTPOSA,FILE,0,31.0,FINESTEERING,2319,305053.950,02000000,cdba,17139;SOL_COMPUTED,INS_RTKFIXED,17.58820031610,78.12091191944,528.9764,-76.3000,WGS84,0.7200,0.7524,1.5080,"",0.000,0.000,55,39,39,39,00,06,3d,33*40be9d95
#BESTPOSA,FILE,0,31.0,FINESTEERING,2319,305054.000,02000000,cdba,17139;SOL_COMPUTED,INS_RTKFIXED,17.58820160277,78.12091199683,528.9800,-76.3000,WGS84,0.7200,0.7524,1.5080,"",0.000,0.000,55,39,39,39,00,06,3d,33*0064fab7
#BESTPOSA,FILE,0,31.0,FINESTEERING,2319,305054.050,02000000,cdba,17139;SOL_COMPUTED,INS_RTKFIXED,17.58820288914,78.12091207585,528.9847,-76.3000,WGS84,0.7213,0.7535,1.5065,"",0.000,0.000,55,39,39,39,00,06,3d,33*9be9082a
#BESTPOSA,FILE,0,31.0,FINESTEERING,2319,305054.100,02000000,cdba,17139;SOL_COMPUTED,INS_RTKFIXED,17.58820417133,78.12091216460,528.9885,-76.3000,WGS84,0.7213,0.7535,1.5065,"",0.000,0.000,55,39,39,39,00,06,3d,33*4829c8ab
#BESTPOSA,FILE,0,31.0,FINESTEERING,2319,305054.150,02000000,cdba,17139;SOL_COMPUTED,INS_RTKFIXED,17.58820544552,78.12091225927,528.9907,-76.3000,WGS84,0.7213,0.7535,1.5065,"",0.000,0.000,55,39,39,39,00,06,3d,33*fc70277c
#BESTPOSA,FILE,0,31.0,FINESTEERING,2319,305054.200,02000000,cdba,17139;SOL_COMPUTED,INS_RTKFIXED,17.58820671184,78.12091234908,528.9913,-76.3000,WGS84,0.7213,0.7535,1.5065,"",0.000,0.000,55,39,39,39,00,06,3d,33*4d71615b
#BESTPOSA,FILE,0,31.0,FINESTEERING,2319,305054.250,02000000,cdba,17139;SOL_COMPUTED,INS_RTKFIXED,17.58820797024,78.12091243606,528.9899,-76.3000,WGS84,0.7213,0.7535,1.5065,"",0.000,0.000,55,39,39,39,00,06,3d,33*9abd282b
#BESTPOSA,FILE,0,31.0,FINESTEERING,2319,305054.300,02000000,cdba,17139;SOL_COMPUTED,INS_RTKFIXED,17.58820921959,78.12091252335,528.9871,-76.3000,WGS84,0.7213,0.7535,1.5065,"",0.000,0.000,55,39,39,39,00,06,3d,33*84cce36f
#BESTPOSA,FILE,0,31.0,FINESTEERING,2319,305054.350,02000000,cdba,17139;SOL_COMPUTED,INS_RTKFIXED,17.58821046679,78.12091261090,528.9837,-76.3000,WGS84,0.7213,0.7535,1.5065,"",0.000,0.000,55,39,39,39,00,06,3d,33*c5dee36c
#BESTPOSA,FILE,0,31.0,FINESTEERING,2319,305054.400,02000000,cdba,17139;SOL_COMPUTED,INS_RTKFIXED,17.58821171297,78.12091269352,528.9808,-76.3000,WGS84,0.7213,0.7535,1.5065,"",0.000,0.000,55,39,39,39,00,06,3d,33*e9b6f1c4
#BESTPOSA,FILE,0,31.0,FINESTEERING,2319,305054.450,02000000,cdba,17139;SOL_COMPUTED,INS_RTKFIXED,17.58821296496,78.12091277275,528.9788,-76.3000,WGS84,0.7213,0.7535,1.5065,"",0.000,0.000,55,39,39,39,00,06,3d,33*fdc14851
#BESTPOSA,FILE,0,31.0,FINESTEERING,2319,305054.500,02000000,cdba,17139;SOL_COMPUTED,INS_RTKFIXED,17.58821422197,78.12091285100,528.9781,-76.3000,WGS84,0.7213,0.7535,1.5065,"",0.000,0.000,55,39,39,39,00,06,3d,33*efcb3dad
#BESTPOSA,FILE,0,31.0,FINESTEERING,2319,305054.550,02000000,cdba,17139;SOL_COMPUTED,INS_RTKFIXED,17.58821548449,78.12091293036,528.9784,-76.3000,WGS84,0.7213,0.7535,1.5065,"",0.000,0.000,55,39,39,39,00,06,3d,33*557378d0
#BESTPOSA,FILE,0,31.0,FINESTEERING,2319,305054.600,02000000,cdba,17139;SOL_COMPUTED,INS_RTKFIXED,17.58821675515,78.12091300973,528.9794,-76.3000,WGS84,0.7213,0.7535,1.5065,"",0.000,0.000,55,39,39,39,00,06,3d,33*112bfd68
#BESTPOSA,FILE,0,31.0,FINESTEERING,2319,305054.650,02000000,cdba,17139;SOL_COMPUTED,INS_RTKFIXED,17.58821802867,78.12091308289,528.9807,-76.3000,WGS84,0.7213,0.7535,1.5065,"",0.000,0.000,55,39,39,39,00,06,3d,33*c8bdc835
#BESTPOSA,FILE,0,31.0,FINESTEERING,2319,305054.700,02000000,cdba,17139;SOL_COMPUTED,INS_RTKFIXED,17.58821930489,78.12091315977,528.9818,-76.3000,WGS84,0.7213,0.7535,1.5065,"",0.000,0.000,55,39,39,39,00,06,3d,33*843d0137
#BESTPOSA,FILE,0,31.0,FINESTEERING,2319,305054.750,02000000,cdba,17139;SOL_COMPUTED,INS_RTKFIXED,17.58822058332,78.12091323548,528.9827,-76.3000,WGS84,0.7213,0.7535,1.5065,"",0.000,0.000,55,39,39,39,00,06,3d,33*d3dec38e
#BESTPOSA,FILE,0,31.0,FINESTEERING,2319,305054.800,02000000,cdba,17139;SOL_COMPUTED,INS_RTKFIXED,17.58822186435,78.12091331361,528.9828,-76.3000,WGS84,0.7213,0.7535,1.5065,"",0.000,0.000,55,39,39,39,00,06,3d,33*5bd93902
#BESTPOSA,FILE,0,31.0,FINESTEERING,2319,305054.850,02000000,cdba,17139;SOL_COMPUTED,INS_RTKFIXED,17.58822314479,78.12091338961,528.9822,-76.3000,WGS84,0.7213,0.7535,1.5065,"",0.000,0.000,55,39,39,39,00,06,3d,33*e55b9ac3
#BESTPOSA,FILE,0,31.0,FINESTEERING,2319,305054.900,02000000,cdba,17139;SOL_COMPUTED,INS_RTKFIXED,17.58822442723,78.12091346540,528.9812,-76.3000,WGS84,0.7213,0.7535,1.5065,"",0.000,0.000,55,39,39,39,00,06,3d,33*7fca7d2c
#BESTPOSA,FILE,0,31.0,FINESTEERING,2319,305054.950,02000000,cdba,17139;SOL_COMPUTED,INS_RTKFIXED,17.58822571483,78.12091354096,528.9800,-76.3000,WGS84,0.7213,0.7535,1.5065,"",0.000,0.000,55,39,39,39,00,06,3d,33*320392d1
#BESTPOSA,FILE,0,31.0,FINESTEERING,2319,305055.000,02000000,cdba,17139;SOL_COMPUTED,INS_RTKFIXED,17.58822700686,78.12091361465,528.9790,-76.3000,WGS84,0.7213,0.7535,1.5065,"",0.000,0.000,55,39,39,39,00,06,3d,33*bfde123c
#BESTPOSA,FILE,0,31.0,FINESTEERING,2319,305055.050,02000000,cdba,17139;SOL_COMPUTED,INS_RTKFIXED,17.58822830430,78.12091369143,528.9780,-76.3000,WGS84,0.7221,0.7539,1.5033,"",0.000,0.000,55,39,39,39,00,06,3d,33*33f4d20b
#BESTPOSA,FILE,0,30.5,FINESTEERING,2319,305055.100,02000000,cdba,17139;SOL_COMPUTED,INS_RTKFIXED,17.58822960418,78.12091376616,528.9771,-76.3000,WGS84,0.7221,0.7539,1.5033,"",0.000,0.000,55,39,39,39,00,06,3d,33*f7a6680c
#BESTPOSA,FILE,0,30.5,FINESTEERING,2319,305055.150,02000000,cdba,17139;SOL_COMPUTED,INS_RTKFIXED,17.58823091017,78.12091383607,528.9769,-76.3000,WGS84,0.7221,0.7539,1.5033,"",0.000,0.000,55,39,39,39,00,06,3d,33*d1f34e0a
#BESTPOSA,FILE,0,30.5,FINESTEERING,2319,305055.200,02000000,cdba,17139;SOL_COMPUTED,INS_RTKFIXED,17.58823222373,78.12091390157,528.9770,-76.3000,WGS84,0.7221,0.7539,1.5033,"",0.000,0.000,55,39,39,39,00,06,3d,33*676b494b
#BESTPOSA,FILE,0,30.5,FINESTEERING,2319,305055.250,02000000,cdba,17139;SOL_COMPUTED,INS_RTKFIXED,17.58823354413,78.12091397100,528.9771,-76.3000,WGS84,0.7221,0.7539,1.5033,"",0.000,0.000,55,39,39,39,00,06,3d,33*3346fece
#BESTPOSA,FILE,0,30.5,FINESTEERING,2319,305055.300,02000000,cdba,17139;SOL_COMPUTED,INS_RTKFIXED,17.58823487111,78.12091404695,528.9768,-76.3000,WGS84,0.7221,0.7539,1.5033,"",0.000,0.000,55,39,39,39,00,06,3d,33*9c306578
#BESTPOSA,FILE,0,30.5,FINESTEERING,2319,305055.350,02000000,cdba,17139;SOL_COMPUTED,INS_RTKFIXED,17.58823620138,78.12091412170,528.9766,-76.3000,WGS84,0.7221,0.7539,1.5033,"",0.000,0.000,55,39,39,39,00,06,3d,33*b1455ada
#BESTPOSA,FILE,0,30.5,FINESTEERING,2319,305055.400,02000000,cdba,17139;SOL_COMPUTED,INS_RTKFIXED,17.58823754276,78.12091419929,528.9759,-76.3000,WGS84,0.7221,0.7539,1.5033,"",0.000,0.000,55,39,39,39,00,06,3d,33*0560a71d
#BESTPOSA,FILE,0,30.5,FINESTEERING,2319,305055.450,02000000,cdba,17139;SOL_COMPUTED,INS_RTKFIXED,17.58823888675,78.12091427036,528.9752,-76.3000,WGS84,0.7221,0.7539,1.5033,"",0.000,0.000,55,39,39,39,00,06,3d,33*42c2aad4
#BESTPOSA,FILE,0,30.5,FINESTEERING,2319,305055.500,02000000,cdba,17139;SOL_COMPUTED,INS_RTKFIXED,17.58824023819,78.12091433918,528.9741,-76.3000,WGS84,0.7221,0.7539,1.5033,"",0.000,0.000,55,39,39,39,00,06,3d,33*a607a61a
#BESTPOSA,FILE,0,30.5,FINESTEERING,2319,305055.550,02000000,cdba,17139;SOL_COMPUTED,INS_RTKFIXED,17.58824159985,78.12091440433,528.9729,-76.3000,WGS84,0.7221,0.7539,1.5033,"",0.000,0.000,55,39,39,39,00,06,3d,33*8714aa4a
#BESTPOSA,FILE,0,30.5,FINESTEERING,2319,305055.600,02000000,cdba,17139;SOL_COMPUTED,INS_RTKFIXED,17.58824296997,78.12091446278,528.9719,-76.3000,WGS84,0.7221,0.7539,1.5033,"",0.000,0.000,55,39,39,39,00,06,3d,33*eadfce43
#BESTPOSA,FILE,0,30.5,FINESTEERING,2319,305055.650,02000000,cdba,17139;SOL_COMPUTED,INS_RTKFIXED,17.58824434641,78.12091451478,528.9713,-76.3000,WGS84,0.7221,0.7539,1.5033,"",0.000,0.000,55,39,39,39,00,06,3d,33*77eff51c
#BESTPOSA,FILE,0,30.5,FINESTEERING,2319,305055.700,02000000,cdba,17139;SOL_COMPUTED,INS_RTKFIXED,17.58824573323,78.12091456208,528.9712,-76.3000,WGS84,0.7221,0.7539,1.5033,"",0.000,0.000,55,39,39,39,00,06,3d,33*1c63cbba
#BESTPOSA,FILE,0,30.5,FINESTEERING,2319,305055.750,02000000,cdba,17139;SOL_COMPUTED,INS_RTKFIXED,17.58824712113,78.12091460585,528.9712,-76.3000,WGS84,0.7221,0.7539,1.5033,"",0.000,0.000,55,39,39,39,00,06,3d,33*4459e0fb
#BESTPOSA,FILE,0,30.5,FINESTEERING,2319,305055.800,02000000,cdba,17139;SOL_COMPUTED,INS_RTKFIXED,17.58824851196,78.12091464278,528.9717,-76.3000,WGS84,0.7221,0.7539,1.5033,"",0.000,0.000,55,39,39,39,00,06,3d,33*e0f498ab
#BESTPOSA,FILE,0,30.5,FINESTEERING,2319,305055.850,02000000,cdba,17139;SOL_COMPUTED,INS_RTKFIXED,17.58824990412,78.12091467572,528.9722,-76.3000,WGS84,0.7221,0.7539,1.5033,"",0.000,0.000,55,39,39,39,00,06,3d,33*22b623a3
#BESTPOSA,FILE,0,30.5,FINESTEERING,2319,305055.900,02000000,cdba,17139;SOL_COMPUTED,INS_RTKFIXED,17.58825129742,78.12091470327,528.9725,-76.3000,WGS84,0.7221,0.7539,1.5033,"",0.000,0.000,55,39,39,39,00,06,3d,33*0db03f43
#BESTPOSA,FILE,0,30.5,FINESTEERING,2319,305055.950,02000000,cdba,17139;SOL_COMPUTED,INS_RTKFIXED,17.58825268964,78.12091472666,528.9727,-76.3000,WGS84,0.7221,0.7539,1.5033,"",0.000,0.000,55,39,39,39,00,06,3d,33*ef08bf2d
#BESTPOSA,FILE,0,30.5,FINESTEERING,2319,305056.000,02000000,cdba,17139;SOL_COMPUTED,INS_RTKFIXED,17.58825408473,78.12091474420,528.9726,-76.3000,WGS84,0.7221,0.7539,1.5033,"",0.000,0.000,55,39,39,39,00,06,3d,33*562ca3c3
#BESTPOSA,FILE,0,30.5,FINESTEERING,2319,305056.050,02000000,cdba,17139;SOL_COMPUTED,INS_RTKFIXED,17.58825547375,78.12091474656,528.9724,-76.3000,WGS84,0.7231,0.7546,1.5019,"",0.000,0.000,55,39,39,39,00,06,39,33*18b17fc5
#BESTPOSA,FILE,0,29.5,FINESTEERING,2319,305056.100,02000000,cdba,17139;SOL_COMPUTED,INS_RTKFIXED,17.58825685250,78.12091473711,528.9717,-76.3000,WGS84,0.7231,0.7546,1.5019,"",0.000,0.000,55,39,39,39,00,06,39,33*a2b0c568
#BESTPOSA,FILE,0,29.5,FINESTEERING,2319,305056.150,02000000,cdba,17139;SOL_COMPUTED,INS_RTKFIXED,17.58825822585,78.12091471910,528.9710,-76.3000,WGS84,0.7231,0.7546,1.5019,"",0.000,0.000,55,39,39,39,00,06,39,33*dec2c594
#BESTPOSA,FILE,0,29.5,FINESTEERING,2319,305056.200,02000000,cdba,17139;SOL_COMPUTED,INS_RTKFIXED,17.58825959824,78.12091468558,528.9709,-76.3000,WGS84,0.7231,0.7546,1.5019,"",0.000,0.000,55,39,39,39,00,06,39,33*0db24c94
#BESTPOSA,FILE,0,29.5,FINESTEERING,2319,305056.250,02000000,cdba,17139;SOL_COMPUTED,INS_RTKFIXED,17.58826096630,78.12091464021,528.9708,-76.3000,WGS84,0.7231,0.7546,1.5019,"",0.000,0.000,55,39,39,39,00,06,39,33*70648275
#BESTPOSA,FILE,0,29.5,FINESTEERING,2319,305056.300,02000000,cdba,17139;SOL_COMPUTED,INS_RTKFIXED,17.58826233051,78.12091458178,528.9711,-76.3000,WGS84,0.7231,0.7546,1.5019,"",0.000,0.000,55,39,39,39,00,06,39,33*c386973a
#BESTPOSA,FILE,0,29.5,FINESTEERING,2319,305056.350,02000000,cdba,17139;SOL_COMPUTED,INS_RTKFIXED,17.58826368445,78.12091452085,528.9711,-76.3000,WGS84,0.7231,0.7546,1.5019,"",0.000,0.000,55,39,39,39,00,06,39,33*785cf172
#BESTPOSA,FILE,0,29.5,FINESTEERING,2319,305056.400,02000000,cdba,17139;SOL_COMPUTED,INS_RTKFIXED,17.58826503506,78.12091445503,528.9707,-76.3000,WGS84,0.7231,0.7546,1.5019,"",0.000,0.000,55,39,39,39,00,06,39,33*b541ae73
#BESTPOSA,FILE,0,29.5,FINESTEERING,2319,305056.450,02000000,cdba,17139;SOL_COMPUTED,INS_RTKFIXED,17.58826638229,78.12091437938,528.9703,-76.3000,WGS84,0.7231,0.7546,1.5019,"",0.000,0.000,55,39,39,39,00,06,39,33*c7dafe37
#BESTPOSA,FILE,0,29.5,FINESTEERING,2319,305056.500,02000000,cdba,17139;SOL_COMPUTED,INS_RTKFIXED,17.58826772989,78.12091429934,528.9697,-76.3000,WGS84,0.7231,0.7546,1.5019,"",0.000,0.000,55,39,39,39,00,06,39,33*825379c1
#BESTPOSA,FILE,0,29.5,FINESTEERING,2319,305056.550,02000000,cdba,17139;SOL_COMPUTED,INS_RTKFIXED,17.58826907052,78.12091421504,528.9690,-76.3000,WGS84,0.7231,0.7546,1.5019,"",0.000,0.000,55,39,39,39,00,06,39,33*7c1cef92
#BESTPOSA,FILE,0,29.5,FINESTEERING,2319,305056.600,02000000,cdba,17139;SOL_COMPUTED,INS_RTKFIXED,17.58827040833,78.12091412415,528.9681,-76.3000,WGS84,0.7231,0.7546,1.5019,"",0.000,0.000,55,39,39,39,00,06,39,33*d899ca3f
#BESTPOSA,FILE,0,29.5,FINESTEERING,2319,305056.650,02000000,cdba,17139;SOL_COMPUTED,INS_RTKFIXED,17.58827173989,78.12091402561,528.9672,-76.3000,WGS84,0.7231,0.7546,1.5019,"",0.000,0.000,55,39,39,39,00,06,39,33*00158222
#BESTPOSA,FILE,0,29.5,FINESTEERING,2319,305056.700,02000000,cdba,17139;SOL_COMPUTED,INS_RTKFIXED,17.58827306591,78.12091391063,528.9668,-76.3000,WGS84,0.7231,0.7546,1.5019,"",0.000,0.000,55,39,39,39,00,06,39,33*e222c513
#BESTPOSA,FILE,0,29.5,FINESTEERING,2319,305056.750,02000000,cdba,17139;SOL_COMPUTED,INS_RTKFIXED,17.58827438825,78.12091378607,528.9662,-76.3000,WGS84,0.7231,0.7546,1.5019,"",0.000,0.000,55,39,39,39,00,06,39,33*2f55c284
#BESTPOSA,FILE,0,29.5,FINESTEERING,2319,305056.800,02000000,cdba,17139;SOL_COMPUTED,INS_RTKFIXED,17.58827570246,78.12091364894,528.9653,-76.3000,WGS84,0.7231,0.7546,1.5019,"",0.000,0.000,55,39,39,39,00,06,39,33*d38d3150
#BESTPOSA,FILE,0,29.5,FINESTEERING,2319,305056.850,02000000,cdba,17139;SOL_COMPUTED,INS_RTKFIXED,17.58827701120,78.12091349654,528.9643,-76.3000,WGS84,0.7231,0.7546,1.5019,"",0.000,0.000,55,39,39,39,00,06,39,33*3d08f2f9
#BESTPOSA,FILE,0,29.5,FINESTEERING,2319,305056.900,02000000,cdba,17139;SOL_COMPUTED,INS_RTKFIXED,17.58827831601,78.12091333654,528.9633,-76.3000,WGS84,0.7231,0.7546,1.5019,"",0.000,0.000,55,39,39,39,00,06,39,33*b4af2b05
#BESTPOSA,FILE,0,29.5,FINESTEERING,2319,305056.950,02000000,cdba,17139;SOL_COMPUTED,INS_RTKFIXED,17.58827961248,78.12091317061,528.9627,-76.3000,WGS84,0.7231,0.7546,1.5019,"",0.000,0.000,55,39,39,39,00,06,39,33*edbd6bdc
#BESTPOSA,FILE,0,29.5,FINESTEERING,2319,305057.000,02000000,cdba,17139;SOL_COMPUTED,INS_RTKFIXED,17.58828090729,78.12091299505,528.9629,-76.3000,WGS84,0.7231,0.7546,1.5019,"",0.000,0.000,55,39,39,39,00,06,39,33*c9866579
#BESTPOSA,FILE,0,29.5,FINESTEERING,2319,305057.050,02000000,cdba,17139;SOL_COMPUTED,INS_RTKFIXED,17.58828219308,78.12091280280,528.9634,-76.3000,WGS84,0.7237,0.7549,1.5000,"",0.000,0.000,55,39,39,39,00,06,39,33*ebfcaae1
#BESTPOSA,FILE,0,29.5,FINESTEERING,2319,305057.100,02000000,cdba,17139;SOL_COMPUTED,INS_RTKFIXED,17.58828346131,78.12091259558,528.9640,-76.3000,WGS84,0.7237,0.7549,1.5000,"",0.000,0.000,55,39,39,39,00,06,39,33*83e219d6
#BESTPOSA,FILE,0,32.0,FINESTEERING,2319,305057.150,02000000,cdba,17139;SOL_COMPUTED,INS_RTKFIXED,17.58828472507,78.12091238175,528.9647,-76.3000,WGS84,0.7237,0.7549,1.5000,"",0.000,0.000,55,39,39,39,00,06,39,33*4988eb35
#BESTPOSA,FILE,0,32.0,FINESTEERING,2319,305057.200,02000000,cdba,17139;SOL_COMPUTED,INS_RTKFIXED,17.58828598430,78.12091216170,528.9654,-76.3000,WGS84,0.7237,0.7549,1.5000,"",0.000,0.000,55,39,39,39,00,06,39,33*4a768522
#BESTPOSA,FILE,0,32.0,FINESTEERING,2319,305057.250,02000000,cdba,17139;SOL_COMPUTED,INS_RTKFIXED,17.58828723721,78.12091194181,528.9654,-76.3000,WGS84,0.7237,0.7549,1.5000,"",0.000,0.000,55,39,39,39,00,06,39,33*aca9ba9a
#BESTPOSA,FILE,0,32.0,FINESTEERING,2319,305057.300,02000000,cdba,17139;SOL_COMPUTED,INS_RTKFIXED,17.58828848107,78.12091171548,528.9651,-76.3000,WGS84,0.7237,0.7549,1.5000,"",0.000,0.000,55,39,39,39,00,06,39,33*4bf8160d
#BESTPOSA,FILE,0,32.0,FINESTEERING,2319,305057.350,02000000,cdba,17139;SOL_COMPUTED,INS_RTKFIXED,17.58828971672,78.12091148327,528.9642,-76.3000,WGS84,0.7237,0.7549,1.5000,"",0.000,0.000,55,39,39,39,00,06,39,33*87eecf6c
#BESTPOSA,FILE,0,32.0,FINESTEERING,2319,305057.400,02000000,cdba,17139;SOL_COMPUTED,INS_RTKFIXED,17.58829094569,78.12091123995,528.9631,-76.3000,WGS84,0.7237,0.7549,1.5000,"",0.000,0.000,55,39,39,39,00,06,39,33*29d38d53
#BESTPOSA,FILE,0,32.0,FINESTEERING,2319,305057.450,02000000,cdba,17139;SOL_COMPUTED,INS_RTKFIXED,17.58829216900,78.12091098193,528.9624,-76.3000,WGS84,0.7237,0.7549,1.5000,"",0.000,0.000,55,39,39,39,00,06,39,33*9f0d7c5c
#BESTPOSA,FILE,0,32.0,FINESTEERING,2319,305057.500,02000000,cdba,17139;SOL_COMPUTED,INS_RTKFIXED,17.58829338480,78.12091070912,528.9620,-76.3000,WGS84,0.7237,0.7549,1.5000,"",0.000,0.000,55,39,39,39,00,06,39,33*d203d341
#BESTPOSA,FILE,0,32.0,FINESTEERING,2319,305057.550,02000000,cdba,17139;SOL_COMPUTED,INS_RTKFIXED,17.58829459376,78.12091042055,528.9618,-76.3000,WGS84,0.7237,0.7549,1.5000,"",0.000,0.000,55,39,39,39,00,06,39,33*4616de31
#BESTPOSA,FILE,0,32.0,FINESTEERING,2319,305057.600,02000000,cdba,17139;SOL_COMPUTED,INS_RTKFIXED,17.58829578928,78.12091011491,528.9620,-76.3000,WGS84,0.7237,0.7549,1.5000,"",0.000,0.000,55,39,39,39,00,06,39,33*82010ad0
#BESTPOSA,FILE,0,32.0,FINESTEERING,2319,305057.650,02000000,cdba,17139;SOL_COMPUTED,INS_RTKFIXED,17.58829697733,78.12090979500,528.9620,-76.3000,WGS84,0.7237,0.7549,1.5000,"",0.000,0.000,55,39,39,39,00,06,39,33*651e8d84
#BESTPOSA,FILE,0,32.0,FINESTEERING,2319,305057.700,02000000,cdba,17139;SOL_COMPUTED,INS_RTKFIXED,17.58829815627,78.12090946008,528.9621,-76.3000,WGS84,0.7237,0.7549,1.5000,"",0.000,0.000,55,39,39,39,00,06,39,33*764957b9
#BESTPOSA,FILE,0,32.0,FINESTEERING,2319,305057.750,02000000,cdba,17139;SOL_COMPUTED,INS_RTKFIXED,17.58829933014,78.12090911582,528.9617,-76.3000,WGS84,0.7237,0.7549,1.5000,"",0.000,0.000,55,39,39,39,00,06,39,33*daadef0c
#BESTPOSA,FILE,0,32.0,FINESTEERING,2319,305057.800,02000000,cdba,17139;SOL_COMPUTED,INS_RTKFIXED,17.58830049628,78.12090876276,528.9612,-76.3000,WGS84,0.7237,0.7549,1.5000,"",0.000,0.000,55,39,39,39,00,06,39,33*cf772643
#BESTPOSA,FILE,0,32.0,FINESTEERING,2319,305057.850,02000000,cdba,17139;SOL_COMPUTED,INS_RTKFIXED,17.58830165949,78.12090839821,528.9605,-76.3000,WGS84,0.7237,0.7549,1.5000,"",0.000,0.000,55,39,39,39,00,06,39,33*157731db
#BESTPOSA,FILE,0,32.0,FINESTEERING,2319,305057.900,02000000,cdba,17139;SOL_COMPUTED,INS_RTKFIXED,17.58830281388,78.12090802351,528.9598,-76.3000,WGS84,0.7237,0.7549,1.5000,"",0.000,0.000,55,39,39,39,00,06,39,33*32f22dab
#BESTPOSA,FILE,0,32.0,FINESTEERING,2319,305057.950,02000000,cdba,17139;SOL_COMPUTED,INS_RTKFIXED,17.58830396199,78.12090763528,528.9592,-76.3000,WGS84,0.7237,0.7549,1.5000,"",0.000,0.000,55,39,39,39,00,06,39,33*064052e3
#BESTPOSA,FILE,0,32.0,FINESTEERING,2319,305058.000,02000000,cdba,17139;SOL_COMPUTED,INS_RTKFIXED,17.58830509814,78.12090722610,528.9587,-76.3000,WGS84,0.7237,0.7549,1.5000,"",0.000,0.000,55,39,39,39,00,06,39,33*30b09899
#BESTPOSA,FILE,0,32.0,FINESTEERING,2319,305058.050,02000000,cdba,17139;SOL_COMPUTED,INS_RTKFIXED,17.58830620931,78.12090680071,528.9579,-76.3000,WGS84,0.7239,0.7545,1.4967,"",0.000,0.000,55,39,39,39,00,06,39,33*b0d2779b
#BESTPOSA,FILE,0,32.0,FINESTEERING,2319,305058.100,02000000,cdba,17139;SOL_COMPUTED,INS_RTKFIXED,17.58830728037,78.12090635788,528.9565,-76.3000,WGS84,0.7239,0.7545,1.4967,"",0.000,0.000,55,39,39,39,00,06,39,33*db3237e7
#BESTPOSA,FILE,0,32.5,FINESTEERING,2319,305058.150,02000000,cdba,17139;SOL_COMPUTED,INS_RTKFIXED,17.58830833855,78.12090589344,528.9557,-76.3000,WGS84,0.7239,0.7545,1.4967,"",0.000,0.000,55,39,39,39,00,06,39,33*dd11429b
#BESTPOSA,FILE,0,32.5,FINESTEERING,2319,305058.200,02000000,cdba,17139;SOL_COMPUTED,INS_RTKFIXED,17.58830938624,78.12090541253,528.9554,-76.3000,WGS84,0.7239,0.7545,1.4967,"",0.000,0.000,55,39,39,39,00,06,39,33*f711ec1d
#BESTPOSA,FILE,0,32.5,FINESTEERING,2319,305058.250,02000000,cdba,17139;SOL_COMPUTED,INS_RTKFIXED,17.58831042834,78.12090491328,528.9556,-76.3000,WGS84,0.7239,0.7545,1.4967,"",0.000,0.000,55,39,39,39,00,06,39,33*b5950c47
#BESTPOSA,FILE,0,32.5,FINESTEERING,2319,305058.300,02000000,cdba,17139;SOL_COMPUTED,INS_RTKFIXED,17.58831145744,78.12090439543,528.9565,-76.3000,WGS84,0.7239,0.7545,1.4967,"",0.000,0.000,55,39,39,39,00,06,39,33*fcc11840
#BESTPOSA,FILE,0,32.5,FINESTEERING,2319,305058.350,02000000,cdba,17139;SOL_COMPUTED,INS_RTKFIXED,17.58831247918,78.12090385674,528.9575,-76.3000,WGS84,0.7239,0.7545,1.4967,"",0.000,0.000,55,39,39,39,00,06,39,33*cbd64e5f
#BESTPOSA,FILE,0,32.5,FINESTEERING,2319,305058.400,02000000,cdba,17139;SOL_COMPUTED,INS_RTKFIXED,17.58831348195,78.12090329367,528.9587,-76.3000,WGS84,0.7239,0.7545,1.4967,"",0.000,0.000,55,39,39,39,00,06,39,33*d902a170
#BESTPOSA,FILE,0,32.5,FINESTEERING,2319,305058.450,02000000,cdba,17139;SOL_COMPUTED,INS_RTKFIXED,17.58831447036,78.12090270638,528.9599,-76.3000,WGS84,0.7239,0.7545,1.4967,"",0.000,0.000,55,39,39,39,00,06,39,33*414b4443
#BESTPOSA,FILE,0,32.5,FINESTEERING,2319,305058.500,02000000,cdba,17139;SOL_COMPUTED,INS_RTKFIXED,17.58831543927,78.12090210234,528.9605,-76.3000,WGS84,0.7239,0.7545,1.4967,"",0.000,0.000,55,39,39,39,00,06,39,33*28a12b50
#BESTPOSA,FILE,0,32.5,FINESTEERING,2319,305058.550,02000000,cdba,17139;SOL_COMPUTED,INS_RTKFIXED,17.58831639422,78.12090148753,528.9607,-76.3000,WGS84,0.7239,0.7545,1.4967,"",0.000,0.000,55,39,39,39,00,06,39,33*a28d4a81
#BESTPOSA,FILE,0,32.5,FINESTEERING,2319,305058.600,02000000,cdba,17139;SOL_COMPUTED,INS_RTKFIXED,17.58831733280,78.12090086839,528.9604,-76.3000,WGS84,0.7239,0.7545,1.4967,"",0.000,0.000,55,39,39,39,00,06,39,33*2b335816
#BESTPOSA,FILE,0,32.5,FINESTEERING,2319,305058.650,02000000,cdba,17139;SOL_COMPUTED,INS_RTKFIXED,17.58831826124,78.12090024082,528.9600,-76.3000,WGS84,0.7239,0.7545,1.4967,"",0.000,0.000,55,39,39,39,00,06,39,33*484dfc3b
#BESTPOSA,FILE,0,32.5,FINESTEERING,2319,305058.700,02000000,cdba,17139;SOL_COMPUTED,INS_RTKFIXED,17.58831917964,78.12089960044,528.9597,-76.3000,WGS84,0.7239,0.7545,1.4967,"",0.000,0.000,55,39,39,39,00,06,39,33*c2220371
#BESTPOSA,FILE,0,32.5,FINESTEERING,2319,305058.750,02000000,cdba,17139;SOL_COMPUTED,INS_RTKFIXED,17.58832008889,78.12089894400,528.9595,-76.3000,WGS84,0.7239,0.7545,1.4967,"",0.000,0.000,55,39,39,39,00,06,39,33*90564993
#BESTPOSA,FILE,0,32.5,FINESTEERING,2319,305058.800,02000000,cdba,17139;SOL_COMPUTED,INS_RTKFIXED,17.58832097910,78.12089827525,528.9596,-76.3000,WGS84,0.7239,0.7545,1.4967,"",0.000,0.000,55,39,39,39,00,06,39,33*53c3df29
#BESTPOSA,FILE,0,32.5,FINESTEERING,2319,305058.850,02000000,cdba,17139;SOL_COMPUTED,INS_RTKFIXED,17.58832185786,78.12089759453,528.9601,-76.3000,WGS84,0.7239,0.7545,1.4967,"",0.000,0.000,55,39,39,39,00,06,39,33*f75ea72c
#BESTPOSA,FILE,0,32.5,FINESTEERING,2319,305058.900,02000000,cdba,17139;SOL_COMPUTED,INS_RTKFIXED,17.58832273171,78.12089691453,528.9601,-76.3000,WGS84,0.7239,0.7545,1.4967,"",0.000,0.000,55,39,39,39,00,06,39,33*ee18aae3
#BESTPOSA,FILE,0,32.5,FINESTEERING,2319,305058.950,02000000,cdba,17139;SOL_COMPUTED,INS_RTKFIXED,17.58832359765,78.12089621937,528.9599,-76.3000,WGS84,0.7239,0.7545,1.4967,"",0.000,0.000,55,39,39,39,00,06,39,33*f11502cd
#BESTPOSA,FILE,0,32.5,FINESTEERING,2319,305059.000,02000000,cdba,17139;SOL_COMPUTED,INS_RTKFIXED,17.58832444368,78.12089550782,528.9597,-76.3000,WGS84,0.7239,0.7545,1.4967,"",0.000,0.000,55,39,39,39,00,06,39,33*854c3523
#BESTPOSA,FILE,0,32.5,FINESTEERING,2319,305059.050,02000000,cdba,17139;SOL_COMPUTED,INS_RTKFIXED,17.58832525909,78.12089479176,528.9587,-76.3000,WGS84,0.7250,0.7545,1.4936,"",0.000,0.000,55,39,39,39,00,06,39,33*8e900119
#BESTPOSA,FILE,0,32.0,FINESTEERING,2319,305059.100,02000000,cdba,17139;SOL_COMPUTED,INS_RTKFIXED,17.58832603432,78.12089408600,528.9576,-76.3000,WGS84,0.7250,0.7545,1.4936,"",0.000,0.000,55,39,39,39,00,06,39,33*4ec6311b
#BESTPOSA,FILE,0,32.0,FINESTEERING,2319,305059.150,02000000,cdba,17139;SOL_COMPUTED,INS_RTKFIXED,17.58832680253,78.12089337788,528.9563,-76.3000,WGS84,0.7250,0.7545,1.4936,"",0.000,0.000,55,39,39,39,00,06,39,33*105a1a67
#BESTPOSA,FILE,0,32.0,FINESTEERING,2319,305059.200,02000000,cdba,17139;SOL_COMPUTED,INS_RTKFIXED,17.58832755151,78.12089265828,528.9551,-76.3000,WGS84,0.7250,0.7545,1.4936,"",0.000,0.000,55,39,39,39,00,06,39,33*24e36391
#BESTPOSA,FILE,0,32.0,FINESTEERING,2319,305059.250,02000000,cdba,17139;SOL_COMPUTED,INS_RTKFIXED,17.58832828792,78.12089192558,528.9536,-76.3000,WGS84,0.7250,0.7545,1.4936,"",0.000,0.000,55,39,39,39,00,06,39,33*b51b177a
#BESTPOSA,FILE,0,32.0,FINESTEERING,2319,305059.300,02000000,cdba,17139;SOL_COMPUTED,INS_RTKFIXED,17.58832900800,78.12089118536,528.9516,-76.3000,WGS84,0.7250,0.7545,1.4936,"",0.000,0.000,55,39,39,39,00,06,39,33*df35dace
#BESTPOSA,FILE,0,32.0,FINESTEERING,2319,305059.350,02000000,cdba,17139;SOL_COMPUTED,INS_RTKFIXED,17.58832971294,78.12089043109,528.9499,-76.3000,WGS84,0.7250,0.7545,1.4936,"",0.000,0.000,55,39,39,39,00,06,39,33*ece21bc3
#BESTPOSA,FILE,0,32.0,FINESTEERING,2319,305059.400,02000000,cdba,17139;SOL_COMPUTED,INS_RTKFIXED,17.58833040568,78.12088966936,528.9483,-76.3000,WGS84,0.7250,0.7545,1.4936,"",0.000,0.000,55,39,39,39,00,06,39,33*fec853bb
#BESTPOSA,FILE,0,32.0,FINESTEERING,2319,305059.450,02000000,cdba,17139;SOL_COMPUTED,INS_RTKFIXED,17.58833109004,78.12088889612,528.9466,-76.3000,WGS84,0.7250,0.7545,1.4936,"",0.000,0.000,55,39,39,39,00,06,39,33*b56be4ec
#BESTPOSA,FILE,0,32.0,FINESTEERING,2319,305059.500,02000000,cdba,17139;SOL_COMPUTED,INS_RTKFIXED,17.58833176177,78.12088811055,528.9452,-76.3000,WGS84,0.7250,0.7545,1.4936,"",0.000,0.000,55,39,39,39,00,06,39,33*47355628
#BESTPOSA,FILE,0,32.0,FINESTEERING,2319,305059.550,02000000,cdba,17139;SOL_COMPUTED,INS_RTKFIXED,17.58833242253,78.12088731728,528.9433,-76.3000,WGS84,0.7250,0.7545,1.4936,"",0.000,0.000,55,39,39,39,00,06,39,33*05160dab
#BESTPOSA,FILE,0,32.0,FINESTEERING,2319,305059.600,02000000,cdba,17139;SOL_COMPUTED,INS_RTKFIXED,17.58833306983,78.12088651600,528.9410,-76.3000,WGS84,0.7250,0.7545,1.4936,"",0.000,0.000,55,39,39,39,00,06,39,33*52a33b75
#BESTPOSA,FILE,0,32.0,FINESTEERING,2319,305059.650,02000000,cdba,17139;SOL_COMPUTED,INS_RTKFIXED,17.58833370343,78.12088570504,528.9389,-76.3000,WGS84,0.7250,0.7545,1.4936,"",0.000,0.000,55,39,39,39,00,06,39,33*f96f22f8
#BESTPOSA,FILE,0,32.0,FINESTEERING,2319,305059.700,02000000,cdba,17139;SOL_COMPUTED,INS_RTKFIXED,17.58833431710,78.12088487802,528.9384,-76.3000,WGS84,0.7250,0.7545,1.4936,"",0.000,0.000,55,39,39,39,00,06,39,33*e70b75c8
#BESTPOSA,FILE,0,32.0,FINESTEERING,2319,305059.750,02000000,cdba,17139;SOL_COMPUTED,INS_RTKFIXED,17.58833492186,78.12088403498,528.9385,-76.3000,WGS84,0.7250,0.7545,1.4936,"",0.000,0.000,55,39,39,39,00,06,39,33*547ba730
#BESTPOSA,FILE,0,32.0,FINESTEERING,2319,305059.800,02000000,cdba,17139;SOL_COMPUTED,INS_RTKFIXED,17.58833551939,78.12088319119,528.9374,-76.3000,WGS84,0.7250,0.7545,1.4936,"",0.000,0.000,55,39,39,39,00,06,39,33*6edad577
#BESTPOSA,FILE,0,32.0,FINESTEERING,2319,305059.850,02000000,cdba,17139;SOL_COMPUTED,INS_RTKFIXED,17.58833610908,78.12088234080,528.9355,-76.3000,WGS84,0.7250,0.7545,1.4936,"",0.000,0.000,55,39,39,39,00,06,39,33*a66a57e7
#BESTPOSA,FILE,0,32.0,FINESTEERING,2319,305059.900,02000000,cdba,17139;SOL_COMPUTED,INS_RTKFIXED,17.58833669544,78.12088148655,528.9322,-76.3000,WGS84,0.7250,0.7545,1.4936,"",0.000,0.000,55,39,39,39,00,06,39,33*05866e75
#BESTPOSA,FILE,0,32.0,FINESTEERING,2319,305059.950,02000000,cdba,17139;SOL_COMPUTED,INS_RTKFIXED,17.58833728180,78.12088063023,528.9267,-76.3000,WGS84,0.7250,0.7545,1.4936,"",0.000,0.000,55,39,39,39,00,06,39,33*c304e04f
#BESTPOSA,FILE,0,32.0,FINESTEERING,2319,305060.000,02000000,cdba,17139;SOL_COMPUTED,INS_RTKFIXED,17.58833786106,78.12087976400,528.9204,-76.3000,WGS84,0.7250,0.7545,1.4936,"",0.000,0.000,55,39,39,39,00,06,39,33*e3422aeb
#BESTPOSA,FILE,0,32.0,FINESTEERING,2319,305060.050,02000000,cdba,17139;SOL_COMPUTED,INS_RTKFIXED,17.58833843172,78.12087888977,528.9141,-76.3000,WGS84,0.7257,0.7544,1.4903,"",0.000,0.000,55,39,39,38,00,06,39,33*f76ccf53
#BESTPOSA,FILE,0,32.0,FINESTEERING,2319,305060.100,02000000,cdba,17139;SOL_COMPUTED,INS_RTKFIXED,17.58833897507,78.12087801734,528.9084,-76.3000,WGS84,0.7257,0.7544,1.4903,"",0.000,0.000,55,39,39,38,00,06,39,33*5093bf6c
#BESTPOSA,FILE,0,32.5,FINESTEERING,2319,305060.150,02000000,cdba,17139;SOL_COMPUTED,INS_RTKFIXED,17.58833951546,78.12087711397,528.9048,-76.3000,WGS84,0.7257,0.7544,1.4903,"",0.000,0.000,55,39,39,38,00,06,39,33*0debcb76
#BESTPOSA,FILE,0,32.5,FINESTEERING,2319,305060.200,02000000,cdba,17139;SOL_COMPUTED,INS_RTKFIXED,17.58834004777,78.12087618134,528.9038,-76.3000,WGS84,0.7257,0.7544,1.4903,"",0.000,0.000,55,39,39,38,00,06,39,33*81f754fe
#BESTPOSA,FILE,0,32.5,FINESTEERING,2319,305060.250,02000000,cdba,17139;SOL_COMPUTED,INS_RTKFIXED,17.58834057654,78.12087522557,528.9040,-76.3000,WGS84,0.7257,0.7544,1.4903,"",0.000,0.000,55,39,39,38,00,06,39,33*2cadb6bd
#BESTPOSA,FILE,0,32.5,FINESTEERING,2319,305060.300,02000000,cdba,17139;SOL_COMPUTED,INS_RTKFIXED,17.58834109703,78.12087424948,528.9047,-76.3000,WGS84,0.7257,0.7544,1.4903,"",0.000,0.000,55,39,39,38,00,06,39,33*cc5ce5e5
#BESTPOSA,FILE,0,32.5,FINESTEERING,2319,305060.350,02000000,cdba,17139;SOL_COMPUTED,INS_RTKFIXED,17.58834160694,78.12087325232,528.9049,-76.3000,WGS84,0.7257,0.7544,1.4903,"",0.000,0.000,55,39,39,38,00,06,39,33*9859d61b
#BESTPOSA,FILE,0,32.5,FINESTEERING,2319,305060.400,02000000,cdba,17139;SOL_COMPUTED,INS_RTKFIXED,17.58834211061,78.12087223645,528.9037,-76.3000,WGS84,0.7257,0.7544,1.4903,"",0.000,0.000,55,39,39,38,00,06,39,33*e22a7f0a
#BESTPOSA,FILE,0,32.5,FINESTEERING,2319,305060.450,02000000,cdba,17139;SOL_COMPUTED,INS_RTKFIXED,17.58834261511,78.12087120277,528.9010,-76.3000,WGS84,0.7257,0.7544,1.4903,"",0.000,0.000,55,39,39,38,00,06,39,33*c566312a
#BESTPOSA,FILE,0,32.5,FINESTEERING,2319,305060.500,02000000,cdba,17139;SOL_COMPUTED,INS_RTKFIXED,17.58834312539,78.12087014689,528.8970,-76.3000,WGS84,0.7257,0.7544,1.4903,"",0.000,0.000,55,39,39,38,00,06,39,33*323d2d06
#BESTPOSA,FILE,0,32.5,FINESTEERING,2319,305060.550,02000000,cdba,17139;SOL_COMPUTED,INS_RTKFIXED,17.58834363166,78.12086906254,528.8926,-76.3000,WGS84,0.7257,0.7544,1.4903,"",0.000,0.000,55,39,39,38,00,06,39,33*503eaf33
#BESTPOSA,FILE,0,32.5,FINESTEERING,2319,305060.600,02000000,cdba,17139;SOL_COMPUTED,INS_RTKFIXED,17.58834413573,78.12086794266,528.8878,-76.3000,WGS84,0.7257,0.7544,1.4903,"",0.000,0.000,55,39,39,38,00,06,39,33*ad18b480
#BESTPOSA,FILE,0,32.5,FINESTEERING,2319,305060.650,02000000,cdba,17139;SOL_COMPUTED,INS_RTKFIXED,17.58834462828,78.12086678283,528.8842,-76.3000,WGS84,0.7257,0.7544,1.4903,"",0.000,0.000,55,39,39,38,00,06,39,33*18456b15
#BESTPOSA,FILE,0,32.5,FINESTEERING,2319,305060.700,02000000,cdba,17139;SOL_COMPUTED,INS_RTKFIXED,17.58834511336,78.12086558062,528.8817,-76.3000,WGS84,0.7257,0.7544,1.4903,"",0.000,0.000,55,39,39,38,00,06,39,33*d0b24b70
#BESTPOSA,FILE,0,32.5,FINESTEERING,2319,305060.750,02000000,cdba,17139;SOL_COMPUTED,INS_RTKFIXED,17.58834558662,78.12086433879,528.8796,-76.3000,WGS84,0.7257,0.7544,1.4903,"",0.000,0.000,55,39,39,38,00,06,39,33*498be8a1
#BESTPOSA,FILE,0,32.5,FINESTEERING,2319,305060.800,02000000,cdba,17139;SOL_COMPUTED,INS_RTKFIXED,17.58834605456,78.12086306182,528.8772,-76.3000,WGS84,0.7257,0.7544,1.4903,"",0.000,0.000,55,39,39,38,00,06,39,33*d1eecfed
#BESTPOSA,FILE,0,32.5,FINESTEERING,2319,305060.850,02000000,cdba,17139;SOL_COMPUTED,INS_RTKFIXED,17.58834651765,78.12086174905,528.8743,-76.3000,WGS84,0.7257,0.7544,1.4903,"",0.000,0.000,55,39,39,38,00,06,39,33*efcf70d4
#BESTPOSA,FILE,0,32.5,FINESTEERING,2319,305060.900,02000000,cdba,17139;SOL_COMPUTED,INS_RTKFIXED,17.58834696963,78.12086040224,528.8713,-76.3000,WGS84,0.7257,0.7544,1.4903,"",0.000,0.000,55,39,39,38,00,06,39,33*d2a18991
#BESTPOSA,FILE,0,32.5,FINESTEERING,2319,305060.950,02000000,cdba,17139;SOL_COMPUTED,INS_RTKFIXED,17.58834741970,78.12085902055,528.8674,-76.3000,WGS84,0.7257,0.7544,1.4903,"",0.000,0.000,55,39,39,38,00,06,39,33*817f9723
#BESTPOSA,FILE,0,32.5,FINESTEERING,2319,305061.000,02000000,cdba,17139;SOL_COMPUTED,INS_RTKFIXED,17.58834786139,78.12085760297,528.8631,-76.3000,WGS84,0.7257,0.7544,1.4903,"",0.000,0.000,55,39,39,38,00,06,39,33*42e5a81e
#BESTPOSA,FILE,0,32.5,FINESTEERING,2319,305061.050,02000000,cdba,17139;SOL_COMPUTED,INS_RTKFIXED,17.58834828428,78.12085615843,528.8589,-76.3000,WGS84,0.7257,0.7548,1.4870,"",0.000,0.000,55,39,39,39,00,06,39,33*936f45b0
#BESTPOSA,FILE,0,31.0,FINESTEERING,2319,305061.100,02000000,cdba,17139;SOL_COMPUTED,INS_RTKFIXED,17.58834869236,78.12085469077,528.8555,-76.3000,WGS84,0.7257,0.7548,1.4870,"",0.000,0.000,55,39,39,39,00,06,39,33*a6403b80
#BESTPOSA,FILE,0,31.0,FINESTEERING,2319,305061.150,02000000,cdba,17139;SOL_COMPUTED,INS_RTKFIXED,17.58834907699,78.12085318562,528.8525,-76.3000,WGS84,0.7257,0.7548,1.4870,"",0.000,0.000,55,39,39,39,00,06,39,33*031f5a7a
