#BESTVELA,FILE,0,37.0,FINESTEERING,2319,305045.850,02000800,10a2,17139;SOL_COMPUTED,INS_RTKFIXED,0.000,0.000,0.0042,350.366104,0.0008,0*645a1be6
#BESTVELA,FILE,0,37.0,FINESTEERING,2319,305045.950,02000800,10a2,17139;SOL_COMPUTED,INS_RTKFIXED,0.000,0.000,0.0008,349.182287,-0.0014,0*6808d95b
#BESTVELA,FILE,0,37.0,FINESTEERING,2319,305046.100,02000800,10a2,17139;SOL_COMPUTED,INS_RTKFIXED,0.000,0.000,0.0037,12.989810,0.0013,0*8fb39bd9
#BESTVELA,FILE,0,37.5,FINESTEERING,2319,305046.150,02000800,10a2,17139;SOL_COMPUTED,INS_RTKFIXED,0.000,0.000,0.0042,358.328092,0.0014,0*d36d47a9
#BESTVELA,FILE,0,37.5,FINESTEERING,2319,305046.300,02000800,10a2,17139;SOL_COMPUTED,INS_RTKFIXED,0.000,0.000,0.0005,177.288523,0.0002,0*0a64dacd
#BESTVELA,FILE,0,37.5,FINESTEERING,2319,305046.350,02000800,10a2,17139;SOL_COMPUTED,INS_RTKFIXED,0.000,0.000,0.0015,53.654945,0.0001,0*7e1cb496
#BESTVELA,FILE,0,37.5,FINESTEERING,2319,305046.450,02000800,10a2,17139;SOL_COMPUTED,INS_RTKFIXED,0.000,0.000,0.0037,7.743482,0.0009,0*25f047e9
#BESTVELA,FILE,0,37.5,FINESTEERING,2319,305046.550,02000800,10a2,17139;SOL_COMPUTED,INS_RTKFIXED,0.000,0.000,0.0011,313.888321,-0.0001,0*5fd22412
#BESTVELA,FILE,0,37.5,FINESTEERING,2319,305046.650,02000800,10a2,17139;SOL_COMPUTED,INS_RTKFIXED,0.000,0.000,0.0026,315.089118,0.0009,0*4ea4333a
#BESTVELA,FILE,0,37.5,FINESTEERING,2319,305046.800,02000800,10a2,17139;SOL_COMPUTED,INS_RTKFIXED,0.000,0.000,0.0036,316.914525,0.0021,0*d1d3f0a9
#BESTVELA,FILE,0,37.5,FINESTEERING,2319,305046.900,02000800,10a2,17139;SOL_COMPUTED,INS_RTKFIXED,0.000,0.000,0.0009,119.123357,-0.0006,0*c6a79836
#BESTVELA,FILE,0,37.5,FINESTEERING,2319,305047.000,02000800,10a2,17139;SOL_COMPUTED,INS_RTKFIXED,0.000,0.000,0.0030,44.831538,0.0000,0*7abc285f
#BESTVELA,FILE,0,37.0,FINESTEERING,2319,305047.100,02000800,10a2,17139;SOL_COMPUTED,INS_RTKFIXED,0.000,0.000,0.0026,348.433112,0.0000,0*23873d33
#BESTVELA,FILE,0,37.0,FINESTEERING,2319,305047.200,02000800,10a2,17139;SOL_COMPUTED,INS_RTKFIXED,0.000,0.000,0.0021,304.886713,0.0014,0*8437fc6a
#BESTVELA,FILE,0,37.0,FINESTEERING,2319,305047.300,02000800,10a2,17139;SOL_COMPUTED,INS_RTKFIXED,0.000,0.000,0.0034,267.542826,0.0002,0*64d1909b
#BESTVELA,FILE,0,37.0,FINESTEERING,2319,305047.400,02000800,10a2,17139;SOL_COMPUTED,INS_RTKFIXED,0.000,0.000,0.0026,323.200094,0.0007,0*81b6ad9f
#BESTVELA,FILE,0,37.0,FINESTEERING,2319,305047.500,02000800,10a2,17139;SOL_COMPUTED,INS_RTKFIXED,0.000,0.000,0.0019,336.846431,0.0007,0*612418ea
#BESTVELA,FILE,0,37.0,FINESTEERING,2319,305047.600,02000800,10a2,17139;SOL_COMPUTED,INS_RTKFIXED,0.000,0.000,0.0014,296.895898,0.0008,0*ee016e22
#BESTVELA,FILE,0,37.0,FINESTEERING,2319,305047.700,02000800,10a2,17139;SOL_COMPUTED,INS_RTKFIXED,0.000,0.000,0.0013,4.470834,0.0005,0*a3403a10
#BESTVELA,FILE,0,37.0,FINESTEERING,2319,305047.800,02000800,10a2,17139;SOL_COMPUTED,INS_RTKFIXED,0.000,0.000,0.0030,208.973707,-0.0007,0*33e03597
#BESTVELA,FILE,0,37.0,FINESTEERING,2319,305047.850,02000800,10a2,17139;SOL_COMPUTED,INS_RTKFIXED,0.000,0.000,0.0057,223.049216,-0.0018,0*0be4dcd6
#BESTVELA,FILE,0,37.0,FINESTEERING,2319,305047.950,02000800,10a2,17139;SOL_COMPUTED,INS_RTKFIXED,0.000,0.000,0.0044,231.388037,-0.0052,0*21cb07e4
#BESTVELA,FILE,0,37.0,FINESTEERING,2319,305048.050,02000800,10a2,17139;SOL_COMPUTED,INS_RTKFIXED,0.000,0.000,0.0114,268.316127,-0.0257,0*11c7ac87
#BESTVELA,FILE,0,37.0,FINESTEERING,2319,305048.150,02000800,10a2,17139;SOL_COMPUTED,INS_RTKFIXED,0.000,0.000,0.0290,344.160309,-0.0323,0*e11b2474
#BESTVELA,FILE,0,37.5,FINESTEERING,2319,305048.250,02000800,10a2,17139;SOL_COMPUTED,INS_RTKFIXED,0.000,0.000,0.0832,352.353742,-0.0235,0*d002748c
#BESTVELA,FILE,0,37.5,FINESTEERING,2319,305048.400,02000800,10a2,17139;SOL_COMPUTED,INS_RTKFIXED,0.000,0.000,0.1877,348.588114,0.0051,0*aaa3c9f2
#BESTVELA,FILE,0,37.5,FINESTEERING,2319,305048.500,02000800,10a2,17139;SOL_COMPUTED,INS_RTKFIXED,0.000,0.000,0.2401,353.247504,0.0225,0*d8b33fb3
#BESTVELA,FILE,0,37.5,FINESTEERING,2319,305048.600,02000800,10a2,17139;SOL_COMPUTED,INS_RTKFIXED,0.000,0.000,0.2764,352.290115,0.0082,0*d99c9440
#BESTVELA,FILE,0,37.5,FINESTEERING,2319,305048.700,02000800,10a2,17139;SOL_COMPUTED,INS_RTKFIXED,0.000,0.000,0.3087,351.448287,-0.0131,0*3e4d85a1
#BESTVELA,FILE,0,37.5,FINESTEERING,2319,305048.800,02000800,10a2,17139;SOL_COMPUTED,INS_RTKFIXED,0.000,0.000,0.3499,351.931231,-0.0046,0*778d3053
#BESTVELA,FILE,0,37.5,FINESTEERING,2319,305048.850,02000800,10a2,17139;SOL_COMPUTED,INS_RTKFIXED,0.000,0.000,0.3742,352.213048,-0.0072,0*641f92f6
#BESTVELA,FILE,0,37.5,FINESTEERING,2319,305048.900,02000800,10a2,17139;SOL_COMPUTED,INS_RTKFIXED,0.000,0.000,0.3943,351.707641,-0.0048,0*5298048b
#BESTVELA,FILE,0,37.5,FINESTEERING,2319,305049.050,02000800,10a2,17139;SOL_COMPUTED,INS_RTKFIXED,0.000,0.000,0.4533,351.611087,0.0034,0*1992825e
#BESTVELA,FILE,0,37.0,FINESTEERING,2319,305049.100,02000800,10a2,17139;SOL_COMPUTED,INS_RTKFIXED,0.000,0.000,0.4732,351.892078,-0.0028,0*3aaeeeff
#BESTVELA,FILE,0,37.0,FINESTEERING,2319,305049.250,02000800,10a2,17139;SOL_COMPUTED,INS_RTKFIXED,0.000,0.000,0.5366,352.851613,-0.0066,0*745ff634
#BESTVELA,FILE,0,37.0,FINESTEERING,2319,305049.300,02000800,10a2,17139;SOL_COMPUTED,INS_RTKFIXED,0.000,0.000,0.5577,352.870968,-0.0060,0*be69be6f
#BESTVELA,FILE,0,37.0,FINESTEERING,2319,305049.400,02000800,10a2,17139;SOL_COMPUTED,INS_RTKFIXED,0.000,0.000,0.5970,353.302971,-0.0074,0*17c4cf8f
#BESTVELA,FILE,0,37.0,FINESTEERING,2319,305049.500,02000800,10a2,17139;SOL_COMPUTED,INS_RTKFIXED,0.000,0.000,0.6360,353.333141,0.0006,0*c6ef3b92
#BESTVELA,FILE,0,37.0,FINESTEERING,2319,305049.550,02000800,10a2,17139;SOL_COMPUTED,INS_RTKFIXED,0.000,0.000,0.6564,353.686243,-0.0009,0*182540af
#BESTVELA,FILE,0,37.0,FINESTEERING,2319,305049.600,02000800,10a2,17139;SOL_COMPUTED,INS_RTKFIXED,0.000,0.000,0.6750,353.803308,0.0029,0*a4b3252e
#BESTVELA,FILE,0,37.0,FINESTEERING,2319,305049.650,02000800,10a2,17139;SOL_COMPUTED,INS_RTKFIXED,0.000,0.000,0.6894,354.053059,0.0021,0*de9212ef
#BESTVELA,FILE,0,37.0,FINESTEERING,2319,305049.700,02000800,10a2,17139;SOL_COMPUTED,INS_RTKFIXED,0.000,0.000,0.7043,354.240111,0.0026,0*51dbb9bd
#BESTVELA,FILE,0,37.0,FINESTEERING,2319,305049.750,02000800,10a2,17139;SOL_COMPUTED,INS_RTKFIXED,0.000,0.000,0.7185,354.277877,0.0038,0*65dfcdb1
#BESTVELA,FILE,0,37.0,FINESTEERING,2319,305049.800,02000800,10a2,17139;SOL_COMPUTED,INS_RTKFIXED,0.000,0.000,0.7326,354.773480,-0.0026,0*4ab6741b
#BESTVELA,FILE,0,37.0,FINESTEERING,2319,305049.850,02000800,10a2,17139;SOL_COMPUTED,INS_RTKFIXED,0.000,0.000,0.7490,354.862288,-0.0033,0*a2edcb79
#BESTVELA,FILE,0,37.0,FINESTEERING,2319,305049.900,02000800,10a2,17139;SOL_COMPUTED,INS_RTKFIXED,0.000,0.000,0.7689,355.289858,-0.0045,0*7d53a040
#BESTVELA,FILE,0,37.0,FINESTEERING,2319,305049.950,02000000,10a2,17139;SOL_COMPUTED,INS_RTKFIXED,0.000,0.000,0.7865,355.301124,-0.0059,0*3f6648e7
#BESTVELA,FILE,0,37.0,FINESTEERING,2319,305050.000,02000000,10a2,17139;SOL_COMPUTED,INS_RTKFIXED,0.000,0.000,0.8072,355.106100,-0.0034,0*260709ab
#BESTVELA,FILE,0,37.0,FINESTEERING,2319,305050.050,02000000,10a2,17139;SOL_COMPUTED,INS_RTKFIXED,0.000,0.000,0.8338,355.248772,-0.0054,0*fba2d4f2
#BESTVELA,FILE,0,34.5,FINESTEERING,2319,305050.100,02000000,10a2,17139;SOL_COMPUTED,INS_RTKFIXED,0.000,0.000,0.8561,355.052327,-0.0066,0*4c345bbe
#BESTVELA,FILE,0,34.5,FINESTEERING,2319,305050.150,02000000,10a2,17139;SOL_COMPUTED,INS_RTKFIXED,0.000,0.000,0.8830,355.374200,-0.0080,0*acf4ca0e
#BESTVELA,FILE,0,34.5,FINESTEERING,2319,305050.200,02000000,10a2,17139;SOL_COMPUTED,INS_RTKFIXED,0.000,0.000,0.9110,355.826415,-0.0096,0*b6307d68
#BESTVELA,FILE,0,34.5,FINESTEERING,2319,305050.250,02000000,10a2,17139;SOL_COMPUTED,INS_RTKFIXED,0.000,0.000,0.9418,356.201751,-0.0133,0*bd8c9d3f
#BESTVELA,FILE,0,34.5,FINESTEERING,2319,305050.300,02000000,10a2,17139;SOL_COMPUTED,INS_RTKFIXED,0.000,0.000,0.9771,356.574659,-0.0155,0*b54685b5
#BESTVELA,FILE,0,34.5,FINESTEERING,2319,305050.350,02000000,10a2,17139;SOL_COMPUTED,INS_RTKFIXED,0.000,0.000,1.0156,356.891845,-0.0166,0*a2a9bb66
#BESTVELA,FILE,0,34.5,FINESTEERING,2319,305050.400,02000000,10a2,17139;SOL_COMPUTED,INS_RTKFIXED,0.000,0.000,1.0576,357.268977,-0.0170,0*bd360766
#BESTVELA,FILE,0,34.5,FINESTEERING,2319,305050.450,02000000,10a2,17139;SOL_COMPUTED,INS_RTKFIXED,0.000,0.000,1.0999,357.808064,-0.0176,0*b363d04d
#BESTVELA,FILE,0,34.5,FINESTEERING,2319,305050.500,02000000,10a2,17139;SOL_COMPUTED,INS_RTKFIXED,0.000,0.000,1.1483,358.346050,-0.0160,0*010e84f6
#BESTVELA,FILE,0,34.5,FINESTEERING,2319,305050.550,02000000,10a2,17139;SOL_COMPUTED,INS_RTKFIXED,0.000,0.000,1.1977,358.853987,-0.0163,0*97e45b60
#BESTVELA,FILE,0,34.5,FINESTEERING,2319,305050.600,02000000,10a2,17139;SOL_COMPUTED,INS_RTKFIXED,0.000,0.000,1.2455,359.232602,-0.0142,0*7bf07c44
#BESTVELA,FILE,0,34.5,FINESTEERING,2319,305050.650,02000000,10a2,17139;SOL_COMPUTED,INS_RTKFIXED,0.000,0.000,1.3025,0.037567,-0.0211,0*8e784431
#BESTVELA,FILE,0,34.5,FINESTEERING,2319,305050.700,02000000,10a2,17139;SOL_COMPUTED,INS_RTKFIXED,0.000,0.000,1.3518,0.152836,-0.0237,0*8000ad53
#BESTVELA,FILE,0,34.5,FINESTEERING,2319,305050.750,02000000,10a2,17139;SOL_COMPUTED,INS_RTKFIXED,0.000,0.000,1.4038,0.585053,-0.0297,0*22259ca1
#BESTVELA,FILE,0,34.5,FINESTEERING,2319,305050.800,02000000,10a2,17139;SOL_COMPUTED,INS_RTKFIXED,0.000,0.000,1.4602,0.850380,-0.0385,0*34bf93f6
#BESTVELA,FILE,0,34.5,FINESTEERING,2319,305050.850,02000000,10a2,17139;SOL_COMPUTED,INS_RTKFIXED,0.000,0.000,1.5174,1.015265,-0.0391,0*d2fde62e
#BESTVELA,FILE,0,34.5,FINESTEERING,2319,305050.900,02000000,10a2,17139;SOL_COMPUTED,INS_RTKFIXED,0.000,0.000,1.5779,1.304179,-0.0388,0*b0731796
#BESTVELA,FILE,0,34.5,FINESTEERING,2319,305050.950,02000000,10a2,17139;SOL_COMPUTED,INS_RTKFIXED,0.000,0.000,1.6403,1.558225,-0.0342,0*7e3aa1b9
#BESTVELA,FILE,0,34.5,FINESTEERING,2319,305051.000,02000000,10a2,17139;SOL_COMPUTED,INS_RTKFIXED,0.000,0.000,1.7084,1.866598,-0.0276,0*7ad39b61
#BESTVELA,FILE,0,34.5,FINESTEERING,2319,305051.050,02000000,10a2,17139;SOL_COMPUTED,INS_RTKFIXED,0.000,0.000,1.7766,2.042555,-0.0207,0*e1c800b3
#BESTVELA,FILE,0,24.0,FINESTEERING,2319,305051.100,02000000,10a2,17139;SOL_COMPUTED,INS_RTKFIXED,0.000,0.000,1.8430,2.139961,-0.0217,0*fb1009d1
#BESTVELA,FILE,0,24.0,FINESTEERING,2319,305051.150,02000000,10a2,17139;SOL_COMPUTED,INS_RTKFIXED,0.000,0.000,1.9065,1.992496,-0.0258,0*2e83e80e
#BESTVELA,FILE,0,24.0,FINESTEERING,2319,305051.200,02000000,10a2,17139;SOL_COMPUTED,INS_RTKFIXED,0.000,0.000,1.9652,1.860771,-0.0277,0*b1b29666
#BESTVELA,FILE,0,24.0,FINESTEERING,2319,305051.250,02000000,10a2,17139;SOL_COMPUTED,INS_RTKFIXED,0.000,0.000,2.0288,1.872028,-0.0339,0*5f9306ce
#BESTVELA,FILE,0,24.0,FINESTEERING,2319,305051.300,02000000,10a2,17139;SOL_COMPUTED,INS_RTKFIXED,0.000,0.000,2.0920,2.051187,-0.0393,0*384ee8b5
#BESTVELA,FILE,0,24.0,FINESTEERING,2319,305051.350,02000000,10a2,17139;SOL_COMPUTED,INS_RTKFIXED,0.000,0.000,2.1536,2.671493,-0.0492,0*be77ba87
#BESTVELA,FILE,0,24.0,FINESTEERING,2319,305051.400,02000000,10a2,17139;SOL_COMPUTED,INS_RTKFIXED,0.000,0.000,2.2199,3.092111,-0.0559,0*5601c731
#BESTVELA,FILE,0,24.0,FINESTEERING,2319,305051.450,02000000,10a2,17139;SOL_COMPUTED,INS_RTKFIXED,0.000,0.000,2.2758,3.281728,-0.0417,0*bdfb212e
#BESTVELA,FILE,0,24.0,FINESTEERING,2319,305051.500,02000000,10a2,17139;SOL_COMPUTED,INS_RTKFIXED,0.000,0.000,2.3409,3.718800,-0.0356,0*28cba90a
#BESTVELA,FILE,0,24.0,FINESTEERING,2319,305051.550,02000000,10a2,17139;SOL_COMPUTED,INS_RTKFIXED,0.000,0.000,2.4002,3.808036,-0.0237,0*46a6a38a
#BESTVELA,FILE,0,24.0,FINESTEERING,2319,305051.600,02000000,10a2,17139;SOL_COMPUTED,INS_RTKFIXED,0.000,0.000,2.4645,3.974478,-0.0104,0*ae6df6d0
#BESTVELA,FILE,0,24.0,FINESTEERING,2319,305051.650,02000000,10a2,17139;SOL_COMPUTED,INS_RTKFIXED,0.000,0.000,2.5271,4.016205,-0.0019,0*ac97a589
#BESTVELA,FILE,0,24.0,FINESTEERING,2319,305051.700,02000000,10a2,17139;SOL_COMPUTED,INS_RTKFIXED,0.000,0.000,2.5883,3.796256,0.0138,0*a5eaf601
#BESTVELA,FILE,0,24.0,FINESTEERING,2319,305051.750,02000000,10a2,17139;SOL_COMPUTED,INS_RTKFIXED,0.000,0.000,2.6622,3.980406,0.0080,0*40ad0967
#BESTVELA,FILE,0,24.0,FINESTEERING,2319,305051.800,02000000,10a2,17139;SOL_COMPUTED,INS_RTKFIXED,0.000,0.000,2.7060,3.958019,0.0149,0*65138f8d
#BESTVELA,FILE,0,24.0,FINESTEERING,2319,305051.850,02000000,10a2,17139;SOL_COMPUTED,INS_RTKFIXED,0.000,0.000,2.7622,4.058765,0.0199,0*6fe4661d
#BESTVELA,FILE,0,24.0,FINESTEERING,2319,305051.900,02000000,10a2,17139;SOL_COMPUTED,INS_RTKFIXED,0.000,0.000,2.8120,4.011637,0.0229,0*f1802a29
#BESTVELA,FILE,0,24.0,FINESTEERING,2319,305051.950,02000000,10a2,17139;SOL_COMPUTED,INS_RTKFIXED,0.000,0.000,2.8565,4.116160,0.0260,0*15b0c928
#BESTVELA,FILE,0,24.0,FINESTEERING,2319,305052.000,02000000,10a2,17139;SOL_COMPUTED,INS_RTKFIXED,0.000,0.000,2.8988,4.183906,0.0183,0*b075eebc
#BESTVELA,FILE,0,24.0,FINESTEERING,2319,305052.050,02000000,10a2,17139;SOL_COMPUTED,INS_RTKFIXED,0.000,0.000,2.9337,4.218628,0.0173,0*06b00d8b
#BESTVELA,FILE,0,24.0,FINESTEERING,2319,305052.100,02000000,10a2,17139;SOL_COMPUTED,INS_RTKFIXED,0.000,0.000,2.9618,4.209609,0.0147,0*5f7b1b3d
#BESTVELA,FILE,0,30.5,FINESTEERING,2319,305052.150,02000000,10a2,17139;SOL_COMPUTED,INS_RTKFIXED,0.000,0.000,2.9740,4.074678,0.0146,0*5e7dc64e
#BESTVELA,FILE,0,30.5,FINESTEERING,2319,305052.200,02000000,10a2,17139;SOL_COMPUTED,INS_RTKFIXED,0.000,0.000,2.9932,4.106084,0.0006,0*21f85fca
#BESTVELA,FILE,0,30.5,FINESTEERING,2319,305052.250,02000000,10a2,17139;SOL_COMPUTED,INS_RTKFIXED,0.000,0.000,2.9845,4.126307,-0.0103,0*3fce3527
#BESTVELA,FILE,0,30.5,FINESTEERING,2319,305052.300,02000000,10a2,17139;SOL_COMPUTED,INS_RTKFIXED,0.000,0.000,2.9743,4.047307,-0.0236,0*153ece07
#BESTVELA,FILE,0,30.5,FINESTEERING,2319,305052.350,02000000,10a2,17139;SOL_COMPUTED,INS_RTKFIXED,0.000,0.000,2.9638,3.907648,-0.0283,0*2e461e7f
#BESTVELA,FILE,0,30.5,FINESTEERING,2319,305052.400,02000000,10a2,17139;SOL_COMPUTED,INS_RTKFIXED,0.000,0.000,2.9523,3.913605,-0.0289,0*b522444b
#BESTVELA,FILE,0,30.5,FINESTEERING,2319,305052.450,02000000,10a2,17139;SOL_COMPUTED,INS_RTKFIXED,0.000,0.000,2.9417,4.173468,-0.0269,0*1ee3d376
#BESTVELA,FILE,0,30.5,FINESTEERING,2319,305052.500,02000000,10a2,17139;SOL_COMPUTED,INS_RTKFIXED,0.000,0.000,2.9392,4.091052,-0.0196,0*a62a793a
#BESTVELA,FILE,0,30.5,FINESTEERING,2319,305052.550,02000000,10a2,17139;SOL_COMPUTED,INS_RTKFIXED,0.000,0.000,2.9388,4.202506,-0.0149,0*b2c2942d
#BESTVELA,FILE,0,30.5,FINESTEERING,2319,305052.600,02000000,10a2,17139;SOL_COMPUTED,INS_RTKFIXED,0.000,0.000,2.9445,4.179141,-0.0119,0*c66b268c
#BESTVELA,FILE,0,30.5,FINESTEERING,2319,305052.650,02000000,10a2,17139;SOL_COMPUTED,INS_RTKFIXED,0.000,0.000,2.9464,3.980503,-0.0069,0*89b8bd61
#BESTVELA,FILE,0,30.5,FINESTEERING,2319,305052.700,02000000,10a2,17139;SOL_COMPUTED,INS_RTKFIXED,0.000,0.000,2.9564,3.925821,-0.0031,0*8780e105
#BESTVELA,FILE,0,30.5,FINESTEERING,2319,305052.750,02000000,10a2,17139;SOL_COMPUTED,INS_RTKFIXED,0.000,0.000,2.9703,3.579471,0.0007,0*ad4bc97b
#BESTVELA,FILE,0,30.5,FINESTEERING,2319,305052.800,02000000,10a2,17139;SOL_COMPUTED,INS_RTKFIXED,0.000,0.000,2.9952,3.574837,0.0004,0*27a4be28
#BESTVELA,FILE,0,30.5,FINESTEERING,2319,305052.850,02000000,10a2,17139;SOL_COMPUTED,INS_RTKFIXED,0.000,0.000,3.0156,4.071490,-0.0170,0*def024f1
#BESTVELA,FILE,0,30.5,FINESTEERING,2319,305052.900,02000000,10a2,17139;SOL_COMPUTED,INS_RTKFIXED,0.000,0.000,3.0204,4.375096,-0.0168,0*3ea8188c
#BESTVELA,FILE,0,30.5,FINESTEERING,2319,305052.950,02000000,10a2,17139;SOL_COMPUTED,INS_RTKFIXED,0.000,0.000,3.0099,4.209937,-0.0050,0*13004941
#BESTVELA,FILE,0,30.5,FINESTEERING,2319,305053.000,02000000,10a2,17139;SOL_COMPUTED,INS_RTKFIXED,0.000,0.000,2.9826,4.248201,-0.0069,0*ff0c4af7
#BESTVELA,FILE,0,30.5,FINESTEERING,2319,305053.050,02000000,10a2,17139;SOL_COMPUTED,INS_RTKFIXED,0.000,0.000,2.9509,4.352313,-0.0113,0*7eb1337c
#BESTVELA,FILE,0,30.5,FINESTEERING,2319,305053.100,02000000,10a2,17139;SOL_COMPUTED,INS_RTKFIXED,0.000,0.000,2.9247,4.175390,-0.0029,0*d724a2d0
#BESTVELA,FILE,0,31.0,FINESTEERING,2319,305053.150,02000000,10a2,17139;SOL_COMPUTED,INS_RTKFIXED,0.000,0.000,2.9095,3.851582,0.0165,0*e159e1fc
#BESTVELA,FILE,0,31.0,FINESTEERING,2319,305053.200,02000000,10a2,17139;SOL_COMPUTED,INS_RTKFIXED,0.000,0.000,2.8966,3.817660,0.0290,0*43e7d646
#BESTVELA,FILE,0,31.0,FINESTEERING,2319,305053.250,02000000,10a2,17139;SOL_COMPUTED,INS_RTKFIXED,0.000,0.000,2.8873,3.931547,0.0347,0*5d4d1a99
#BESTVELA,FILE,0,31.0,FINESTEERING,2319,305053.300,02000000,10a2,17139;SOL_COMPUTED,INS_RTKFIXED,0.000,0.000,2.8835,4.059278,0.0287,0*aea8d7c8
#BESTVELA,FILE,0,31.0,FINESTEERING,2319,305053.350,02000000,10a2,17139;SOL_COMPUTED,INS_RTKFIXED,0.000,0.000,2.8826,4.077552,0.0365,0*b37a46d5
#BESTVELA,FILE,0,31.0,FINESTEERING,2319,305053.400,02000000,10a2,17139;SOL_COMPUTED,INS_RTKFIXED,0.000,0.000,2.8808,4.147938,0.0304,0*a00fc70d
#BESTVELA,FILE,0,31.0,FINESTEERING,2319,305053.450,02000000,10a2,17139;SOL_COMPUTED,INS_RTKFIXED,0.000,0.000,2.8758,4.160298,0.0079,0*3f99d9fc
#BESTVELA,FILE,0,31.0,FINESTEERING,2319,305053.500,02000000,10a2,17139;SOL_COMPUTED,INS_RTKFIXED,0.000,0.000,2.8635,4.291141,-0.0068,0*5980833b
#BESTVELA,FILE,0,31.0,FINESTEERING,2319,305053.550,02000000,10a2,17139;SOL_COMPUTED,INS_RTKFIXED,0.000,0.000,2.8481,3.806719,-0.0171,0*f48cea43
#BESTVELA,FILE,0,31.0,FINESTEERING,2319,305053.600,02000000,10a2,17139;SOL_COMPUTED,INS_RTKFIXED,0.000,0.000,2.8253,3.278196,-0.0578,0*3f8adbdc
#BESTVELA,FILE,0,31.0,FINESTEERING,2319,305053.650,02000000,10a2,17139;SOL_COMPUTED,INS_RTKFIXED,0.000,0.000,2.8067,3.563124,-0.1031,0*18157f55
#BESTVELA,FILE,0,31.0,FINESTEERING,2319,305053.700,02000000,10a2,17139;SOL_COMPUTED,INS_RTKFIXED,0.000,0.000,2.7922,3.905066,-0.1486,0*152fdf3f
#BESTVELA,FILE,0,31.0,FINESTEERING,2319,305053.750,02000000,10a2,17139;SOL_COMPUTED,INS_RTKFIXED,0.000,0.000,2.7811,3.968778,-0.1538,0*8a18c3f4
#BESTVELA,FILE,0,31.0,FINESTEERING,2319,305053.800,02000000,10a2,17139;SOL_COMPUTED,INS_RTKFIXED,0.000,0.000,2.7790,3.873135,-0.1392,0*cef9190f
#BESTVELA,FILE,0,31.0,FINESTEERING,2319,305053.850,02000000,10a2,17139;SOL_COMPUTED,INS_RTKFIXED,0.000,0.000,2.7776,4.015995,-0.0863,0*19fed0dd
#BESTVELA,FILE,0,31.0,FINESTEERING,2319,305053.900,02000000,10a2,17139;SOL_COMPUTED,INS_RTKFIXED,0.000,0.000,2.8021,3.904058,-0.0185,0*eea2846c
#BESTVELA,FILE,0,31.0,FINESTEERING,2319,305053.950,02000000,10a2,17139;SOL_COMPUTED,INS_RTKFIXED,0.000,0.000,2.8296,3.437490,0.0570,0*b79ff96d
#BESTVELA,FILE,0,31.0,FINESTEERING,2319,305054.000,02000000,10a2,17139;SOL_COMPUTED,INS_RTKFIXED,0.000,0.000,2.8490,3.278571,0.0883,0*8962fbba
#BESTVELA,FILE,0,31.0,FINESTEERING,2319,305054.050,02000000,10a2,17139;SOL_COMPUTED,INS_RTKFIXED,0.000,0.000,2.8553,3.426335,0.0974,0*29a282b7
#BESTVELA,FILE,0,31.0,FINESTEERING,2319,305054.100,02000000,10a2,17139;SOL_COMPUTED,INS_RTKFIXED,0.000,0.000,2.8453,4.005587,0.0586,0*a9fef72d
#BESTVELA,FILE,0,31.0,FINESTEERING,2319,305054.150,02000000,10a2,17139;SOL_COMPUTED,INS_RTKFIXED,0.000,0.000,2.8341,4.170885,0.0273,0*4387ff02
#BESTVELA,FILE,0,31.0,FINESTEERING,2319,305054.200,02000000,10a2,17139;SOL_COMPUTED,INS_RTKFIXED,0.000,0.000,2.8111,4.004143,-0.0155,0*8cb518c5
#BESTVELA,FILE,0,31.0,FINESTEERING,2319,305054.250,02000000,10a2,17139;SOL_COMPUTED,INS_RTKFIXED,0.000,0.000,2.7954,3.777804,-0.0460,0*6df3de59
#BESTVELA,FILE,0,31.0,FINESTEERING,2319,305054.300,02000000,10a2,17139;SOL_COMPUTED,INS_RTKFIXED,0.000,0.000,2.7732,3.836238,-0.0709,0*570d2c02
#BESTVELA,FILE,0,31.0,FINESTEERING,2319,305054.350,02000000,10a2,17139;SOL_COMPUTED,INS_RTKFIXED,0.000,0.000,2.7705,3.871129,-0.0709,0*58f0c9b1
#BESTVELA,FILE,0,31.0,FINESTEERING,2319,305054.400,02000000,10a2,17139;SOL_COMPUTED,INS_RTKFIXED,0.000,0.000,2.7703,3.731795,-0.0599,0*6e06eb0c
#BESTVELA,FILE,0,31.0,FINESTEERING,2319,305054.450,02000000,10a2,17139;SOL_COMPUTED,INS_RTKFIXED,0.000,0.000,2.7784,3.537558,-0.0350,0*2ca01f67
#BESTVELA,FILE,0,31.0,FINESTEERING,2319,305054.500,02000000,10a2,17139;SOL_COMPUTED,INS_RTKFIXED,0.000,0.000,2.7928,3.483257,-0.0087,0*f2266510
#BESTVELA,FILE,0,31.0,FINESTEERING,2319,305054.550,02000000,10a2,17139;SOL_COMPUTED,INS_RTKFIXED,0.000,0.000,2.8036,3.452488,0.0138,0*32e4e423
#BESTVELA,FILE,0,31.0,FINESTEERING,2319,305054.600,02000000,10a2,17139;SOL_COMPUTED,INS_RTKFIXED,0.000,0.000,2.8274,3.459421,0.0189,0*92e2d757
#BESTVELA,FILE,0,31.0,FINESTEERING,2319,305054.650,02000000,10a2,17139;SOL_COMPUTED,INS_RTKFIXED,0.000,0.000,2.8322,3.218164,0.0199,0*0ec70b9f
#BESTVELA,FILE,0,31.0,FINESTEERING,2319,305054.700,02000000,10a2,17139;SOL_COMPUTED,INS_RTKFIXED,0.000,0.000,2.8359,3.378661,0.0191,0*27dd49e2
#BESTVELA,FILE,0,31.0,FINESTEERING,2319,305054.750,02000000,10a2,17139;SOL_COMPUTED,INS_RTKFIXED,0.000,0.000,2.8397,3.397961,0.0070,0*0712e76a
#BESTVELA,FILE,0,31.0,FINESTEERING,2319,305054.800,02000000,10a2,17139;SOL_COMPUTED,INS_RTKFIXED,0.000,0.000,2.8472,3.372244,-0.0087,0*82c78fb3
#BESTVELA,FILE,0,31.0,FINESTEERING,2319,305054.850,02000000,10a2,17139;SOL_COMPUTED,INS_RTKFIXED,0.000,0.000,2.8486,3.313355,-0.0198,0*ab006c83
#BESTVELA,FILE,0,31.0,FINESTEERING,2319,305054.900,02000000,10a2,17139;SOL_COMPUTED,INS_RTKFIXED,0.000,0.000,2.8507,3.248221,-0.0243,0*be28ed95
#BESTVELA,FILE,0,31.0,FINESTEERING,2319,305054.950,02000000,10a2,17139;SOL_COMPUTED,INS_RTKFIXED,0.000,0.000,2.8596,3.352955,-0.0310,0*12447fad
#BESTVELA,FILE,0,31.0,FINESTEERING,2319,305055.000,02000000,10a2,17139;SOL_COMPUTED,INS_RTKFIXED,0.000,0.000,2.8709,3.203008,-0.0249,0*100600e0
#BESTVELA,FILE,0,31.0,FINESTEERING,2319,305055.050,02000000,10a2,17139;SOL_COMPUTED,INS_RTKFIXED,0.000,0.000,2.8861,3.165244,-0.0201,0*214ccb7f
#BESTVELA,FILE,0,30.5,FINESTEERING,2319,305055.100,02000000,10a2,17139;SOL_COMPUTED,INS_RTKFIXED,0.000,0.000,2.8981,3.088561,-0.0149,0*5b7cf91e
#BESTVELA,FILE,0,30.5,FINESTEERING,2319,305055.150,02000000,10a2,17139;SOL_COMPUTED,INS_RTKFIXED,0.000,0.000,2.9077,2.859490,0.0025,0*d70e9a9d
#BESTVELA,FILE,0,30.5,FINESTEERING,2319,305055.200,02000000,10a2,17139;SOL_COMPUTED,INS_RTKFIXED,0.000,0.000,2.9231,2.746243,0.0045,0*b5d27e36
#BESTVELA,FILE,0,30.5,FINESTEERING,2319,305055.250,02000000,10a2,17139;SOL_COMPUTED,INS_RTKFIXED,0.000,0.000,2.9389,2.848150,-0.0001,0*694a9197
#BESTVELA,FILE,0,30.5,FINESTEERING,2319,305055.300,02000000,10a2,17139;SOL_COMPUTED,INS_RTKFIXED,0.000,0.000,2.9547,3.080562,-0.0042,0*8dc0f61d
#BESTVELA,FILE,0,30.5,FINESTEERING,2319,305055.350,02000000,10a2,17139;SOL_COMPUTED,INS_RTKFIXED,0.000,0.000,2.9654,3.010488,-0.0070,0*a8775af8
#BESTVELA,FILE,0,30.5,FINESTEERING,2319,305055.400,02000000,10a2,17139;SOL_COMPUTED,INS_RTKFIXED,0.000,0.000,2.9863,3.081518,-0.0125,0*344e44a3
#BESTVELA,FILE,0,30.5,FINESTEERING,2319,305055.450,02000000,10a2,17139;SOL_COMPUTED,INS_RTKFIXED,0.000,0.000,2.9968,2.880335,-0.0146,0*2dca6f02
#BESTVELA,FILE,0,30.5,FINESTEERING,2319,305055.500,02000000,10a2,17139;SOL_COMPUTED,INS_RTKFIXED,0.000,0.000,3.0043,2.682416,-0.0238,0*42f3e0ed
#BESTVELA,FILE,0,30.5,FINESTEERING,2319,305055.550,02000000,10a2,17139;SOL_COMPUTED,INS_RTKFIXED,0.000,0.000,3.0288,2.522274,-0.0257,0*83695c20
#BESTVELA,FILE,0,30.5,FINESTEERING,2319,305055.600,02000000,10a2,17139;SOL_COMPUTED,INS_RTKFIXED,0.000,0.000,3.0487,2.302481,-0.0228,0*f33c8e42
#BESTVELA,FILE,0,30.5,FINESTEERING,2319,305055.650,02000000,10a2,17139;SOL_COMPUTED,INS_RTKFIXED,0.000,0.000,3.0612,1.962118,-0.0068,0*e39f2cb8
#BESTVELA,FILE,0,30.5,FINESTEERING,2319,305055.700,02000000,10a2,17139;SOL_COMPUTED,INS_RTKFIXED,0.000,0.000,3.0771,1.752591,-0.0018,0*8cf94b87
#BESTVELA,FILE,0,30.5,FINESTEERING,2319,305055.750,02000000,10a2,17139;SOL_COMPUTED,INS_RTKFIXED,0.000,0.000,3.0859,1.657238,0.0035,0*88ade05c
#BESTVELA,FILE,0,30.5,FINESTEERING,2319,305055.800,02000000,10a2,17139;SOL_COMPUTED,INS_RTKFIXED,0.000,0.000,3.0824,1.374802,0.0096,0*60023b4b
#BESTVELA,FILE,0,30.5,FINESTEERING,2319,305055.850,02000000,10a2,17139;SOL_COMPUTED,INS_RTKFIXED,0.000,0.000,3.0867,1.179198,0.0066,0*ee30ad5a
#BESTVELA,FILE,0,30.5,FINESTEERING,2319,305055.900,02000000,10a2,17139;SOL_COMPUTED,INS_RTKFIXED,0.000,0.000,3.0881,0.980330,0.0039,0*6dc9f9fb
#BESTVELA,FILE,0,30.5,FINESTEERING,2319,305055.950,02000000,10a2,17139;SOL_COMPUTED,INS_RTKFIXED,0.000,0.000,3.0874,0.807029,0.0020,0*00e31373
#BESTVELA,FILE,0,30.5,FINESTEERING,2319,305056.000,02000000,10a2,17139;SOL_COMPUTED,INS_RTKFIXED,0.000,0.000,3.0913,0.575791,-0.0040,0*dcc5d709
#BESTVELA,FILE,0,30.5,FINESTEERING,2319,305056.050,02000000,10a2,17139;SOL_COMPUTED,INS_RTKFIXED,0.000,0.000,3.0876,0.250177,-0.0069,0*5ec8851c
#BESTVELA,FILE,0,29.5,FINESTEERING,2319,305056.100,02000000,10a2,17139;SOL_COMPUTED,INS_RTKFIXED,0.000,0.000,3.0820,0.155236,-0.0160,0*24d1b1cc
#BESTVELA,FILE,0,29.5,FINESTEERING,2319,305056.150,02000000,10a2,17139;SOL_COMPUTED,INS_RTKFIXED,0.000,0.000,3.0709,359.761936,-0.0111,0*f186a016
#BESTVELA,FILE,0,29.5,FINESTEERING,2319,305056.200,02000000,10a2,17139;SOL_COMPUTED,INS_RTKFIXED,0.000,0.000,3.0708,359.041382,-0.0004,0*b4376802
#BESTVELA,FILE,0,29.5,FINESTEERING,2319,305056.250,02000000,10a2,17139;SOL_COMPUTED,INS_RTKFIXED,0.000,0.000,3.0529,358.552034,0.0082,0*63bc2eca
#BESTVELA,FILE,0,29.5,FINESTEERING,2319,305056.300,02000000,10a2,17139;SOL_COMPUTED,INS_RTKFIXED,0.000,0.000,3.0459,358.131672,0.0100,0*db97442f
#BESTVELA,FILE,0,29.5,FINESTEERING,2319,305056.350,02000000,10a2,17139;SOL_COMPUTED,INS_RTKFIXED,0.000,0.000,3.0287,358.015153,0.0037,0*1142f23a
#BESTVELA,FILE,0,29.5,FINESTEERING,2319,305056.400,02000000,10a2,17139;SOL_COMPUTED,INS_RTKFIXED,0.000,0.000,3.0209,357.913388,-0.0061,0*1f743f09
#BESTVELA,FILE,0,29.5,FINESTEERING,2319,305056.450,02000000,10a2,17139;SOL_COMPUTED,INS_RTKFIXED,0.000,0.000,3.0099,357.490278,-0.0080,0*7a99c43d
#BESTVELA,FILE,0,29.5,FINESTEERING,2319,305056.500,02000000,10a2,17139;SOL_COMPUTED,INS_RTKFIXED,0.000,0.000,3.0098,357.179730,-0.0101,0*beac9b2b
#BESTVELA,FILE,0,29.5,FINESTEERING,2319,305056.550,02000000,10a2,17139;SOL_COMPUTED,INS_RTKFIXED,0.000,0.000,2.9960,357.026389,-0.0139,0*0bd1dc59
#BESTVELA,FILE,0,29.5,FINESTEERING,2319,305056.600,02000000,10a2,17139;SOL_COMPUTED,INS_RTKFIXED,0.000,0.000,2.9884,356.783595,-0.0181,0*5d8c49a5
#BESTVELA,FILE,0,29.5,FINESTEERING,2319,305056.650,02000000,10a2,17139;SOL_COMPUTED,INS_RTKFIXED,0.000,0.000,2.9778,356.430842,-0.0178,0*d28d2ac5
#BESTVELA,FILE,0,29.5,FINESTEERING,2319,305056.700,02000000,10a2,17139;SOL_COMPUTED,INS_RTKFIXED,0.000,0.000,2.9699,355.673505,-0.0124,0*d680e6a7
#BESTVELA,FILE,0,29.5,FINESTEERING,2319,305056.750,02000000,10a2,17139;SOL_COMPUTED,INS_RTKFIXED,0.000,0.000,2.9587,355.129232,-0.0125,0*33a3809e
#BESTVELA,FILE,0,29.5,FINESTEERING,2319,305056.800,02000000,10a2,17139;SOL_COMPUTED,INS_RTKFIXED,0.000,0.000,2.9465,354.658966,-0.0227,0*4df3a015
#BESTVELA,FILE,0,29.5,FINESTEERING,2319,305056.850,02000000,10a2,17139;SOL_COMPUTED,INS_RTKFIXED,0.000,0.000,2.9316,354.017624,-0.0232,0*ad9f86c4
#BESTVELA,FILE,0,29.5,FINESTEERING,2319,305056.900,02000000,10a2,17139;SOL_COMPUTED,INS_RTKFIXED,0.000,0.000,2.9308,353.730512,-0.0173,0*70be09a9
#BESTVELA,FILE,0,29.5,FINESTEERING,2319,305056.950,02000000,10a2,17139;SOL_COMPUTED,INS_RTKFIXED,0.000,0.000,2.9113,353.471557,-0.0012,0*344f718f
#BESTVELA,FILE,0,29.5,FINESTEERING,2319,305057.000,02000000,10a2,17139;SOL_COMPUTED,INS_RTKFIXED,0.000,0.000,2.9063,353.068619,0.0099,0*dc5397db
#BESTVELA,FILE,0,29.5,FINESTEERING,2319,305057.050,02000000,10a2,17139;SOL_COMPUTED,INS_RTKFIXED,0.000,0.000,2.8999,352.645530,0.0117,0*8e395bee
#BESTVELA,FILE,0,29.5,FINESTEERING,2319,305057.100,02000000,10a2,17139;SOL_COMPUTED,INS_RTKFIXED,0.000,0.000,2.8971,352.320537,0.0171,0*5576df5f
#BESTVELA,FILE,0,32.0,FINESTEERING,2319,305057.150,02000000,10a2,17139;SOL_COMPUTED,INS_RTKFIXED,0.000,0.000,2.8899,352.058199,0.0178,0*7142838e
#BESTVELA,FILE,0,32.0,FINESTEERING,2319,305057.200,02000000,10a2,17139;SOL_COMPUTED,INS_RTKFIXED,0.000,0.000,2.8794,351.781496,0.0117,0*9f2dd348
#BESTVELA,FILE,0,32.0,FINESTEERING,2319,305057.250,02000000,10a2,17139;SOL_COMPUTED,INS_RTKFIXED,0.000,0.000,2.8641,351.692852,-0.0000,0*03be6c74
#BESTVELA,FILE,0,32.0,FINESTEERING,2319,305057.300,02000000,10a2,17139;SOL_COMPUTED,INS_RTKFIXED,0.000,0.000,2.8504,351.352162,-0.0072,0*f61cd086
#BESTVELA,FILE,0,32.0,FINESTEERING,2319,305057.350,02000000,10a2,17139;SOL_COMPUTED,INS_RTKFIXED,0.000,0.000,2.8312,350.998789,-0.0193,0*46a99c3f
#BESTVELA,FILE,0,32.0,FINESTEERING,2319,305057.400,02000000,10a2,17139;SOL_COMPUTED,INS_RTKFIXED,0.000,0.000,2.8199,350.418557,-0.0185,0*fd02fa39
#BESTVELA,FILE,0,32.0,FINESTEERING,2319,305057.450,02000000,10a2,17139;SOL_COMPUTED,INS_RTKFIXED,0.000,0.000,2.8088,349.702914,-0.0080,0*75cd5ddc
#BESTVELA,FILE,0,32.0,FINESTEERING,2319,305057.500,02000000,10a2,17139;SOL_COMPUTED,INS_RTKFIXED,0.000,0.000,2.7985,348.926013,-0.0035,0*80779d6f
#BESTVELA,FILE,0,32.0,FINESTEERING,2319,305057.550,02000000,10a2,17139;SOL_COMPUTED,INS_RTKFIXED,0.000,0.000,2.7877,348.147423,0.0022,0*7b3d6488
#BESTVELA,FILE,0,32.0,FINESTEERING,2319,305057.600,02000000,10a2,17139;SOL_COMPUTED,INS_RTKFIXED,0.000,0.000,2.7693,347.277714,0.0080,0*0bd7d556
#BESTVELA,FILE,0,32.0,FINESTEERING,2319,305057.650,02000000,10a2,17139;SOL_COMPUTED,INS_RTKFIXED,0.000,0.000,2.7560,346.578874,0.0057,0*fbff3ba9
#BESTVELA,FILE,0,32.0,FINESTEERING,2319,305057.700,02000000,10a2,17139;SOL_COMPUTED,INS_RTKFIXED,0.000,0.000,2.7457,345.910826,0.0009,0*ec00bee7
#BESTVELA,FILE,0,32.0,FINESTEERING,2319,305057.750,02000000,10a2,17139;SOL_COMPUTED,INS_RTKFIXED,0.000,0.000,2.7386,345.389337,-0.0040,0*e557b214
#BESTVELA,FILE,0,32.0,FINESTEERING,2319,305057.800,02000000,10a2,17139;SOL_COMPUTED,INS_RTKFIXED,0.000,0.000,2.7280,344.926875,-0.0066,0*8dbac9bd
#BESTVELA,FILE,0,32.0,FINESTEERING,2319,305057.850,02000000,10a2,17139;SOL_COMPUTED,INS_RTKFIXED,0.000,0.000,2.7239,344.411470,-0.0126,0*a239b6e4
#BESTVELA,FILE,0,32.0,FINESTEERING,2319,305057.900,02000000,10a2,17139;SOL_COMPUTED,INS_RTKFIXED,0.000,0.000,2.7146,343.770549,-0.0106,0*ebc6eaff
#BESTVELA,FILE,0,32.0,FINESTEERING,2319,305057.950,02000000,10a2,17139;SOL_COMPUTED,INS_RTKFIXED,0.000,0.000,2.7061,343.062226,-0.0048,0*2d4b2fee
#BESTVELA,FILE,0,32.0,FINESTEERING,2319,305058.000,02000000,10a2,17139;SOL_COMPUTED,INS_RTKFIXED,0.000,0.000,2.6932,341.984032,-0.0107,0*fe207d7a
#BESTVELA,FILE,0,32.0,FINESTEERING,2319,305058.050,02000000,10a2,17139;SOL_COMPUTED,INS_RTKFIXED,0.000,0.000,2.6724,341.322331,-0.0144,0*644162b1
#BESTVELA,FILE,0,32.0,FINESTEERING,2319,305058.100,02000000,10a2,17139;SOL_COMPUTED,INS_RTKFIXED,0.000,0.000,2.6468,340.789746,-0.0252,0*1ba397be
#BESTVELA,FILE,0,32.5,FINESTEERING,2319,305058.150,02000000,10a2,17139;SOL_COMPUTED,INS_RTKFIXED,0.000,0.000,2.6319,339.685056,-0.0138,0*2058b624
#BESTVELA,FILE,0,32.5,FINESTEERING,2319,305058.200,02000000,10a2,17139;SOL_COMPUTED,INS_RTKFIXED,0.000,0.000,2.6222,338.762795,-0.0016,0*9daecdf6
#BESTVELA,FILE,0,32.5,FINESTEERING,2319,305058.250,02000000,10a2,17139;SOL_COMPUTED,INS_RTKFIXED,0.000,0.000,2.6218,337.908378,0.0083,0*35135cf7
#BESTVELA,FILE,0,32.5,FINESTEERING,2319,305058.300,02000000,10a2,17139;SOL_COMPUTED,INS_RTKFIXED,0.000,0.000,2.6089,336.709810,0.0196,0*77cf690a
#BESTVELA,FILE,0,32.5,FINESTEERING,2319,305058.350,02000000,10a2,17139;SOL_COMPUTED,INS_RTKFIXED,0.000,0.000,2.6072,335.599660,0.0196,0*1763ee70
#BESTVELA,FILE,0,32.5,FINESTEERING,2319,305058.400,02000000,10a2,17139;SOL_COMPUTED,INS_RTKFIXED,0.000,0.000,2.6017,334.193735,0.0198,0*d2c0c4d9
#BESTVELA,FILE,0,32.5,FINESTEERING,2319,305058.450,02000000,10a2,17139;SOL_COMPUTED,INS_RTKFIXED,0.000,0.000,2.5884,332.814443,0.0193,0*e80ac94f
#BESTVELA,FILE,0,32.5,FINESTEERING,2319,305058.500,02000000,10a2,17139;SOL_COMPUTED,INS_RTKFIXED,0.000,0.000,2.5701,331.668604,0.0044,0*bfd07dda
#BESTVELA,FILE,0,32.5,FINESTEERING,2319,305058.550,02000000,10a2,17139;SOL_COMPUTED,INS_RTKFIXED,0.000,0.000,2.5470,330.830126,0.0036,0*468b3ccc
#BESTVELA,FILE,0,32.5,FINESTEERING,2319,305058.600,02000000,10a2,17139;SOL_COMPUTED,INS_RTKFIXED,0.000,0.000,2.5286,330.309188,-0.0041,0*3eaafd9d
#BESTVELA,FILE,0,32.5,FINESTEERING,2319,305058.650,02000000,10a2,17139;SOL_COMPUTED,INS_RTKFIXED,0.000,0.000,2.5110,329.739154,-0.0061,0*883f2c12
#BESTVELA,FILE,0,32.5,FINESTEERING,2319,305058.700,02000000,10a2,17139;SOL_COMPUTED,INS_RTKFIXED,0.000,0.000,2.5070,328.927189,-0.0067,0*bf4bc682
#BESTVELA,FILE,0,32.5,FINESTEERING,2319,305058.750,02000000,10a2,17139;SOL_COMPUTED,INS_RTKFIXED,0.000,0.000,2.5036,327.937311,-0.0096,0*4f5438d3
#BESTVELA,FILE,0,32.5,FINESTEERING,2319,305058.800,02000000,10a2,17139;SOL_COMPUTED,INS_RTKFIXED,0.000,0.000,2.4798,326.909802,0.0048,0*798735db
#BESTVELA,FILE,0,32.5,FINESTEERING,2319,305058.850,02000000,10a2,17139;SOL_COMPUTED,INS_RTKFIXED,0.000,0.000,2.4691,326.156494,0.0049,0*31878c2b
#BESTVELA,FILE,0,32.5,FINESTEERING,2319,305058.900,02000000,10a2,17139;SOL_COMPUTED,INS_RTKFIXED,0.000,0.000,2.4690,325.722830,0.0064,0*1689214c
#BESTVELA,FILE,0,32.5,FINESTEERING,2319,305058.950,02000000,10a2,17139;SOL_COMPUTED,INS_RTKFIXED,0.000,0.000,2.4683,325.006446,-0.0070,0*0faafdfd
#BESTVELA,FILE,0,32.5,FINESTEERING,2319,305059.000,02000000,10a2,17139;SOL_COMPUTED,INS_RTKFIXED,0.000,0.000,2.4486,323.611975,-0.0062,0*ee6e0d13
#BESTVELA,FILE,0,32.5,FINESTEERING,2319,305059.050,02000000,10a2,17139;SOL_COMPUTED,INS_RTKFIXED,0.000,0.000,2.4381,322.950849,-0.0159,0*9c57cfdb
#BESTVELA,FILE,0,32.0,FINESTEERING,2319,305059.100,02000000,10a2,17139;SOL_COMPUTED,INS_RTKFIXED,0.000,0.000,2.4064,322.114990,-0.0073,0*909ea9a7
#BESTVELA,FILE,0,32.0,FINESTEERING,2319,305059.150,02000000,10a2,17139;SOL_COMPUTED,INS_RTKFIXED,0.000,0.000,2.3929,321.702292,-0.0098,0*87d0a891
#BESTVELA,FILE,0,32.0,FINESTEERING,2319,305059.200,02000000,10a2,17139;SOL_COMPUTED,INS_RTKFIXED,0.000,0.000,2.3765,320.721167,-0.0178,0*27b8299d
#BESTVELA,FILE,0,32.0,FINESTEERING,2319,305059.250,02000000,10a2,17139;SOL_COMPUTED,INS_RTKFIXED,0.000,0.000,2.3696,319.560813,-0.0211,0*df0ce51a
#BESTVELA,FILE,0,32.0,FINESTEERING,2319,305059.300,02000000,10a2,17139;SOL_COMPUTED,INS_RTKFIXED,0.000,0.000,2.3528,318.743763,-0.0263,0*fccf9eb8
#BESTVELA,FILE,0,32.0,FINESTEERING,2319,305059.350,02000000,10a2,17139;SOL_COMPUTED,INS_RTKFIXED,0.000,0.000,2.3483,317.637099,-0.0174,0*0efef149
#BESTVELA,FILE,0,32.0,FINESTEERING,2319,305059.400,02000000,10a2,17139;SOL_COMPUTED,INS_RTKFIXED,0.000,0.000,2.3366,316.874456,-0.0153,0*6db9654a
#BESTVELA,FILE,0,32.0,FINESTEERING,2319,305059.450,02000000,10a2,17139;SOL_COMPUTED,INS_RTKFIXED,0.000,0.000,2.3357,316.178508,-0.0195,0*71438fe1
#BESTVELA,FILE,0,32.0,FINESTEERING,2319,305059.500,02000000,10a2,17139;SOL_COMPUTED,INS_RTKFIXED,0.000,0.000,2.3336,315.175146,-0.0182,0*4d7a3cd9
#BESTVELA,FILE,0,32.0,FINESTEERING,2319,305059.550,02000000,10a2,17139;SOL_COMPUTED,INS_RTKFIXED,0.000,0.000,2.3327,314.342149,-0.0273,0*833b7bbd
#BESTVELA,FILE,0,32.0,FINESTEERING,2319,305059.600,02000000,10a2,17139;SOL_COMPUTED,INS_RTKFIXED,0.000,0.000,2.3198,313.588245,-0.0365,0*9cdfd1dc
#BESTVELA,FILE,0,32.0,FINESTEERING,2319,305059.650,02000000,10a2,17139;SOL_COMPUTED,INS_RTKFIXED,0.000,0.000,2.3098,312.768551,-0.0206,0*0798a0b0
#BESTVELA,FILE,0,32.0,FINESTEERING,2319,305059.700,02000000,10a2,17139;SOL_COMPUTED,INS_RTKFIXED,0.000,0.000,2.3033,311.335396,0.0150,0*ec4e49ea
#BESTVELA,FILE,0,32.0,FINESTEERING,2319,305059.750,02000000,10a2,17139;SOL_COMPUTED,INS_RTKFIXED,0.000,0.000,2.3170,310.248776,0.0100,0*5d0a4fe4
#BESTVELA,FILE,0,32.0,FINESTEERING,2319,305059.800,02000000,10a2,17139;SOL_COMPUTED,INS_RTKFIXED,0.000,0.000,2.3183,310.005975,-0.0160,0*979efb8b
#BESTVELA,FILE,0,32.0,FINESTEERING,2319,305059.850,02000000,10a2,17139;SOL_COMPUTED,INS_RTKFIXED,0.000,0.000,2.3089,309.534415,-0.0354,0*4cae4070
#BESTVELA,FILE,0,32.0,FINESTEERING,2319,305059.900,02000000,10a2,17139;SOL_COMPUTED,INS_RTKFIXED,0.000,0.000,2.3189,309.198847,-0.0711,0*c5810209
#BESTVELA,FILE,0,32.0,FINESTEERING,2319,305059.950,02000000,10a2,17139;SOL_COMPUTED,INS_RTKFIXED,0.000,0.000,2.3214,308.963532,-0.1094,0*582facf3
#BESTVELA,FILE,0,32.0,FINESTEERING,2319,305060.000,02000000,10a2,17139;SOL_COMPUTED,INS_RTKFIXED,0.000,0.000,2.3259,308.192417,-0.1149,0*f390c648
#BESTVELA,FILE,0,32.0,FINESTEERING,2319,305060.050,02000000,10a2,17139;SOL_COMPUTED,INS_RTKFIXED,0.000,0.000,2.3513,307.353452,-0.1101,0*dc63495b
#BESTVELA,FILE,0,32.0,FINESTEERING,2319,305060.100,02000000,10a2,17139;SOL_COMPUTED,INS_RTKFIXED,0.000,0.000,2.3758,306.217465,-0.0848,0*f812bb44
#BESTVELA,FILE,0,32.5,FINESTEERING,2319,305060.150,02000000,10a2,17139;SOL_COMPUTED,INS_RTKFIXED,0.000,0.000,2.4132,305.182951,-0.0336,0*7993ee0e
#BESTVELA,FILE,0,32.5,FINESTEERING,2319,305060.200,02000000,10a2,17139;SOL_COMPUTED,INS_RTKFIXED,0.000,0.000,2.4578,304.017157,0.0131,0*a8352e64
#BESTVELA,FILE,0,32.5,FINESTEERING,2319,305060.250,02000000,10a2,17139;SOL_COMPUTED,INS_RTKFIXED,0.000,0.000,2.4955,303.079707,0.0300,0*8ca0e833
#BESTVELA,FILE,0,32.5,FINESTEERING,2319,305060.300,02000000,10a2,17139;SOL_COMPUTED,INS_RTKFIXED,0.000,0.000,2.5216,302.101261,0.0324,0*ada2add7
#BESTVELA,FILE,0,32.5,FINESTEERING,2319,305060.350,02000000,10a2,17139;SOL_COMPUTED,INS_RTKFIXED,0.000,0.000,2.5499,301.114612,0.0110,0*bf6879a8
#BESTVELA,FILE,0,32.5,FINESTEERING,2319,305060.400,02000000,10a2,17139;SOL_COMPUTED,INS_RTKFIXED,0.000,0.000,2.5768,300.427880,-0.0227,0*e7a2b781
#BESTVELA,FILE,0,32.5,FINESTEERING,2319,305060.450,02000000,10a2,17139;SOL_COMPUTED,INS_RTKFIXED,0.000,0.000,2.6126,300.059567,-0.0466,0*78505893
#BESTVELA,FILE,0,32.5,FINESTEERING,2319,305060.500,02000000,10a2,17139;SOL_COMPUTED,INS_RTKFIXED,0.000,0.000,2.6588,299.807671,-0.0699,0*af5b0dec
#BESTVELA,FILE,0,32.5,FINESTEERING,2319,305060.550,02000000,10a2,17139;SOL_COMPUTED,INS_RTKFIXED,0.000,0.000,2.7099,298.898476,-0.0778,0*e7a707b6
#BESTVELA,FILE,0,32.5,FINESTEERING,2319,305060.600,02000000,10a2,17139;SOL_COMPUTED,INS_RTKFIXED,0.000,0.000,2.7673,297.975903,-0.0800,0*03f6d52a
#BESTVELA,FILE,0,32.5,FINESTEERING,2319,305060.650,02000000,10a2,17139;SOL_COMPUTED,INS_RTKFIXED,0.000,0.000,2.8321,296.579022,-0.0458,0*5bc85e8e
#BESTVELA,FILE,0,32.5,FINESTEERING,2319,305060.700,02000000,10a2,17139;SOL_COMPUTED,INS_RTKFIXED,0.000,0.000,2.9063,295.429419,-0.0257,0*58bf73c8
#BESTVELA,FILE,0,32.5,FINESTEERING,2319,305060.750,02000000,10a2,17139;SOL_COMPUTED,INS_RTKFIXED,0.000,0.000,2.9716,294.292475,-0.0273,0*e21e508b
#BESTVELA,FILE,0,32.5,FINESTEERING,2319,305060.800,02000000,10a2,17139;SOL_COMPUTED,INS_RTKFIXED,0.000,0.000,3.0302,293.450377,-0.0338,0*85ce47a9
#BESTVELA,FILE,0,32.5,FINESTEERING,2319,305060.850,02000000,10a2,17139;SOL_COMPUTED,INS_RTKFIXED,0.000,0.000,3.0957,292.790423,-0.0453,0*c087a0b3
#BESTVELA,FILE,0,32.5,FINESTEERING,2319,305060.900,02000000,10a2,17139;SOL_COMPUTED,INS_RTKFIXED,0.000,0.000,3.1559,291.836842,-0.0517,0*588bb470
#BESTVELA,FILE,0,32.5,FINESTEERING,2319,305060.950,02000000,10a2,17139;SOL_COMPUTED,INS_RTKFIXED,0.000,0.000,3.2174,291.132877,-0.0656,0*c38388ae
#BESTVELA,FILE,0,32.5,FINESTEERING,2319,305061.000,02000000,10a2,17139;SOL_COMPUTED,INS_RTKFIXED,0.000,0.000,3.2843,290.345385,-0.0743,0*bb4afdd3
#BESTVELA,FILE,0,32.5,FINESTEERING,2319,305061.050,02000000,10a2,17139;SOL_COMPUTED,INS_RTKFIXED,0.000,0.000,3.3527,289.354839,-0.0774,0*c68bb777
#BESTVELA,FILE,0,31.0,FINESTEERING,2319,305061.100,02000000,10a2,17139;SOL_COMPUTED,INS_RTKFIXED,0.000,0.000,3.4303,288.346620,-0.0715,0*664e81bc
#BESTVELA,FILE,0,31.0,FINESTEERING,2319,305061.150,02000000,10a2,17139;SOL_COMPUTED,INS_RTKFIXED,0.000,0.000,3.4869,287.091564,-0.0674,0*148d17d2
#BESTVELA,FILE,0,31.0,FINESTEERING,2319,305061.200,02000000,10a2,17139;SOL_COMPUTED,INS_RTKFIXED,0.000,0.000,3.5559,286.401553,-0.0780,0*f3961ac3
#BESTVELA,FILE,0,31.0,FINESTEERING,2319,305061.250,02000000,10a2,17139;SOL_COMPUTED,INS_RTKFIXED,0.000,0.000,3.6151,285.484612,-0.0843,0*d1b11b3a
#BESTVELA,FILE,0,31.0,FINESTEERING,2319,305061.300,02000000,10a2,17139;SOL_COMPUTED,INS_RTKFIXED,0.000,0.000,3.6706,284.591299,-0.0844,0*b45e2085
#BESTVELA,FILE,0,31.0,FINESTEERING,2319,305061.350,02000000,10a2,17139;SOL_COMPUTED,INS_RTKFIXED,0.000,0.000,3.7291,283.554284,-0.0808,0*227510cb
#BESTVELA,FILE,0,31.0,FINESTEERING,2319,305061.400,02000000,10a2,17139;SOL_COMPUTED,INS_RTKFIXED,0.000,0.000,3.7793,282.359586,-0.0847,0*7a7b8a5b
#BESTVELA,FILE,0,31.0,FINESTEERING,2319,305061.450,02000000,10a2,17139;SOL_COMPUTED,INS_RTKFIXED,0.000,0.000,3.8364,281.593329,-0.1035,0*a3de80df
#BESTVELA,FILE,0,31.0,FINESTEERING,2319,305061.500,02000000,10a2,17139;SOL_COMPUTED,INS_RTKFIXED,0.000,0.000,3.8779,280.590630,-0.1107,0*565926d3
#BESTVELA,FILE,0,31.0,FINESTEERING,2319,305061.550,02000000,10a2,17139;SOL_COMPUTED,INS_RTKFIXED,0.000,0.000,3.9347,279.461832,-0.1029,0*172c471a
#BESTVELA,FILE,0,31.0,FINESTEERING,2319,305061.600,02000000,10a2,17139;SOL_COMPUTED,INS_RTKFIXED,0.000,0.000,3.9912,278.415749,-0.1046,0*80584677
#BESTVELA,FILE,0,31.0,FINESTEERING,2319,305061.650,02000000,10a2,17139;SOL_COMPUTED,INS_RTKFIXED,0.000,0.000,4.0478,277.828468,-0.1034,0*b1ad9b8c
#BESTVELA,FILE,0,31.0,FINESTEERING,2319,305061.700,02000000,10a2,17139;SOL_COMPUTED,INS_RTKFIXED,0.000,0.000,4.0986,277.081656,-0.1082,0*adde52e1
#BESTVELA,FILE,0,31.0,FINESTEERING,2319,305061.750,02000000,10a2,17139;SOL_COMPUTED,INS_RTKFIXED,0.000,0.000,4.1524,276.236760,-0.1071,0*68d3a7f8
#BESTVELA,FILE,0,31.0,FINESTEERING,2319,305061.800,02000000,10a2,17139;SOL_COMPUTED,INS_RTKFIXED,0.000,0.000,4.2015,275.558933,-0.1232,0*85e97c83
#BESTVELA,FILE,0,31.0,FINESTEERING,2319,305061.850,02000000,10a2,17139;SOL_COMPUTED,INS_RTKFIXED,0.000,0.000,4.2533,274.817842,-0.1256,0*511e5d49
#BESTVELA,FILE,0,31.0,FINESTEERING,2319,305061.900,02000000,10a2,17139;SOL_COMPUTED,INS_RTKFIXED,0.000,0.000,4.3028,274.363733,-0.1256,0*fa731cd9
#BESTVELA,FILE,0,31.0,FINESTEERING,2319,305061.950,02000000,10a2,17139;SOL_COMPUTED,INS_RTKFIXED,0.000,0.000,4.3541,273.800469,-0.1126,0*7a8f68e4
#BESTVELA,FILE,0,31.0,FINESTEERING,2319,305062.000,02000000,10a2,17139;SOL_COMPUTED,INS_RTKFIXED,0.000,0.000,4.4103,273.249083,-0.0971,0*9ad00449
#BESTVELA,FILE,0,31.0,FINESTEERING,2319,305062.050,02000000,10a2,17139;SOL_COMPUTED,INS_RTKFIXED,0.000,0.000,4.4668,272.921540,-0.0953,0*99f877d6
#BESTVELA,FILE,0,31.0,FINESTEERING,2319,305062.100,02000000,10a2,17139;SOL_COMPUTED,INS_RTKFIXED,0.000,0.000,4.5243,272.526795,-0.0599,0*40bf941a
#BESTVELA,FILE,0,31.0,FINESTEERING,2319,305062.150,02000000,10a2,17139;SOL_COMPUTED,INS_RTKFIXED,0.000,0.000,4.5707,271.798870,-0.0533,0*82b5f769
#BESTVELA,FILE,0,31.0,FINESTEERING,2319,305062.200,02000000,10a2,17139;SOL_COMPUTED,INS_RTKFIXED,0.000,0.000,4.6161,271.561330,-0.0696,0*50dc2609
#BESTVELA,FILE,0,31.0,FINESTEERING,2319,305062.250,02000000,10a2,17139;SOL_COMPUTED,INS_RTKFIXED,0.000,0.000,4.6413,271.275802,-0.0827,0*cfd1c920
#BESTVELA,FILE,0,31.0,FINESTEERING,2319,305062.300,02000000,10a2,17139;SOL_COMPUTED,INS_RTKFIXED,0.000,0.000,4.6500,271.318187,-0.1243,0*334a314f
#BESTVELA,FILE,0,31.0,FINESTEERING,2319,305062.350,02000000,10a2,17139;SOL_COMPUTED,INS_RTKFIXED,0.000,0.000,4.7066,270.703003,-0.1100,0*5e1f89bb
#BESTVELA,FILE,0,31.0,FINESTEERING,2319,305062.400,02000000,10a2,17139;SOL_COMPUTED,INS_RTKFIXED,0.000,0.000,4.7562,270.302364,-0.1120,0*460330d1
#BESTVELA,FILE,0,31.0,FINESTEERING,2319,305062.450,02000000,10a2,17139;SOL_COMPUTED,INS_RTKFIXED,0.000,0.000,4.7998,270.008857,-0.1181,0*538f276c
#BESTVELA,FILE,0,31.0,FINESTEERING,2319,305062.500,02000000,10a2,17139;SOL_COMPUTED,INS_RTKFIXED,0.000,0.000,4.8507,269.807261,-0.1226,0*7852193c
#BESTVELA,FILE,0,31.0,FINESTEERING,2319,305062.550,02000000,10a2,17139;SOL_COMPUTED,INS_RTKFIXED,0.000,0.000,4.8942,269.473800,-0.1155,0*b27f304d
#BESTVELA,FILE,0,31.0,FINESTEERING,2319,305062.600,02000000,10a2,17139;SOL_COMPUTED,INS_RTKFIXED,0.000,0.000,4.9322,269.094631,-0.1039,0*8f858a96
#BESTVELA,FILE,0,31.0,FINESTEERING,2319,305062.650,02000000,10a2,17139;SOL_COMPUTED,INS_RTKFIXED,0.000,0.000,4.9667,268.854857,-0.0889,0*f725b5bd
#BESTVELA,FILE,0,31.0,FINESTEERING,2319,305062.700,02000000,10a2,17139;SOL_COMPUTED,INS_RTKFIXED,0.000,0.000,5.0052,268.548227,-0.0663,0*ac1ef9ed
#BESTVELA,FILE,0,31.0,FINESTEERING,2319,305062.750,02000000,10a2,17139;SOL_COMPUTED,INS_RTKFIXED,0.000,0.000,5.0440,268.698950,-0.0836,0*42132333
#BESTVELA,FILE,0,31.0,FINESTEERING,2319,305062.800,02000000,10a2,17139;SOL_COMPUTED,INS_RTKFIXED,0.000,0.000,5.0688,268.659859,0.0267,0*145fe670
#BESTVELA,FILE,0,31.0,FINESTEERING,2319,305062.850,02000000,10a2,17139;SOL_COMPUTED,INS_RTKFIXED,0.000,0.000,5.1145,268.728958,-0.0648,0*d6d1a446
#BESTVELA,FILE,0,31.0,FINESTEERING,2319,305062.900,02000000,10a2,17139;SOL_COMPUTED,INS_RTKFIXED,0.000,0.000,5.1413,268.500986,-0.0455,0*7ab34a37
#BESTVELA,FILE,0,31.0,FINESTEERING,2319,305062.950,02000000,10a2,17139;SOL_COMPUTED,INS_RTKFIXED,0.000,0.000,5.1676,268.611769,-0.0875,0*3480ed30
#BESTVELA,FILE,0,31.0,FINESTEERING,2319,305063.000,02000000,10a2,17139;SOL_COMPUTED,INS_RTKFIXED,0.000,0.000,5.1880,268.671693,-0.0881,0*82b97832
#BESTVELA,FILE,0,31.0,FINESTEERING,2319,305063.050,02000000,10a2,17139;SOL_COMPUTED,INS_RTKFIXED,0.000,0.000,5.2472,268.761901,-0.1056,0*7e815a94
#BESTVELA,FILE,0,31.0,FINESTEERING,2319,305063.100,02000000,10a2,17139;SOL_COMPUTED,INS_RTKFIXED,0.000,0.000,5.2727,268.373808,-0.0767,0*01d03221
#BESTVELA,FILE,0,31.0,FINESTEERING,2319,305063.150,02000000,10a2,17139;SOL_COMPUTED,INS_RTKFIXED,0.000,0.000,5.3344,268.531501,-0.0672,0*4dbb9799
#BESTVELA,FILE,0,31.0,FINESTEERING,2319,305063.200,02000000,10a2,17139;SOL_COMPUTED,INS_RTKFIXED,0.000,0.000,5.3654,268.406825,-0.0327,0*79ed3f73
#BESTVELA,FILE,0,31.0,FINESTEERING,2319,305063.250,02000000,10a2,17139;SOL_COMPUTED,INS_RTKFIXED,0.000,0.000,5.4256,268.573477,0.0048,0*e6d8fe3a
#BESTVELA,FILE,0,31.0,FINESTEERING,2319,305063.300,02000000,10a2,17139;SOL_COMPUTED,INS_RTKFIXED,0.000,0.000,5.4666,268.730089,0.0169,0*ebdf5bd5
#BESTVELA,FILE,0,31.0,FINESTEERING,2319,305063.350,02000000,10a2,17139;SOL_COMPUTED,INS_RTKFIXED,0.000,0.000,5.5107,268.766027,0.0227,0*9c8ea12f
#BESTVELA,FILE,0,31.0,FINESTEERING,2319,305063.400,02000000,10a2,17139;SOL_COMPUTED,INS_RTKFIXED,0.000,0.000,5.5354,268.594682,0.0275,0*0b919cdc
#BESTVELA,FILE,0,31.0,FINESTEERING,2319,305063.450,02000000,10a2,17139;SOL_COMPUTED,INS_RTKFIXED,0.000,0.000,5.5677,268.608852,0.0067,0*74a6092f
#BESTVELA,FILE,0,31.0,FINESTEERING,2319,305063.500,02000000,10a2,17139;SOL_COMPUTED,INS_RTKFIXED,0.000,0.000,5.5822,268.460754,-0.0048,0*b243e7e3
#BESTVELA,FILE,0,31.0,FINESTEERING,2319,305063.550,02000000,10a2,17139;SOL_COMPUTED,INS_RTKFIXED,0.000,0.000,5.6084,268.301929,-0.0024,0*324b0a0c
#BESTVELA,FILE,0,31.0,FINESTEERING,2319,305063.600,02000000,10a2,17139;SOL_COMPUTED,INS_RTKFIXED,0.000,0.000,5.6207,268.213836,-0.0069,0*09d81b3d
#BESTVELA,FILE,0,31.0,FINESTEERING,2319,305063.650,02000000,10a2,17139;SOL_COMPUTED,INS_RTKFIXED,0.000,0.000,5.6435,268.397228,-0.0128,0*0af0d07e
#BESTVELA,FILE,0,31.0,FINESTEERING,2319,305063.700,02000000,10a2,17139;SOL_COMPUTED,INS_RTKFIXED,0.000,0.000,5.6575,268.710331,-0.0255,0*adb047eb
#BESTVELA,FILE,0,31.0,FINESTEERING,2319,305063.750,02000000,10a2,17139;SOL_COMPUTED,INS_RTKFIXED,0.000,0.000,5.6652,268.799445,-0.0134,0*15a48dff
#BESTVELA,FILE,0,31.0,FINESTEERING,2319,305063.800,02000000,10a2,17139;SOL_COMPUTED,INS_RTKFIXED,0.000,0.000,5.6828,269.214271,-0.0283,0*2a6edee8
#BESTVELA,FILE,0,31.0,FINESTEERING,2319,305063.850,02000000,10a2,17139;SOL_COMPUTED,INS_RTKFIXED,0.000,0.000,5.6912,269.342929,-0.0173,0*265b2492
#BESTVELA,FILE,0,31.0,FINESTEERING,2319,305063.900,02000000,10a2,17139;SOL_COMPUTED,INS_RTKFIXED,0.000,0.000,5.7017,269.520008,-0.0155,0*b84d9f44
#BESTVELA,FILE,0,31.0,FINESTEERING,2319,305063.950,02000000,10a2,17139;SOL_COMPUTED,INS_RTKFIXED,0.000,0.000,5.7052,269.665174,-0.0132,0*841ef343
#BESTVELA,FILE,0,31.0,FINESTEERING,2319,305064.000,02000000,10a2,17139;SOL_COMPUTED,INS_RTKFIXED,0.000,0.000,5.7057,269.841551,-0.0280,0*9c4ec625
#BESTVELA,FILE,0,31.0,FINESTEERING,2319,305064.050,02000000,10a2,17139;SOL_COMPUTED,INS_RTKFIXED,0.000,0.000,5.7149,269.743550,-0.0244,0*7dde3059
#BESTVELA,FILE,0,31.0,FINESTEERING,2319,305064.100,02000000,10a2,17139;SOL_COMPUTED,INS_RTKFIXED,0.000,0.000,5.7163,269.915573,-0.0303,0*99955cee
#BESTVELA,FILE,0,32.0,FINESTEERING,2319,305064.150,02000000,10a2,17139;SOL_COMPUTED,INS_RTKFIXED,0.000,0.000,5.7165,270.003596,-0.0325,0*eb1f6131
#BESTVELA,FILE,0,32.0,FINESTEERING,2319,305064.200,02000000,10a2,17139;SOL_COMPUTED,INS_RTKFIXED,0.000,0.000,5.7173,269.948671,-0.0166,0*c0821119
#BESTVELA,FILE,0,32.0,FINESTEERING,2319,305064.250,02000000,10a2,17139;SOL_COMPUTED,INS_RTKFIXED,0.000,0.000,5.7184,270.104937,-0.0269,0*7cbe70bd
#BESTVELA,FILE,0,32.0,FINESTEERING,2319,305064.300,02000000,10a2,17139;SOL_COMPUTED,INS_RTKFIXED,0.000,0.000,5.7279,269.951581,-0.0054,0*9f11bf1e
#BESTVELA,FILE,0,32.0,FINESTEERING,2319,305064.350,02000000,10a2,17139;SOL_COMPUTED,INS_RTKFIXED,0.000,0.000,5.7376,270.263003,-0.0133,0*ca2dad5c
#BESTVELA,FILE,0,32.0,FINESTEERING,2319,305064.400,02000000,10a2,17139;SOL_COMPUTED,INS_RTKFIXED,0.000,0.000,5.7476,270.323039,-0.0147,0*e4ab1c0d
#BESTVELA,FILE,0,32.0,FINESTEERING,2319,305064.450,02000000,10a2,17139;SOL_COMPUTED,INS_RTKFIXED,0.000,0.000,5.7613,270.420601,-0.0234,0*7c63f672
#BESTVELA,FILE,0,32.0,FINESTEERING,2319,305064.500,02000000,10a2,17139;SOL_COMPUTED,INS_RTKFIXED,0.000,0.000,5.7699,270.492472,-0.0377,0*5eac0148
#BESTVELA,FILE,0,32.0,FINESTEERING,2319,305064.550,02000000,10a2,17139;SOL_COMPUTED,INS_RTKFIXED,0.000,0.000,5.7761,270.511913,-0.0391,0*53269ec9
#BESTVELA,FILE,0,32.0,FINESTEERING,2319,305064.600,02000000,10a2,17139;SOL_COMPUTED,INS_RTKFIXED,0.000,0.000,5.7829,270.685443,-0.0388,0*583dad35
#BESTVELA,FILE,0,32.0,FINESTEERING,2319,305064.650,02000000,10a2,17139;SOL_COMPUTED,INS_RTKFIXED,0.000,0.000,5.7828,270.756133,-0.0436,0*b4bb4d08
#BESTVELA,FILE,0,32.0,FINESTEERING,2319,305064.700,02000000,10a2,17139;SOL_COMPUTED,INS_RTKFIXED,0.000,0.000,5.7781,270.846647,-0.0381,0*4d3afa69
#BESTVELA,FILE,0,32.0,FINESTEERING,2319,305064.750,02000000,10a2,17139;SOL_COMPUTED,INS_RTKFIXED,0.000,0.000,5.7624,270.907906,-0.0308,0*2f9ea113
#BESTVELA,FILE,0,32.0,FINESTEERING,2319,305064.800,02000000,10a2,17139;SOL_COMPUTED,INS_RTKFIXED,0.000,0.000,5.7376,270.912109,-0.0440,0*1654587a
#BESTVELA,FILE,0,32.0,FINESTEERING,2319,305064.850,02000000,10a2,17139;SOL_COMPUTED,INS_RTKFIXED,0.000,0.000,5.7245,270.860651,-0.0670,0*e82cf1b9
#BESTVELA,FILE,0,32.0,FINESTEERING,2319,305064.900,02000000,10a2,17139;SOL_COMPUTED,INS_RTKFIXED,0.000,0.000,5.7025,270.934745,-0.0918,0*b0c193a4
#BESTVELA,FILE,0,32.0,FINESTEERING,2319,305064.950,02000000,10a2,17139;SOL_COMPUTED,INS_RTKFIXED,0.000,0.000,5.6833,271.015098,-0.1126,0*318b5995
#BESTVELA,FILE,0,32.0,FINESTEERING,2319,305065.000,02000000,10a2,17139;SOL_COMPUTED,INS_RTKFIXED,0.000,0.000,5.6581,271.178562,-0.1135,0*bfeabdc6
#BESTVELA,FILE,0,32.0,FINESTEERING,2319,305065.050,02000000,10a2,17139;SOL_COMPUTED,INS_RTKFIXED,0.000,0.000,5.6269,271.150969,-0.1059,0*3a36edc1
#BESTVELA,FILE,0,31.0,FINESTEERING,2319,305065.100,02000000,10a2,17139;SOL_COMPUTED,INS_RTKFIXED,0.000,0.000,5.6099,271.202735,-0.1157,0*d08b1ec8
#BESTVELA,FILE,0,31.0,FINESTEERING,2319,305065.150,02000000,10a2,17139;SOL_COMPUTED,INS_RTKFIXED,0.000,0.000,5.6003,271.286406,-0.1176,0*21ab0f99
#BESTVELA,FILE,0,31.0,FINESTEERING,2319,305065.200,02000000,10a2,17139;SOL_COMPUTED,INS_RTKFIXED,0.000,0.000,5.5902,271.444023,-0.1199,0*6eff30df
#BESTVELA,FILE,0,31.0,FINESTEERING,2319,305065.250,02000000,10a2,17139;SOL_COMPUTED,INS_RTKFIXED,0.000,0.000,5.5776,271.606032,-0.1044,0*843d4e9f
#BESTVELA,FILE,0,31.0,FINESTEERING,2319,305065.300,02000000,10a2,17139;SOL_COMPUTED,INS_RTKFIXED,0.000,0.000,5.5671,271.727651,-0.0842,0*65262fd0
#BESTVELA,FILE,0,31.0,FINESTEERING,2319,305065.350,02000000,10a2,17139;SOL_COMPUTED,INS_RTKFIXED,0.000,0.000,5.5503,271.917041,-0.0835,0*245798b6
#BESTVELA,FILE,0,31.0,FINESTEERING,2319,305065.400,02000000,10a2,17139;SOL_COMPUTED,INS_RTKFIXED,0.000,0.000,5.5405,271.908653,-0.0710,0*41371708
#BESTVELA,FILE,0,31.0,FINESTEERING,2319,305065.450,02000000,10a2,17139;SOL_COMPUTED,INS_RTKFIXED,0.000,0.000,5.5326,271.987175,-0.0613,0*a8a68df6
#BESTVELA,FILE,0,31.0,FINESTEERING,2319,305065.500,02000000,10a2,17139;SOL_COMPUTED,INS_RTKFIXED,0.000,0.000,5.5214,272.014577,-0.0471,0*3fbff155
#BESTVELA,FILE,0,31.0,FINESTEERING,2319,305065.550,02000000,10a2,17139;SOL_COMPUTED,INS_RTKFIXED,0.000,0.000,5.5065,272.057825,-0.0371,0*976a9d0f
#BESTVELA,FILE,0,31.0,FINESTEERING,2319,305065.600,02000000,10a2,17139;SOL_COMPUTED,INS_RTKFIXED,0.000,0.000,5.4952,272.160670,-0.0352,0*6c957b59
#BESTVELA,FILE,0,31.0,FINESTEERING,2319,305065.650,02000000,10a2,17139;SOL_COMPUTED,INS_RTKFIXED,0.000,0.000,5.4735,272.280934,-0.0450,0*b4a70e80
#BESTVELA,FILE,0,31.0,FINESTEERING,2319,305065.700,02000000,10a2,17139;SOL_COMPUTED,INS_RTKFIXED,0.000,0.000,5.4513,272.406884,-0.0502,0*8482d6e0
#BESTVELA,FILE,0,31.0,FINESTEERING,2319,305065.750,02000000,10a2,17139;SOL_COMPUTED,INS_RTKFIXED,0.000,0.000,5.4360,272.377499,-0.0515,0*24500008
#BESTVELA,FILE,0,31.0,FINESTEERING,2319,305065.800,02000000,10a2,17139;SOL_COMPUTED,INS_RTKFIXED,0.000,0.000,5.4164,272.563643,-0.0512,0*e87b90b3
#BESTVELA,FILE,0,31.0,FINESTEERING,2319,305065.850,02000000,10a2,17139;SOL_COMPUTED,INS_RTKFIXED,0.000,0.000,5.3959,272.612183,-0.0432,0*637e2618
#BESTVELA,FILE,0,31.0,FINESTEERING,2319,305065.900,02000000,10a2,17139;SOL_COMPUTED,INS_RTKFIXED,0.000,0.000,5.3809,272.713022,-0.0368,0*83c83cfb
#BESTVELA,FILE,0,31.0,FINESTEERING,2319,305065.950,02000000,10a2,17139;SOL_COMPUTED,INS_RTKFIXED,0.000,0.000,5.3654,272.741189,-0.0403,0*06cb0605
#BESTVELA,FILE,0,31.0,FINESTEERING,2319,305066.000,02000000,10a2,17139;SOL_COMPUTED,INS_RTKFIXED,0.000,0.000,5.3409,272.806184,-0.0425,0*0958d8b3
#BESTVELA,FILE,0,31.0,FINESTEERING,2319,305066.050,02000000,10a2,17139;SOL_COMPUTED,INS_RTKFIXED,0.000,0.000,5.3268,272.876475,-0.0484,0*cb6d848e
#BESTVELA,FILE,0,31.0,FINESTEERING,2319,305066.100,02000000,10a2,17139;SOL_COMPUTED,INS_RTKFIXED,0.000,0.000,5.3078,272.877468,-0.0436,0*27031290
#BESTVELA,FILE,0,32.5,FINESTEERING,2319,305066.150,02000000,10a2,17139;SOL_COMPUTED,INS_RTKFIXED,0.000,0.000,5.2874,272.891932,-0.0477,0*9195bd2e
#BESTVELA,FILE,0,32.5,FINESTEERING,2319,305066.200,02000000,10a2,17139;SOL_COMPUTED,INS_RTKFIXED,0.000,0.000,5.2729,272.830849,-0.0437,0*9bcd48bd
#BESTVELA,FILE,0,32.5,FINESTEERING,2319,305066.250,02000000,10a2,17139;SOL_COMPUTED,INS_RTKFIXED,0.000,0.000,5.2468,272.866739,-0.0368,0*1109e862
#BESTVELA,FILE,0,32.5,FINESTEERING,2319,305066.300,02000000,10a2,17139;SOL_COMPUTED,INS_RTKFIXED,0.000,0.000,5.2269,273.058920,-0.0489,0*0e15745f
#BESTVELA,FILE,0,32.5,FINESTEERING,2319,305066.350,02000000,10a2,17139;SOL_COMPUTED,INS_RTKFIXED,0.000,0.000,5.2170,272.931724,-0.0374,0*a693a8f5
#BESTVELA,FILE,0,32.5,FINESTEERING,2319,305066.400,02000000,10a2,17139;SOL_COMPUTED,INS_RTKFIXED,0.000,0.000,5.2065,272.875841,-0.0281,0*2443e470
#BESTVELA,FILE,0,32.5,FINESTEERING,2319,305066.450,02000000,10a2,17139;SOL_COMPUTED,INS_RTKFIXED,0.000,0.000,5.2015,272.744831,-0.0233,0*23de4437
#BESTVELA,FILE,0,32.5,FINESTEERING,2319,305066.500,02000000,10a2,17139;SOL_COMPUTED,INS_RTKFIXED,0.000,0.000,5.1975,272.559289,-0.0135,0*24ce71ec
#BESTVELA,FILE,0,32.5,FINESTEERING,2319,305066.550,02000000,10a2,17139;SOL_COMPUTED,INS_RTKFIXED,0.000,0.000,5.1880,272.350972,-0.0112,0*af3eb983
#BESTVELA,FILE,0,32.5,FINESTEERING,2319,305066.600,02000000,10a2,17139;SOL_COMPUTED,INS_RTKFIXED,0.000,0.000,5.1692,272.187028,-0.0085,0*a11584f1
#BESTVELA,FILE,0,32.5,FINESTEERING,2319,305066.650,02000000,10a2,17139;SOL_COMPUTED,INS_RTKFIXED,0.000,0.000,5.1465,272.016899,-0.0104,0*ee4a6749
#BESTVELA,FILE,0,32.5,FINESTEERING,2319,305066.700,02000000,10a2,17139;SOL_COMPUTED,INS_RTKFIXED,0.000,0.000,5.1187,271.881923,-0.0175,0*2a43ef5a
#BESTVELA,FILE,0,32.5,FINESTEERING,2319,305066.750,02000000,10a2,17139;SOL_COMPUTED,INS_RTKFIXED,0.000,0.000,5.0956,271.596472,-0.0135,0*46c52dff
#BESTVELA,FILE,0,32.5,FINESTEERING,2319,305066.800,02000000,10a2,17139;SOL_COMPUTED,INS_RTKFIXED,0.000,0.000,5.0726,271.287476,0.0034,0*e786e6a9
#BESTVELA,FILE,0,32.5,FINESTEERING,2319,305066.850,02000000,10a2,17139;SOL_COMPUTED,INS_RTKFIXED,0.000,0.000,5.0405,270.981767,0.0088,0*cdc9f99b
#BESTVELA,FILE,0,32.5,FINESTEERING,2319,305066.900,02000000,10a2,17139;SOL_COMPUTED,INS_RTKFIXED,0.000,0.000,5.0095,270.748728,-0.0130,0*75426ba3
#BESTVELA,FILE,0,32.5,FINESTEERING,2319,305066.950,02000000,10a2,17139;SOL_COMPUTED,INS_RTKFIXED,0.000,0.000,4.9625,270.374610,-0.0231,0*3e9e7828
#BESTVELA,FILE,0,32.5,FINESTEERING,2319,305067.000,02000000,10a2,17139;SOL_COMPUTED,INS_RTKFIXED,0.000,0.000,4.9296,270.225958,-0.0576,0*5e21a561
#BESTVELA,FILE,0,32.5,FINESTEERING,2319,305067.050,02000000,10a2,17139;SOL_COMPUTED,INS_RTKFIXED,0.000,0.000,4.8789,269.936923,-0.0763,0*a46f87a1
#BESTVELA,FILE,0,32.5,FINESTEERING,2319,305067.100,02000000,10a2,17139;SOL_COMPUTED,INS_RTKFIXED,0.000,0.000,4.8369,269.518557,-0.0819,0*1f531587
#BESTVELA,FILE,0,32.5,FINESTEERING,2319,305067.150,02000000,10a2,17139;SOL_COMPUTED,INS_RTKFIXED,0.000,0.000,4.8047,269.107186,-0.0799,0*51ea55e5
#BESTVELA,FILE,0,32.5,FINESTEERING,2319,305067.200,02000000,10a2,17139;SOL_COMPUTED,INS_RTKFIXED,0.000,0.000,4.7757,268.554981,-0.0650,0*19e535a2
#BESTVELA,FILE,0,32.5,FINESTEERING,2319,305067.250,02000000,10a2,17139;SOL_COMPUTED,INS_RTKFIXED,0.000,0.000,4.7469,268.018300,-0.0369,0*dd844a5a
#BESTVELA,FILE,0,32.5,FINESTEERING,2319,305067.300,02000000,10a2,17139;SOL_COMPUTED,INS_RTKFIXED,0.000,0.000,4.7257,267.386921,-0.0220,0*af14ae67
#BESTVELA,FILE,0,32.5,FINESTEERING,2319,305067.350,02000000,10a2,17139;SOL_COMPUTED,INS_RTKFIXED,0.000,0.000,4.6999,266.768161,0.0024,0*3d71653c
#BESTVELA,FILE,0,32.5,FINESTEERING,2319,305067.400,02000000,10a2,17139;SOL_COMPUTED,INS_RTKFIXED,0.000,0.000,4.6703,266.350434,-0.0068,0*7f078128
#BESTVELA,FILE,0,32.5,FINESTEERING,2319,305067.450,02000000,10a2,17139;SOL_COMPUTED,INS_RTKFIXED,0.000,0.000,4.6377,265.909175,-0.0111,0*1c9d214a
#BESTVELA,FILE,0,32.5,FINESTEERING,2319,305067.500,02000000,10a2,17139;SOL_COMPUTED,INS_RTKFIXED,0.000,0.000,4.5904,265.195816,-0.0128,0*19a01597
#BESTVELA,FILE,0,32.5,FINESTEERING,2319,305067.550,02000000,10a2,17139;SOL_COMPUTED,INS_RTKFIXED,0.000,0.000,4.5716,264.586606,-0.0189,0*ecd7f8c8
#BESTVELA,FILE,0,32.5,FINESTEERING,2319,305067.600,02000000,10a2,17139;SOL_COMPUTED,INS_RTKFIXED,0.000,0.000,4.5268,263.866961,-0.0225,0*037c69f4
#BESTVELA,FILE,0,32.5,FINESTEERING,2319,305067.650,02000000,10a2,17139;SOL_COMPUTED,INS_RTKFIXED,0.000,0.000,4.4895,263.032370,-0.0234,0*7a983b3b
#BESTVELA,FILE,0,32.5,FINESTEERING,2319,305067.700,02000000,10a2,17139;SOL_COMPUTED,INS_RTKFIXED,0.000,0.000,4.4474,261.946006,-0.0265,0*c1acffa9
#BESTVELA,FILE,0,32.5,FINESTEERING,2319,305067.750,02000000,10a2,17139;SOL_COMPUTED,INS_RTKFIXED,0.000,0.000,4.3939,260.979229,-0.0276,0*193bb4e8
#BESTVELA,FILE,0,32.5,FINESTEERING,2319,305067.800,02000000,10a2,17139;SOL_COMPUTED,INS_RTKFIXED,0.000,0.000,4.3519,260.131709,-0.0298,0*3da15e48
#BESTVELA,FILE,0,32.5,FINESTEERING,2319,305067.850,02000000,10a2,17139;SOL_COMPUTED,INS_RTKFIXED,0.000,0.000,4.3136,259.319404,-0.0217,0*49963f19
#BESTVELA,FILE,0,32.5,FINESTEERING,2319,305067.900,02000000,10a2,17139;SOL_COMPUTED,INS_RTKFIXED,0.000,0.000,4.2789,258.408573,-0.0194,0*7743214d
#BESTVELA,FILE,0,32.5,FINESTEERING,2319,305067.950,02000000,10a2,17139;SOL_COMPUTED,INS_RTKFIXED,0.000,0.000,4.2397,257.439904,-0.0241,0*93304d0c
#BESTVELA,FILE,0,32.5,FINESTEERING,2319,305068.000,02000000,10a2,17139;SOL_COMPUTED,INS_RTKFIXED,0.000,0.000,4.1969,256.483245,-0.0318,0*6b19e795
#BESTVELA,FILE,0,32.5,FINESTEERING,2319,305068.050,02000000,10a2,17139;SOL_COMPUTED,INS_RTKFIXED,0.000,0.000,4.1556,255.296784,-0.0204,0*78ee9dd5
#BESTVELA,FILE,0,30.5,FINESTEERING,2319,305068.100,02000000,10a2,17139;SOL_COMPUTED,INS_RTKFIXED,0.000,0.000,4.1145,254.197753,-0.0163,0*eb16fb09
