#CORRIMUDATAA,FILE,0,37.0,FINESTEERING,2319,305045.900,02000800,e5fc,17139;2319,305045.900000000,-0.0000490977023371,-0.0000348803921054,0.0000055338357761,0.0001098880212832,-0.0001240034679307,-0.0008991026383650*6b198a15
#CORRIMUDATAA,FILE,0,37.0,FINESTEERING,2319,305045.950,02000800,e5fc,17139;2319,305045.950000000,0.0000090575580039,-0.0000412498801698,-0.0000041863410504,0.0001775858275772,-0.0005341963784148,-0.0016708324235231*234efa32
#CORRIMUDATAA,FILE,0,37.0,FINESTEERING,2319,305046.050,02000800,e5fc,17139;2319,305046.050000000,0.0000395191519707,0.0000081700597153,-0.0000032484601258,0.0006506124323738,0.0004448640346250,0.0007237423758290*9ab59f17
#CORRIMUDATAA,FILE,0,37.0,FINESTEERING,2319,305046.150,02000800,e5fc,17139;2319,305046.150000000,-0.0000241650151650,0.0000054409698080,0.0000025106212075,-0.0003886395480180,0.0005266900601997,-0.0000490761873705*87b265ad
#CORRIMUDATAA,FILE,0,37.5,FINESTEERING,2319,305046.250,02000800,e5fc,17139;2319,305046.250000000,-0.0000090649315572,0.0000005900166560,-0.0000012137954218,0.0001534883372922,-0.0004552918445073,-0.0005826139022728*00f36e32
#CORRIMUDATAA,FILE,0,37.5,FINESTEERING,2319,305046.350,02000800,e5fc,17139;2319,305046.350000000,0.0000217699643576,0.0000141885509276,0.0000053809440594,0.0001515616190885,-0.0001774850896578,0.0007357725013615*f55999f7
#CORRIMUDATAA,FILE,0,37.5,FINESTEERING,2319,305046.500,02000800,e5fc,17139;2319,305046.500000000,-0.0000086360259535,0.0000243977028981,0.0000016228613619,-0.0005759878065873,0.0005576790598452,-0.0008065983967400*9ad1239a
#CORRIMUDATAA,FILE,0,37.5,FINESTEERING,2319,305046.600,02000800,e5fc,17139;2319,305046.600000000,-0.0000060721827650,0.0000006248704571,-0.0000037165884608,-0.0000038727937678,-0.0004680417944794,0.0004563146756868*20360190
#CORRIMUDATAA,FILE,0,37.5,FINESTEERING,2319,305046.700,02000800,e5fc,17139;2319,305046.700000000,0.0000120013750398,-0.0000295934960995,0.0000058449560799,-0.0002952963859031,0.0001471313555018,0.0006701127808791*d2d6d231
#CORRIMUDATAA,FILE,0,37.5,FINESTEERING,2319,305046.800,02000800,e5fc,17139;2319,305046.800000000,-0.0000282116999153,-0.0000372779588264,0.0000000092518850,-0.0000560882957816,0.0002725116841589,0.0000517652582692*3175cb96
#CORRIMUDATAA,FILE,0,37.5,FINESTEERING,2319,305046.950,02000800,e5fc,17139;2319,305046.950000000,0.0000350080654571,0.0000217479716782,-0.0000016384892036,0.0007441785415849,-0.0001309009504501,0.0000196511746966*f7506921
#CORRIMUDATAA,FILE,0,37.5,FINESTEERING,2319,305047.050,02000800,e5fc,17139;2319,305047.050000000,0.0000002410604315,0.0000358110388509,0.0000141833836138,-0.0002510705424702,0.0010532967635484,-0.0001652963597095*accf629e
#CORRIMUDATAA,FILE,0,37.0,FINESTEERING,2319,305047.100,02000800,e5fc,17139;2319,305047.100000000,0.0000070626310345,0.0000093751903696,0.0000076458637995,-0.0008746778130597,0.0005554819911106,0.0000443647684538*af8d5b7b
#CORRIMUDATAA,FILE,0,37.0,FINESTEERING,2319,305047.200,02000800,e5fc,17139;2319,305047.200000000,-0.0000177790365861,0.0000039654091691,-0.0000011881413958,-0.0001025141510898,-0.0009285840566274,-0.0001993531032389*c50d25ef
#CORRIMUDATAA,FILE,0,37.0,FINESTEERING,2319,305047.300,02000800,e5fc,17139;2319,305047.300000000,0.0000123304560067,-0.0000352555043667,-0.0000031133814993,-0.0005189818902945,0.0002908654744713,-0.0002969784726814*fd7142a2
#CORRIMUDATAA,FILE,0,37.0,FINESTEERING,2319,305047.400,02000800,e5fc,17139;2319,305047.400000000,-0.0000071750240222,-0.0000100976590331,-0.0000148304778635,0.0005023589736037,0.0000072565368720,0.0005834477266812*f451490e
#CORRIMUDATAA,FILE,0,37.0,FINESTEERING,2319,305047.500,02000800,e5fc,17139;2319,305047.500000000,-0.0000128855156968,-0.0000156351811146,0.0000165494930148,-0.0000292320795648,-0.0002057891212835,0.0000216587358518*e9e37a17
#CORRIMUDATAA,FILE,0,37.0,FINESTEERING,2319,305047.600,02000800,e5fc,17139;2319,305047.600000000,0.0000212153376354,0.0000218957067885,-0.0000119215110986,0.0000048066788292,0.0000951390172789,-0.0003236440854257*ba6b20d8
#CORRIMUDATAA,FILE,0,37.0,FINESTEERING,2319,305047.700,02000800,e5fc,17139;2319,305047.700000000,-0.0000139261843145,0.0000229053918008,-0.0000007994854454,0.0001503568843609,-0.0003081368819349,0.0005204676947599*731c27d0
#CORRIMUDATAA,FILE,0,37.0,FINESTEERING,2319,305047.800,02000800,e5fc,17139;2319,305047.800000000,-0.0000027391243255,-0.0000050608115206,0.0000184039451370,-0.0006392916060308,-0.0008980319389906,-0.0009879873680050*927845d9
#CORRIMUDATAA,FILE,0,37.0,FINESTEERING,2319,305047.900,02000800,e5fc,17139;2319,305047.900000000,0.0000669743774047,-0.0000298886754756,-0.0000110150718219,-0.0003000713778778,0.0001332426656456,-0.0013376497868902*aa54dfe9
#CORRIMUDATAA,FILE,0,37.0,FINESTEERING,2319,305048.000,02000800,e5fc,17139;2319,305048.000000000,0.0001895894508993,-0.0000869776597332,-0.0000596955220289,-0.0028576940911015,0.0043433615243998,-0.0046787612013355*238a73ff
#CORRIMUDATAA,FILE,0,37.0,FINESTEERING,2319,305048.100,02000800,e5fc,17139;2319,305048.100000000,0.0006197409350210,-0.0000665392180756,-0.0003365319904251,0.0023857764628559,0.0136214348320162,-0.0099150145323049*1bfcc7e2
#CORRIMUDATAA,FILE,0,37.5,FINESTEERING,2319,305048.200,02000800,e5fc,17139;2319,305048.200000000,0.0008256743176960,-0.0000987090519236,-0.0000573329425295,0.0048728131700471,0.0207648169850611,0.0021281836730850*0fac7a84
#CORRIMUDATAA,FILE,0,37.5,FINESTEERING,2319,305048.250,02000800,e5fc,17139;2319,305048.250000000,0.0007589850860485,-0.0000461272016471,0.0000295146333730,0.0008192740422041,0.0258988754942019,0.0053868157043157*7c2a15b1
#CORRIMUDATAA,FILE,0,37.5,FINESTEERING,2319,305048.350,02000800,e5fc,17139;2319,305048.350000000,0.0004159360539720,-0.0002089528649008,-0.0002518457528561,-0.0036541487669592,0.0312809221215653,0.0110629043893788*cde2312e
#CORRIMUDATAA,FILE,0,37.5,FINESTEERING,2319,305048.450,02000800,e5fc,17139;2319,305048.450000000,-0.0001224490348538,-0.0000847345541214,-0.0004711953732630,0.0030319414271719,0.0245059318260436,0.0073921887044575*a70ed4da
#CORRIMUDATAA,FILE,0,37.5,FINESTEERING,2319,305048.550,02000800,e5fc,17139;2319,305048.550000000,-0.0006158613184765,0.0000001338317676,-0.0002092938868841,0.0043250086754071,0.0142542760944567,0.0035501404942039*7861bc0c
#CORRIMUDATAA,FILE,0,37.5,FINESTEERING,2319,305048.650,02000800,e5fc,17139;2319,305048.650000000,-0.0000255666623678,-0.0001229256333119,-0.0004184234249834,-0.0041733934460618,0.0299782603422471,-0.0165082859019086*4bb316b9
#CORRIMUDATAA,FILE,0,37.5,FINESTEERING,2319,305048.700,02000800,e5fc,17139;2319,305048.700000000,0.0001822876918036,-0.0000372797375071,-0.0006265725582398,-0.0023026288383602,0.0240380613380387,-0.0081100432405097*4e63c4d6
#CORRIMUDATAA,FILE,0,37.5,FINESTEERING,2319,305048.850,02000800,e5fc,17139;2319,305048.850000000,-0.0000566398153561,-0.0001445042392297,-0.0006884717085343,0.0018395505346117,0.0228522188560518,-0.0010876212909025*2db81ca5
#CORRIMUDATAA,FILE,0,37.5,FINESTEERING,2319,305048.950,02000800,e5fc,17139;2319,305048.950000000,0.0000727717214363,-0.0002173572694034,-0.0009107885981933,-0.0022692996046129,0.0217725653786805,0.0049657674170979*f32dac65
#CORRIMUDATAA,FILE,0,37.5,FINESTEERING,2319,305049.050,02000800,e5fc,17139;2319,305049.050000000,-0.0001886472946892,-0.0001894166886078,-0.0012617137147760,0.0004220140050984,0.0192392394349852,0.0008640878707582*e919d39b
#CORRIMUDATAA,FILE,0,37.0,FINESTEERING,2319,305049.150,02000800,e5fc,17139;2319,305049.150000000,0.0000804727097440,-0.0001119472596376,-0.0016019221035565,0.0022480219880198,0.0270074382127880,-0.0050158353696685*b9e40d3e
#CORRIMUDATAA,FILE,0,37.0,FINESTEERING,2319,305049.200,02000800,e5fc,17139;2319,305049.200000000,0.0001599299604326,-0.0000090438129764,-0.0017772174138715,0.0017599576554434,0.0244842936141940,-0.0020286997002045*b79c60e1
#CORRIMUDATAA,FILE,0,37.0,FINESTEERING,2319,305049.350,02000800,e5fc,17139;2319,305049.350000000,0.0000154542871553,0.0000474597267250,-0.0024066584285232,-0.0012947548700274,0.0236486224883026,0.0004471919417170*53bfefb9
#CORRIMUDATAA,FILE,0,37.0,FINESTEERING,2319,305049.450,02000800,e5fc,17139;2319,305049.450000000,0.0000206624932719,0.0001067067923679,-0.0027879993520522,0.0032865812401739,0.0201088592837151,0.0041681618868030*dafb0b67
#CORRIMUDATAA,FILE,0,37.0,FINESTEERING,2319,305049.500,02000800,e5fc,17139;2319,305049.500000000,-0.0000796492791001,0.0000179589219936,-0.0028483411517009,0.0035443854545252,0.0190595938960073,0.0018365599582695*a889f176
#CORRIMUDATAA,FILE,0,37.0,FINESTEERING,2319,305049.550,02000800,e5fc,17139;2319,305049.550000000,-0.0000944838508872,0.0000329117264457,-0.0028991586916402,0.0023280928302309,0.0196257112976028,0.0005917175418446*40dea1a7
#CORRIMUDATAA,FILE,0,37.0,FINESTEERING,2319,305049.600,02000800,e5fc,17139;2319,305049.600000000,-0.0000983674714564,0.0000682447238174,-0.0030095798124801,0.0016177275581288,0.0196128206462062,0.0021882578851635*439ecc81
#CORRIMUDATAA,FILE,0,37.0,FINESTEERING,2319,305049.650,02000800,e5fc,17139;2319,305049.650000000,-0.0001354776427914,0.0000662691713806,-0.0031561634310852,0.0012012097830540,0.0173016940219323,0.0016846521407940*42391d18
#CORRIMUDATAA,FILE,0,37.0,FINESTEERING,2319,305049.700,02000800,e5fc,17139;2319,305049.700000000,-0.0001327430756056,0.0001460040306598,-0.0033177951645632,0.0023062617433658,0.0172147156210337,0.0006183148135065*d011624a
#CORRIMUDATAA,FILE,0,37.0,FINESTEERING,2319,305049.750,02000800,e5fc,17139;2319,305049.750000000,-0.0000970768805140,0.0001135689729661,-0.0034640184385815,0.0022409784515024,0.0169587410534538,0.0007210370818397*2b748534
#CORRIMUDATAA,FILE,0,37.0,FINESTEERING,2319,305049.800,02000800,e5fc,17139;2319,305049.800000000,-0.0000270523456736,0.0001524961307864,-0.0036020820377923,0.0018488055996361,0.0179520555445057,-0.0020213266342430*49225bbf
#CORRIMUDATAA,FILE,0,37.0,FINESTEERING,2319,305049.850,02000800,e5fc,17139;2319,305049.850000000,0.0000618579320764,0.0001901016757000,-0.0037087610138360,0.0035386654694119,0.0186447718091862,-0.0016968994093234*53af236d
#CORRIMUDATAA,FILE,0,37.0,FINESTEERING,2319,305049.900,02000800,e5fc,17139;2319,305049.900000000,0.0000904092253556,0.0001851976213471,-0.0037585907952687,0.0042523421514619,0.0188397187654550,-0.0019231106918861*e23eb85c
#CORRIMUDATAA,FILE,0,37.0,FINESTEERING,2319,305049.950,02000000,e5fc,17139;2319,305049.950000000,0.0001023918588703,0.0001099072869810,-0.0037832449168894,0.0041864723832681,0.0194934741538480,-0.0010042267306133*21c56631
#CORRIMUDATAA,FILE,0,37.0,FINESTEERING,2319,305050.000,02000000,e5fc,17139;2319,305050.000000000,0.0000901806168950,0.0000639992368112,-0.0038323710122320,0.0025669721491281,0.0211706372911232,0.0002219998843149*35baede2
#CORRIMUDATAA,FILE,0,37.0,FINESTEERING,2319,305050.050,02000000,e5fc,17139;2319,305050.050000000,0.0001600148047212,-0.0000766280445303,-0.0039472932339306,0.0024009583335328,0.0246972358894142,-0.0014853151689973*1ad2e5f3
#CORRIMUDATAA,FILE,0,34.5,FINESTEERING,2319,305050.100,02000000,e5fc,17139;2319,305050.100000000,0.0001726089970927,-0.0002137985931430,-0.0041060711841554,0.0021736340489068,0.0273526567273473,-0.0025019861181848*893f7084
#CORRIMUDATAA,FILE,0,34.5,FINESTEERING,2319,305050.150,02000000,e5fc,17139;2319,305050.150000000,0.0001801862454449,-0.0001910821285770,-0.0042583882596900,0.0024648332495128,0.0284345962402768,-0.0017019038808558*6bfedd92
#CORRIMUDATAA,FILE,0,34.5,FINESTEERING,2319,305050.200,02000000,e5fc,17139;2319,305050.200000000,0.0002244002903754,-0.0001854219211940,-0.0043775398457305,0.0044355618886573,0.0295255397756450,-0.0003140241088528*45a0c43f
#CORRIMUDATAA,FILE,0,34.5,FINESTEERING,2319,305050.250,02000000,e5fc,17139;2319,305050.250000000,0.0003630946727452,-0.0001669790757357,-0.0044655868269268,0.0061116638267698,0.0341336928252700,-0.0022635039356974*788dd1cd
#CORRIMUDATAA,FILE,0,34.5,FINESTEERING,2319,305050.300,02000000,e5fc,17139;2319,305050.300000000,0.0004978577702144,-0.0001511864492360,-0.0045526175226980,0.0074937767721505,0.0385145888596415,-0.0026713443239417*cf7f8f1e
#CORRIMUDATAA,FILE,0,34.5,FINESTEERING,2319,305050.350,02000000,e5fc,17139;2319,305050.350000000,0.0006353251598537,-0.0001817942228304,-0.0046229334375341,0.0071942192723295,0.0409716721567418,-0.0015031034897541*eb5d5933
#CORRIMUDATAA,FILE,0,34.5,FINESTEERING,2319,305050.400,02000000,e5fc,17139;2319,305050.400000000,0.0007046386929862,-0.0001824230648209,-0.0047176121052105,0.0055933253687251,0.0433595174806119,0.0000718076960483*3a0aaecf
#CORRIMUDATAA,FILE,0,34.5,FINESTEERING,2319,305050.450,02000000,e5fc,17139;2319,305050.450000000,0.0007364500433943,-0.0000604615818336,-0.0048313330741225,0.0055582036321382,0.0443837427341058,0.0017428844504213*454681bf
#CORRIMUDATAA,FILE,0,34.5,FINESTEERING,2319,305050.500,02000000,e5fc,17139;2319,305050.500000000,0.0006963456066137,0.0001249004136606,-0.0049404879775030,0.0059931761177317,0.0457744555945403,0.0040240376404324*0a6c49b7
#CORRIMUDATAA,FILE,0,34.5,FINESTEERING,2319,305050.550,02000000,e5fc,17139;2319,305050.550000000,0.0006397846901467,0.0002423847195570,-0.0050496700337905,0.0077265484803306,0.0479254568302940,0.0025674920524977*a4ba12f8
#CORRIMUDATAA,FILE,0,34.5,FINESTEERING,2319,305050.600,02000000,e5fc,17139;2319,305050.600000000,0.0005597941431130,0.0003485072096477,-0.0051080754663609,0.0092137171098562,0.0480331177224328,0.0033254262034473*7bbe7921
#CORRIMUDATAA,FILE,0,34.5,FINESTEERING,2319,305050.650,02000000,e5fc,17139;2319,305050.650000000,0.0005501530723516,0.0004034664576465,-0.0050420804411977,0.0105649134985653,0.0497219424970207,-0.0026402942917516*64271cf2
#CORRIMUDATAA,FILE,0,34.5,FINESTEERING,2319,305050.700,02000000,e5fc,17139;2319,305050.700000000,0.0006582501232971,0.0004192280919603,-0.0049191936804395,0.0110730270846774,0.0524317524563446,-0.0021736396449697*2608bbcc
#CORRIMUDATAA,FILE,0,34.5,FINESTEERING,2319,305050.750,02000000,e5fc,17139;2319,305050.750000000,0.0005619203174385,0.0005259969283223,-0.0047759193222967,0.0089288774071166,0.0519536462139577,-0.0057131890119072*062d11f1
#CORRIMUDATAA,FILE,0,34.5,FINESTEERING,2319,305050.800,02000000,e5fc,17139;2319,305050.800000000,0.0007304728963791,0.0004552548753025,-0.0046427567130039,0.0070874759801738,0.0537909776143031,-0.0048180044524173*9cf5ea06
#CORRIMUDATAA,FILE,0,34.5,FINESTEERING,2319,305050.850,02000000,e5fc,17139;2319,305050.850000000,0.0007996920433423,0.0005927056496879,-0.0044806475202014,0.0063392678924322,0.0562468068049378,-0.0031077360035541*85ab1a99
#CORRIMUDATAA,FILE,0,34.5,FINESTEERING,2319,305050.900,02000000,e5fc,17139;2319,305050.900000000,0.0008738793349816,0.0004805802284917,-0.0042530766702511,0.0094204645056117,0.0574173171559873,-0.0011926039345538*b80e6ce4
#CORRIMUDATAA,FILE,0,34.5,FINESTEERING,2319,305050.950,02000000,e5fc,17139;2319,305050.950000000,0.0008269576303310,0.0003836048224644,-0.0039365261419371,0.0097510486168776,0.0573688344591345,0.0027990822738487*5e62082a
#CORRIMUDATAA,FILE,0,34.5,FINESTEERING,2319,305051.000,02000000,e5fc,17139;2319,305051.000000000,0.0007313583789431,0.0003086527409886,-0.0035205306126903,0.0107698245151170,0.0572676023231918,0.0053458858919888*e16ff6d4
#CORRIMUDATAA,FILE,0,34.5,FINESTEERING,2319,305051.050,02000000,e5fc,17139;2319,305051.050000000,0.0005454261178878,0.0002382652256966,-0.0030593650774136,0.0107967848564660,0.0579609491572434,0.0060388955287260*22fa0702
#CORRIMUDATAA,FILE,0,24.0,FINESTEERING,2319,305051.100,02000000,e5fc,17139;2319,305051.100000000,0.0004406044609320,0.0001220742817335,-0.0026464705976094,0.0086817057999625,0.0596524744553708,0.0004196059212281*9f8707eb
#CORRIMUDATAA,FILE,0,24.0,FINESTEERING,2319,305051.150,02000000,e5fc,17139;2319,305051.150000000,0.0004717864509050,-0.0000890625199065,-0.0024092955091899,0.0045336766056923,0.0613841450130572,-0.0045989079946413*8b1ed3af
#CORRIMUDATAA,FILE,0,24.0,FINESTEERING,2319,305051.200,02000000,e5fc,17139;2319,305051.200000000,0.0004673567391372,-0.0002516502210635,-0.0023686237230115,0.0037077798597969,0.0609426951566706,-0.0048806899756811*8c5108f8
#CORRIMUDATAA,FILE,0,24.0,FINESTEERING,2319,305051.250,02000000,e5fc,17139;2319,305051.250000000,0.0004758302904194,-0.0005219319299600,-0.0023916415401955,0.0041895031761851,0.0606340175411219,-0.0072147869557538*e1c96701
#CORRIMUDATAA,FILE,0,24.0,FINESTEERING,2319,305051.300,02000000,e5fc,17139;2319,305051.300000000,0.0004488322552075,-0.0006133430886725,-0.0023750238964859,0.0044558031213205,0.0618400429098103,-0.0047743389401959*39c1b56d
#CORRIMUDATAA,FILE,0,24.0,FINESTEERING,2319,305051.350,02000000,e5fc,17139;2319,305051.350000000,0.0003648327435466,-0.0002789371067438,-0.0022090662069652,0.0098698538266170,0.0614980961852582,-0.0050085169817140*d7a5de8b
#CORRIMUDATAA,FILE,0,24.0,FINESTEERING,2319,305051.400,02000000,e5fc,17139;2319,305051.400000000,0.0005004810689034,-0.0001790495367990,-0.0019487527101293,0.0156107656716037,0.0612889574166739,-0.0059670445693577*d0cbebbd
#CORRIMUDATAA,FILE,0,24.0,FINESTEERING,2319,305051.450,02000000,e5fc,17139;2319,305051.450000000,0.0005608959596812,-0.0001580473269161,-0.0017065851730623,0.0141626731309205,0.0583617375520867,0.0058382177367717*9eae44ff
#CORRIMUDATAA,FILE,0,24.0,FINESTEERING,2319,305051.500,02000000,e5fc,17139;2319,305051.500000000,0.0005024697302780,0.0000039996879185,-0.0015595943003698,0.0065080901139000,0.0568337913562461,0.0102109153782078*dbe3e978
#CORRIMUDATAA,FILE,0,24.0,FINESTEERING,2319,305051.550,02000000,e5fc,17139;2319,305051.550000000,0.0003758467254428,0.0002870761839657,-0.0015440377416675,0.0031136402690807,0.0572440614652234,0.0146755102676592*acde9bf9
#CORRIMUDATAA,FILE,0,24.0,FINESTEERING,2319,305051.600,02000000,e5fc,17139;2319,305051.600000000,0.0000865053360056,0.0004675610363663,-0.0014994506089539,0.0052612777073223,0.0565260654337001,0.0119506556149923*7d65ef94
#CORRIMUDATAA,FILE,0,24.0,FINESTEERING,2319,305051.650,02000000,e5fc,17139;2319,305051.650000000,-0.0000539726218934,0.0003670261369480,-0.0014275427112431,0.0046779325555366,0.0561027738926126,0.0095800883131370*8df2a85d
#CORRIMUDATAA,FILE,0,24.0,FINESTEERING,2319,305051.700,02000000,e5fc,17139;2319,305051.700000000,-0.0004941042531500,0.0002837362139223,-0.0012563734250818,0.0020848904429584,0.0535423988342850,0.0126144252075516*57c44f8b
#CORRIMUDATAA,FILE,0,24.0,FINESTEERING,2319,305051.750,02000000,e5fc,17139;2319,305051.750000000,-0.0005062902103289,0.0002049630417394,-0.0010430166933083,0.0016113610892691,0.0571206498584894,0.0022304980035110*162c66e8
#CORRIMUDATAA,FILE,0,24.0,FINESTEERING,2319,305051.800,02000000,e5fc,17139;2319,305051.800000000,-0.0006014260364633,0.0003212965163989,-0.0007839204506600,0.0045920225424848,0.0526982427116417,0.0029592003092019*c05c9e74
#CORRIMUDATAA,FILE,0,24.0,FINESTEERING,2319,305051.850,02000000,e5fc,17139;2319,305051.850000000,-0.0006688191902213,0.0001226774986797,-0.0005100909053413,0.0076098338524077,0.0490729800427060,0.0015627714252570*41b9387b
#CORRIMUDATAA,FILE,0,24.0,FINESTEERING,2319,305051.900,02000000,e5fc,17139;2319,305051.900000000,-0.0006659852243128,-0.0001167009524916,-0.0003111700653538,0.0049158874741133,0.0456991505149579,0.0040989212352362*f408efa0
#CORRIMUDATAA,FILE,0,24.0,FINESTEERING,2319,305051.950,02000000,e5fc,17139;2319,305051.950000000,-0.0008262737790925,0.0001101831496524,-0.0001974037303759,0.0023763944461219,0.0419020868398521,0.0019269761307126*4672b665
#CORRIMUDATAA,FILE,0,24.0,FINESTEERING,2319,305052.000,02000000,e5fc,17139;2319,305052.000000000,-0.0009899316013720,0.0000735219120418,-0.0001388262839125,0.0015694765560717,0.0395917750769609,-0.0009831618762153*117c85ae
#CORRIMUDATAA,FILE,0,24.0,FINESTEERING,2319,305052.050,02000000,e5fc,17139;2319,305052.050000000,-0.0011202468611447,0.0002564921760394,-0.0000773188267696,0.0016527273246095,0.0336987400611499,-0.0024149260827588*f2cd2894
#CORRIMUDATAA,FILE,0,24.0,FINESTEERING,2319,305052.100,02000000,e5fc,17139;2319,305052.100000000,-0.0011572956824999,0.0001002493369471,-0.0000259346404434,0.0016517076828329,0.0270549541108525,-0.0028000961246598*fb7da59c
#CORRIMUDATAA,FILE,0,30.5,FINESTEERING,2319,305052.150,02000000,e5fc,17139;2319,305052.150000000,-0.0011795168040647,-0.0000209858244202,0.0000677717948721,0.0024011861804461,0.0201017986934341,-0.0021332100438110*50b5900d
#CORRIMUDATAA,FILE,0,30.5,FINESTEERING,2319,305052.200,02000000,e5fc,17139;2319,305052.200000000,-0.0010944944504127,-0.0001124808171623,0.0001778885034941,0.0021665144798902,0.0162751295299805,-0.0103188758028975*56a21fef
#CORRIMUDATAA,FILE,0,30.5,FINESTEERING,2319,305052.250,02000000,e5fc,17139;2319,305052.250000000,-0.0008064729764944,-0.0001095462802839,0.0002219296533908,-0.0004512456076694,0.0082637872564346,-0.0114863135042535*2ac1bcb2
#CORRIMUDATAA,FILE,0,30.5,FINESTEERING,2319,305052.300,02000000,e5fc,17139;2319,305052.300000000,-0.0004406252800097,-0.0000681030393879,0.0001485997387889,-0.0027075549631222,0.0048779964973637,-0.0122091313343941*bc650f31
#CORRIMUDATAA,FILE,0,30.5,FINESTEERING,2319,305052.350,02000000,e5fc,17139;2319,305052.350000000,0.0000678031860837,-0.0002108719664670,0.0000365220709695,-0.0023700951924351,0.0023916251412258,-0.0085832911136830*97ea049d
#CORRIMUDATAA,FILE,0,30.5,FINESTEERING,2319,305052.400,02000000,e5fc,17139;2319,305052.400000000,0.0004272307303369,-0.0001580626314157,-0.0000008059456229,-0.0030202298731842,0.0011506956471894,-0.0013859377226353*44701ec1
#CORRIMUDATAA,FILE,0,30.5,FINESTEERING,2319,305052.450,02000000,e5fc,17139;2319,305052.450000000,0.0007993923648439,0.0001008099895031,-0.0000025004168386,-0.0003659544106423,-0.0012114431478447,0.0027797989470492*41995f06
#CORRIMUDATAA,FILE,0,30.5,FINESTEERING,2319,305052.500,02000000,e5fc,17139;2319,305052.500000000,0.0009814664421343,0.0000120627895568,0.0000504655855671,0.0014125335261667,-0.0017343491094916,0.0076940448929616*758790f6
#CORRIMUDATAA,FILE,0,30.5,FINESTEERING,2319,305052.550,02000000,e5fc,17139;2319,305052.550000000,0.0009499172064232,0.0001213907498204,0.0000643723312004,0.0020275766673764,-0.0025884004783365,0.0050124878408208*63af09a6
#CORRIMUDATAA,FILE,0,30.5,FINESTEERING,2319,305052.600,02000000,e5fc,17139;2319,305052.600000000,0.0009666445161406,0.0000181254836607,0.0000764021717741,0.0016015822130291,-0.0006856541940785,0.0040114039051744*379b466d
#CORRIMUDATAA,FILE,0,30.5,FINESTEERING,2319,305052.650,02000000,e5fc,17139;2319,305052.650000000,0.0004932034239019,-0.0000475300757621,0.0000509659876258,-0.0014220385185968,-0.0038180112171120,0.0010904226634465*a6f69c9a
#CORRIMUDATAA,FILE,0,30.5,FINESTEERING,2319,305052.700,02000000,e5fc,17139;2319,305052.700000000,0.0003295777003637,-0.0002819854109978,0.0000411238115699,-0.0011505266114753,-0.0022172159510223,-0.0005417620495413*6e5d22a7
#CORRIMUDATAA,FILE,0,30.5,FINESTEERING,2319,305052.750,02000000,e5fc,17139;2319,305052.750000000,-0.0001627080147101,-0.0007043404257362,0.0000818105391195,-0.0018133278829502,-0.0001329776125674,-0.0002425234778540*6eb10532
#CORRIMUDATAA,FILE,0,30.5,FINESTEERING,2319,305052.800,02000000,e5fc,17139;2319,305052.800000000,-0.0008588275199611,-0.0008843850768150,0.0002089051577176,-0.0001388450679532,0.0017580413037413,-0.0009240478918355*a50ae062
#CORRIMUDATAA,FILE,0,30.5,FINESTEERING,2319,305052.850,02000000,e5fc,17139;2319,305052.850000000,-0.0015054022386082,-0.0002952268983414,0.0002625961181070,-0.0028451711304561,0.0023005512949084,-0.0040492113714330*504f8eb7
#CORRIMUDATAA,FILE,0,30.5,FINESTEERING,2319,305052.900,02000000,e5fc,17139;2319,305052.900000000,-0.0019327337082072,0.0004849441712487,0.0001673958291732,0.0027688316231023,-0.0011121611406234,-0.0000002717396982*0142d71c
#CORRIMUDATAA,FILE,0,30.5,FINESTEERING,2319,305052.950,02000000,e5fc,17139;2319,305052.950000000,-0.0023529409373858,0.0003462455963611,0.0000361891599644,0.0043947648934896,-0.0109263314707875,0.0067056584362904*e11b27df
#CORRIMUDATAA,FILE,0,30.5,FINESTEERING,2319,305053.000,02000000,e5fc,17139;2319,305053.000000000,-0.0020619853651542,0.0001974386870317,-0.0000346807030187,-0.0009797241406675,-0.0123023149021965,0.0028917362419185*452f484b
#CORRIMUDATAA,FILE,0,30.5,FINESTEERING,2319,305053.050,02000000,e5fc,17139;2319,305053.050000000,-0.0013414504314228,0.0004503715227133,-0.0000356500145324,-0.0041510212077251,-0.0088366307500184,0.0006222530164625*fe62b89e
#CORRIMUDATAA,FILE,0,30.5,FINESTEERING,2319,305053.100,02000000,e5fc,17139;2319,305053.100000000,-0.0003531400957440,0.0003698390475960,0.0000650860169970,0.0007378331494670,-0.0048337180438052,0.0020552001436551*41b7edaf
#CORRIMUDATAA,FILE,0,31.0,FINESTEERING,2319,305053.150,02000000,e5fc,17139;2319,305053.150000000,0.0000100553178835,-0.0002816334524455,0.0002246157675777,-0.0000755446156761,-0.0086488926786708,0.0081001180430435*b5272812
#CORRIMUDATAA,FILE,0,31.0,FINESTEERING,2319,305053.200,02000000,e5fc,17139;2319,305053.200000000,0.0003607870675966,-0.0004359985679825,0.0003019687682572,-0.0056612026822422,-0.0114223825274938,0.0133114710382331*b03c4388
#CORRIMUDATAA,FILE,0,31.0,FINESTEERING,2319,305053.250,02000000,e5fc,17139;2319,305053.250000000,0.0001418449655380,-0.0000872171387212,0.0002769178551327,-0.0047066836845220,-0.0121105151824046,0.0109531335630907*26d9246e
#CORRIMUDATAA,FILE,0,31.0,FINESTEERING,2319,305053.300,02000000,e5fc,17139;2319,305053.300000000,0.0000495450316782,0.0000611873376605,0.0002723020379236,0.0006641843424568,-0.0100790247349791,0.0009542634525131*a9cf4e05
#CORRIMUDATAA,FILE,0,31.0,FINESTEERING,2319,305053.350,02000000,e5fc,17139;2319,305053.350000000,-0.0003102185562021,0.0001108525208351,0.0002925724271841,0.0041046163420179,-0.0098879265193309,0.0028233145355992*dfe5e770
#CORRIMUDATAA,FILE,0,31.0,FINESTEERING,2319,305053.400,02000000,e5fc,17139;2319,305053.400000000,-0.0004675088568306,-0.0000634456677631,0.0003959321584435,0.0026937744424229,-0.0103915569480031,-0.0016132802644653*35d5cdf6
#CORRIMUDATAA,FILE,0,31.0,FINESTEERING,2319,305053.450,02000000,e5fc,17139;2319,305053.450000000,-0.0007417531664302,0.0000763573242676,0.0004799521751148,-0.0004053125990040,-0.0075094881994985,-0.0129282638931029*2f74c470
#CORRIMUDATAA,FILE,0,31.0,FINESTEERING,2319,305053.500,02000000,e5fc,17139;2319,305053.500000000,-0.0005220886657479,0.0005109250298391,0.0005493484861758,-0.0018558042302793,-0.0085215252086724,-0.0170214355409432*81f10f5b
#CORRIMUDATAA,FILE,0,31.0,FINESTEERING,2319,305053.550,02000000,e5fc,17139;2319,305053.550000000,-0.0002851722230696,0.0000166191292746,0.0004431229100905,-0.0049044454648302,-0.0047528432371358,-0.0146967307027496*c5992b41
#CORRIMUDATAA,FILE,0,31.0,FINESTEERING,2319,305053.600,02000000,e5fc,17139;2319,305053.600000000,0.0003420302185957,-0.0004942952351881,0.0002854546906471,-0.0108987808386306,0.0030794826663347,-0.0346532087182467*75c7fab2
#CORRIMUDATAA,FILE,0,31.0,FINESTEERING,2319,305053.650,02000000,e5fc,17139;2319,305053.650000000,0.0010008386130947,-0.0002567855740726,0.0001673311284301,-0.0065197565567113,0.0021384686528209,-0.0414361573438315*6308de9c
#CORRIMUDATAA,FILE,0,31.0,FINESTEERING,2319,305053.700,02000000,e5fc,17139;2319,305053.700000000,0.0019908405815412,-0.0000030216304630,0.0003213681062016,0.0078212747014071,0.0024331459518833,-0.0396741961607672*986f4073
#CORRIMUDATAA,FILE,0,31.0,FINESTEERING,2319,305053.750,02000000,e5fc,17139;2319,305053.750000000,0.0025158584316925,0.0001315442473390,0.0005899070385716,0.0128517631069671,-0.0011703697659219,-0.0239876678477221*5fc6691c
#CORRIMUDATAA,FILE,0,31.0,FINESTEERING,2319,305053.800,02000000,e5fc,17139;2319,305053.800000000,0.0026047467955325,-0.0002419269060936,0.0006927764720208,0.0008962472082056,-0.0048625079390088,0.0047283731365459*b4a65cce
#CORRIMUDATAA,FILE,0,31.0,FINESTEERING,2319,305053.850,02000000,e5fc,17139;2319,305053.850000000,0.0022491634743005,0.0003384092111658,0.0005064082863576,-0.0109753723621416,-0.0085217290080422,0.0415927079626178*5acc3147
#CORRIMUDATAA,FILE,0,31.0,FINESTEERING,2319,305053.900,02000000,e5fc,17139;2319,305053.900000000,0.0013091470252217,0.0005576851944023,0.0002709952156708,-0.0084421039001676,-0.0103352470644568,0.0633154919968078*be0f839e
#CORRIMUDATAA,FILE,0,31.0,FINESTEERING,2319,305053.950,02000000,e5fc,17139;2319,305053.950000000,-0.0000936327176862,0.0001889650983038,0.0000825729584179,-0.0047740455260312,-0.0097839671494939,0.0675135991975091*92a125a1
#CORRIMUDATAA,FILE,0,31.0,FINESTEERING,2319,305054.000,02000000,e5fc,17139;2319,305054.000000000,-0.0013562741566809,-0.0004503465305570,0.0000671996430777,-0.0022744577801523,-0.0078115528795010,0.0396408783615860*18cc7bc4
#CORRIMUDATAA,FILE,0,31.0,FINESTEERING,2319,305054.050,02000000,e5fc,17139;2319,305054.050000000,-0.0017626959666765,-0.0004665112793359,0.0002490435191030,0.0026461458892048,-0.0039669363233156,0.0187792138601982*385f4a47
#CORRIMUDATAA,FILE,0,31.0,FINESTEERING,2319,305054.100,02000000,e5fc,17139;2319,305054.100000000,-0.0017470870515846,-0.0000939529567297,0.0005415561625556,0.0084803829579794,-0.0019244997547563,-0.0140411112325423*e851fd3a
#CORRIMUDATAA,FILE,0,31.0,FINESTEERING,2319,305054.150,02000000,e5fc,17139;2319,305054.150000000,-0.0010920787156832,0.0003896688311319,0.0007222915934484,0.0082256613793241,0.0012684717879593,-0.0279944205428390*f22a05da
#CORRIMUDATAA,FILE,0,31.0,FINESTEERING,2319,305054.200,02000000,e5fc,17139;2319,305054.200000000,-0.0005778904846195,0.0001537975856541,0.0006809991343325,0.0014078448839742,0.0000110617926310,-0.0387648746499663*81cf139d
#CORRIMUDATAA,FILE,0,31.0,FINESTEERING,2319,305054.250,02000000,e5fc,17139;2319,305054.250000000,0.0001210843273700,0.0001278228578582,0.0005641801149689,-0.0076154837186454,0.0012323848111454,-0.0366177981693748*7cbbc408
#CORRIMUDATAA,FILE,0,31.0,FINESTEERING,2319,305054.300,02000000,e5fc,17139;2319,305054.300000000,0.0006822590974000,0.0004884265028265,0.0004196599137990,-0.0125547716426119,-0.0016008914582195,-0.0229191685523472*2cdb8024
#CORRIMUDATAA,FILE,0,31.0,FINESTEERING,2319,305054.350,02000000,e5fc,17139;2319,305054.350000000,0.0010661493732666,0.0008686617175178,0.0003832444572196,-0.0039724025631640,-0.0022378851011918,-0.0066486145806234*3ca01e15
#CORRIMUDATAA,FILE,0,31.0,FINESTEERING,2319,305054.400,02000000,e5fc,17139;2319,305054.400000000,0.0011472778683925,0.0005794175913291,0.0004321956645886,0.0032473463619074,-0.0002116378403272,0.0024271161333371*1b411ace
#CORRIMUDATAA,FILE,0,31.0,FINESTEERING,2319,305054.450,02000000,e5fc,17139;2319,305054.450000000,0.0008655035842108,0.0002030393231683,0.0004703658217463,-0.0001469088465033,-0.0008258116894445,0.0149956711494772*aba2dcc0
#CORRIMUDATAA,FILE,0,31.0,FINESTEERING,2319,305054.500,02000000,e5fc,17139;2319,305054.500000000,0.0005051024316885,0.0000872854355676,0.0004550401467312,-0.0027133918524017,-0.0003874338752688,0.0245030184965334*53361b3f
#CORRIMUDATAA,FILE,0,31.0,FINESTEERING,2319,305054.550,02000000,e5fc,17139;2319,305054.550000000,-0.0000273284761421,0.0001981150627330,0.0004690367033170,-0.0027624508271824,-0.0005665348471137,0.0244927261754458*80c5210b
#CORRIMUDATAA,FILE,0,31.0,FINESTEERING,2319,305054.600,02000000,e5fc,17139;2319,305054.600000000,-0.0003576430259665,0.0001841232879491,0.0004679753316233,-0.0003788214574646,0.0064456819582648,0.0107374656859142*4613bf15
#CORRIMUDATAA,FILE,0,31.0,FINESTEERING,2319,305054.650,02000000,e5fc,17139;2319,305054.650000000,-0.0006250376486619,-0.0001021797315043,0.0004696382015402,-0.0017322995887784,0.0064949221328859,0.0008976846012470*b7c27167
#CORRIMUDATAA,FILE,0,31.0,FINESTEERING,2319,305054.700,02000000,e5fc,17139;2319,305054.700000000,-0.0006310902622546,0.0000000040996355,0.0004428917098732,-0.0021786285394062,0.0070832570939804,-0.0007776290517450*fd99974b
#CORRIMUDATAA,FILE,0,31.0,FINESTEERING,2319,305054.750,02000000,e5fc,17139;2319,305054.750000000,-0.0005173738212542,-0.0000088228237987,0.0005279794610363,0.0029169879160649,0.0079215110537005,-0.0040064238704622*070f9e2c
#CORRIMUDATAA,FILE,0,31.0,FINESTEERING,2319,305054.800,02000000,e5fc,17139;2319,305054.800000000,-0.0002762771557828,0.0000727254594599,0.0006296181251626,0.0024869641019983,0.0097012477832207,-0.0164332158516355*b5071d5d
#CORRIMUDATAA,FILE,0,31.0,FINESTEERING,2319,305054.850,02000000,e5fc,17139;2319,305054.850000000,0.0000370611777620,-0.0000340266199466,0.0006906785619204,-0.0021967148408848,0.0096328220079463,-0.0127209779594130*d5c897ba
#CORRIMUDATAA,FILE,0,31.0,FINESTEERING,2319,305054.900,02000000,e5fc,17139;2319,305054.900000000,0.0002543788278742,0.0000855076685010,0.0006973608404230,-0.0048840697265945,0.0097540742250986,-0.0069528748919692*e9d19201
#CORRIMUDATAA,FILE,0,31.0,FINESTEERING,2319,305054.950,02000000,e5fc,17139;2319,305054.950000000,0.0003044201360687,0.0001560708483855,0.0007515956772856,-0.0032901621881789,0.0078790320980470,-0.0034440443495077*8b9c6446
#CORRIMUDATAA,FILE,0,31.0,FINESTEERING,2319,305055.000,02000000,e5fc,17139;2319,305055.000000000,0.0003231389508371,0.0001790235645907,0.0009071046647965,0.0016697431125262,0.0083807087193285,0.0028322807822659*7762363f
#CORRIMUDATAA,FILE,0,31.0,FINESTEERING,2319,305055.050,02000000,e5fc,17139;2319,305055.050000000,0.0002541204945779,0.0002222840003731,0.0010892509866704,-0.0000217159380825,0.0086498996215727,0.0018801280738505*7c183dc2
#CORRIMUDATAA,FILE,0,30.5,FINESTEERING,2319,305055.100,02000000,e5fc,17139;2319,305055.100000000,0.0002398625089674,0.0001321918791258,0.0011152449677951,-0.0067804683876329,0.0093272342575473,0.0046304101198134*c4873a74
#CORRIMUDATAA,FILE,0,30.5,FINESTEERING,2319,305055.150,02000000,e5fc,17139;2319,305055.150000000,0.0000120045421220,0.0001467966109960,0.0010706009144425,-0.0048530704706046,0.0082628458146413,0.0117077711819157*9fe9cd71
#CORRIMUDATAA,FILE,0,30.5,FINESTEERING,2319,305055.200,02000000,e5fc,17139;2319,305055.200000000,-0.0001393569597832,-0.0002386742771769,0.0011396875157129,-0.0019081579866238,0.0103970713500497,0.0040429383027979*408fcfd5
#CORRIMUDATAA,FILE,0,30.5,FINESTEERING,2319,305055.250,02000000,e5fc,17139;2319,305055.250000000,-0.0001982123403654,-0.0000250881946683,0.0013203922251976,-0.0028105221260838,0.0122038326975475,0.0023810937215799*86c23193
#CORRIMUDATAA,FILE,0,30.5,FINESTEERING,2319,305055.300,02000000,e5fc,17139;2319,305055.300000000,-0.0001803746034504,0.0004160892506262,0.0015672087024084,0.0008925470416708,0.0117797746625297,-0.0010610393352792*4d0e50d9
#CORRIMUDATAA,FILE,0,30.5,FINESTEERING,2319,305055.350,02000000,e5fc,17139;2319,305055.350000000,0.0000077439548045,0.0004332860916060,0.0018491807534872,0.0022714529602204,0.0132947720428254,-0.0006003610298087*471752c7
#CORRIMUDATAA,FILE,0,30.5,FINESTEERING,2319,305055.400,02000000,e5fc,17139;2319,305055.400000000,-0.0000469464431283,0.0005480468301025,0.0020065481211131,0.0005175844715854,0.0147379727148085,-0.0079140172442246*0d40bf95
#CORRIMUDATAA,FILE,0,30.5,FINESTEERING,2319,305055.450,02000000,e5fc,17139;2319,305055.450000000,0.0001209503876402,0.0002723421953751,0.0022082435391450,-0.0051474254796817,0.0133292020504854,-0.0037753606845408*be655741
#CORRIMUDATAA,FILE,0,30.5,FINESTEERING,2319,305055.500,02000000,e5fc,17139;2319,305055.500000000,0.0000425741383884,0.0004180892609615,0.0023556186927704,-0.0096872722983501,0.0137235232251182,-0.0048806900152953*4a588d60
#CORRIMUDATAA,FILE,0,30.5,FINESTEERING,2319,305055.550,02000000,e5fc,17139;2319,305055.550000000,0.0000781097237925,0.0004645733001362,0.0025184535518531,-0.0098407997151273,0.0148499272834061,-0.0027961820600806*564b50f4
#CORRIMUDATAA,FILE,0,30.5,FINESTEERING,2319,305055.600,02000000,e5fc,17139;2319,305055.600000000,-0.0000146540033764,0.0003271881260834,0.0027088405901513,-0.0089013104689725,0.0137369647743732,0.0003587638245761*9202654e
#CORRIMUDATAA,FILE,0,30.5,FINESTEERING,2319,305055.650,02000000,e5fc,17139;2319,305055.650000000,-0.0001777809308969,0.0002621052217741,0.0029319043387508,-0.0088831807811230,0.0101092851287753,0.0078514756121853*e96a1d15
#CORRIMUDATAA,FILE,0,30.5,FINESTEERING,2319,305055.700,02000000,e5fc,17139;2319,305055.700000000,-0.0004709606791201,0.0000315956999034,0.0031854310088209,-0.0082794129503072,0.0066772089303972,0.0057732606905427*95791490
#CORRIMUDATAA,FILE,0,30.5,FINESTEERING,2319,305055.750,02000000,e5fc,17139;2319,305055.750000000,-0.0004381011882097,0.0000230424964776,0.0034281947440647,-0.0088947811105052,0.0044049254748303,0.0046518507256956*d8309f7a
#CORRIMUDATAA,FILE,0,30.5,FINESTEERING,2319,305055.800,02000000,e5fc,17139;2319,305055.800000000,-0.0006393536182714,-0.0000529805000108,0.0036591141964610,-0.0087800476954839,0.0000221798621574,0.0055325101458969*c213c493
#CORRIMUDATAA,FILE,0,30.5,FINESTEERING,2319,305055.850,02000000,e5fc,17139;2319,305055.850000000,-0.0006090349434896,-0.0000933566200996,0.0038867519096339,-0.0102019112568311,-0.0009073157569201,-0.0003807972939250*0d6c6ef5
#CORRIMUDATAA,FILE,0,30.5,FINESTEERING,2319,305055.900,02000000,e5fc,17139;2319,305055.900000000,-0.0006713156153238,-0.0001553924529834,0.0041596929846564,-0.0097965586209090,-0.0034360147891491,-0.0029876929113397*2e5e5b90
#CORRIMUDATAA,FILE,0,30.5,FINESTEERING,2319,305055.950,02000000,e5fc,17139;2319,305055.950000000,-0.0006280169698682,-0.0001150957205418,0.0044985901458188,-0.0102898614001734,-0.0026174052666876,-0.0032896865550033*72ccbf7c
#CORRIMUDATAA,FILE,0,30.5,FINESTEERING,2319,305056.000,02000000,e5fc,17139;2319,305056.000000000,-0.0007017883424393,-0.0001406125823974,0.0048647804377310,-0.0101581722957066,-0.0021403214639299,-0.0063865111267368*168e6c8f
#CORRIMUDATAA,FILE,0,30.5,FINESTEERING,2319,305056.050,02000000,e5fc,17139;2319,305056.050000000,-0.0007294469432037,-0.0001623738232164,0.0052317981183416,-0.0155754770139559,-0.0039593949916975,-0.0040091688977400*36a7d3f6
#CORRIMUDATAA,FILE,0,29.5,FINESTEERING,2319,305056.100,02000000,e5fc,17139;2319,305056.100000000,-0.0005624172300617,0.0000936692002414,0.0055099728167894,-0.0162148604522541,-0.0027964890104353,-0.0043381102946691*def23d93
#CORRIMUDATAA,FILE,0,29.5,FINESTEERING,2319,305056.150,02000000,e5fc,17139;2319,305056.150000000,-0.0002338441518539,0.0001878226112983,0.0057671232029890,-0.0134852838348135,-0.0036405847035147,-0.0007031152393998*971b8364
#CORRIMUDATAA,FILE,0,29.5,FINESTEERING,2319,305056.200,02000000,e5fc,17139;2319,305056.200000000,-0.0001103962923543,-0.0002355812371001,0.0059424166811951,-0.0156552117177607,-0.0023211504824711,0.0020705816636789*01c445b1
#CORRIMUDATAA,FILE,0,29.5,FINESTEERING,2319,305056.250,02000000,e5fc,17139;2319,305056.250000000,-0.0002325374998201,-0.0007090904385467,0.0060259854522733,-0.0199313012553640,-0.0109711332162167,-0.0005941692160289*146bd69a
#CORRIMUDATAA,FILE,0,29.5,FINESTEERING,2319,305056.300,02000000,e5fc,17139;2319,305056.300000000,-0.0002192571634331,-0.0008238135845383,0.0060023670100046,-0.0292374775064486,-0.0106683327912626,0.0056363274669648*b9f65096
#CORRIMUDATAA,FILE,0,29.5,FINESTEERING,2319,305056.350,02000000,e5fc,17139;2319,305056.350000000,-0.0000477436142928,-0.0003157723828938,0.0059610886170260,-0.0210956431148169,-0.0108076240492345,-0.0008113070787253*eaaf0f99
#CORRIMUDATAA,FILE,0,29.5,FINESTEERING,2319,305056.400,02000000,e5fc,17139;2319,305056.400000000,0.0001045108101807,-0.0001554480888143,0.0060691029411939,-0.0117388537719290,-0.0061323032393231,-0.0072200107666271*a2c88cd0
#CORRIMUDATAA,FILE,0,29.5,FINESTEERING,2319,305056.450,02000000,e5fc,17139;2319,305056.450000000,0.0000762734246987,-0.0002922631857744,0.0062023162864575,-0.0107314145202789,-0.0084574331394429,-0.0048696294245219*c4664703
#CORRIMUDATAA,FILE,0,29.5,FINESTEERING,2319,305056.500,02000000,e5fc,17139;2319,305056.500000000,-0.0000625437615208,-0.0002516625797669,0.0063790916856057,-0.0170705405472449,-0.0096822292681475,-0.0026162061849315*7a0676bd
#CORRIMUDATAA,FILE,0,29.5,FINESTEERING,2319,305056.550,02000000,e5fc,17139;2319,305056.550000000,-0.0001404342048880,0.0000111321443167,0.0064839159012471,-0.0206107570092939,-0.0119428454830976,0.0015381826585873*94230aba
#CORRIMUDATAA,FILE,0,29.5,FINESTEERING,2319,305056.600,02000000,e5fc,17139;2319,305056.600000000,-0.0001939021593036,0.0002418106818401,0.0066681420276562,-0.0158628309667923,-0.0100323818746880,-0.0006175684924572*87bc7751
#CORRIMUDATAA,FILE,0,29.5,FINESTEERING,2319,305056.650,02000000,e5fc,17139;2319,305056.650000000,-0.0000347748262525,0.0001981043476696,0.0068788724151374,-0.0142600649601648,-0.0091789322669010,-0.0034170362282860*a44b9107
#CORRIMUDATAA,FILE,0,29.5,FINESTEERING,2319,305056.700,02000000,e5fc,17139;2319,305056.700000000,0.0000317723624987,-0.0001540882127150,0.0069832860142653,-0.0205095322371421,-0.0088139003026337,0.0010624520998614*278c1812
#CORRIMUDATAA,FILE,0,29.5,FINESTEERING,2319,305056.750,02000000,e5fc,17139;2319,305056.750000000,-0.0001467543833401,-0.0002153897412772,0.0069597476804811,-0.0256402845983641,-0.0090552104744754,-0.0029222579040506*b31ae3d8
#CORRIMUDATAA,FILE,0,29.5,FINESTEERING,2319,305056.800,02000000,e5fc,17139;2319,305056.800000000,-0.0000203533856637,-0.0003396365602780,0.0068479404276311,-0.0261945542102920,-0.0073340874756428,-0.0074277333052924*8ed9d072
#CORRIMUDATAA,FILE,0,29.5,FINESTEERING,2319,305056.850,02000000,e5fc,17139;2319,305056.850000000,-0.0000870236278102,-0.0003976720493607,0.0067020011794076,-0.0265812180973030,-0.0086220528071729,-0.0058553059795199*0c17dfb7
#CORRIMUDATAA,FILE,0,29.5,FINESTEERING,2319,305056.900,02000000,e5fc,17139;2319,305056.900000000,0.0000262150122819,-0.0003937052235108,0.0066158595154882,-0.0235576799195672,-0.0079678013174096,0.0013410244151153*84a8ec4b
#CORRIMUDATAA,FILE,0,29.5,FINESTEERING,2319,305056.950,02000000,e5fc,17139;2319,305056.950000000,-0.0000872539142851,-0.0001594446158342,0.0065574558591681,-0.0174393921988374,-0.0119705250797031,0.0116146229081384*8114580d
#CORRIMUDATAA,FILE,0,29.5,FINESTEERING,2319,305057.000,02000000,e5fc,17139;2319,305057.000000000,-0.0002467014779668,-0.0002730057139285,0.0065966535976856,-0.0141635232812514,-0.0104898587284772,0.0109097862683920*aefc6da6
#CORRIMUDATAA,FILE,0,29.5,FINESTEERING,2319,305057.050,02000000,e5fc,17139;2319,305057.050000000,-0.0005237470903463,-0.0005156316860107,0.0066513908024704,-0.0187675996153554,-0.0117602692414006,0.0039976302835486*fc3846f2
#CORRIMUDATAA,FILE,0,29.5,FINESTEERING,2319,305057.100,02000000,e5fc,17139;2319,305057.100000000,-0.0007291339138980,-0.0002296014441740,0.0067416377207946,-0.0209406804921353,-0.0102972156015460,0.0061415701009848*82da6081
#CORRIMUDATAA,FILE,0,32.0,FINESTEERING,2319,305057.150,02000000,e5fc,17139;2319,305057.150000000,-0.0008925622218669,-0.0001175369835621,0.0069086432451586,-0.0176870207643880,-0.0130653178345744,0.0032590625954494*adf081a6
#CORRIMUDATAA,FILE,0,32.0,FINESTEERING,2319,305057.200,02000000,e5fc,17139;2319,305057.200000000,-0.0010289790146414,-0.0000362586740826,0.0072398194907539,-0.0143935306501930,-0.0133438520029117,-0.0001256455173272*4002f3b1
#CORRIMUDATAA,FILE,0,32.0,FINESTEERING,2319,305057.250,02000000,e5fc,17139;2319,305057.250000000,-0.0008839449685366,0.0002137613857920,0.0077239545264203,-0.0135852188042037,-0.0145180578551762,-0.0083078203848859*3f7d9849
#CORRIMUDATAA,FILE,0,32.0,FINESTEERING,2319,305057.300,02000000,e5fc,17139;2319,305057.300000000,-0.0005335006684307,0.0003522848894651,0.0082375212784439,-0.0163088371109416,-0.0134605688345799,-0.0073291308979347*910f727e
#CORRIMUDATAA,FILE,0,32.0,FINESTEERING,2319,305057.350,02000000,e5fc,17139;2319,305057.350000000,-0.0003212297802630,0.0004698503284910,0.0087490050283566,-0.0185953792510829,-0.0139522092325318,-0.0116482797581782*532df32a
#CORRIMUDATAA,FILE,0,32.0,FINESTEERING,2319,305057.400,02000000,e5fc,17139;2319,305057.400000000,-0.0001197796904908,0.0004250181324249,0.0092953262038808,-0.0219581697462943,-0.0142508749500532,-0.0046929372229588*4092a810
#CORRIMUDATAA,FILE,0,32.0,FINESTEERING,2319,305057.450,02000000,e5fc,17139;2319,305057.450000000,-0.0002147132859863,0.0002656342626355,0.0097970305363211,-0.0278736564633825,-0.0155244119384308,0.0033120873577591*e90153e8
#CORRIMUDATAA,FILE,0,32.0,FINESTEERING,2319,305057.500,02000000,e5fc,17139;2319,305057.500000000,-0.0002642324451420,0.0001504628023070,0.0102806701197015,-0.0313637228729945,-0.0154243813847869,0.0038186231395431*63a62a09
#CORRIMUDATAA,FILE,0,32.0,FINESTEERING,2319,305057.550,02000000,e5fc,17139;2319,305057.550000000,-0.0003970885323679,0.0000482562482376,0.0106487013351889,-0.0321440778547114,-0.0155956533528591,0.0017970448316057*a2fc9bd4
#CORRIMUDATAA,FILE,0,32.0,FINESTEERING,2319,305057.600,02000000,e5fc,17139;2319,305057.600000000,-0.0002805802219705,-0.0002844603491433,0.0109475150641181,-0.0295247366930343,-0.0151604361692755,-0.0001682712100546*c0ff9731
#CORRIMUDATAA,FILE,0,32.0,FINESTEERING,2319,305057.650,02000000,e5fc,17139;2319,305057.650000000,-0.0002594598679449,-0.0005163509936490,0.0111745071702806,-0.0306667599548991,-0.0120661006280618,-0.0034463023264948*63ba3246
#CORRIMUDATAA,FILE,0,32.0,FINESTEERING,2319,305057.700,02000000,e5fc,17139;2319,305057.700000000,-0.0002279992753209,-0.0006908609749793,0.0113816122641874,-0.0289260855508015,-0.0132697217297655,-0.0052189978222028*989421cb
#CORRIMUDATAA,FILE,0,32.0,FINESTEERING,2319,305057.750,02000000,e5fc,17139;2319,305057.750000000,-0.0002961838984124,-0.0005437687015024,0.0117016040718898,-0.0281415784348317,-0.0127345914142583,-0.0043867090935118*5dccca46
#CORRIMUDATAA,FILE,0,32.0,FINESTEERING,2319,305057.800,02000000,e5fc,17139;2319,305057.800000000,-0.0003378242834610,-0.0003258397628932,0.0121075500281371,-0.0273264034345854,-0.0152944920452826,-0.0020909898992239*f556eac1
#CORRIMUDATAA,FILE,0,32.0,FINESTEERING,2319,305057.850,02000000,e5fc,17139;2319,305057.850000000,-0.0005291081129315,-0.0002131097360337,0.0126222272291962,-0.0258480653934556,-0.0136794012335237,-0.0036442568754273*30e417c6
#CORRIMUDATAA,FILE,0,32.0,FINESTEERING,2319,305057.900,02000000,e5fc,17139;2319,305057.900000000,-0.0005439884789473,-0.0000639460792148,0.0131406765809628,-0.0273616582549002,-0.0143543460299996,-0.0009079441817538*1d8a630e
#CORRIMUDATAA,FILE,0,32.0,FINESTEERING,2319,305057.950,02000000,e5fc,17139;2319,305057.950000000,-0.0006351837813987,-0.0000809118414712,0.0135901725138854,-0.0280247124198149,-0.0128991946729915,0.0006818114189950*20dfe6e6
#CORRIMUDATAA,FILE,0,32.0,FINESTEERING,2319,305058.000,02000000,e5fc,17139;2319,305058.000000000,-0.0006720101905196,-0.0005397543558059,0.0139798383562021,-0.0336620524654545,-0.0125863058251645,-0.0053195014102470*47e2b896
#CORRIMUDATAA,FILE,0,32.0,FINESTEERING,2319,305058.050,02000000,e5fc,17139;2319,305058.050000000,-0.0005350612420327,-0.0001485305271205,0.0141059230834496,-0.0429262173348588,-0.0115671480102015,-0.0024677649757206*d768cce7
#CORRIMUDATAA,FILE,0,32.0,FINESTEERING,2319,305058.100,02000000,e5fc,17139;2319,305058.100000000,-0.0000710700073108,0.0003981304980961,0.0140972049155465,-0.0423133902530790,-0.0114641595643082,-0.0031208900132625*6656c7b7
#CORRIMUDATAA,FILE,0,32.5,FINESTEERING,2319,305058.150,02000000,e5fc,17139;2319,305058.150000000,0.0000620911032853,0.0003971811081747,0.0140713464717391,-0.0382996888792643,-0.0121244268209631,0.0032990973656987*4ad78b5c
#CORRIMUDATAA,FILE,0,32.5,FINESTEERING,2319,305058.200,02000000,e5fc,17139;2319,305058.200000000,-0.0000896412719472,0.0001239758292748,0.0142562396995877,-0.0337661479363304,-0.0166098974093214,0.0059689141877217*837a8bff
#CORRIMUDATAA,FILE,0,32.5,FINESTEERING,2319,305058.250,02000000,e5fc,17139;2319,305058.250000000,-0.0004599419771766,-0.0001496111279680,0.0146522303814226,-0.0325318413991134,-0.0160273116405963,0.0055969122993441*027a7c81
#CORRIMUDATAA,FILE,0,32.5,FINESTEERING,2319,305058.300,02000000,e5fc,17139;2319,305058.300000000,-0.0008131672904279,-0.0003891760807274,0.0151614490568450,-0.0336078844034271,-0.0176367785790954,0.0060453156614887*9655b13c
#CORRIMUDATAA,FILE,0,32.5,FINESTEERING,2319,305058.350,02000000,e5fc,17139;2319,305058.350000000,-0.0011590342047356,-0.0007951435488051,0.0155262394178608,-0.0371996663984848,-0.0139039190677887,-0.0021395880362838*bd48c54c
#CORRIMUDATAA,FILE,0,32.5,FINESTEERING,2319,305058.400,02000000,e5fc,17139;2319,305058.400000000,-0.0011486047313503,-0.0014102333803936,0.0156932743648728,-0.0419858131244614,-0.0101596560600973,-0.0072692325337013*7560e416
#CORRIMUDATAA,FILE,0,32.5,FINESTEERING,2319,305058.450,02000000,e5fc,17139;2319,305058.450000000,-0.0014233357534759,-0.0018824129609083,0.0156788141085671,-0.0454384917017899,-0.0085388905285830,-0.0088223187710418*4eac49d0
#CORRIMUDATAA,FILE,0,32.5,FINESTEERING,2319,305058.500,02000000,e5fc,17139;2319,305058.500000000,-0.0011781151688081,-0.0021127933047591,0.0155756818923244,-0.0464021207691707,-0.0075893969210007,-0.0112957830772968*51075fd4
#CORRIMUDATAA,FILE,0,32.5,FINESTEERING,2319,305058.550,02000000,e5fc,17139;2319,305058.550000000,-0.0010487853100831,-0.0018728970562029,0.0154064853166728,-0.0398410271316181,-0.0104315405877540,-0.0057508027973896*c6510707
#CORRIMUDATAA,FILE,0,32.5,FINESTEERING,2319,305058.600,02000000,e5fc,17139;2319,305058.600000000,-0.0005242668125741,-0.0015703861148597,0.0153052309358197,-0.0348033248469144,-0.0089720922589963,-0.0035090899040183*f36a51fd
#CORRIMUDATAA,FILE,0,32.5,FINESTEERING,2319,305058.650,02000000,e5fc,17139;2319,305058.650000000,-0.0004092646477537,-0.0012442002513979,0.0152469931531743,-0.0296559666014414,-0.0079654736647630,-0.0018495924388083*c80c6f54
#CORRIMUDATAA,FILE,0,32.5,FINESTEERING,2319,305058.700,02000000,e5fc,17139;2319,305058.700000000,-0.0003696243272272,-0.0012167235847384,0.0152790441376130,-0.0296995930442535,-0.0070249872751900,0.0016639853702175*2b7a7ab8
#CORRIMUDATAA,FILE,0,32.5,FINESTEERING,2319,305058.750,02000000,e5fc,17139;2319,305058.750000000,-0.0005976024640802,-0.0012592037268850,0.0152720533117916,-0.0368085146190633,-0.0060508832393822,-0.0017265646180974*e4a5ad37
#CORRIMUDATAA,FILE,0,32.5,FINESTEERING,2319,305058.800,02000000,e5fc,17139;2319,305058.800000000,-0.0006534260055735,-0.0012946245716436,0.0150494196949443,-0.0356708451497825,-0.0121691733227227,0.0035010934488903*370e8764
#CORRIMUDATAA,FILE,0,32.5,FINESTEERING,2319,305058.850,02000000,e5fc,17139;2319,305058.850000000,-0.0006885890061822,-0.0016141087904329,0.0150724596044486,-0.0281266787696962,-0.0130238928275294,0.0055151414778957*681ca2d5
#CORRIMUDATAA,FILE,0,32.5,FINESTEERING,2319,305058.900,02000000,e5fc,17139;2319,305058.900000000,-0.0005748125472786,-0.0007425098697228,0.0152214060309751,-0.0398241373831931,-0.0085933034447799,0.0070079453198090*27fa4df9
#CORRIMUDATAA,FILE,0,32.5,FINESTEERING,2319,305058.950,02000000,e5fc,17139;2319,305058.950000000,-0.0009158350419035,-0.0001554186112778,0.0151635767086170,-0.0408315127545840,-0.0034577519420146,-0.0016035144240276*2d381c81
#CORRIMUDATAA,FILE,0,32.5,FINESTEERING,2319,305059.000,02000000,e5fc,17139;2319,305059.000000000,-0.0010646653345231,-0.0002514263422527,0.0149435223858242,-0.0340732095555320,-0.0064651918138928,-0.0079635485816932*744700b8
#CORRIMUDATAA,FILE,0,32.5,FINESTEERING,2319,305059.050,02000000,e5fc,17139;2319,305059.050000000,-0.0008451713534447,-0.0005200337928200,0.0146402653395102,-0.0339182101531863,-0.0053820481914664,-0.0109594071788730*037ac5f7
#CORRIMUDATAA,FILE,0,32.0,FINESTEERING,2319,305059.100,02000000,e5fc,17139;2319,305059.100000000,-0.0004845592056897,-0.0004212700540324,0.0144386588790278,-0.0335800346782280,-0.0126407229164692,0.0064256471214940*c3dd9340
#CORRIMUDATAA,FILE,0,32.0,FINESTEERING,2319,305059.150,02000000,e5fc,17139;2319,305059.150000000,-0.0003425760617279,0.0000858719055934,0.0143049952336213,-0.0322686658628989,-0.0094718344823765,0.0053986568776016*4d2d3388
#CORRIMUDATAA,FILE,0,32.0,FINESTEERING,2319,305059.200,02000000,e5fc,17139;2319,305059.200000000,-0.0001250625144595,0.0000377218659531,0.0142547182965560,-0.0313201345250319,-0.0079629847585383,-0.0037856655951034*71b9f024
#CORRIMUDATAA,FILE,0,32.0,FINESTEERING,2319,305059.250,02000000,e5fc,17139;2319,305059.250000000,-0.0000696239905236,-0.0001121232734466,0.0142709273667454,-0.0302356755731184,-0.0036244087091127,-0.0107496585251734*53dcb017
#CORRIMUDATAA,FILE,0,32.0,FINESTEERING,2319,305059.300,02000000,e5fc,17139;2319,305059.300000000,0.0001292307774306,-0.0003727663663586,0.0142468284177782,-0.0330971081868613,-0.0088982520668359,-0.0088853460305919*62b6613c
#CORRIMUDATAA,FILE,0,32.0,FINESTEERING,2319,305059.350,02000000,e5fc,17139;2319,305059.350000000,0.0001861255188154,-0.0005408563396749,0.0142215731254841,-0.0332066651612933,-0.0062912585398094,0.0002247894412023*f6107179
#CORRIMUDATAA,FILE,0,32.0,FINESTEERING,2319,305059.400,02000000,e5fc,17139;2319,305059.400000000,0.0000173328525876,-0.0005408764336218,0.0141312516557410,-0.0321991816583998,-0.0083780622943303,0.0016261525205910*c778e930
#CORRIMUDATAA,FILE,0,32.0,FINESTEERING,2319,305059.450,02000000,e5fc,17139;2319,305059.450000000,-0.0001930435070840,-0.0004751690546889,0.0140741757686881,-0.0305086069453642,-0.0043675931630993,0.0006059097947865*fd539460
#CORRIMUDATAA,FILE,0,32.0,FINESTEERING,2319,305059.500,02000000,e5fc,17139;2319,305059.500000000,-0.0003464246445031,-0.0005027659514085,0.0139965879452539,-0.0304259126447513,-0.0032394496140538,0.0006950747330226*45f65081
#CORRIMUDATAA,FILE,0,32.0,FINESTEERING,2319,305059.550,02000000,e5fc,17139;2319,305059.550000000,-0.0002740352442997,-0.0004095207904416,0.0139090672059370,-0.0346956195055897,0.0006388581150774,-0.0054065993034222*c1b8386e
#CORRIMUDATAA,FILE,0,32.0,FINESTEERING,2319,305059.600,02000000,e5fc,17139;2319,305059.600000000,-0.0002176161347164,-0.0001868628935876,0.0137006642832686,-0.0369476568730150,-0.0015667960350613,-0.0077814478554535*60d51e6e
#CORRIMUDATAA,FILE,0,32.0,FINESTEERING,2319,305059.650,02000000,e5fc,17139;2319,305059.650000000,-0.0002003862331328,-0.0001907084762997,0.0136065766469696,-0.0277812789954023,-0.0075760847824920,0.0021158662575826*90355038
#CORRIMUDATAA,FILE,0,32.0,FINESTEERING,2319,305059.700,02000000,e5fc,17139;2319,305059.700000000,-0.0003981230393185,-0.0009029848040051,0.0136468292078978,-0.0241416135994240,-0.0099478436846220,0.0206559692295388*d4f1c45f
#CORRIMUDATAA,FILE,0,32.0,FINESTEERING,2319,305059.750,02000000,e5fc,17139;2319,305059.750000000,-0.0007092518915204,-0.0012926766359466,0.0137078828683575,-0.0387413543416172,-0.0008652883558318,0.0092817719418140*1d32c2cc
#CORRIMUDATAA,FILE,0,32.0,FINESTEERING,2319,305059.800,02000000,e5fc,17139;2319,305059.800000000,-0.0005450330059475,-0.0007724890199483,0.0137001493359552,-0.0324754256807142,0.0045846594792924,-0.0136396901167333*45d828b7
#CORRIMUDATAA,FILE,0,32.0,FINESTEERING,2319,305059.850,02000000,e5fc,17139;2319,305059.850000000,-0.0004783894404675,-0.0004091197887010,0.0138704215242380,-0.0204196351859314,0.0036859999643459,-0.0159883108874796*4c679f57
#CORRIMUDATAA,FILE,0,32.0,FINESTEERING,2319,305059.900,02000000,e5fc,17139;2319,305059.900000000,0.0001170339191851,-0.0002467330619136,0.0141040682288816,-0.0147190967953778,0.0155108518468286,-0.0258621455973373*b7cd3f4a
#CORRIMUDATAA,FILE,0,32.0,FINESTEERING,2319,305059.950,02000000,e5fc,17139;2319,305059.950000000,0.0006901180916319,0.0003599191968623,0.0142668766188624,-0.0239112323325863,0.0208065652824152,-0.0326337745884289*256d2384
#CORRIMUDATAA,FILE,0,32.0,FINESTEERING,2319,305060.000,02000000,e5fc,17139;2319,305060.000000000,0.0011868339380839,0.0009315373810179,0.0142532189949828,-0.0314293984061940,0.0191736617557994,-0.0110889916374663*e9972e1b
#CORRIMUDATAA,FILE,0,32.0,FINESTEERING,2319,305060.050,02000000,e5fc,17139;2319,305060.050000000,0.0012363643589764,0.0011126417870817,0.0141431371681213,-0.0373271396553042,0.0194512004207871,0.0013677031486355*6f3ba0cd
#CORRIMUDATAA,FILE,0,32.0,FINESTEERING,2319,305060.100,02000000,e5fc,17139;2319,305060.100000000,0.0010000856933945,0.0010079892890670,0.0140617519476422,-0.0379441907343724,0.0181755535772405,0.0149544755280912*943895c2
#CORRIMUDATAA,FILE,0,32.5,FINESTEERING,2319,305060.150,02000000,e5fc,17139;2319,305060.150000000,0.0001118309323212,0.0006894345237365,0.0142199665299560,-0.0277907461329663,0.0149759460352514,0.0342996749209953*d132366c
#CORRIMUDATAA,FILE,0,32.5,FINESTEERING,2319,305060.200,02000000,e5fc,17139;2319,305060.200000000,-0.0007005605667951,-0.0001055220442884,0.0145618579317806,-0.0255156875875597,0.0147471498807625,0.0416753767755468*8fde252c
#CORRIMUDATAA,FILE,0,32.5,FINESTEERING,2319,305060.250,02000000,e5fc,17139;2319,305060.250000000,-0.0013862052663180,-0.0002507620814311,0.0147750230587731,-0.0355410673627477,0.0229892327746287,0.0256141137921633*7079c838
#CORRIMUDATAA,FILE,0,32.5,FINESTEERING,2319,305060.300,02000000,e5fc,17139;2319,305060.300000000,-0.0016680386776024,-0.0000724920204331,0.0147316500351740,-0.0388535248671930,0.0276199510583428,0.0101546223312279*6a6b4928
#CORRIMUDATAA,FILE,0,32.5,FINESTEERING,2319,305060.350,02000000,e5fc,17139;2319,305060.350000000,-0.0014498118452194,-0.0001212381107191,0.0146212691095964,-0.0377930544166654,0.0375909989521020,-0.0114234213614777*865206eb
#CORRIMUDATAA,FILE,0,32.5,FINESTEERING,2319,305060.400,02000000,e5fc,17139;2319,305060.400000000,-0.0010160763645694,0.0000473478731965,0.0145639285639919,-0.0354411627794403,0.0422265060514594,-0.0262734527112454*1968343e
#CORRIMUDATAA,FILE,0,32.5,FINESTEERING,2319,305060.450,02000000,e5fc,17139;2319,305060.450000000,-0.0004628108872190,0.0004582784849402,0.0148151107550040,-0.0268781118915114,0.0446573978832162,-0.0217013420495122*945985c7
#CORRIMUDATAA,FILE,0,32.5,FINESTEERING,2319,305060.500,02000000,e5fc,17139;2319,305060.500000000,-0.0000808648576144,0.0009334960342256,0.0153082382141185,-0.0222334592978237,0.0476867390871789,-0.0179484681919465*65f442ab
#CORRIMUDATAA,FILE,0,32.5,FINESTEERING,2319,305060.550,02000000,e5fc,17139;2319,305060.550000000,0.0002261403414859,0.0010409986819797,0.0157758707329485,-0.0253753719172757,0.0536955668852408,-0.0123196621019184*abedfabd
#CORRIMUDATAA,FILE,0,32.5,FINESTEERING,2319,305060.600,02000000,e5fc,17139;2319,305060.600000000,0.0001290612683604,0.0008845998091396,0.0160382323025724,-0.0343953257972781,0.0544614724238450,-0.0088757609373187*278d453d
#CORRIMUDATAA,FILE,0,32.5,FINESTEERING,2319,305060.650,02000000,e5fc,17139;2319,305060.650000000,-0.0001494283818706,0.0006577267247947,0.0161298124557400,-0.0445418563131753,0.0540267788407342,0.0192020235108357*3642126d
#CORRIMUDATAA,FILE,0,32.5,FINESTEERING,2319,305060.700,02000000,e5fc,17139;2319,305060.700000000,-0.0007187159149508,0.0004109422974453,0.0160866683700452,-0.0475155171424449,0.0576202700881357,0.0205700629883496*453ba9d5
#CORRIMUDATAA,FILE,0,32.5,FINESTEERING,2319,305060.750,02000000,e5fc,17139;2319,305060.750000000,-0.0011243842404327,0.0001815884199915,0.0160233576378340,-0.0484745615630302,0.0626413778531703,0.0050323810570443*16f4eb69
#CORRIMUDATAA,FILE,0,32.5,FINESTEERING,2319,305060.800,02000000,e5fc,17139;2319,305060.800000000,-0.0012889607864627,0.0004958224184086,0.0159510100975184,-0.0473368296132778,0.0648684778205377,-0.0026342654342705*89162057
#CORRIMUDATAA,FILE,0,32.5,FINESTEERING,2319,305060.850,02000000,e5fc,17139;2319,305060.850000000,-0.0011086817334524,0.0006481661552961,0.0159477571307993,-0.0371264752287238,0.0673170580613106,-0.0070636457129633*8bec0201
#CORRIMUDATAA,FILE,0,32.5,FINESTEERING,2319,305060.900,02000000,e5fc,17139;2319,305060.900000000,-0.0008928576664581,0.0004850672690800,0.0160428728004847,-0.0344851792243719,0.0668903277409929,-0.0079968456620566*6de44da5
#CORRIMUDATAA,FILE,0,32.5,FINESTEERING,2319,305060.950,02000000,e5fc,17139;2319,305060.950000000,-0.0008714514690470,0.0007398486108274,0.0160901490585743,-0.0421004525015982,0.0661579218240305,-0.0103230505444046*3a659cb0
