#INSPVAXA,FILE,0,37.0,FINESTEERING,2319,305045.850,02000800,46eb,17139;INS_SOLUTION_GOOD,INS_RTKFIXED,17.58810898444,78.12090178289,527.7256,-76.3000,0.0026,-0.0005,0.0008,1.815687678,-0.681491098,351.523428537,0.7252,0.7570,1.5021,0.0022,0.0022,0.0022,0.0160,0.0162,0.4409,ab000044,0*a7f6f9d2
#INSPVAXA,FILE,0,37.0,FINESTEERING,2319,305045.950,02000800,46eb,17139;INS_SOLUTION_GOOD,INS_RTKFIXED,17.58810898575,78.12090178067,527.7252,-76.3000,0.0014,-0.0000,-0.0015,1.811201135,-0.681776900,351.524185921,0.7252,0.7570,1.5021,0.0022,0.0022,0.0022,0.0160,0.0162,0.4409,ab000044,0*eea689d8
#INSPVAXA,FILE,0,37.0,FINESTEERING,2319,305046.050,02000800,46eb,17139;INS_SOLUTION_GOOD,INS_RTKFIXED,17.58810898648,78.12090177955,527.7249,-76.3000,0.0025,0.0014,0.0001,1.811634170,-0.677363415,351.525335027,0.7255,0.7572,1.5025,0.0022,0.0022,0.0022,0.0161,0.0162,0.4409,ab000044,0*6b129dc2
#INSPVAXA,FILE,0,37.0,FINESTEERING,2319,305046.150,02000800,46eb,17139;INS_SOLUTION_GOOD,INS_RTKFIXED,17.58810898794,78.12090177975,527.7248,-76.3000,0.0027,0.0002,0.0014,1.811727928,-0.681264859,351.524928488,0.7255,0.7572,1.5025,0.0022,0.0022,0.0022,0.0161,0.0162,0.4409,ab000044,0*88621c6d
#INSPVAXA,FILE,0,37.5,FINESTEERING,2319,305046.250,02000800,46eb,17139;INS_SOLUTION_GOOD,INS_RTKFIXED,17.58810898977,78.12090177940,527.7246,-76.3000,0.0022,0.0002,-0.0005,1.809892439,-0.680999097,351.525128417,0.7255,0.7572,1.5025,0.0022,0.0022,0.0022,0.0161,0.0162,0.4409,ab000044,0*1b697978
#INSPVAXA,FILE,0,37.5,FINESTEERING,2319,305046.350,02000800,46eb,17139;INS_SOLUTION_GOOD,INS_RTKFIXED,17.58810899057,78.12090177942,527.7243,-76.3000,0.0014,0.0005,0.0004,1.811812005,-0.679080515,351.525019826,0.7255,0.7572,1.5025,0.0022,0.0022,0.0022,0.0161,0.0162,0.4409,ab000044,0*cf0dfba1
#INSPVAXA,FILE,0,37.5,FINESTEERING,2319,305046.500,02000800,46eb,17139;INS_SOLUTION_GOOD,INS_RTKFIXED,17.58810899247,78.12090177988,527.7240,-76.3000,0.0024,-0.0002,0.0000,1.814485170,-0.676523163,351.524138323,0.7255,0.7572,1.5025,0.0022,0.0022,0.0022,0.0161,0.0162,0.4409,ab000044,0*49808b1c
#INSPVAXA,FILE,0,37.5,FINESTEERING,2319,305046.600,02000800,46eb,17139;INS_SOLUTION_GOOD,INS_RTKFIXED,17.58810899373,78.12090177932,527.7238,-76.3000,0.0012,-0.0004,0.0004,1.815459079,-0.678670240,351.524560189,0.7255,0.7572,1.5025,0.0022,0.0022,0.0022,0.0161,0.0162,0.4409,ab000044,0*6227038f
#INSPVAXA,FILE,0,37.5,FINESTEERING,2319,305046.700,02000800,46eb,17139;INS_SOLUTION_GOOD,INS_RTKFIXED,17.58810899508,78.12090177852,527.7237,-76.3000,0.0020,-0.0010,0.0015,1.810338870,-0.676687753,351.523885264,0.7255,0.7572,1.5025,0.0022,0.0022,0.0022,0.0161,0.0162,0.4409,ab000044,0*2cfde37f
#INSPVAXA,FILE,0,37.5,FINESTEERING,2319,305046.800,02000800,46eb,17139;INS_SOLUTION_GOOD,INS_RTKFIXED,17.58810899704,78.12090177751,527.7235,-76.3000,0.0024,-0.0014,0.0016,1.806702976,-0.679017444,351.523963535,0.7255,0.7572,1.5025,0.0022,0.0022,0.0022,0.0161,0.0162,0.4409,ab000044,0*79e349c1
#INSPVAXA,FILE,0,37.5,FINESTEERING,2319,305046.950,02000800,46eb,17139;INS_SOLUTION_GOOD,INS_RTKFIXED,17.58810899923,78.12090177745,527.7232,-76.3000,0.0013,0.0008,0.0005,1.808812639,-0.677333710,351.525632052,0.7255,0.7572,1.5025,0.0022,0.0022,0.0022,0.0161,0.0162,0.4409,ab000044,0*c59b6c2e
#INSPVAXA,FILE,0,37.5,FINESTEERING,2319,305047.000,02000800,46eb,17139;INS_SOLUTION_GOOD,INS_RTKFIXED,17.58810899997,78.12090177799,527.7231,-76.3000,0.0018,0.0010,0.0006,1.811152615,-0.676322184,351.524725335,0.7255,0.7572,1.5025,0.0022,0.0022,0.0022,0.0161,0.0162,0.4409,ab000044,0*57ae402e
#INSPVAXA,FILE,0,37.0,FINESTEERING,2319,305047.100,02000800,46eb,17139;INS_SOLUTION_GOOD,INS_RTKFIXED,17.58810900178,78.12090177834,527.7230,-76.3000,0.0029,-0.0010,0.0002,1.813010822,-0.675370810,351.523833004,0.7257,0.7574,1.5028,0.0021,0.0021,0.0021,0.0161,0.0163,0.4409,ab000044,0*9d7fcb17
#INSPVAXA,FILE,0,37.0,FINESTEERING,2319,305047.200,02000800,46eb,17139;INS_SOLUTION_GOOD,INS_RTKFIXED,17.58810900300,78.12090177777,527.7230,-76.3000,0.0007,-0.0013,0.0012,1.812977520,-0.677911827,351.524220464,0.7257,0.7574,1.5028,0.0021,0.0021,0.0021,0.0161,0.0163,0.4409,ab000044,0*125bcf99
#INSPVAXA,FILE,0,37.0,FINESTEERING,2319,305047.300,02000800,46eb,17139;INS_SOLUTION_GOOD,INS_RTKFIXED,17.58810900365,78.12090177720,527.7230,-76.3000,0.0010,-0.0021,-0.0005,1.808668496,-0.675161973,351.524598405,0.7257,0.7574,1.5028,0.0021,0.0021,0.0021,0.0161,0.0163,0.4409,ab000044,0*9820ad37
#INSPVAXA,FILE,0,37.0,FINESTEERING,2319,305047.400,02000800,46eb,17139;INS_SOLUTION_GOOD,INS_RTKFIXED,17.58810900524,78.12090177593,527.7230,-76.3000,0.0019,-0.0012,0.0005,1.808557605,-0.676189556,351.526070564,0.7257,0.7574,1.5028,0.0021,0.0021,0.0021,0.0161,0.0163,0.4409,ab000044,0*59f76715
#INSPVAXA,FILE,0,37.0,FINESTEERING,2319,305047.500,02000800,46eb,17139;INS_SOLUTION_GOOD,INS_RTKFIXED,17.58810900682,78.12090177581,527.7231,-76.3000,0.0010,-0.0013,0.0010,1.807274959,-0.678037419,351.524165000,0.7257,0.7574,1.5028,0.0021,0.0021,0.0021,0.0161,0.0163,0.4409,ab000044,0*9ea67e35
#INSPVAXA,FILE,0,37.0,FINESTEERING,2319,305047.550,02000800,46eb,17139;INS_SOLUTION_GOOD,INS_RTKFIXED,17.58810900739,78.12090177569,527.7231,-76.3000,0.0006,-0.0012,-0.0000,1.809112029,-0.677779582,351.524626851,0.7257,0.7574,1.5028,0.0021,0.0021,0.0021,0.0161,0.0163,0.4409,ab000044,0*bc8fcdc5
#INSPVAXA,FILE,0,37.0,FINESTEERING,2319,305047.700,02000800,46eb,17139;INS_SOLUTION_GOOD,INS_RTKFIXED,17.58810900968,78.12090177561,527.7231,-76.3000,0.0007,-0.0007,0.0009,1.812413900,-0.676672866,351.525529801,0.7257,0.7574,1.5028,0.0021,0.0021,0.0021,0.0161,0.0163,0.4409,ab000044,0*a72b7980
#INSPVAXA,FILE,0,37.0,FINESTEERING,2319,305047.800,02000800,46eb,17139;INS_SOLUTION_GOOD,INS_RTKFIXED,17.58810900983,78.12090177591,527.7231,-76.3000,-0.0013,-0.0013,-0.0008,1.812852045,-0.675903575,351.523415981,0.7257,0.7574,1.5028,0.0021,0.0021,0.0021,0.0161,0.0163,0.4409,ab000044,0*47c5d1db
#INSPVAXA,FILE,0,37.0,FINESTEERING,2319,305047.900,02000800,46eb,17139;INS_SOLUTION_GOOD,INS_RTKFIXED,17.58810900914,78.12090177457,527.7229,-76.3000,-0.0014,-0.0026,-0.0034,1.809802066,-0.669623745,351.524789128,0.7257,0.7574,1.5028,0.0021,0.0021,0.0021,0.0161,0.0163,0.4409,ab000044,0*1d309224
#INSPVAXA,FILE,0,37.0,FINESTEERING,2319,305048.000,02000800,46eb,17139;INS_SOLUTION_GOOD,INS_RTKFIXED,17.58810901076,78.12090177161,527.7222,-76.3000,0.0059,-0.0092,-0.0130,1.798143569,-0.646013970,351.532471478,0.7257,0.7574,1.5028,0.0021,0.0021,0.0021,0.0161,0.0163,0.4409,ab000044,0*d8fbdc7b
#INSPVAXA,FILE,0,37.0,FINESTEERING,2319,305048.100,02000800,46eb,17139;INS_SOLUTION_GOOD,INS_RTKFIXED,17.58810902951,78.12090176051,527.7195,-76.3000,0.0323,-0.0114,-0.0346,1.793441405,-0.579703959,351.572257293,0.7232,0.7562,1.5051,0.0047,0.0047,0.0044,0.0164,0.0166,0.4409,ab000142,0*aad0082f
#INSPVAXA,FILE,0,37.5,FINESTEERING,2319,305048.200,02000800,46eb,17139;INS_SOLUTION_GOOD,INS_RTKFIXED,17.58810908038,78.12090175311,527.7161,-76.3000,0.0750,-0.0075,-0.0303,1.783385823,-0.487395426,351.583838422,0.7232,0.7562,1.5051,0.0047,0.0047,0.0044,0.0164,0.0166,0.4409,ab000142,0*84a15cf2
#INSPVAXA,FILE,0,37.5,FINESTEERING,2319,305048.250,02000800,46eb,17139;INS_SOLUTION_GOOD,INS_RTKFIXED,17.58810912197,78.12090174862,527.7146,-76.3000,0.1021,-0.0123,-0.0237,1.779595656,-0.445711998,351.583251962,0.7232,0.7562,1.5051,0.0047,0.0047,0.0044,0.0164,0.0166,0.4409,ab000142,0*4ea87e64
#INSPVAXA,FILE,0,37.5,FINESTEERING,2319,305048.350,02000800,46eb,17139;INS_SOLUTION_GOOD,INS_RTKFIXED,17.58810924482,78.12090173009,527.7131,-76.3000,0.1635,-0.0281,-0.0032,1.757826665,-0.398164067,351.611584658,0.7232,0.7562,1.5051,0.0047,0.0047,0.0044,0.0164,0.0166,0.4409,ab000142,0*1272b68d
#INSPVAXA,FILE,0,37.5,FINESTEERING,2319,305048.450,02000800,46eb,17139;INS_SOLUTION_GOOD,INS_RTKFIXED,17.58810942015,78.12090170173,527.7132,-76.3000,0.2133,-0.0299,0.0113,1.746558421,-0.412138354,351.665057760,0.7232,0.7562,1.5051,0.0047,0.0047,0.0044,0.0164,0.0166,0.4409,ab000142,0*ce417dfa
#INSPVAXA,FILE,0,37.5,FINESTEERING,2319,305048.550,02000800,46eb,17139;INS_SOLUTION_GOOD,INS_RTKFIXED,17.58810962810,78.12090167728,527.7150,-76.3000,0.2428,-0.0249,0.0208,1.745852272,-0.483182165,351.687641411,0.7232,0.7562,1.5051,0.0047,0.0047,0.0044,0.0164,0.0166,0.4409,ab000142,0*dcd6be75
#INSPVAXA,FILE,0,37.5,FINESTEERING,2319,305048.600,02000800,46eb,17139;INS_SOLUTION_GOOD,INS_RTKFIXED,17.58810974617,78.12090166385,527.7155,-76.3000,0.2716,-0.0322,0.0060,1.734191191,-0.497372125,351.702996605,0.7232,0.7562,1.5051,0.0047,0.0047,0.0044,0.0164,0.0166,0.4409,ab000142,0*8d93a59f
#INSPVAXA,FILE,0,37.5,FINESTEERING,2319,305048.700,02000800,46eb,17139;INS_SOLUTION_GOOD,INS_RTKFIXED,17.58811001832,78.12090162624,527.7145,-76.3000,0.3195,-0.0456,-0.0138,1.726844135,-0.478986439,351.773430327,0.7232,0.7562,1.5051,0.0047,0.0047,0.0044,0.0164,0.0166,0.4409,ab000142,0*3606d77f
#INSPVAXA,FILE,0,37.5,FINESTEERING,2319,305048.850,02000800,46eb,17139;INS_SOLUTION_GOOD,INS_RTKFIXED,17.58811049234,78.12090156327,527.7129,-76.3000,0.3786,-0.0473,-0.0091,1.703156268,-0.490269792,351.893325670,0.7232,0.7562,1.5051,0.0047,0.0047,0.0044,0.0164,0.0166,0.4409,ab000142,0*922bb550
#INSPVAXA,FILE,0,37.5,FINESTEERING,2319,305048.950,02000800,46eb,17139;INS_SOLUTION_GOOD,INS_RTKFIXED,17.58811085916,78.12090151471,527.7121,-76.3000,0.4229,-0.0571,-0.0008,1.674444767,-0.482287387,351.996983938,0.7232,0.7562,1.5051,0.0047,0.0047,0.0044,0.0164,0.0166,0.4409,ab000142,0*88cd10e5
#INSPVAXA,FILE,0,37.5,FINESTEERING,2319,305049.050,02000800,46eb,17139;INS_SOLUTION_GOOD,INS_RTKFIXED,17.58811125986,78.12090145974,527.7119,-76.3000,0.4602,-0.0613,0.0007,1.654232288,-0.508598175,352.140355606,0.7214,0.7542,1.5073,0.0065,0.0066,0.0060,0.0168,0.0170,0.4410,ab000142,0*c9d7cd93
#INSPVAXA,FILE,0,37.0,FINESTEERING,2319,305049.150,02000800,46eb,17139;INS_SOLUTION_GOOD,INS_RTKFIXED,17.58811170288,78.12090140033,527.7111,-76.3000,0.5143,-0.0650,-0.0103,1.639940195,-0.505955122,352.323028535,0.7214,0.7542,1.5073,0.0065,0.0066,0.0060,0.0168,0.0170,0.4410,ab000142,0*b740cdd4
#INSPVAXA,FILE,0,37.0,FINESTEERING,2319,305049.200,02000800,46eb,17139;INS_SOLUTION_GOOD,INS_RTKFIXED,17.58811194148,78.12090136948,527.7104,-76.3000,0.5367,-0.0664,-0.0112,1.639840796,-0.499533066,352.429578927,0.7214,0.7542,1.5073,0.0065,0.0066,0.0060,0.0168,0.0170,0.4410,ab000142,0*c5df7793
#INSPVAXA,FILE,0,37.0,FINESTEERING,2319,305049.350,02000800,46eb,17139;INS_SOLUTION_GOOD,INS_RTKFIXED,17.58811271716,78.12090127129,527.7089,-76.3000,0.6037,-0.0760,-0.0064,1.642127734,-0.506671039,352.820986817,0.7214,0.7542,1.5073,0.0065,0.0066,0.0060,0.0168,0.0170,0.4410,ab000142,0*667c6836
#INSPVAXA,FILE,0,37.0,FINESTEERING,2319,305049.450,02000800,46eb,17139;INS_SOLUTION_GOOD,INS_RTKFIXED,17.58811328478,78.12090120039,527.7081,-76.3000,0.6455,-0.0743,-0.0010,1.653399435,-0.511498825,353.140260753,0.7214,0.7542,1.5073,0.0065,0.0066,0.0060,0.0168,0.0170,0.4410,ab000142,0*238728e6
#INSPVAXA,FILE,0,37.0,FINESTEERING,2319,305049.500,02000800,46eb,17139;INS_SOLUTION_GOOD,INS_RTKFIXED,17.58811358196,78.12090116560,527.7080,-76.3000,0.6644,-0.0741,-0.0001,1.651433731,-0.522768253,353.304245941,0.7214,0.7542,1.5073,0.0065,0.0066,0.0060,0.0168,0.0170,0.4410,ab000142,0*574da330
#INSPVAXA,FILE,0,37.0,FINESTEERING,2319,305049.550,02000800,46eb,17139;INS_SOLUTION_GOOD,INS_RTKFIXED,17.58811388814,78.12090113094,527.7078,-76.3000,0.6849,-0.0741,-0.0008,1.653547817,-0.533813636,353.471979314,0.7214,0.7542,1.5073,0.0065,0.0066,0.0060,0.0168,0.0170,0.4410,ab000142,0*b358ec91
#INSPVAXA,FILE,0,37.0,FINESTEERING,2319,305049.600,02000800,46eb,17139;INS_SOLUTION_GOOD,INS_RTKFIXED,17.58811420318,78.12090109597,527.7077,-76.3000,0.7039,-0.0748,0.0031,1.655963827,-0.545491784,353.647335360,0.7214,0.7542,1.5073,0.0065,0.0066,0.0060,0.0168,0.0170,0.4410,ab000142,0*af3d2754
#INSPVAXA,FILE,0,37.0,FINESTEERING,2319,305049.650,02000800,46eb,17139;INS_SOLUTION_GOOD,INS_RTKFIXED,17.58811452609,78.12090106068,527.7077,-76.3000,0.7202,-0.0754,0.0033,1.660026974,-0.558735721,353.832067661,0.7214,0.7542,1.5073,0.0065,0.0066,0.0060,0.0168,0.0170,0.4410,ab000142,0*d12537c6
#INSPVAXA,FILE,0,37.0,FINESTEERING,2319,305049.700,02000800,46eb,17139;INS_SOLUTION_GOOD,INS_RTKFIXED,17.58811485687,78.12090102567,527.7077,-76.3000,0.7379,-0.0741,0.0035,1.665943892,-0.571357937,354.025999720,0.7214,0.7542,1.5073,0.0065,0.0066,0.0060,0.0168,0.0170,0.4410,ab000142,0*daf13ded
#INSPVAXA,FILE,0,37.0,FINESTEERING,2319,305049.750,02000800,46eb,17139;INS_SOLUTION_GOOD,INS_RTKFIXED,17.58811519534,78.12090099079,527.7078,-76.3000,0.7554,-0.0743,0.0043,1.669630093,-0.581340497,354.227716201,0.7214,0.7542,1.5073,0.0065,0.0066,0.0060,0.0168,0.0170,0.4410,ab000142,0*fc11156e
#INSPVAXA,FILE,0,37.0,FINESTEERING,2319,305049.800,02000800,46eb,17139;INS_SOLUTION_GOOD,INS_RTKFIXED,17.58811554201,78.12090095600,527.7077,-76.3000,0.7734,-0.0735,-0.0001,1.680124999,-0.587066282,354.437562267,0.7214,0.7542,1.5073,0.0065,0.0066,0.0060,0.0168,0.0170,0.4410,ab000142,0*52a59555
#INSPVAXA,FILE,0,37.0,FINESTEERING,2319,305049.850,02000800,46eb,17139;INS_SOLUTION_GOOD,INS_RTKFIXED,17.58811589716,78.12090092193,527.7075,-76.3000,0.7928,-0.0716,-0.0019,1.686611889,-0.588155137,354.652130364,0.7214,0.7542,1.5073,0.0065,0.0066,0.0060,0.0168,0.0170,0.4410,ab000142,0*5f0fdd10
#INSPVAXA,FILE,0,37.0,FINESTEERING,2319,305049.900,02000800,46eb,17139;INS_SOLUTION_GOOD,INS_RTKFIXED,17.58811626093,78.12090088891,527.7073,-76.3000,0.8117,-0.0690,-0.0023,1.696665460,-0.590814664,354.868231246,0.7214,0.7542,1.5073,0.0065,0.0066,0.0060,0.0168,0.0170,0.4410,ab000142,0*1c5965c8
#INSPVAXA,FILE,0,37.0,FINESTEERING,2319,305049.950,02000000,46eb,17139;INS_SOLUTION_GOOD,INS_RTKFIXED,17.58811663362,78.12090085709,527.7069,-76.3000,0.8324,-0.0668,-0.0053,1.697336730,-0.589053495,355.085787141,0.7214,0.7542,1.5073,0.0065,0.0066,0.0060,0.0168,0.0170,0.4410,ab000142,0*f4ab7735
#INSPVAXA,FILE,0,37.0,FINESTEERING,2319,305050.000,02000000,46eb,17139;INS_SOLUTION_GOOD,INS_RTKFIXED,17.58811701589,78.12090082565,527.7066,-76.3000,0.8547,-0.0669,-0.0048,1.694700245,-0.589885126,355.307526887,0.7214,0.7542,1.5073,0.0065,0.0066,0.0060,0.0168,0.0170,0.4410,ab000142,0*eea03009
#INSPVAXA,FILE,0,37.0,FINESTEERING,2319,305050.050,02000000,46eb,17139;INS_SOLUTION_GOOD,INS_RTKFIXED,17.58811741036,78.12090079522,527.7061,-76.3000,0.8814,-0.0665,-0.0070,1.687758031,-0.589069167,355.537482049,0.7199,0.7526,1.5085,0.0079,0.0082,0.0070,0.0173,0.0174,0.4411,ab000342,0*c6d79ca2
#INSPVAXA,FILE,0,34.5,FINESTEERING,2319,305050.100,02000000,46eb,17139;INS_SOLUTION_GOOD,INS_RTKFIXED,17.58811781855,78.12090076540,527.7054,-76.3000,0.9092,-0.0669,-0.0102,1.668996957,-0.582846189,355.777418253,0.7199,0.7526,1.5085,0.0079,0.0082,0.0070,0.0173,0.0174,0.4411,ab000342,0*d323e4a0
#INSPVAXA,FILE,0,34.5,FINESTEERING,2319,305050.150,02000000,46eb,17139;INS_SOLUTION_GOOD,INS_RTKFIXED,17.58811823958,78.12090073574,527.7046,-76.3000,0.9383,-0.0653,-0.0110,1.656773105,-0.579635617,356.025569373,0.7199,0.7526,1.5085,0.0079,0.0082,0.0070,0.0173,0.0174,0.4411,ab000342,0*6295f904
#INSPVAXA,FILE,0,34.5,FINESTEERING,2319,305050.200,02000000,46eb,17139;INS_SOLUTION_GOOD,INS_RTKFIXED,17.58811867405,78.12090070709,527.7038,-76.3000,0.9693,-0.0622,-0.0117,1.645529176,-0.572571901,356.279415742,0.7199,0.7526,1.5085,0.0079,0.0082,0.0070,0.0173,0.0174,0.4411,ab000342,0*4ae223d0
#INSPVAXA,FILE,0,34.5,FINESTEERING,2319,305050.250,02000000,46eb,17139;INS_SOLUTION_GOOD,INS_RTKFIXED,17.58811912401,78.12090068020,527.7029,-76.3000,1.0062,-0.0580,-0.0153,1.633260020,-0.554886032,356.538363542,0.7199,0.7526,1.5085,0.0079,0.0082,0.0070,0.0173,0.0174,0.4411,ab000342,0*f0ca36c5
#INSPVAXA,FILE,0,34.5,FINESTEERING,2319,305050.300,02000000,46eb,17139;INS_SOLUTION_GOOD,INS_RTKFIXED,17.58811959140,78.12090065572,527.7017,-76.3000,1.0465,-0.0526,-0.0180,1.620940616,-0.530310873,356.802170846,0.7199,0.7526,1.5085,0.0079,0.0082,0.0070,0.0173,0.0174,0.4411,ab000342,0*bb7a3f3a
#INSPVAXA,FILE,0,34.5,FINESTEERING,2319,305050.350,02000000,46eb,17139;INS_SOLUTION_GOOD,INS_RTKFIXED,17.58812007734,78.12090063351,527.7005,-76.3000,1.0889,-0.0477,-0.0196,1.606987520,-0.499027192,357.070417316,0.7199,0.7526,1.5085,0.0079,0.0082,0.0070,0.0173,0.0174,0.4411,ab000342,0*d0a46b4a
#INSPVAXA,FILE,0,34.5,FINESTEERING,2319,305050.400,02000000,46eb,17139;INS_SOLUTION_GOOD,INS_RTKFIXED,17.58812058291,78.12090061291,527.6993,-76.3000,1.1332,-0.0447,-0.0190,1.596158311,-0.465587370,357.344650482,0.7199,0.7526,1.5085,0.0079,0.0082,0.0070,0.0173,0.0174,0.4411,ab000342,0*0ec46794
#INSPVAXA,FILE,0,34.5,FINESTEERING,2319,305050.450,02000000,46eb,17139;INS_SOLUTION_GOOD,INS_RTKFIXED,17.58812110860,78.12090059403,527.6981,-76.3000,1.1787,-0.0405,-0.0173,1.594822191,-0.429562430,357.625576294,0.7199,0.7526,1.5085,0.0079,0.0082,0.0070,0.0173,0.0174,0.4411,ab000342,0*675cc4f5
#INSPVAXA,FILE,0,34.5,FINESTEERING,2319,305050.500,02000000,46eb,17139;INS_SOLUTION_GOOD,INS_RTKFIXED,17.58812165508,78.12090057712,527.6970,-76.3000,1.2252,-0.0363,-0.0134,1.605024758,-0.400951471,357.912995288,0.7199,0.7526,1.5085,0.0079,0.0082,0.0070,0.0173,0.0174,0.4411,ab000342,0*c69ae86e
#INSPVAXA,FILE,0,34.5,FINESTEERING,2319,305050.550,02000000,46eb,17139;INS_SOLUTION_GOOD,INS_RTKFIXED,17.58812222326,78.12090056308,527.6961,-76.3000,1.2741,-0.0289,-0.0126,1.619214644,-0.374263855,358.205647363,0.7199,0.7526,1.5085,0.0079,0.0082,0.0070,0.0173,0.0174,0.4411,ab000342,0*f29ca9c5
#INSPVAXA,FILE,0,34.5,FINESTEERING,2319,305050.600,02000000,46eb,17139;INS_SOLUTION_GOOD,INS_RTKFIXED,17.58812281321,78.12090055262,527.6953,-76.3000,1.3239,-0.0200,-0.0111,1.636108498,-0.349135750,358.500010769,0.7199,0.7526,1.5085,0.0079,0.0082,0.0070,0.0173,0.0174,0.4411,ab000342,0*a0c1ac59
#INSPVAXA,FILE,0,34.5,FINESTEERING,2319,305050.650,02000000,46eb,17139;INS_SOLUTION_GOOD,INS_RTKFIXED,17.58812342575,78.12090054648,527.6944,-76.3000,1.3732,-0.0105,-0.0140,1.665675698,-0.331754635,358.786870635,0.7199,0.7526,1.5085,0.0079,0.0082,0.0070,0.0173,0.0174,0.4411,ab000342,0*34b7c13c
#INSPVAXA,FILE,0,34.5,FINESTEERING,2319,305050.700,02000000,46eb,17139;INS_SOLUTION_GOOD,INS_RTKFIXED,17.58812406199,78.12090054497,527.6933,-76.3000,1.4270,-0.0007,-0.0197,1.681690158,-0.296526132,359.066381043,0.7199,0.7526,1.5085,0.0079,0.0082,0.0070,0.0173,0.0174,0.4411,ab000342,0*947537c0
#INSPVAXA,FILE,0,34.5,FINESTEERING,2319,305050.750,02000000,46eb,17139;INS_SOLUTION_GOOD,INS_RTKFIXED,17.58812472173,78.12090054717,527.6920,-76.3000,1.4792,0.0064,-0.0238,1.714152230,-0.270709098,359.337964259,0.7199,0.7526,1.5085,0.0079,0.0082,0.0070,0.0173,0.0174,0.4411,ab000342,0*bee30aa7
#INSPVAXA,FILE,0,34.5,FINESTEERING,2319,305050.800,02000000,46eb,17139;INS_SOLUTION_GOOD,INS_RTKFIXED,17.58812540579,78.12090055244,527.6904,-76.3000,1.5344,0.0121,-0.0316,1.740891504,-0.236086106,359.601257467,0.7199,0.7526,1.5085,0.0079,0.0082,0.0070,0.0173,0.0174,0.4411,ab000342,0*d5bd57a3
#INSPVAXA,FILE,0,34.5,FINESTEERING,2319,305050.850,02000000,46eb,17139;INS_SOLUTION_GOOD,INS_RTKFIXED,17.58812611518,78.12090056051,527.6885,-76.3000,1.5916,0.0189,-0.0327,1.772615542,-0.196079306,359.855256392,0.7199,0.7526,1.5085,0.0079,0.0082,0.0070,0.0173,0.0174,0.4411,ab000342,0*4531b223
#INSPVAXA,FILE,0,34.5,FINESTEERING,2319,305050.900,02000000,46eb,17139;INS_SOLUTION_GOOD,INS_RTKFIXED,17.58812685047,78.12090057295,527.6867,-76.3000,1.6498,0.0294,-0.0329,1.798152630,-0.152607025,0.094040413,0.7199,0.7526,1.5085,0.0079,0.0082,0.0070,0.0173,0.0174,0.4411,ab000342,0*98b2350f
#INSPVAXA,FILE,0,34.5,FINESTEERING,2319,305050.950,02000000,46eb,17139;INS_SOLUTION_GOOD,INS_RTKFIXED,17.58812761168,78.12090058996,527.6849,-76.3000,1.7068,0.0396,-0.0292,1.818116976,-0.112961186,0.312004450,0.7199,0.7526,1.5085,0.0079,0.0082,0.0070,0.0173,0.0174,0.4411,ab000342,0*2a052575
#INSPVAXA,FILE,0,34.5,FINESTEERING,2319,305051.000,02000000,46eb,17139;INS_SOLUTION_GOOD,INS_RTKFIXED,17.58812839873,78.12090061235,527.6833,-76.3000,1.7640,0.0514,-0.0232,1.834489073,-0.082061688,0.503629099,0.7199,0.7526,1.5085,0.0079,0.0082,0.0070,0.0173,0.0174,0.4411,ab000342,0*6b30d1b2
#INSPVAXA,FILE,0,34.5,FINESTEERING,2319,305051.050,02000000,46eb,17139;INS_SOLUTION_GOOD,INS_RTKFIXED,17.58812921328,78.12090064307,527.6820,-76.3000,1.8227,0.0629,-0.0184,1.844051665,-0.059575776,0.668209010,0.7194,0.7522,1.5088,0.0106,0.0113,0.0094,0.0177,0.0177,0.4412,ab000342,0*93d14ec7
#INSPVAXA,FILE,0,24.0,FINESTEERING,2319,305051.100,02000000,46eb,17139;INS_SOLUTION_GOOD,INS_RTKFIXED,17.58813005768,78.12090068428,527.6809,-76.3000,1.8830,0.0711,-0.0209,1.848176356,-0.040689689,0.812530464,0.7194,0.7522,1.5088,0.0106,0.0113,0.0094,0.0177,0.0177,0.4412,ab000342,0*f30d6cbb
#INSPVAXA,FILE,0,24.0,FINESTEERING,2319,305051.150,02000000,46eb,17139;INS_SOLUTION_GOOD,INS_RTKFIXED,17.58813092968,78.12090072811,527.6796,-76.3000,1.9450,0.0745,-0.0278,1.837485738,-0.017733313,0.948296673,0.7194,0.7522,1.5088,0.0106,0.0113,0.0094,0.0177,0.0177,0.4412,ab000342,0*1a1df98e
#INSPVAXA,FILE,0,24.0,FINESTEERING,2319,305051.200,02000000,46eb,17139;INS_SOLUTION_GOOD,INS_RTKFIXED,17.58813182912,78.12090077418,527.6779,-76.3000,2.0065,0.0804,-0.0335,1.815473744,0.006977821,1.086264853,0.7194,0.7522,1.5088,0.0106,0.0113,0.0094,0.0177,0.0177,0.4412,ab000342,0*9fef02ad
#INSPVAXA,FILE,0,24.0,FINESTEERING,2319,305051.250,02000000,46eb,17139;INS_SOLUTION_GOOD,INS_RTKFIXED,17.58813275592,78.12090082259,527.6760,-76.3000,2.0661,0.0853,-0.0409,1.783510069,0.026028146,1.225046105,0.7194,0.7522,1.5088,0.0106,0.0113,0.0094,0.0177,0.0177,0.4412,ab000342,0*ae537cdc
#INSPVAXA,FILE,0,24.0,FINESTEERING,2319,305051.300,02000000,46eb,17139;INS_SOLUTION_GOOD,INS_RTKFIXED,17.58813371066,78.12090087364,527.6737,-76.3000,2.1295,0.0926,-0.0457,1.749926641,0.048751551,1.360871769,0.7194,0.7522,1.5088,0.0106,0.0113,0.0094,0.0177,0.0177,0.4412,ab000342,0*94bdcee4
#INSPVAXA,FILE,0,24.0,FINESTEERING,2319,305051.350,02000000,46eb,17139;INS_SOLUTION_GOOD,INS_RTKFIXED,17.58813469298,78.12090092991,527.6713,-76.3000,2.1902,0.1075,-0.0504,1.744130345,0.068140210,1.483311739,0.7194,0.7522,1.5088,0.0106,0.0113,0.0094,0.0177,0.0177,0.4412,ab000342,0*4790316f
#INSPVAXA,FILE,0,24.0,FINESTEERING,2319,305051.400,02000000,46eb,17139;INS_SOLUTION_GOOD,INS_RTKFIXED,17.58813570287,78.12090099414,527.6685,-76.3000,2.2497,0.1263,-0.0572,1.734355597,0.091190210,1.589403743,0.7194,0.7522,1.5088,0.0106,0.0113,0.0094,0.0177,0.0177,0.4412,ab000342,0*e9c5082f
#INSPVAXA,FILE,0,24.0,FINESTEERING,2319,305051.450,02000000,46eb,17139;INS_SOLUTION_GOOD,INS_RTKFIXED,17.58813673898,78.12090106589,527.6659,-76.3000,2.3079,0.1408,-0.0446,1.721836228,0.125511860,1.683647666,0.7194,0.7522,1.5088,0.0106,0.0113,0.0094,0.0177,0.0177,0.4412,ab000342,0*9e9927a5
#INSPVAXA,FILE,0,24.0,FINESTEERING,2319,305051.500,02000000,46eb,17139;INS_SOLUTION_GOOD,INS_RTKFIXED,17.58813780068,78.12090114169,527.6639,-76.3000,2.3641,0.1464,-0.0315,1.737186079,0.145081662,1.772075904,0.7194,0.7522,1.5088,0.0106,0.0113,0.0094,0.0177,0.0177,0.4412,ab000342,0*3a39d127
#INSPVAXA,FILE,0,24.0,FINESTEERING,2319,305051.550,02000000,46eb,17139;INS_SOLUTION_GOOD,INS_RTKFIXED,17.58813888813,78.12090122008,527.6625,-76.3000,2.4218,0.1524,-0.0187,1.755622449,0.162632896,1.861935531,0.7194,0.7522,1.5088,0.0106,0.0113,0.0094,0.0177,0.0177,0.4412,ab000342,0*6ac3a1b1
#INSPVAXA,FILE,0,24.0,FINESTEERING,2319,305051.600,02000000,46eb,17139;INS_SOLUTION_GOOD,INS_RTKFIXED,17.58814000105,78.12090130194,527.6618,-76.3000,2.4768,0.1596,-0.0040,1.786484549,0.157182836,1.947115260,0.7194,0.7522,1.5088,0.0106,0.0113,0.0094,0.0177,0.0177,0.4412,ab000342,0*0829b280
#INSPVAXA,FILE,0,24.0,FINESTEERING,2319,305051.650,02000000,46eb,17139;INS_SOLUTION_GOOD,INS_RTKFIXED,17.58814113931,78.12090138699,527.6615,-76.3000,2.5336,0.1667,0.0037,1.806682518,0.147891731,2.026249398,0.7194,0.7522,1.5088,0.0106,0.0113,0.0094,0.0177,0.0177,0.4412,ab000342,0*71c81760
#INSPVAXA,FILE,0,24.0,FINESTEERING,2319,305051.700,02000000,46eb,17139;INS_SOLUTION_GOOD,INS_RTKFIXED,17.58814230170,78.12090147420,527.6619,-76.3000,2.5861,0.1693,0.0150,1.814988936,0.110925428,2.093493971,0.7194,0.7522,1.5088,0.0106,0.0113,0.0094,0.0177,0.0177,0.4412,ab000342,0*1b5b4c26
#INSPVAXA,FILE,0,24.0,FINESTEERING,2319,305051.750,02000000,46eb,17139;INS_SOLUTION_GOOD,INS_RTKFIXED,17.58814348979,78.12090156334,527.6624,-76.3000,2.6443,0.1743,0.0123,1.834146145,0.068915407,2.146037958,0.7194,0.7522,1.5088,0.0106,0.0113,0.0094,0.0177,0.0177,0.4412,ab000342,0*67f3a22d
#INSPVAXA,FILE,0,24.0,FINESTEERING,2319,305051.800,02000000,46eb,17139;INS_SOLUTION_GOOD,INS_RTKFIXED,17.58814470150,78.12090165554,527.6631,-76.3000,2.6960,0.1836,0.0162,1.845880981,0.043584551,2.184397668,0.7194,0.7522,1.5088,0.0106,0.0113,0.0094,0.0177,0.0177,0.4412,ab000342,0*a4ba7afd
#INSPVAXA,FILE,0,24.0,FINESTEERING,2319,305051.850,02000000,46eb,17139;INS_SOLUTION_GOOD,INS_RTKFIXED,17.58814593542,78.12090175216,527.6638,-76.3000,2.7426,0.1934,0.0202,1.851487676,-0.001159820,2.206419218,0.7194,0.7522,1.5088,0.0106,0.0113,0.0094,0.0177,0.0177,0.4412,ab000342,0*796a0105
#INSPVAXA,FILE,0,24.0,FINESTEERING,2319,305051.900,02000000,46eb,17139;INS_SOLUTION_GOOD,INS_RTKFIXED,17.58814719002,78.12090185201,527.6647,-76.3000,2.7857,0.1981,0.0211,1.841237859,-0.044165280,2.219532487,0.7194,0.7522,1.5088,0.0106,0.0113,0.0094,0.0177,0.0177,0.4412,ab000342,0*876c0b9e
#INSPVAXA,FILE,0,24.0,FINESTEERING,2319,305051.950,02000000,46eb,17139;INS_SOLUTION_GOOD,INS_RTKFIXED,17.58814846346,78.12090195374,527.6657,-76.3000,2.8277,0.2026,0.0259,1.851172582,-0.092786468,2.227612200,0.7194,0.7522,1.5088,0.0106,0.0113,0.0094,0.0177,0.0177,0.4412,ab000342,0*10704087
#INSPVAXA,FILE,0,24.0,FINESTEERING,2319,305052.000,02000000,46eb,17139;INS_SOLUTION_GOOD,INS_RTKFIXED,17.58814975484,78.12090205690,527.6667,-76.3000,2.8648,0.2063,0.0193,1.857920718,-0.153815752,2.233129022,0.7194,0.7522,1.5088,0.0106,0.0113,0.0094,0.0177,0.0177,0.4412,ab000342,0*00609f3f
#INSPVAXA,FILE,0,24.0,FINESTEERING,2319,305052.050,02000000,46eb,17139;INS_SOLUTION_GOOD,INS_RTKFIXED,17.58815106152,78.12090216147,527.6675,-76.3000,2.8959,0.2097,0.0186,1.873404062,-0.220750477,2.234409923,0.7192,0.7520,1.5088,0.0142,0.0155,0.0135,0.0183,0.0183,0.4413,ab000342,0*349ee4f1
#INSPVAXA,FILE,0,24.0,FINESTEERING,2319,305052.100,02000000,46eb,17139;INS_SOLUTION_GOOD,INS_RTKFIXED,17.58815237836,78.12090226465,527.6683,-76.3000,2.9193,0.2112,0.0157,1.879059660,-0.291028552,2.232955155,0.7192,0.7520,1.5088,0.0142,0.0155,0.0135,0.0183,0.0183,0.4413,ab000342,0*6399a04a
#INSPVAXA,FILE,0,30.5,FINESTEERING,2319,305052.150,02000000,46eb,17139;INS_SOLUTION_GOOD,INS_RTKFIXED,17.58815370440,78.12090236940,527.6689,-76.3000,2.9385,0.2148,0.0115,1.868988778,-0.350513176,2.224244762,0.7192,0.7520,1.5088,0.0142,0.0155,0.0135,0.0183,0.0183,0.4413,ab000342,0*82216888
#INSPVAXA,FILE,0,30.5,FINESTEERING,2319,305052.200,02000000,46eb,17139;INS_SOLUTION_GOOD,INS_RTKFIXED,17.58815503769,78.12090247536,527.6690,-76.3000,2.9508,0.2165,-0.0023,1.863543228,-0.418126808,2.209986737,0.7192,0.7520,1.5088,0.0142,0.0155,0.0135,0.0183,0.0183,0.4413,ab000342,0*8f626491
#INSPVAXA,FILE,0,30.5,FINESTEERING,2319,305052.250,02000000,46eb,17139;INS_SOLUTION_GOOD,INS_RTKFIXED,17.58815637493,78.12090258112,527.6686,-76.3000,2.9571,0.2148,-0.0113,1.860014663,-0.449970305,2.196355249,0.7192,0.7520,1.5088,0.0142,0.0155,0.0135,0.0183,0.0183,0.4413,ab000342,0*cd4cc5a9
#INSPVAXA,FILE,0,30.5,FINESTEERING,2319,305052.300,02000000,46eb,17139;INS_SOLUTION_GOOD,INS_RTKFIXED,17.58815771459,78.12090268548,527.6675,-76.3000,2.9602,0.2117,-0.0248,1.855175885,-0.464293266,2.190933756,0.7192,0.7520,1.5088,0.0142,0.0155,0.0135,0.0183,0.0183,0.4413,ab000342,0*d3081daa
#INSPVAXA,FILE,0,30.5,FINESTEERING,2319,305052.350,02000000,46eb,17139;INS_SOLUTION_GOOD,INS_RTKFIXED,17.58815905532,78.12090278865,527.6661,-76.3000,2.9622,0.2098,-0.0317,1.837962839,-0.449806383,2.191231862,0.7192,0.7520,1.5088,0.0142,0.0155,0.0135,0.0183,0.0183,0.4413,ab000342,0*10f935cf
#INSPVAXA,FILE,0,30.5,FINESTEERING,2319,305052.400,02000000,46eb,17139;INS_SOLUTION_GOOD,INS_RTKFIXED,17.58816039661,78.12090289035,527.6645,-76.3000,2.9636,0.2067,-0.0304,1.831892174,-0.413773545,2.193686518,0.7192,0.7520,1.5088,0.0142,0.0155,0.0135,0.0183,0.0183,0.4413,ab000342,0*f50b3ca1
#INSPVAXA,FILE,0,30.5,FINESTEERING,2319,305052.450,02000000,46eb,17139;INS_SOLUTION_GOOD,INS_RTKFIXED,17.58816173750,78.12090299186,527.6631,-76.3000,2.9608,0.2087,-0.0229,1.848078536,-0.359930883,2.194734645,0.7192,0.7520,1.5088,0.0142,0.0155,0.0135,0.0183,0.0183,0.4413,ab000342,0*98b2bc6c
#INSPVAXA,FILE,0,30.5,FINESTEERING,2319,305052.500,02000000,46eb,17139;INS_SOLUTION_GOOD,INS_RTKFIXED,17.58816307767,78.12090309411,527.6620,-76.3000,2.9606,0.2102,-0.0183,1.843270583,-0.301239695,2.193479518,0.7192,0.7520,1.5088,0.0142,0.0155,0.0135,0.0183,0.0183,0.4413,ab000342,0*02cbb844
#INSPVAXA,FILE,0,30.5,FINESTEERING,2319,305052.550,02000000,46eb,17139;INS_SOLUTION_GOOD,INS_RTKFIXED,17.58816441657,78.12090319738,527.6611,-76.3000,2.9561,0.2126,-0.0122,1.853224123,-0.250130997,2.191292073,0.7192,0.7520,1.5088,0.0142,0.0155,0.0135,0.0183,0.0183,0.4413,ab000342,0*e350aae3
#INSPVAXA,FILE,0,30.5,FINESTEERING,2319,305052.600,02000000,46eb,17139;INS_SOLUTION_GOOD,INS_RTKFIXED,17.58816575507,78.12090330139,527.6605,-76.3000,2.9573,0.2141,-0.0106,1.852004727,-0.198662901,2.188599711,0.7192,0.7520,1.5088,0.0142,0.0155,0.0135,0.0183,0.0183,0.4413,ab000342,0*dcb12922
#INSPVAXA,FILE,0,30.5,FINESTEERING,2319,305052.650,02000000,46eb,17139;INS_SOLUTION_GOOD,INS_RTKFIXED,17.58816709195,78.12090340485,527.6600,-76.3000,2.9512,0.2105,-0.0091,1.842962504,-0.179044737,2.188446144,0.7192,0.7520,1.5088,0.0142,0.0155,0.0135,0.0183,0.0183,0.4413,ab000342,0*9032fc14
#INSPVAXA,FILE,0,30.5,FINESTEERING,2319,305052.700,02000000,46eb,17139;INS_SOLUTION_GOOD,INS_RTKFIXED,17.58816842806,78.12090350776,527.6594,-76.3000,2.9512,0.2104,-0.0068,1.824524450,-0.168913364,2.185308145,0.7192,0.7520,1.5088,0.0142,0.0155,0.0135,0.0183,0.0183,0.4413,ab000342,0*421642b7
#INSPVAXA,FILE,0,30.5,FINESTEERING,2319,305052.750,02000000,46eb,17139;INS_SOLUTION_GOOD,INS_RTKFIXED,17.58816976396,78.12090360966,527.6588,-76.3000,2.9515,0.2085,-0.0110,1.769355342,-0.190827976,2.179184790,0.7192,0.7520,1.5088,0.0142,0.0155,0.0135,0.0183,0.0183,0.4413,ab000342,0*1eacd034
#INSPVAXA,FILE,0,30.5,FINESTEERING,2319,305052.800,02000000,46eb,17139;INS_SOLUTION_GOOD,INS_RTKFIXED,17.58817110047,78.12090371152,527.6581,-76.3000,2.9554,0.2086,-0.0117,1.719085025,-0.257137626,2.161115872,0.7192,0.7520,1.5088,0.0142,0.0155,0.0135,0.0183,0.0183,0.4413,ab000342,0*8a2f8e8b
#INSPVAXA,FILE,0,30.5,FINESTEERING,2319,305052.850,02000000,46eb,17139;INS_SOLUTION_GOOD,INS_RTKFIXED,17.58817243808,78.12090381200,527.6573,-76.3000,2.9560,0.2058,-0.0159,1.730163849,-0.361492911,2.144632744,0.7192,0.7520,1.5088,0.0142,0.0155,0.0135,0.0183,0.0183,0.4413,ab000342,0*459f8005
#INSPVAXA,FILE,0,30.5,FINESTEERING,2319,305052.900,02000000,46eb,17139;INS_SOLUTION_GOOD,INS_RTKFIXED,17.58817377538,78.12090391373,527.6565,-76.3000,2.9516,0.2119,-0.0111,1.767547501,-0.481062948,2.134419622,0.7192,0.7520,1.5088,0.0142,0.0155,0.0135,0.0183,0.0183,0.4413,ab000342,0*004e6586
#INSPVAXA,FILE,0,30.5,FINESTEERING,2319,305052.950,02000000,46eb,17139;INS_SOLUTION_GOOD,INS_RTKFIXED,17.58817510776,78.12090401733,527.6560,-76.3000,2.9376,0.2143,-0.0050,1.776251349,-0.620762771,2.131613048,0.7192,0.7520,1.5088,0.0142,0.0155,0.0135,0.0183,0.0183,0.4413,ab000342,0*5f9d28a5
#INSPVAXA,FILE,0,30.5,FINESTEERING,2319,305053.000,02000000,46eb,17139;INS_SOLUTION_GOOD,INS_RTKFIXED,17.58817643472,78.12090412050,527.6556,-76.3000,2.9265,0.2113,-0.0046,1.791058701,-0.724285850,2.131643329,0.7192,0.7520,1.5088,0.0142,0.0155,0.0135,0.0183,0.0183,0.4413,ab000342,0*318ec1eb
#INSPVAXA,FILE,0,30.5,FINESTEERING,2319,305053.050,02000000,46eb,17139;INS_SOLUTION_GOOD,INS_RTKFIXED,17.58817775672,78.12090422127,527.6553,-76.3000,2.9193,0.2080,-0.0047,1.823769392,-0.777765100,2.130937659,0.7200,0.7524,1.5080,0.0158,0.0168,0.0155,0.0188,0.0189,0.4413,ab000342,0*3526605b
#INSPVAXA,FILE,0,30.5,FINESTEERING,2319,305053.100,02000000,46eb,17139;INS_SOLUTION_GOOD,INS_RTKFIXED,17.58817907380,78.12090432085,527.6552,-76.3000,2.9166,0.2108,-0.0020,1.832645490,-0.774469156,2.123947651,0.7200,0.7524,1.5080,0.0158,0.0168,0.0155,0.0188,0.0189,0.4413,ab000342,0*8ed84c30
#INSPVAXA,FILE,0,31.0,FINESTEERING,2319,305053.150,02000000,46eb,17139;INS_SOLUTION_GOOD,INS_RTKFIXED,17.58818038704,78.12090442040,527.6554,-76.3000,2.9032,0.2075,0.0108,1.803215566,-0.770499527,2.107352851,0.7200,0.7524,1.5080,0.0158,0.0168,0.0155,0.0188,0.0189,0.4413,ab000342,0*877b21b9
#INSPVAXA,FILE,0,31.0,FINESTEERING,2319,305053.200,02000000,46eb,17139;INS_SOLUTION_GOOD,INS_RTKFIXED,17.58818169542,78.12090451743,527.6564,-76.3000,2.8931,0.2002,0.0256,1.782985836,-0.747049710,2.090798337,0.7200,0.7524,1.5080,0.0158,0.0168,0.0155,0.0188,0.0189,0.4413,ab000342,0*377fa183
#INSPVAXA,FILE,0,31.0,FINESTEERING,2319,305053.250,02000000,46eb,17139;INS_SOLUTION_GOOD,INS_RTKFIXED,17.58818299854,78.12090461223,527.6578,-76.3000,2.8809,0.1974,0.0350,1.785651939,-0.741372228,2.075665370,0.7200,0.7524,1.5080,0.0158,0.0168,0.0155,0.0188,0.0189,0.4413,ab000342,0*b208b6f5
#INSPVAXA,FILE,0,31.0,FINESTEERING,2319,305053.300,02000000,46eb,17139;INS_SOLUTION_GOOD,INS_RTKFIXED,17.58818429699,78.12090470706,527.6594,-76.3000,2.8730,0.2004,0.0304,1.792208389,-0.741442932,2.059995226,0.7200,0.7524,1.5080,0.0158,0.0168,0.0155,0.0188,0.0189,0.4413,ab000342,0*930f0da5
#INSPVAXA,FILE,0,31.0,FINESTEERING,2319,305053.350,02000000,46eb,17139;INS_SOLUTION_GOOD,INS_RTKFIXED,17.58818559096,78.12090480359,527.6611,-76.3000,2.8604,0.2051,0.0358,1.794711368,-0.768752836,2.040976189,0.7200,0.7524,1.5080,0.0158,0.0168,0.0155,0.0188,0.0189,0.4413,ab000342,0*8813abe1
#INSPVAXA,FILE,0,31.0,FINESTEERING,2319,305053.400,02000000,46eb,17139;INS_SOLUTION_GOOD,INS_RTKFIXED,17.58818688019,78.12090490116,527.6627,-76.3000,2.8525,0.2058,0.0307,1.793677935,-0.798958495,2.014415476,0.7200,0.7524,1.5080,0.0158,0.0168,0.0155,0.0188,0.0189,0.4413,ab000342,0*963967b2
#INSPVAXA,FILE,0,31.0,FINESTEERING,2319,305053.450,02000000,46eb,17139;INS_SOLUTION_GOOD,INS_RTKFIXED,17.58818816582,78.12090499835,527.6637,-76.3000,2.8431,0.2030,0.0095,1.801212273,-0.843807046,1.983614506,0.7200,0.7524,1.5080,0.0158,0.0168,0.0155,0.0188,0.0189,0.4413,ab000342,0*807a47a0
#INSPVAXA,FILE,0,31.0,FINESTEERING,2319,305053.500,02000000,46eb,17139;INS_SOLUTION_GOOD,INS_RTKFIXED,17.58818944746,78.12090509448,527.6640,-76.3000,2.8354,0.2002,-0.0010,1.839090078,-0.868380172,1.951518651,0.7200,0.7524,1.5080,0.0158,0.0168,0.0155,0.0188,0.0189,0.4413,ab000342,0*a39a6d90
#INSPVAXA,FILE,0,31.0,FINESTEERING,2319,305053.550,02000000,46eb,17139;INS_SOLUTION_GOOD,INS_RTKFIXED,17.58819072722,78.12090518794,527.6634,-76.3000,2.8315,0.1924,-0.0192,1.824398622,-0.875672419,1.929203929,0.7200,0.7524,1.5080,0.0158,0.0168,0.0155,0.0188,0.0189,0.4413,ab000342,0*ee92405e
#INSPVAXA,FILE,0,31.0,FINESTEERING,2319,305053.600,02000000,46eb,17139;INS_SOLUTION_GOOD,INS_RTKFIXED,17.58819200803,78.12090527599,527.6612,-76.3000,2.8408,0.1778,-0.0647,1.785243722,-0.829158190,1.919346549,0.7200,0.7524,1.5080,0.0158,0.0168,0.0155,0.0188,0.0189,0.4413,ab000342,0*2a9cb290
#INSPVAXA,FILE,0,31.0,FINESTEERING,2319,305053.650,02000000,46eb,17139;INS_SOLUTION_GOOD,INS_RTKFIXED,17.58819328949,78.12090536027,527.6569,-76.3000,2.8401,0.1744,-0.1014,1.786633011,-0.754537365,1.911828666,0.7200,0.7524,1.5080,0.0158,0.0168,0.0155,0.0188,0.0189,0.4413,ab000342,0*cce4d618
#INSPVAXA,FILE,0,31.0,FINESTEERING,2319,305053.700,02000000,46eb,17139;INS_SOLUTION_GOOD,INS_RTKFIXED,17.58819457178,78.12090544743,527.6506,-76.3000,2.8402,0.1877,-0.1450,1.789252686,-0.622727382,1.891752283,0.7200,0.7524,1.5080,0.0158,0.0168,0.0155,0.0188,0.0189,0.4413,ab000342,0*7d9b45e3
#INSPVAXA,FILE,0,31.0,FINESTEERING,2319,305053.750,02000000,46eb,17139;INS_SOLUTION_GOOD,INS_RTKFIXED,17.58819585330,78.12090554000,527.6431,-76.3000,2.8371,0.1981,-0.1535,1.789456410,-0.466442407,1.856167031,0.7200,0.7524,1.5080,0.0158,0.0168,0.0155,0.0188,0.0189,0.4413,ab000342,0*34fede58
#INSPVAXA,FILE,0,31.0,FINESTEERING,2319,305053.800,02000000,46eb,17139;INS_SOLUTION_GOOD,INS_RTKFIXED,17.58819713272,78.12090563312,527.6358,-76.3000,2.8304,0.1925,-0.1386,1.776539838,-0.321099563,1.822099330,0.7200,0.7524,1.5080,0.0158,0.0168,0.0155,0.0188,0.0189,0.4413,ab000342,0*369fdfbb
#INSPVAXA,FILE,0,31.0,FINESTEERING,2319,305053.850,02000000,46eb,17139;INS_SOLUTION_GOOD,INS_RTKFIXED,17.58819840865,78.12090572190,527.6305,-76.3000,2.8223,0.1812,-0.0774,1.813156183,-0.200952688,1.803557876,0.7200,0.7524,1.5080,0.0158,0.0168,0.0155,0.0188,0.0189,0.4413,ab000342,0*cf0052f5
#INSPVAXA,FILE,0,31.0,FINESTEERING,2319,305053.900,02000000,46eb,17139;INS_SOLUTION_GOOD,INS_RTKFIXED,17.58819968019,78.12090580751,527.6283,-76.3000,2.8106,0.1766,-0.0110,1.845014818,-0.162082536,1.794722489,0.7200,0.7524,1.5080,0.0158,0.0168,0.0155,0.0188,0.0189,0.4413,ab000342,0*67416760
#INSPVAXA,FILE,0,31.0,FINESTEERING,2319,305053.950,02000000,46eb,17139;INS_SOLUTION_GOOD,INS_RTKFIXED,17.58820094734,78.12090589168,527.6295,-76.3000,2.8031,0.1758,0.0530,1.835699399,-0.202085442,1.792222548,0.7200,0.7524,1.5080,0.0158,0.0168,0.0155,0.0188,0.0189,0.4413,ab000342,0*ea09f014
#INSPVAXA,FILE,0,31.0,FINESTEERING,2319,305054.000,02000000,46eb,17139;INS_SOLUTION_GOOD,INS_RTKFIXED,17.58820221104,78.12090597524,527.6327,-76.3000,2.7946,0.1742,0.0804,1.804158010,-0.304998302,1.783328782,0.7200,0.7524,1.5080,0.0158,0.0168,0.0155,0.0188,0.0189,0.4413,ab000342,0*e0814fb0
#INSPVAXA,FILE,0,31.0,FINESTEERING,2319,305054.050,02000000,46eb,17139;INS_SOLUTION_GOOD,INS_RTKFIXED,17.58820347236,78.12090605908,527.6369,-76.3000,2.7936,0.1803,0.0901,1.778624426,-0.408850647,1.759214430,0.7213,0.7535,1.5065,0.0156,0.0164,0.0156,0.0193,0.0193,0.4414,ab000342,0*a771dc16
#INSPVAXA,FILE,0,31.0,FINESTEERING,2319,305054.100,02000000,46eb,17139;INS_SOLUTION_GOOD,INS_RTKFIXED,17.58820473191,78.12090614402,527.6408,-76.3000,2.7911,0.1897,0.0607,1.791195884,-0.496310135,1.717740277,0.7213,0.7535,1.5065,0.0156,0.0164,0.0156,0.0193,0.0193,0.4414,ab000342,0*c1e45468
#INSPVAXA,FILE,0,31.0,FINESTEERING,2319,305054.150,02000000,46eb,17139;INS_SOLUTION_GOOD,INS_RTKFIXED,17.58820599181,78.12090623231,527.6433,-76.3000,2.7938,0.1947,0.0313,1.816557754,-0.543136443,1.672630424,0.7213,0.7535,1.5065,0.0156,0.0164,0.0156,0.0193,0.0193,0.4414,ab000342,0*9e7d52f1
#INSPVAXA,FILE,0,31.0,FINESTEERING,2319,305054.200,02000000,46eb,17139;INS_SOLUTION_GOOD,INS_RTKFIXED,17.58820725151,78.12090632088,527.6439,-76.3000,2.7921,0.1915,-0.0137,1.820112559,-0.556896683,1.635633729,0.7213,0.7535,1.5065,0.0156,0.0164,0.0156,0.0193,0.0193,0.4414,ab000342,0*0bd4a7cd
#INSPVAXA,FILE,0,31.0,FINESTEERING,2319,305054.250,02000000,46eb,17139;INS_SOLUTION_GOOD,INS_RTKFIXED,17.58820851179,78.12090640545,527.6427,-76.3000,2.7939,0.1773,-0.0425,1.830285977,-0.534917422,1.607105993,0.7213,0.7535,1.5065,0.0156,0.0164,0.0156,0.0193,0.0193,0.4414,ab000342,0*6aa1d15a
#INSPVAXA,FILE,0,31.0,FINESTEERING,2319,305054.300,02000000,46eb,17139;INS_SOLUTION_GOOD,INS_RTKFIXED,17.58820977139,78.12090648394,527.6403,-76.3000,2.7910,0.1663,-0.0607,1.870740796,-0.478727163,1.587558980,0.7213,0.7535,1.5065,0.0156,0.0164,0.0156,0.0193,0.0193,0.4414,ab000342,0*ebd4caae
#INSPVAXA,FILE,0,31.0,FINESTEERING,2319,305054.350,02000000,46eb,17139;INS_SOLUTION_GOOD,INS_RTKFIXED,17.58821102999,78.12090656036,527.6376,-76.3000,2.7881,0.1666,-0.0600,1.921754938,-0.416953280,1.567168953,0.7213,0.7535,1.5065,0.0156,0.0164,0.0156,0.0193,0.0193,0.4414,ab000342,0*58420c34
#INSPVAXA,FILE,0,31.0,FINESTEERING,2319,305054.400,02000000,46eb,17139;INS_SOLUTION_GOOD,INS_RTKFIXED,17.58821228837,78.12090663821,527.6350,-76.3000,2.7890,0.1714,-0.0545,1.944027443,-0.348616839,1.542902770,0.7213,0.7535,1.5065,0.0156,0.0164,0.0156,0.0193,0.0193,0.4414,ab000342,0*e85136e1
#INSPVAXA,FILE,0,31.0,FINESTEERING,2319,305054.450,02000000,46eb,17139;INS_SOLUTION_GOOD,INS_RTKFIXED,17.58821354649,78.12090671614,527.6331,-76.3000,2.7872,0.1686,-0.0330,1.949713519,-0.307610038,1.516992060,0.7213,0.7535,1.5065,0.0156,0.0164,0.0156,0.0193,0.0193,0.4414,ab000342,0*1ce8e430
#INSPVAXA,FILE,0,31.0,FINESTEERING,2319,305054.500,02000000,46eb,17139;INS_SOLUTION_GOOD,INS_RTKFIXED,17.58821480453,78.12090679321,527.6324,-76.3000,2.7879,0.1671,-0.0075,1.954222511,-0.290652890,1.491203092,0.7213,0.7535,1.5065,0.0156,0.0164,0.0156,0.0193,0.0193,0.4414,ab000342,0*7c13cc1b
#INSPVAXA,FILE,0,31.0,FINESTEERING,2319,305054.550,02000000,46eb,17139;INS_SOLUTION_GOOD,INS_RTKFIXED,17.58821606236,78.12090686944,527.6329,-76.3000,2.7894,0.1648,0.0153,1.966788992,-0.300061999,1.463681987,0.7213,0.7535,1.5065,0.0156,0.0164,0.0156,0.0193,0.0193,0.4414,ab000342,0*38d01e40
#INSPVAXA,FILE,0,31.0,FINESTEERING,2319,305054.600,02000000,46eb,17139;INS_SOLUTION_GOOD,INS_RTKFIXED,17.58821732297,78.12090694581,527.6340,-76.3000,2.7973,0.1655,0.0201,1.978108833,-0.334290170,1.435406811,0.7213,0.7535,1.5065,0.0156,0.0164,0.0156,0.0193,0.0193,0.4414,ab000342,0*bc31bf58
#INSPVAXA,FILE,0,31.0,FINESTEERING,2319,305054.650,02000000,46eb,17139;INS_SOLUTION_GOOD,INS_RTKFIXED,17.58821858641,78.12090702154,527.6351,-76.3000,2.8038,0.1624,0.0172,1.964361737,-0.368251892,1.407651699,0.7213,0.7535,1.5065,0.0156,0.0164,0.0156,0.0193,0.0193,0.4414,ab000342,0*b224a1fe
#INSPVAXA,FILE,0,31.0,FINESTEERING,2319,305054.700,02000000,46eb,17139;INS_SOLUTION_GOOD,INS_RTKFIXED,17.58821985314,78.12090709623,527.6362,-76.3000,2.8105,0.1625,0.0204,1.972209367,-0.400412413,1.380786998,0.7213,0.7535,1.5065,0.0156,0.0164,0.0156,0.0193,0.0193,0.4414,ab000342,0*e9651635
#INSPVAXA,FILE,0,31.0,FINESTEERING,2319,305054.750,02000000,46eb,17139;INS_SOLUTION_GOOD,INS_RTKFIXED,17.58822112343,78.12090717217,527.6371,-76.3000,2.8197,0.1667,0.0072,1.969105381,-0.422439301,1.346502647,0.7213,0.7535,1.5065,0.0156,0.0164,0.0156,0.0193,0.0193,0.4414,ab000342,0*f62a90b7
#INSPVAXA,FILE,0,31.0,FINESTEERING,2319,305054.800,02000000,46eb,17139;INS_SOLUTION_GOOD,INS_RTKFIXED,17.58822239795,78.12090724906,527.6372,-76.3000,2.8287,0.1667,-0.0089,1.972635441,-0.434496158,1.307292259,0.7213,0.7535,1.5065,0.0156,0.0164,0.0156,0.0193,0.0193,0.4414,ab000342,0*d767e2cd
#INSPVAXA,FILE,0,31.0,FINESTEERING,2319,305054.850,02000000,46eb,17139;INS_SOLUTION_GOOD,INS_RTKFIXED,17.58822367688,78.12090732491,527.6367,-76.3000,2.8390,0.1632,-0.0193,1.971763112,-0.422384971,1.266934982,0.7213,0.7535,1.5065,0.0156,0.0164,0.0156,0.0193,0.0193,0.4414,ab000342,0*a56118f2
#INSPVAXA,FILE,0,31.0,FINESTEERING,2319,305054.900,02000000,46eb,17139;INS_SOLUTION_GOOD,INS_RTKFIXED,17.58822496020,78.12090739848,527.6358,-76.3000,2.8486,0.1563,-0.0217,1.980569979,-0.399461883,1.227034428,0.7213,0.7535,1.5065,0.0156,0.0164,0.0156,0.0193,0.0193,0.4414,ab000342,0*768b8e30
#INSPVAXA,FILE,0,31.0,FINESTEERING,2319,305054.950,02000000,46eb,17139;INS_SOLUTION_GOOD,INS_RTKFIXED,17.58822624711,78.12090747050,527.6347,-76.3000,2.8550,0.1564,-0.0258,1.994978452,-0.381591299,1.182038763,0.7213,0.7535,1.5065,0.0156,0.0164,0.0156,0.0193,0.0193,0.4414,ab000342,0*3840bbed
#INSPVAXA,FILE,0,31.0,FINESTEERING,2319,305055.000,02000000,46eb,17139;INS_SOLUTION_GOOD,INS_RTKFIXED,17.58822753774,78.12090754335,527.6338,-76.3000,2.8640,0.1587,-0.0242,1.996653503,-0.361494854,1.126109333,0.7213,0.7535,1.5065,0.0156,0.0164,0.0156,0.0193,0.0193,0.4414,ab000342,0*5d9a2442
#INSPVAXA,FILE,0,31.0,FINESTEERING,2319,305055.050,02000000,46eb,17139;INS_SOLUTION_GOOD,INS_RTKFIXED,17.58822883130,78.12090761642,527.6330,-76.3000,2.8726,0.1559,-0.0189,2.011141856,-0.349207947,1.060128842,0.7221,0.7539,1.5033,0.0156,0.0163,0.0157,0.0198,0.0198,0.4414,ab000342,0*b21fdb26
#INSPVAXA,FILE,0,30.5,FINESTEERING,2319,305055.100,02000000,46eb,17139;INS_SOLUTION_GOOD,INS_RTKFIXED,17.58823012770,78.12090768773,527.6322,-76.3000,2.8824,0.1474,-0.0112,2.024154437,-0.335931651,0.997703816,0.7221,0.7539,1.5033,0.0156,0.0163,0.0157,0.0198,0.0198,0.4414,ab000342,0*e4cf360d
#INSPVAXA,FILE,0,30.5,FINESTEERING,2319,305055.150,02000000,46eb,17139;INS_SOLUTION_GOOD,INS_RTKFIXED,17.58823142778,78.12090775701,527.6320,-76.3000,2.8910,0.1453,0.0019,2.024375559,-0.334449338,0.936607294,0.7221,0.7539,1.5033,0.0156,0.0163,0.0157,0.0198,0.0198,0.4414,ab000342,0*95a61ef8
#INSPVAXA,FILE,0,30.5,FINESTEERING,2319,305055.200,02000000,46eb,17139;INS_SOLUTION_GOOD,INS_RTKFIXED,17.58823273251,78.12090782551,527.6320,-76.3000,2.9021,0.1436,0.0021,2.007756680,-0.342801569,0.867875228,0.7221,0.7539,1.5033,0.0156,0.0163,0.0157,0.0198,0.0198,0.4414,ab000342,0*7e23f7f4
#INSPVAXA,FILE,0,30.5,FINESTEERING,2319,305055.250,02000000,46eb,17139;INS_SOLUTION_GOOD,INS_RTKFIXED,17.58823404277,78.12090789278,527.6321,-76.3000,2.9149,0.1417,0.0012,2.013970015,-0.351295418,0.785751050,0.7221,0.7539,1.5033,0.0156,0.0163,0.0157,0.0198,0.0198,0.4414,ab000342,0*a55ff6c1
#INSPVAXA,FILE,0,30.5,FINESTEERING,2319,305055.300,02000000,46eb,17139;INS_SOLUTION_GOOD,INS_RTKFIXED,17.58823535827,78.12090796046,527.6322,-76.3000,2.9257,0.1447,0.0016,2.047350185,-0.359486438,0.689066350,0.7221,0.7539,1.5033,0.0156,0.0163,0.0157,0.0198,0.0198,0.4414,ab000342,0*89aca791
#INSPVAXA,FILE,0,30.5,FINESTEERING,2319,305055.350,02000000,46eb,17139;INS_SOLUTION_GOOD,INS_RTKFIXED,17.58823667972,78.12090802929,527.6322,-76.3000,2.9416,0.1447,-0.0024,2.069830760,-0.347732513,0.577540117,0.7221,0.7539,1.5033,0.0156,0.0163,0.0157,0.0198,0.0198,0.4414,ab000342,0*e81c5da2
#INSPVAXA,FILE,0,30.5,FINESTEERING,2319,305055.400,02000000,46eb,17139;INS_SOLUTION_GOOD,INS_RTKFIXED,17.58823800800,78.12090809815,527.6319,-76.3000,2.9534,0.1464,-0.0068,2.104614913,-0.351994685,0.457203703,0.7221,0.7539,1.5033,0.0156,0.0163,0.0157,0.0198,0.0198,0.4414,ab000342,0*90924a66
#INSPVAXA,FILE,0,30.5,FINESTEERING,2319,305055.450,02000000,46eb,17139;INS_SOLUTION_GOOD,INS_RTKFIXED,17.58823934238,78.12090816461,527.6314,-76.3000,2.9683,0.1368,-0.0089,2.120630237,-0.334941804,0.327438750,0.7221,0.7539,1.5033,0.0156,0.0163,0.0157,0.0198,0.0198,0.4414,ab000342,0*79283339
#INSPVAXA,FILE,0,30.5,FINESTEERING,2319,305055.500,02000000,46eb,17139;INS_SOLUTION_GOOD,INS_RTKFIXED,17.58824068276,78.12090822682,527.6306,-76.3000,2.9818,0.1267,-0.0178,2.145432540,-0.320232343,0.188600110,0.7221,0.7539,1.5033,0.0156,0.0163,0.0157,0.0198,0.0198,0.4414,ab000342,0*23dd1568
#INSPVAXA,FILE,0,30.5,FINESTEERING,2319,305055.550,02000000,46eb,17139;INS_SOLUTION_GOOD,INS_RTKFIXED,17.58824202988,78.12090828442,527.6297,-76.3000,2.9971,0.1177,-0.0192,2.174280178,-0.317349336,0.040409007,0.7221,0.7539,1.5033,0.0156,0.0163,0.0157,0.0198,0.0198,0.4414,ab000342,0*21001914
#INSPVAXA,FILE,0,30.5,FINESTEERING,2319,305055.600,02000000,46eb,17139;INS_SOLUTION_GOOD,INS_RTKFIXED,17.58824338323,78.12090833770,527.6289,-76.3000,3.0076,0.1087,-0.0175,2.192067290,-0.318645531,359.879373389,0.7221,0.7539,1.5033,0.0156,0.0163,0.0157,0.0198,0.0198,0.4414,ab000342,0*eecb48ad
#INSPVAXA,FILE,0,30.5,FINESTEERING,2319,305055.650,02000000,46eb,17139;INS_SOLUTION_GOOD,INS_RTKFIXED,17.58824474116,78.12090838699,527.6284,-76.3000,3.0186,0.1008,-0.0062,2.198593503,-0.321733243,359.705423258,0.7221,0.7539,1.5033,0.0156,0.0163,0.0157,0.0198,0.0198,0.4414,ab000342,0*7918ffe4
#INSPVAXA,FILE,0,30.5,FINESTEERING,2319,305055.700,02000000,46eb,17139;INS_SOLUTION_GOOD,INS_RTKFIXED,17.58824610219,78.12090843252,527.6283,-76.3000,3.0211,0.0908,-0.0019,2.200792071,-0.351163698,359.514822263,0.7221,0.7539,1.5033,0.0156,0.0163,0.0157,0.0198,0.0198,0.4414,ab000342,0*17cf6e50
#INSPVAXA,FILE,0,30.5,FINESTEERING,2319,305055.750,02000000,46eb,17139;INS_SOLUTION_GOOD,INS_RTKFIXED,17.58824746531,78.12090847396,527.6284,-76.3000,3.0260,0.0837,0.0045,2.205484633,-0.369555617,359.311491200,0.7221,0.7539,1.5033,0.0156,0.0163,0.0157,0.0198,0.0198,0.4414,ab000342,0*47b15c73
#INSPVAXA,FILE,0,30.5,FINESTEERING,2319,305055.800,02000000,46eb,17139;INS_SOLUTION_GOOD,INS_RTKFIXED,17.58824882851,78.12090851132,527.6287,-76.3000,3.0232,0.0745,0.0078,2.198003618,-0.395001789,359.094673517,0.7221,0.7539,1.5033,0.0156,0.0163,0.0157,0.0198,0.0198,0.4414,ab000342,0*68686938
#INSPVAXA,FILE,0,30.5,FINESTEERING,2319,305055.850,02000000,46eb,17139;INS_SOLUTION_GOOD,INS_RTKFIXED,17.58825019124,78.12090854386,527.6291,-76.3000,3.0232,0.0639,0.0048,2.194546215,-0.422866974,358.865388431,0.7221,0.7539,1.5033,0.0156,0.0163,0.0157,0.0198,0.0198,0.4414,ab000342,0*6a2fed1c
#INSPVAXA,FILE,0,30.5,FINESTEERING,2319,305055.900,02000000,46eb,17139;INS_SOLUTION_GOOD,INS_RTKFIXED,17.58825155224,78.12090857192,527.6294,-76.3000,3.0173,0.0535,0.0020,2.187365706,-0.455174019,358.617165963,0.7221,0.7539,1.5033,0.0156,0.0163,0.0157,0.0198,0.0198,0.4414,ab000342,0*327a964b
#INSPVAXA,FILE,0,30.5,FINESTEERING,2319,305055.950,02000000,46eb,17139;INS_SOLUTION_GOOD,INS_RTKFIXED,17.58825291208,78.12090859505,527.6295,-76.3000,3.0153,0.0431,0.0008,2.183910984,-0.478439019,358.349588717,0.7221,0.7539,1.5033,0.0156,0.0163,0.0157,0.0198,0.0198,0.4414,ab000342,0*213239e9
#INSPVAXA,FILE,0,30.5,FINESTEERING,2319,305056.000,02000000,46eb,17139;INS_SOLUTION_GOOD,INS_RTKFIXED,17.58825427085,78.12090861324,527.6293,-76.3000,3.0127,0.0322,-0.0059,2.176959429,-0.509295437,358.058998317,0.7221,0.7539,1.5033,0.0156,0.0163,0.0157,0.0198,0.0198,0.4414,ab000342,0*9efe9401
#INSPVAXA,FILE,0,30.5,FINESTEERING,2319,305056.050,02000000,46eb,17139;INS_SOLUTION_GOOD,INS_RTKFIXED,17.58825562179,78.12090861704,527.6290,-76.3000,3.0075,0.0138,-0.0081,2.171355779,-0.537590470,357.750451936,0.7231,0.7546,1.5019,0.0156,0.0163,0.0157,0.0202,0.0203,0.4415,ab000342,0*e4ad697e
#INSPVAXA,FILE,0,29.5,FINESTEERING,2319,305056.100,02000000,46eb,17139;INS_SOLUTION_GOOD,INS_RTKFIXED,17.58825696393,78.12090860301,527.6284,-76.3000,3.0030,-0.0013,-0.0122,2.189106643,-0.552625477,357.425976136,0.7231,0.7546,1.5019,0.0156,0.0163,0.0157,0.0202,0.0203,0.4415,ab000342,0*d9e02df9
#INSPVAXA,FILE,0,29.5,FINESTEERING,2319,305056.150,02000000,46eb,17139;INS_SOLUTION_GOOD,INS_RTKFIXED,17.58825830414,78.12090858256,527.6279,-76.3000,2.9974,-0.0163,-0.0100,2.197018059,-0.545741808,357.089639832,0.7231,0.7546,1.5019,0.0156,0.0163,0.0157,0.0202,0.0203,0.4415,ab000342,0*87621ddf
#INSPVAXA,FILE,0,29.5,FINESTEERING,2319,305056.200,02000000,46eb,17139;INS_SOLUTION_GOOD,INS_RTKFIXED,17.58825964293,78.12090855487,527.6274,-76.3000,2.9961,-0.0353,-0.0086,2.168281741,-0.538738960,356.744869718,0.7231,0.7546,1.5019,0.0156,0.0163,0.0157,0.0202,0.0203,0.4415,ab000342,0*0fb53d33
#INSPVAXA,FILE,0,29.5,FINESTEERING,2319,305056.250,02000000,46eb,17139;INS_SOLUTION_GOOD,INS_RTKFIXED,17.58826097632,78.12090851821,527.6269,-76.3000,2.9798,-0.0576,-0.0014,2.127649638,-0.536387037,356.397167575,0.7231,0.7546,1.5019,0.0156,0.0163,0.0157,0.0202,0.0203,0.4415,ab000342,0*2c1c5eed
#INSPVAXA,FILE,0,29.5,FINESTEERING,2319,305056.300,02000000,46eb,17139;INS_SOLUTION_GOOD,INS_RTKFIXED,17.58826230436,78.12090846829,527.6268,-76.3000,2.9648,-0.0851,0.0032,2.089530533,-0.543939839,356.054470741,0.7231,0.7546,1.5019,0.0156,0.0163,0.0157,0.0202,0.0203,0.4415,ab000342,0*1262bd08
#INSPVAXA,FILE,0,29.5,FINESTEERING,2319,305056.350,02000000,46eb,17139;INS_SOLUTION_GOOD,INS_RTKFIXED,17.58826362689,78.12090840873,527.6267,-76.3000,2.9538,-0.0999,0.0016,2.083105380,-0.527057471,355.711518222,0.7231,0.7546,1.5019,0.0156,0.0163,0.0157,0.0202,0.0203,0.4415,ab000342,0*eebc91be
#INSPVAXA,FILE,0,29.5,FINESTEERING,2319,305056.400,02000000,46eb,17139;INS_SOLUTION_GOOD,INS_RTKFIXED,17.58826494624,78.12090834334,527.6263,-76.3000,2.9471,-0.1093,-0.0060,2.081361358,-0.505228399,355.360422663,0.7231,0.7546,1.5019,0.0156,0.0163,0.0157,0.0202,0.0203,0.4415,ab000342,0*c6a7029d
#INSPVAXA,FILE,0,29.5,FINESTEERING,2319,305056.450,02000000,46eb,17139;INS_SOLUTION_GOOD,INS_RTKFIXED,17.58826626125,78.12090827310,527.6257,-76.3000,2.9362,-0.1209,-0.0126,2.058026541,-0.485691935,355.000907412,0.7231,0.7546,1.5019,0.0156,0.0163,0.0157,0.0202,0.0203,0.4415,ab000342,0*65244ec4
#INSPVAXA,FILE,0,29.5,FINESTEERING,2319,305056.500,02000000,46eb,17139;INS_SOLUTION_GOOD,INS_RTKFIXED,17.58826757117,78.12090819537,527.6250,-76.3000,2.9227,-0.1412,-0.0125,2.051620129,-0.485643959,354.630761135,0.7231,0.7546,1.5019,0.0156,0.0163,0.0157,0.0202,0.0203,0.4415,ab000342,0*8258842c
#INSPVAXA,FILE,0,29.5,FINESTEERING,2319,305056.550,02000000,46eb,17139;INS_SOLUTION_GOOD,INS_RTKFIXED,17.58826887494,78.12090810886,527.6244,-76.3000,2.9089,-0.1598,-0.0106,2.066155583,-0.477459884,354.255754398,0.7231,0.7546,1.5019,0.0156,0.0163,0.0157,0.0202,0.0203,0.4415,ab000342,0*e2174aef
#INSPVAXA,FILE,0,29.5,FINESTEERING,2319,305056.600,02000000,46eb,17139;INS_SOLUTION_GOOD,INS_RTKFIXED,17.58827017346,78.12090801539,527.6238,-76.3000,2.8985,-0.1728,-0.0141,2.084216185,-0.473825012,353.867517132,0.7231,0.7546,1.5019,0.0156,0.0163,0.0157,0.0202,0.0203,0.4415,ab000342,0*b4dda1e7
#INSPVAXA,FILE,0,29.5,FINESTEERING,2319,305056.650,02000000,46eb,17139;INS_SOLUTION_GOOD,INS_RTKFIXED,17.58827146708,78.12090791538,527.6230,-76.3000,2.8871,-0.1889,-0.0143,2.097369698,-0.458678985,353.468003683,0.7231,0.7546,1.5019,0.0156,0.0163,0.0157,0.0202,0.0203,0.4415,ab000342,0*f42618de
#INSPVAXA,FILE,0,29.5,FINESTEERING,2319,305056.700,02000000,46eb,17139;INS_SOLUTION_GOOD,INS_RTKFIXED,17.58827275560,78.12090780647,527.6224,-76.3000,2.8756,-0.2121,-0.0161,2.077446716,-0.444292673,353.066831360,0.7231,0.7546,1.5019,0.0156,0.0163,0.0157,0.0202,0.0203,0.4415,ab000342,0*9a72de93
#INSPVAXA,FILE,0,29.5,FINESTEERING,2319,305056.750,02000000,46eb,17139;INS_SOLUTION_GOOD,INS_RTKFIXED,17.58827403873,78.12090768633,527.6217,-76.3000,2.8623,-0.2379,-0.0165,2.067354498,-0.439073839,352.669392555,0.7231,0.7546,1.5019,0.0156,0.0163,0.0157,0.0202,0.0203,0.4415,ab000342,0*1ba656ad
#INSPVAXA,FILE,0,29.5,FINESTEERING,2319,305056.800,02000000,46eb,17139;INS_SOLUTION_GOOD,INS_RTKFIXED,17.58827531706,78.12090755426,527.6206,-76.3000,2.8530,-0.2642,-0.0250,2.053674590,-0.422220121,352.279355522,0.7231,0.7546,1.5019,0.0156,0.0163,0.0157,0.0202,0.0203,0.4415,ab000342,0*5e6093aa
#INSPVAXA,FILE,0,29.5,FINESTEERING,2319,305056.850,02000000,46eb,17139;INS_SOLUTION_GOOD,INS_RTKFIXED,17.58827658981,78.12090741014,527.6193,-76.3000,2.8388,-0.2886,-0.0288,2.027089240,-0.412639627,351.898883316,0.7231,0.7546,1.5019,0.0156,0.0163,0.0157,0.0202,0.0203,0.4415,ab000342,0*5bbc8099
#INSPVAXA,FILE,0,29.5,FINESTEERING,2319,305056.900,02000000,46eb,17139;INS_SOLUTION_GOOD,INS_RTKFIXED,17.58827785760,78.12090725565,527.6182,-76.3000,2.8258,-0.3092,-0.0193,2.014737020,-0.407325814,351.520587677,0.7231,0.7546,1.5019,0.0156,0.0163,0.0157,0.0202,0.0203,0.4415,ab000342,0*775290af
#INSPVAXA,FILE,0,29.5,FINESTEERING,2319,305056.950,02000000,46eb,17139;INS_SOLUTION_GOOD,INS_RTKFIXED,17.58827911905,78.12090709371,527.6176,-76.3000,2.8113,-0.3216,-0.0025,2.008942042,-0.393070535,351.144993849,0.7231,0.7546,1.5019,0.0156,0.0163,0.0157,0.0202,0.0203,0.4415,ab000342,0*b15bdffe
#INSPVAXA,FILE,0,29.5,FINESTEERING,2319,305057.000,02000000,46eb,17139;INS_SOLUTION_GOOD,INS_RTKFIXED,17.58828037479,78.12090692601,527.6175,-76.3000,2.7998,-0.3339,0.0054,1.989756231,-0.397896705,350.764295233,0.7231,0.7546,1.5019,0.0156,0.0163,0.0157,0.0202,0.0203,0.4415,ab000342,0*5508b81b
#INSPVAXA,FILE,0,29.5,FINESTEERING,2319,305057.050,02000000,46eb,17139;INS_SOLUTION_GOOD,INS_RTKFIXED,17.58828161755,78.12090674574,527.6177,-76.3000,2.7837,-0.3534,0.0074,1.963479254,-0.420779744,350.380538145,0.7237,0.7549,1.5000,0.0162,0.0167,0.0160,0.0206,0.0207,0.4416,ab000342,0*586110cc
#INSPVAXA,FILE,0,29.5,FINESTEERING,2319,305057.100,02000000,46eb,17139;INS_SOLUTION_GOOD,INS_RTKFIXED,17.58828283892,78.12090654532,527.6182,-76.3000,2.7691,-0.3722,0.0150,1.957647526,-0.456104733,349.989007427,0.7237,0.7549,1.5000,0.0162,0.0167,0.0160,0.0206,0.0207,0.4416,ab000342,0*7ded8505
#INSPVAXA,FILE,0,32.0,FINESTEERING,2319,305057.150,02000000,46eb,17139;INS_SOLUTION_GOOD,INS_RTKFIXED,17.58828405302,78.12090633769,527.6188,-76.3000,2.7517,-0.3871,0.0178,1.958243640,-0.497591794,349.584124227,0.7237,0.7549,1.5000,0.0162,0.0167,0.0160,0.0206,0.0207,0.4416,ab000342,0*5c64023e
#INSPVAXA,FILE,0,32.0,FINESTEERING,2319,305057.200,02000000,46eb,17139;INS_SOLUTION_GOOD,INS_RTKFIXED,17.58828526000,78.12090612460,527.6195,-76.3000,2.7359,-0.3976,0.0116,1.958970177,-0.540671541,349.156581102,0.7237,0.7549,1.5000,0.0162,0.0167,0.0160,0.0206,0.0207,0.4416,ab000342,0*54dd6074
#INSPVAXA,FILE,0,32.0,FINESTEERING,2319,305057.250,02000000,46eb,17139;INS_SOLUTION_GOOD,INS_RTKFIXED,17.58828645936,78.12090590631,527.6199,-76.3000,2.7171,-0.4103,0.0056,1.985910234,-0.570268036,348.698247564,0.7237,0.7549,1.5000,0.0162,0.0167,0.0160,0.0206,0.0207,0.4416,ab000342,0*b4726d0d
#INSPVAXA,FILE,0,32.0,FINESTEERING,2319,305057.300,02000000,46eb,17139;INS_SOLUTION_GOOD,INS_RTKFIXED,17.58828765131,78.12090568163,527.6199,-76.3000,2.7001,-0.4265,-0.0004,2.012415775,-0.578375840,348.211880349,0.7237,0.7549,1.5000,0.0162,0.0167,0.0160,0.0206,0.0207,0.4416,ab000342,0*19fb7db3
#INSPVAXA,FILE,0,32.0,FINESTEERING,2319,305057.350,02000000,46eb,17139;INS_SOLUTION_GOOD,INS_RTKFIXED,17.58828883529,78.12090544967,527.6193,-76.3000,2.6810,-0.4431,-0.0111,2.046043585,-0.569329858,347.695971691,0.7237,0.7549,1.5000,0.0162,0.0167,0.0160,0.0206,0.0207,0.4416,ab000342,0*339438dc
#INSPVAXA,FILE,0,32.0,FINESTEERING,2319,305057.400,02000000,46eb,17139;INS_SOLUTION_GOOD,INS_RTKFIXED,17.58829001073,78.12090520902,527.6185,-76.3000,2.6605,-0.4644,-0.0118,2.072068725,-0.555296717,347.148905666,0.7237,0.7549,1.5000,0.0162,0.0167,0.0160,0.0206,0.0207,0.4416,ab000342,0*0b45f231
#INSPVAXA,FILE,0,32.0,FINESTEERING,2319,305057.450,02000000,46eb,17139;INS_SOLUTION_GOOD,INS_RTKFIXED,17.58829117675,78.12090495729,527.6180,-76.3000,2.6371,-0.4898,-0.0038,2.087637560,-0.548183755,346.573875847,0.7237,0.7549,1.5000,0.0162,0.0167,0.0160,0.0206,0.0207,0.4416,ab000342,0*363668dc
#INSPVAXA,FILE,0,32.0,FINESTEERING,2319,305057.500,02000000,46eb,17139;INS_SOLUTION_GOOD,INS_RTKFIXED,17.58829233272,78.12090469315,527.6177,-76.3000,2.6148,-0.5187,-0.0013,2.097516068,-0.542220744,345.972806731,0.7237,0.7549,1.5000,0.0162,0.0167,0.0160,0.0206,0.0207,0.4416,ab000342,0*023a499a
#INSPVAXA,FILE,0,32.0,FINESTEERING,2319,305057.550,02000000,46eb,17139;INS_SOLUTION_GOOD,INS_RTKFIXED,17.58829347838,78.12090441615,527.6176,-76.3000,2.5902,-0.5460,0.0019,2.101097984,-0.545703883,345.352604857,0.7237,0.7549,1.5000,0.0162,0.0167,0.0160,0.0206,0.0207,0.4416,ab000342,0*7a503b4c
#INSPVAXA,FILE,0,32.0,FINESTEERING,2319,305057.600,02000000,46eb,17139;INS_SOLUTION_GOOD,INS_RTKFIXED,17.58829461395,78.12090412751,527.6175,-76.3000,2.5689,-0.5718,0.0026,2.079665023,-0.532798835,344.717399578,0.7237,0.7549,1.5000,0.0162,0.0167,0.0160,0.0206,0.0207,0.4416,ab000342,0*a59ea58d
#INSPVAXA,FILE,0,32.0,FINESTEERING,2319,305057.650,02000000,46eb,17139;INS_SOLUTION_GOOD,INS_RTKFIXED,17.58829574059,78.12090382641,527.6173,-76.3000,2.5470,-0.5992,-0.0001,2.055022181,-0.523702888,344.071319151,0.7237,0.7549,1.5000,0.0162,0.0167,0.0160,0.0206,0.0207,0.4416,ab000342,0*619e7a64
#INSPVAXA,FILE,0,32.0,FINESTEERING,2319,305057.700,02000000,46eb,17139;INS_SOLUTION_GOOD,INS_RTKFIXED,17.58829685779,78.12090351377,527.6169,-76.3000,2.5263,-0.6230,-0.0061,2.018581119,-0.514188071,343.411392619,0.7237,0.7549,1.5000,0.0162,0.0167,0.0160,0.0206,0.0207,0.4416,ab000342,0*939eae1b
#INSPVAXA,FILE,0,32.0,FINESTEERING,2319,305057.750,02000000,46eb,17139;INS_SOLUTION_GOOD,INS_RTKFIXED,17.58829796582,78.12090319013,527.6164,-76.3000,2.5035,-0.6464,-0.0087,1.997838473,-0.511608128,342.730821113,0.7237,0.7549,1.5000,0.0162,0.0167,0.0160,0.0206,0.0207,0.4416,ab000342,0*92969fdf
