#INSPVAXA,FILE,0,34.5,FINESTEERING,2319,306585.700,02000800,46eb,17139;INS_SOLUTION_GOOD,INS_RTKFIXED,17.59228694895,78.12169672823,530.6001,-76.2000,-0.0039,0.0019,-0.0104,0.324636770,0.119500904,86.472960816,0.6726,0.6426,1.2612,0.0161,0.0164,0.0151,0.0176,0.0175,0.6000,ab001142,0*51bc39c3
#INSPVAXA,FILE,0,34.5,FINESTEERING,2319,306585.750,02000800,46eb,17139;INS_SOLUTION_GOOD,INS_RTKFIXED,17.59228694732,78.12169672802,530.5999,-76.2000,-0.0050,0.0004,-0.0097,0.332574529,0.109574082,86.472112889,0.6726,0.6426,1.2612,0.0161,0.0164,0.0151,0.0176,0.0175,0.6000,ab001142,0*243e23ba
#INSPVAXA,FILE,0,34.5,FINESTEERING,2319,306585.850,02000800,46eb,17139;INS_SOLUTION_GOOD,INS_RTKFIXED,17.59228694292,78.12169672788,530.5997,-76.2000,-0.0058,0.0002,-0.0029,0.334790836,0.130937013,86.472878526,0.6726,0.6426,1.2612,0.0161,0.0164,0.0151,0.0176,0.0175,0.6000,ab001142,0*10e6058b
#INSPVAXA,FILE,0,34.5,FINESTEERING,2319,306585.900,02000800,46eb,17139;INS_SOLUTION_GOOD,INS_RTKFIXED,17.59228694084,78.12169672679,530.5996,-76.2000,-0.0046,-0.0009,-0.0020,0.335024430,0.130164599,86.475407528,0.6726,0.6426,1.2612,0.0161,0.0164,0.0151,0.0176,0.0175,0.6000,ab001142,0*3094a716
#INSPVAXA,FILE,0,34.5,FINESTEERING,2319,306585.950,02000800,46eb,17139;INS_SOLUTION_GOOD,INS_RTKFIXED,17.59228693863,78.12169672497,530.5996,-76.2000,-0.0051,-0.0015,0.0009,0.340405676,0.131150990,86.474109276,0.6726,0.6426,1.2612,0.0161,0.0164,0.0151,0.0176,0.0175,0.6000,ab001142,0*580cad1b
#INSPVAXA,FILE,0,34.0,FINESTEERING,2319,306586.200,02000800,46eb,17139;INS_SOLUTION_GOOD,INS_RTKFIXED,17.59228696824,78.12169671308,530.6018,-76.2000,-0.0026,-0.0003,-0.0034,0.320354056,0.134908200,86.472222122,0.6657,0.6331,1.2696,0.0025,0.0025,0.0024,0.0150,0.0149,0.6000,ab000044,0*65ae71c8
#INSPVAXA,FILE,0,34.0,FINESTEERING,2319,306586.250,02000800,46eb,17139;INS_SOLUTION_GOOD,INS_RTKFIXED,17.59228697705,78.12169670991,530.6025,-76.2000,-0.0034,0.0002,-0.0003,0.320363339,0.133872630,86.472349979,0.6657,0.6331,1.2696,0.0025,0.0025,0.0024,0.0150,0.0149,0.6000,ab000044,0*2b92b970
#INSPVAXA,FILE,0,34.0,FINESTEERING,2319,306586.350,02000800,46eb,17139;INS_SOLUTION_GOOD,INS_RTKFIXED,17.59228699369,78.12169670371,530.6038,-76.2000,-0.0041,-0.0004,-0.0010,0.323218173,0.135774347,86.470548884,0.6657,0.6331,1.2696,0.0025,0.0025,0.0024,0.0150,0.0149,0.6000,ab000044,0*e7b474e9
#INSPVAXA,FILE,0,34.0,FINESTEERING,2319,306586.550,02000800,46eb,17139;INS_SOLUTION_GOOD,INS_RTKFIXED,17.59228702631,78.12169669186,530.6065,-76.2000,-0.0030,-0.0012,-0.0021,0.330362118,0.132514936,86.464789864,0.6657,0.6331,1.2696,0.0025,0.0025,0.0024,0.0150,0.0149,0.6000,ab000044,0*4dab9763
#INSPVAXA,FILE,0,34.0,FINESTEERING,2319,306586.700,02000800,46eb,17139;INS_SOLUTION_GOOD,INS_RTKFIXED,17.59228705543,78.12169668173,530.6085,-76.2000,0.0038,0.0007,0.0001,0.327417063,0.135934404,86.466916883,0.6657,0.6331,1.2696,0.0025,0.0025,0.0024,0.0150,0.0149,0.6000,ab000044,0*a74a9677
#INSPVAXA,FILE,0,34.0,FINESTEERING,2319,306586.750,02000800,46eb,17139;INS_SOLUTION_GOOD,INS_RTKFIXED,17.59228706618,78.12169667915,530.6092,-76.2000,0.0030,0.0005,0.0014,0.326669608,0.132151855,86.468837117,0.6657,0.6331,1.2696,0.0025,0.0025,0.0024,0.0150,0.0149,0.6000,ab000044,0*c68925c6
#INSPVAXA,FILE,0,34.0,FINESTEERING,2319,306586.800,02000800,46eb,17139;INS_SOLUTION_GOOD,INS_RTKFIXED,17.59228707593,78.12169667634,530.6099,-76.2000,-0.0000,-0.0001,0.0001,0.324109224,0.130245314,86.469066322,0.6657,0.6331,1.2696,0.0025,0.0025,0.0024,0.0150,0.0149,0.6000,ab000044,0*f8b30ff8
#INSPVAXA,FILE,0,34.0,FINESTEERING,2319,306586.850,02000800,46eb,17139;INS_SOLUTION_GOOD,INS_RTKFIXED,17.59228708448,78.12169667322,530.6106,-76.2000,-0.0021,-0.0009,0.0006,0.323545672,0.129099559,86.465754790,0.6657,0.6331,1.2696,0.0025,0.0025,0.0024,0.0150,0.0149,0.6000,ab000044,0*9e1a731e
#INSPVAXA,FILE,0,34.0,FINESTEERING,2319,306587.000,02000800,46eb,17139;INS_SOLUTION_GOOD,INS_RTKFIXED,17.59228710927,78.12169666303,530.6126,-76.2000,0.0003,-0.0015,-0.0015,0.330219466,0.132976468,86.463525210,0.6657,0.6331,1.2696,0.0025,0.0025,0.0024,0.0150,0.0149,0.6000,ab000044,0*1e744a03
#INSPVAXA,FILE,0,34.0,FINESTEERING,2319,306587.100,02000800,46eb,17139;INS_SOLUTION_GOOD,INS_RTKFIXED,17.59228711447,78.12169666170,530.6130,-76.2000,0.0010,-0.0000,0.0014,0.329485320,0.132657570,86.463209861,0.6657,0.6332,1.2694,0.0022,0.0022,0.0021,0.0150,0.0149,0.6000,ab000044,0*2078cba0
#INSPVAXA,FILE,0,35.5,FINESTEERING,2319,306587.300,02000800,46eb,17139;INS_SOLUTION_GOOD,INS_RTKFIXED,17.59228711481,78.12169666345,530.6132,-76.2000,0.0012,-0.0004,-0.0008,0.322812404,0.131933780,86.461882195,0.6657,0.6332,1.2694,0.0022,0.0022,0.0021,0.0150,0.0149,0.6000,ab000044,0*2c81acf1
#INSPVAXA,FILE,0,35.5,FINESTEERING,2319,306587.400,02000800,46eb,17139;INS_SOLUTION_GOOD,INS_RTKFIXED,17.59228711472,78.12169666452,530.6132,-76.2000,-0.0003,0.0008,0.0016,0.322861863,0.133452366,86.462702236,0.6657,0.6332,1.2694,0.0022,0.0022,0.0021,0.0150,0.0149,0.6000,ab000044,0*d8087d9d
#INSPVAXA,FILE,0,35.5,FINESTEERING,2319,306587.450,02000800,46eb,17139;INS_SOLUTION_GOOD,INS_RTKFIXED,17.59228711429,78.12169666542,530.6133,-76.2000,-0.0001,0.0014,0.0022,0.321524394,0.132512750,86.460035715,0.6657,0.6332,1.2694,0.0022,0.0022,0.0021,0.0150,0.0149,0.6000,ab000044,0*405e80a3
#INSPVAXA,FILE,0,35.5,FINESTEERING,2319,306587.500,02000800,46eb,17139;INS_SOLUTION_GOOD,INS_RTKFIXED,17.59228711397,78.12169666641,530.6134,-76.2000,0.0002,0.0013,0.0020,0.320861677,0.129387091,86.458954756,0.6657,0.6332,1.2694,0.0022,0.0022,0.0021,0.0150,0.0149,0.6000,ab000044,0*2ef4da80
#INSPVAXA,FILE,0,35.5,FINESTEERING,2319,306587.550,02000800,46eb,17139;INS_SOLUTION_GOOD,INS_RTKFIXED,17.59228711380,78.12169666719,530.6134,-76.2000,0.0002,0.0010,0.0011,0.320687803,0.128805093,86.458397319,0.6657,0.6332,1.2694,0.0022,0.0022,0.0021,0.0150,0.0149,0.6000,ab000044,0*b2b4a3fb
#INSPVAXA,FILE,0,35.5,FINESTEERING,2319,306587.600,02000800,46eb,17139;INS_SOLUTION_GOOD,INS_RTKFIXED,17.59228711352,78.12169666782,530.6135,-76.2000,-0.0001,0.0007,0.0007,0.320167805,0.131013483,86.459267380,0.6657,0.6332,1.2694,0.0022,0.0022,0.0021,0.0150,0.0149,0.6000,ab000044,0*2937521f
#INSPVAXA,FILE,0,35.5,FINESTEERING,2319,306587.700,02000800,46eb,17139;INS_SOLUTION_GOOD,INS_RTKFIXED,17.59228711193,78.12169666915,530.6135,-76.2000,-0.0015,0.0013,0.0006,0.326387543,0.132186791,86.458279764,0.6657,0.6332,1.2694,0.0022,0.0022,0.0021,0.0150,0.0149,0.6000,ab000044,0*9d2cd59a
#INSPVAXA,FILE,0,35.5,FINESTEERING,2319,306587.750,02000800,46eb,17139;INS_SOLUTION_GOOD,INS_RTKFIXED,17.59228711119,78.12169666998,530.6135,-76.2000,-0.0007,0.0020,0.0019,0.325493455,0.133417081,86.456542176,0.6657,0.6332,1.2694,0.0022,0.0022,0.0021,0.0150,0.0149,0.6000,ab000044,0*abf56916
#INSPVAXA,FILE,0,35.5,FINESTEERING,2319,306587.900,02000800,46eb,17139;INS_SOLUTION_GOOD,INS_RTKFIXED,17.59228711161,78.12169667294,530.6137,-76.2000,0.0009,0.0018,0.0012,0.323181661,0.128939898,86.456628700,0.6657,0.6332,1.2694,0.0022,0.0022,0.0021,0.0150,0.0149,0.6000,ab000044,0*45d9b1ab
#INSPVAXA,FILE,0,35.5,FINESTEERING,2319,306587.950,02000800,46eb,17139;INS_SOLUTION_GOOD,INS_RTKFIXED,17.59228711151,78.12169667380,530.6137,-76.2000,-0.0005,0.0019,0.0001,0.320710007,0.128641673,86.456646183,0.6657,0.6332,1.2694,0.0022,0.0022,0.0021,0.0150,0.0149,0.6000,ab000044,0*ae5c80fc
#INSPVAXA,FILE,0,35.5,FINESTEERING,2319,306588.000,02000800,46eb,17139;INS_SOLUTION_GOOD,INS_RTKFIXED,17.59228711106,78.12169667460,530.6137,-76.2000,-0.0010,0.0017,-0.0001,0.319550160,0.130092646,86.455387963,0.6657,0.6332,1.2694,0.0022,0.0022,0.0021,0.0150,0.0149,0.6000,ab000044,0*024bcfe7
#INSPVAXA,FILE,0,35.5,FINESTEERING,2319,306588.050,02000800,46eb,17139;INS_SOLUTION_GOOD,INS_RTKFIXED,17.59228711068,78.12169667501,530.6137,-76.2000,-0.0007,0.0020,0.0008,0.323327474,0.129786316,86.454899767,0.6656,0.6330,1.2694,0.0022,0.0022,0.0021,0.0149,0.0148,0.6000,ab000044,0*0299d3fe
#INSPVAXA,FILE,0,35.5,FINESTEERING,2319,306588.300,02000800,46eb,17139;INS_SOLUTION_GOOD,INS_RTKFIXED,17.59228711076,78.12169667796,530.6136,-76.2000,-0.0003,0.0019,-0.0006,0.319149913,0.130637197,86.457638070,0.6656,0.6330,1.2694,0.0022,0.0022,0.0021,0.0149,0.0148,0.6000,ab000044,0*cf452a91
#INSPVAXA,FILE,0,36.0,FINESTEERING,2319,306588.400,02000800,46eb,17139;INS_SOLUTION_GOOD,INS_RTKFIXED,17.59228710995,78.12169667957,530.6135,-76.2000,-0.0008,0.0019,0.0009,0.317363997,0.134224518,86.459519700,0.6656,0.6330,1.2694,0.0022,0.0022,0.0021,0.0149,0.0148,0.6000,ab000044,0*7fb1f4e2
#INSPVAXA,FILE,0,36.0,FINESTEERING,2319,306588.450,02000800,46eb,17139;INS_SOLUTION_GOOD,INS_RTKFIXED,17.59228710961,78.12169668043,530.6135,-76.2000,-0.0005,0.0023,0.0014,0.319094998,0.133354230,86.459944822,0.6656,0.6330,1.2694,0.0022,0.0022,0.0021,0.0149,0.0148,0.6000,ab000044,0*d755c5e4
#INSPVAXA,FILE,0,36.0,FINESTEERING,2319,306588.550,02000800,46eb,17139;INS_SOLUTION_GOOD,INS_RTKFIXED,17.59228710908,78.12169668228,530.6135,-76.2000,0.0003,0.0019,0.0008,0.322328797,0.131878984,86.459788480,0.6656,0.6330,1.2694,0.0022,0.0022,0.0021,0.0149,0.0148,0.6000,ab000044,0*bf1e1e22
#INSPVAXA,FILE,0,36.0,FINESTEERING,2319,306588.900,02000800,46eb,17139;INS_SOLUTION_GOOD,INS_RTKFIXED,17.59228711050,78.12169669294,530.6130,-76.2000,0.0015,0.0132,-0.0099,0.312595703,0.148590348,86.467792366,0.6656,0.6330,1.2694,0.0022,0.0022,0.0021,0.0149,0.0148,0.6000,ab000044,0*ba0ab1ac
#INSPVAXA,FILE,0,36.0,FINESTEERING,2319,306588.950,02000800,46eb,17139;INS_SOLUTION_GOOD,INS_RTKFIXED,17.59228711079,78.12169670155,530.6123,-76.2000,0.0004,0.0221,-0.0197,0.306610196,0.168563097,86.468973694,0.6656,0.6330,1.2694,0.0022,0.0022,0.0021,0.0149,0.0148,0.6000,ab000044,0*7c47f975
#INSPVAXA,FILE,0,36.0,FINESTEERING,2319,306589.000,02000800,46eb,17139;INS_SOLUTION_GOOD,INS_RTKFIXED,17.59228711052,78.12169671429,530.6112,-76.2000,-0.0005,0.0307,-0.0228,0.301873373,0.195359314,86.465170041,0.6656,0.6330,1.2694,0.0022,0.0022,0.0021,0.0149,0.0148,0.6000,ab000044,0*6276de55
#INSPVAXA,FILE,0,36.0,FINESTEERING,2319,306589.050,02000800,46eb,17139;INS_SOLUTION_GOOD,INS_RTKFIXED,17.59228711021,78.12169673073,530.6101,-76.2000,0.0012,0.0384,-0.0196,0.298470169,0.217193774,86.460345364,0.6647,0.6317,1.2705,0.0051,0.0051,0.0047,0.0155,0.0155,0.6000,ab000142,0*2377f7a1
#INSPVAXA,FILE,0,34.5,FINESTEERING,2319,306589.100,02000800,46eb,17139;INS_SOLUTION_GOOD,INS_RTKFIXED,17.59228711031,78.12169675097,530.6092,-76.2000,0.0034,0.0480,-0.0136,0.298399709,0.235530855,86.457691672,0.6647,0.6317,1.2705,0.0051,0.0051,0.0047,0.0155,0.0155,0.6000,ab000142,0*265c9fdb
#INSPVAXA,FILE,0,34.5,FINESTEERING,2319,306589.150,02000800,46eb,17139;INS_SOLUTION_GOOD,INS_RTKFIXED,17.59228711126,78.12169677539,530.6087,-76.2000,0.0046,0.0574,-0.0045,0.298214254,0.248783155,86.459942263,0.6647,0.6317,1.2705,0.0051,0.0051,0.0047,0.0155,0.0155,0.6000,ab000142,0*77e1357e
#INSPVAXA,FILE,0,34.5,FINESTEERING,2319,306589.200,02000800,46eb,17139;INS_SOLUTION_GOOD,INS_RTKFIXED,17.59228711244,78.12169680407,530.6086,-76.2000,0.0044,0.0664,0.0050,0.297446628,0.250542293,86.464255047,0.6647,0.6317,1.2705,0.0051,0.0051,0.0047,0.0155,0.0155,0.6000,ab000142,0*1f0bc8bd
#INSPVAXA,FILE,0,34.5,FINESTEERING,2319,306589.250,02000800,46eb,17139;INS_SOLUTION_GOOD,INS_RTKFIXED,17.59228711335,78.12169683688,530.6089,-76.2000,0.0034,0.0752,0.0098,0.297713644,0.245478103,86.467535404,0.6647,0.6317,1.2705,0.0051,0.0051,0.0047,0.0155,0.0155,0.6000,ab000142,0*3d333c0e
#INSPVAXA,FILE,0,34.5,FINESTEERING,2319,306589.300,02000800,46eb,17139;INS_SOLUTION_GOOD,INS_RTKFIXED,17.59228711378,78.12169687386,530.6094,-76.2000,0.0026,0.0835,0.0101,0.302783926,0.234311643,86.467551150,0.6647,0.6317,1.2705,0.0051,0.0051,0.0047,0.0155,0.0155,0.6000,ab000142,0*d7ed819a
#INSPVAXA,FILE,0,34.5,FINESTEERING,2319,306589.350,02000800,46eb,17139;INS_SOLUTION_GOOD,INS_RTKFIXED,17.59228711372,78.12169691511,530.6097,-76.2000,0.0015,0.0922,0.0070,0.307395934,0.223105509,86.464199885,0.6647,0.6317,1.2705,0.0051,0.0051,0.0047,0.0155,0.0155,0.6000,ab000142,0*c4a0a904
#INSPVAXA,FILE,0,34.5,FINESTEERING,2319,306589.400,02000800,46eb,17139;INS_SOLUTION_GOOD,INS_RTKFIXED,17.59228711356,78.12169696067,530.6099,-76.2000,0.0013,0.1020,0.0019,0.305819980,0.219028393,86.460314015,0.6647,0.6317,1.2705,0.0051,0.0051,0.0047,0.0155,0.0155,0.6000,ab000142,0*64824efc
#INSPVAXA,FILE,0,34.5,FINESTEERING,2319,306589.450,02000800,46eb,17139;INS_SOLUTION_GOOD,INS_RTKFIXED,17.59228711383,78.12169701112,530.6098,-76.2000,0.0028,0.1133,-0.0026,0.302328204,0.221365759,86.457190330,0.6647,0.6317,1.2705,0.0051,0.0051,0.0047,0.0155,0.0155,0.6000,ab000142,0*e41fb8b7
#INSPVAXA,FILE,0,34.5,FINESTEERING,2319,306589.500,02000800,46eb,17139;INS_SOLUTION_GOOD,INS_RTKFIXED,17.59228711493,78.12169706642,530.6096,-76.2000,0.0047,0.1237,-0.0039,0.299999778,0.229621495,86.456906791,0.6647,0.6317,1.2705,0.0051,0.0051,0.0047,0.0155,0.0155,0.6000,ab000142,0*0558f5b2
#INSPVAXA,FILE,0,34.5,FINESTEERING,2319,306589.550,02000800,46eb,17139;INS_SOLUTION_GOOD,INS_RTKFIXED,17.59228711640,78.12169712607,530.6095,-76.2000,0.0052,0.1319,-0.0000,0.301356639,0.233570606,86.457813335,0.6647,0.6317,1.2705,0.0051,0.0051,0.0047,0.0155,0.0155,0.6000,ab000142,0*72c8e554
#INSPVAXA,FILE,0,34.5,FINESTEERING,2319,306589.600,02000800,46eb,17139;INS_SOLUTION_GOOD,INS_RTKFIXED,17.59228711751,78.12169718973,530.6095,-76.2000,0.0041,0.1401,0.0022,0.304101841,0.230678279,86.457732908,0.6647,0.6317,1.2705,0.0051,0.0051,0.0047,0.0155,0.0155,0.6000,ab000142,0*57a31b74
#INSPVAXA,FILE,0,34.5,FINESTEERING,2319,306589.650,02000800,46eb,17139;INS_SOLUTION_GOOD,INS_RTKFIXED,17.59228711809,78.12169725788,530.6096,-76.2000,0.0028,0.1504,0.0026,0.305133264,0.228645015,86.456354817,0.6647,0.6317,1.2705,0.0051,0.0051,0.0047,0.0155,0.0155,0.6000,ab000142,0*73ff4b28
#INSPVAXA,FILE,0,34.5,FINESTEERING,2319,306589.700,02000000,46eb,17139;INS_SOLUTION_GOOD,INS_RTKFIXED,17.59228711860,78.12169733140,530.6096,-76.2000,0.0026,0.1617,0.0016,0.309746561,0.226148430,86.453878948,0.6647,0.6317,1.2705,0.0051,0.0051,0.0047,0.0155,0.0155,0.6000,ab000142,0*162ee8e3
#INSPVAXA,FILE,0,34.5,FINESTEERING,2319,306589.750,02000000,46eb,17139;INS_SOLUTION_GOOD,INS_RTKFIXED,17.59228711930,78.12169740888,530.6098,-76.2000,0.0034,0.1700,0.0035,0.308066812,0.228059231,86.450171720,0.6647,0.6317,1.2705,0.0051,0.0051,0.0047,0.0155,0.0155,0.6000,ab000142,0*ddaec0b5
#INSPVAXA,FILE,0,34.5,FINESTEERING,2319,306589.800,02000000,46eb,17139;INS_SOLUTION_GOOD,INS_RTKFIXED,17.59228712046,78.12169748900,530.6099,-76.2000,0.0048,0.1738,0.0058,0.305509846,0.222458384,86.448203815,0.6647,0.6317,1.2705,0.0051,0.0051,0.0047,0.0155,0.0155,0.6000,ab000142,0*20bf22a1
#INSPVAXA,FILE,0,34.5,FINESTEERING,2319,306589.850,02000000,46eb,17139;INS_SOLUTION_GOOD,INS_RTKFIXED,17.59228712224,78.12169757170,530.6101,-76.2000,0.0065,0.1796,0.0029,0.300706040,0.219977627,86.446927651,0.6647,0.6317,1.2705,0.0051,0.0051,0.0047,0.0155,0.0155,0.6000,ab000142,0*5228c5e6
#INSPVAXA,FILE,0,34.5,FINESTEERING,2319,306589.900,02000000,46eb,17139;INS_SOLUTION_GOOD,INS_RTKFIXED,17.59228712453,78.12169765778,530.6101,-76.2000,0.0077,0.1868,-0.0002,0.297004656,0.218999113,86.447717424,0.6647,0.6317,1.2705,0.0051,0.0051,0.0047,0.0155,0.0155,0.6000,ab000142,0*6041ae8a
#INSPVAXA,FILE,0,34.5,FINESTEERING,2319,306589.950,02000000,46eb,17139;INS_SOLUTION_GOOD,INS_RTKFIXED,17.59228712692,78.12169774793,530.6100,-76.2000,0.0072,0.1957,-0.0017,0.298686378,0.226161453,86.447890215,0.6647,0.6317,1.2705,0.0051,0.0051,0.0047,0.0155,0.0155,0.6000,ab000142,0*3399b255
#INSPVAXA,FILE,0,34.5,FINESTEERING,2319,306590.000,02000000,46eb,17139;INS_SOLUTION_GOOD,INS_RTKFIXED,17.59228712922,78.12169784242,530.6099,-76.2000,0.0064,0.2050,-0.0009,0.295138605,0.234749564,86.447792881,0.6647,0.6317,1.2705,0.0051,0.0051,0.0047,0.0155,0.0155,0.6000,ab000142,0*4f1bd9f5
#INSPVAXA,FILE,0,34.5,FINESTEERING,2319,306590.050,02000000,46eb,17139;INS_SOLUTION_GOOD,INS_RTKFIXED,17.59228713143,78.12169794154,530.6099,-76.2000,0.0062,0.2170,0.0021,0.294159961,0.237090489,86.445444426,0.6639,0.6303,1.2717,0.0076,0.0076,0.0067,0.0162,0.0161,0.6000,ab001142,0*1dc46321
#INSPVAXA,FILE,0,26.0,FINESTEERING,2319,306590.100,02000000,46eb,17139;INS_SOLUTION_GOOD,INS_RTKFIXED,17.59228713367,78.12169804583,530.6099,-76.2000,0.0067,0.2291,0.0002,0.287993112,0.240514606,86.442505984,0.6639,0.6303,1.2717,0.0076,0.0076,0.0067,0.0162,0.0161,0.6000,ab001142,0*44101cbb
#INSPVAXA,FILE,0,26.0,FINESTEERING,2319,306590.150,02000000,46eb,17139;INS_SOLUTION_GOOD,INS_RTKFIXED,17.59228713606,78.12169815613,530.6098,-76.2000,0.0080,0.2415,0.0016,0.285765289,0.245728967,86.439616642,0.6639,0.6303,1.2717,0.0076,0.0076,0.0067,0.0162,0.0161,0.6000,ab001142,0*12f8ea6c
#INSPVAXA,FILE,0,26.0,FINESTEERING,2319,306590.200,02000000,46eb,17139;INS_SOLUTION_GOOD,INS_RTKFIXED,17.59228713863,78.12169827262,530.6098,-76.2000,0.0080,0.2541,0.0008,0.290475060,0.248806152,86.437960410,0.6639,0.6303,1.2717,0.0076,0.0076,0.0067,0.0162,0.0161,0.6000,ab001142,0*cd6a2932
#INSPVAXA,FILE,0,26.0,FINESTEERING,2319,306590.250,02000000,46eb,17139;INS_SOLUTION_GOOD,INS_RTKFIXED,17.59228714131,78.12169839504,530.6098,-76.2000,0.0071,0.2673,0.0017,0.290328251,0.253668978,86.437518700,0.6639,0.6303,1.2717,0.0076,0.0076,0.0067,0.0162,0.0161,0.6000,ab001142,0*9430a346
#INSPVAXA,FILE,0,26.0,FINESTEERING,2319,306590.300,02000000,46eb,17139;INS_SOLUTION_GOOD,INS_RTKFIXED,17.59228714395,78.12169852406,530.6098,-76.2000,0.0071,0.2824,-0.0007,0.287219577,0.256413974,86.436143508,0.6639,0.6303,1.2717,0.0076,0.0076,0.0067,0.0162,0.0161,0.6000,ab001142,0*e136eaa3
#INSPVAXA,FILE,0,26.0,FINESTEERING,2319,306590.350,02000000,46eb,17139;INS_SOLUTION_GOOD,INS_RTKFIXED,17.59228714675,78.12169866095,530.6098,-76.2000,0.0083,0.2997,-0.0014,0.283476577,0.261248791,86.434004206,0.6639,0.6303,1.2717,0.0076,0.0076,0.0067,0.0162,0.0161,0.6000,ab001142,0*2660a8b3
#INSPVAXA,FILE,0,26.0,FINESTEERING,2319,306590.400,02000000,46eb,17139;INS_SOLUTION_GOOD,INS_RTKFIXED,17.59228715022,78.12169880590,530.6097,-76.2000,0.0099,0.3171,0.0007,0.284524549,0.268417317,86.431502682,0.6639,0.6303,1.2717,0.0076,0.0076,0.0067,0.0162,0.0161,0.6000,ab001142,0*80cd7321
#INSPVAXA,FILE,0,26.0,FINESTEERING,2319,306590.450,02000000,46eb,17139;INS_SOLUTION_GOOD,INS_RTKFIXED,17.59228715401,78.12169895851,530.6098,-76.2000,0.0102,0.3329,0.0036,0.287920273,0.271303893,86.428792159,0.6639,0.6303,1.2717,0.0076,0.0076,0.0067,0.0162,0.0161,0.6000,ab001142,0*d5892608
#INSPVAXA,FILE,0,26.0,FINESTEERING,2319,306590.500,02000000,46eb,17139;INS_SOLUTION_GOOD,INS_RTKFIXED,17.59228715733,78.12169911897,530.6099,-76.2000,0.0087,0.3498,0.0050,0.292180906,0.268856154,86.425474509,0.6639,0.6303,1.2717,0.0076,0.0076,0.0067,0.0162,0.0161,0.6000,ab001142,0*76559073
#INSPVAXA,FILE,0,26.0,FINESTEERING,2319,306590.550,02000000,46eb,17139;INS_SOLUTION_GOOD,INS_RTKFIXED,17.59228716080,78.12169928771,530.6101,-76.2000,0.0100,0.3683,0.0030,0.291746914,0.268812916,86.422993186,0.6639,0.6303,1.2717,0.0076,0.0076,0.0067,0.0162,0.0161,0.6000,ab001142,0*cef3c399
#INSPVAXA,FILE,0,26.0,FINESTEERING,2319,306590.600,02000000,46eb,17139;INS_SOLUTION_GOOD,INS_RTKFIXED,17.59228716506,78.12169946551,530.6101,-76.2000,0.0121,0.3879,0.0013,0.297789911,0.272475586,86.423493632,0.6639,0.6303,1.2717,0.0076,0.0076,0.0067,0.0162,0.0161,0.6000,ab001142,0*dac02e82
#INSPVAXA,FILE,0,26.0,FINESTEERING,2319,306590.650,02000000,46eb,17139;INS_SOLUTION_GOOD,INS_RTKFIXED,17.59228717010,78.12169965218,530.6102,-76.2000,0.0136,0.4064,0.0018,0.303014509,0.277926047,86.426136775,0.6639,0.6303,1.2717,0.0076,0.0076,0.0067,0.0162,0.0161,0.6000,ab001142,0*d5f259c0
#INSPVAXA,FILE,0,26.0,FINESTEERING,2319,306590.700,02000000,46eb,17139;INS_SOLUTION_GOOD,INS_RTKFIXED,17.59228717540,78.12169984760,530.6103,-76.2000,0.0136,0.4250,0.0037,0.309404436,0.279765378,86.427944573,0.6639,0.6303,1.2717,0.0076,0.0076,0.0067,0.0162,0.0161,0.6000,ab001142,0*29249969
#INSPVAXA,FILE,0,26.0,FINESTEERING,2319,306590.750,02000000,46eb,17139;INS_SOLUTION_GOOD,INS_RTKFIXED,17.59228718059,78.12170005213,530.6104,-76.2000,0.0131,0.4451,0.0031,0.314377792,0.281055897,86.427301519,0.6639,0.6303,1.2717,0.0076,0.0076,0.0067,0.0162,0.0161,0.6000,ab001142,0*0ea11827
#INSPVAXA,FILE,0,26.0,FINESTEERING,2319,306590.800,02000000,46eb,17139;INS_SOLUTION_GOOD,INS_RTKFIXED,17.59228718606,78.12170026665,530.6105,-76.2000,0.0143,0.4671,0.0035,0.315400508,0.280034197,86.424968440,0.6639,0.6303,1.2717,0.0076,0.0076,0.0067,0.0162,0.0161,0.6000,ab001142,0*0616d758
#INSPVAXA,FILE,0,26.0,FINESTEERING,2319,306590.850,02000000,46eb,17139;INS_SOLUTION_GOOD,INS_RTKFIXED,17.59228719202,78.12170049209,530.6106,-76.2000,0.0157,0.4913,0.0015,0.315967285,0.284321591,86.422337324,0.6639,0.6303,1.2717,0.0076,0.0076,0.0067,0.0162,0.0161,0.6000,ab001142,0*60da7673
#INSPVAXA,FILE,0,26.0,FINESTEERING,2319,306590.900,02000000,46eb,17139;INS_SOLUTION_GOOD,INS_RTKFIXED,17.59228719888,78.12170072875,530.6106,-76.2000,0.0177,0.5149,0.0015,0.313980683,0.292268834,86.421330491,0.6639,0.6303,1.2717,0.0076,0.0076,0.0067,0.0162,0.0161,0.6000,ab001142,0*4b81ca7c
#INSPVAXA,FILE,0,26.0,FINESTEERING,2319,306590.950,02000000,46eb,17139;INS_SOLUTION_GOOD,INS_RTKFIXED,17.59228720618,78.12170097664,530.6106,-76.2000,0.0181,0.5391,0.0013,0.311588371,0.299316452,86.421237566,0.6639,0.6303,1.2717,0.0076,0.0076,0.0067,0.0162,0.0161,0.6000,ab001142,0*404821d7
#INSPVAXA,FILE,0,26.0,FINESTEERING,2319,306591.000,02000000,46eb,17139;INS_SOLUTION_GOOD,INS_RTKFIXED,17.59228721361,78.12170123644,530.6106,-76.2000,0.0182,0.5653,0.0002,0.311351664,0.307020863,86.421225385,0.6639,0.6303,1.2717,0.0076,0.0076,0.0067,0.0162,0.0161,0.6000,ab001142,0*49a2bff0
#INSPVAXA,FILE,0,26.0,FINESTEERING,2319,306591.050,02000000,46eb,17139;INS_SOLUTION_GOOD,INS_RTKFIXED,17.59228722116,78.12170150910,530.6106,-76.2000,0.0184,0.5939,-0.0003,0.313183789,0.314916108,86.420450733,0.6631,0.6291,1.2727,0.0099,0.0097,0.0083,0.0168,0.0167,0.6000,ab000342,0*114a568e
#INSPVAXA,FILE,0,26.0,FINESTEERING,2319,306591.100,02000000,46eb,17139;INS_SOLUTION_GOOD,INS_RTKFIXED,17.59228722911,78.12170179601,530.6105,-76.2000,0.0195,0.6260,-0.0002,0.319470403,0.327800845,86.419943633,0.6631,0.6291,1.2727,0.0099,0.0097,0.0083,0.0168,0.0167,0.6000,ab000342,0*f1a90d95
#INSPVAXA,FILE,0,30.5,FINESTEERING,2319,306591.150,02000000,46eb,17139;INS_SOLUTION_GOOD,INS_RTKFIXED,17.59228723756,78.12170209856,530.6104,-76.2000,0.0207,0.6600,-0.0035,0.324220465,0.345726530,86.420113336,0.6631,0.6291,1.2727,0.0099,0.0097,0.0083,0.0168,0.0167,0.6000,ab000342,0*67413887
#INSPVAXA,FILE,0,30.5,FINESTEERING,2319,306591.200,02000000,46eb,17139;INS_SOLUTION_GOOD,INS_RTKFIXED,17.59228724690,78.12170241770,530.6101,-76.2000,0.0231,0.6961,-0.0031,0.332349369,0.365578664,86.420734801,0.6631,0.6291,1.2727,0.0099,0.0097,0.0083,0.0168,0.0167,0.6000,ab000342,0*151f479e
#INSPVAXA,FILE,0,30.5,FINESTEERING,2319,306591.250,02000000,46eb,17139;INS_SOLUTION_GOOD,INS_RTKFIXED,17.59228725675,78.12170275406,530.6099,-76.2000,0.0235,0.7334,-0.0034,0.340383121,0.385709081,86.421759833,0.6631,0.6291,1.2727,0.0099,0.0097,0.0083,0.0168,0.0167,0.6000,ab000342,0*ad0f36b9
#INSPVAXA,FILE,0,30.5,FINESTEERING,2319,306591.300,02000000,46eb,17139;INS_SOLUTION_GOOD,INS_RTKFIXED,17.59228726721,78.12170310877,530.6098,-76.2000,0.0250,0.7743,-0.0018,0.342515257,0.408002471,86.422983274,0.6631,0.6291,1.2727,0.0099,0.0097,0.0083,0.0168,0.0167,0.6000,ab000342,0*96e3445d
#INSPVAXA,FILE,0,30.5,FINESTEERING,2319,306591.350,02000000,46eb,17139;INS_SOLUTION_GOOD,INS_RTKFIXED,17.59228727839,78.12170348347,530.6096,-76.2000,0.0269,0.8181,-0.0011,0.347139175,0.430209760,86.424236662,0.6631,0.6291,1.2727,0.0099,0.0097,0.0083,0.0168,0.0167,0.6000,ab000342,0*a625d5e6
#INSPVAXA,FILE,0,30.5,FINESTEERING,2319,306591.400,02000000,46eb,17139;INS_SOLUTION_GOOD,INS_RTKFIXED,17.59228729008,78.12170387851,530.6096,-76.2000,0.0276,0.8610,0.0011,0.349133270,0.449652057,86.424713003,0.6631,0.6291,1.2727,0.0099,0.0097,0.0083,0.0168,0.0167,0.6000,ab000342,0*95afe4f9
#INSPVAXA,FILE,0,30.5,FINESTEERING,2319,306591.450,02000000,46eb,17139;INS_SOLUTION_GOOD,INS_RTKFIXED,17.59228730230,78.12170429381,530.6097,-76.2000,0.0294,0.9035,0.0057,0.348517703,0.462912504,86.423029031,0.6631,0.6291,1.2727,0.0099,0.0097,0.0083,0.0168,0.0167,0.6000,ab000342,0*76e06769
#INSPVAXA,FILE,0,30.5,FINESTEERING,2319,306591.500,02000000,46eb,17139;INS_SOLUTION_GOOD,INS_RTKFIXED,17.59228731521,78.12170472955,530.6100,-76.2000,0.0306,0.9480,0.0053,0.343585890,0.472178566,86.418926575,0.6631,0.6291,1.2727,0.0099,0.0097,0.0083,0.0168,0.0167,0.6000,ab000342,0*aa42fd50
#INSPVAXA,FILE,0,30.5,FINESTEERING,2319,306591.550,02000000,46eb,17139;INS_SOLUTION_GOOD,INS_RTKFIXED,17.59228732904,78.12170518710,530.6103,-76.2000,0.0326,0.9956,0.0051,0.341888197,0.479696914,86.414545192,0.6631,0.6291,1.2727,0.0099,0.0097,0.0083,0.0168,0.0167,0.6000,ab000342,0*bd36ccac
#INSPVAXA,FILE,0,30.5,FINESTEERING,2319,306591.600,02000000,46eb,17139;INS_SOLUTION_GOOD,INS_RTKFIXED,17.59228734380,78.12170566754,530.6104,-76.2000,0.0348,1.0451,0.0023,0.342943739,0.489183682,86.410436725,0.6631,0.6291,1.2727,0.0099,0.0097,0.0083,0.0168,0.0167,0.6000,ab000342,0*c6d3212b
#INSPVAXA,FILE,0,30.5,FINESTEERING,2319,306591.650,02000000,46eb,17139;INS_SOLUTION_GOOD,INS_RTKFIXED,17.59228735923,78.12170617168,530.6104,-76.2000,0.0357,1.0961,-0.0012,0.341725883,0.503224851,86.408328420,0.6631,0.6291,1.2727,0.0099,0.0097,0.0083,0.0168,0.0167,0.6000,ab000342,0*ac0327b3
#INSPVAXA,FILE,0,30.5,FINESTEERING,2319,306591.700,02000000,46eb,17139;INS_SOLUTION_GOOD,INS_RTKFIXED,17.59228737497,78.12170670025,530.6104,-76.2000,0.0368,1.1494,0.0007,0.340770995,0.515192107,86.406225827,0.6631,0.6291,1.2727,0.0099,0.0097,0.0083,0.0168,0.0167,0.6000,ab000342,0*67e1241e
#INSPVAXA,FILE,0,30.5,FINESTEERING,2319,306591.750,02000000,46eb,17139;INS_SOLUTION_GOOD,INS_RTKFIXED,17.59228739150,78.12170725378,530.6103,-76.2000,0.0390,1.2025,-0.0012,0.339969101,0.526091665,86.402658351,0.6631,0.6291,1.2727,0.0099,0.0097,0.0083,0.0168,0.0167,0.6000,ab000342,0*775b4aa5
#INSPVAXA,FILE,0,30.5,FINESTEERING,2319,306591.800,02000000,46eb,17139;INS_SOLUTION_GOOD,INS_RTKFIXED,17.59228740876,78.12170783227,530.6103,-76.2000,0.0402,1.2554,-0.0006,0.343368970,0.535156170,86.397782848,0.6631,0.6291,1.2727,0.0099,0.0097,0.0083,0.0168,0.0167,0.6000,ab000342,0*34740f90
#INSPVAXA,FILE,0,30.5,FINESTEERING,2319,306591.850,02000000,46eb,17139;INS_SOLUTION_GOOD,INS_RTKFIXED,17.59228742652,78.12170843559,530.6103,-76.2000,0.0410,1.3074,0.0034,0.349824081,0.545172350,86.391246953,0.6631,0.6291,1.2727,0.0099,0.0097,0.0083,0.0168,0.0167,0.6000,ab000342,0*1277b6c1
#INSPVAXA,FILE,0,30.5,FINESTEERING,2319,306591.900,02000000,46eb,17139;INS_SOLUTION_GOOD,INS_RTKFIXED,17.59228744473,78.12170906399,530.6105,-76.2000,0.0424,1.3614,0.0058,0.355111781,0.558125629,86.382233279,0.6631,0.6291,1.2727,0.0099,0.0097,0.0083,0.0168,0.0167,0.6000,ab000342,0*cebde638
#INSPVAXA,FILE,0,30.5,FINESTEERING,2319,306591.950,02000000,46eb,17139;INS_SOLUTION_GOOD,INS_RTKFIXED,17.59228746434,78.12170971726,530.6107,-76.2000,0.0468,1.4148,0.0063,0.362754483,0.570037908,86.375493303,0.6631,0.6291,1.2727,0.0099,0.0097,0.0083,0.0168,0.0167,0.6000,ab000342,0*ab1356c4
#INSPVAXA,FILE,0,30.5,FINESTEERING,2319,306592.000,02000000,46eb,17139;INS_SOLUTION_GOOD,INS_RTKFIXED,17.59228748539,78.12171039566,530.6111,-76.2000,0.0494,1.4665,0.0108,0.371849817,0.569496216,86.372400365,0.6631,0.6291,1.2727,0.0099,0.0097,0.0083,0.0168,0.0167,0.6000,ab000342,0*ab09e051
#INSPVAXA,FILE,0,30.5,FINESTEERING,2319,306592.050,02000000,46eb,17139;INS_SOLUTION_GOOD,INS_RTKFIXED,17.59228750831,78.12171109795,530.6117,-76.2000,0.0526,1.5187,0.0130,0.371037460,0.574899501,86.373366125,0.6628,0.6284,1.2733,0.0126,0.0116,0.0097,0.0175,0.0174,0.6005,ab000342,0*5e3fbf4b
#INSPVAXA,FILE,0,30.5,FINESTEERING,2319,306592.100,02000000,46eb,17139;INS_SOLUTION_GOOD,INS_RTKFIXED,17.59228753301,78.12171182376,530.6123,-76.2000,0.0567,1.5673,0.0141,0.365997997,0.562982843,86.374492055,0.6628,0.6284,1.2733,0.0126,0.0116,0.0097,0.0175,0.0174,0.6005,ab000342,0*2c0a7673
#INSPVAXA,FILE,0,30.5,FINESTEERING,2319,306592.150,02000000,46eb,17139;INS_SOLUTION_GOOD,INS_RTKFIXED,17.59228755860,78.12171257430,530.6131,-76.2000,0.0572,1.6210,0.0130,0.365242309,0.556205177,86.372488846,0.6628,0.6284,1.2733,0.0126,0.0116,0.0097,0.0175,0.0174,0.6005,ab000342,0*2c90c796
#INSPVAXA,FILE,0,31.5,FINESTEERING,2319,306592.200,02000000,46eb,17139;INS_SOLUTION_GOOD,INS_RTKFIXED,17.59228758420,78.12171334860,530.6138,-76.2000,0.0566,1.6711,0.0133,0.367691535,0.554651310,86.367666945,0.6628,0.6284,1.2733,0.0126,0.0116,0.0097,0.0175,0.0174,0.6005,ab000342,0*d9745117
#INSPVAXA,FILE,0,31.5,FINESTEERING,2319,306592.250,02000000,46eb,17139;INS_SOLUTION_GOOD,INS_RTKFIXED,17.59228760944,78.12171414730,530.6144,-76.2000,0.0562,1.7221,0.0108,0.362745895,0.549756287,86.361002496,0.6628,0.6284,1.2733,0.0126,0.0116,0.0097,0.0175,0.0174,0.6005,ab000342,0*1dfb55bb
#INSPVAXA,FILE,0,31.5,FINESTEERING,2319,306592.300,02000000,46eb,17139;INS_SOLUTION_GOOD,INS_RTKFIXED,17.59228763539,78.12171497008,530.6149,-76.2000,0.0590,1.7748,0.0099,0.353141134,0.560233683,86.357796339,0.6628,0.6284,1.2733,0.0126,0.0116,0.0097,0.0175,0.0174,0.6005,ab000342,0*7277ef5e
#INSPVAXA,FILE,0,31.5,FINESTEERING,2319,306592.350,02000000,46eb,17139;INS_SOLUTION_GOOD,INS_RTKFIXED,17.59228766293,78.12171581671,530.6154,-76.2000,0.0637,1.8230,0.0123,0.343914725,0.563467098,86.356050427,0.6628,0.6284,1.2733,0.0126,0.0116,0.0097,0.0175,0.0174,0.6005,ab000342,0*06e64696
#INSPVAXA,FILE,0,31.5,FINESTEERING,2319,306592.400,02000000,46eb,17139;INS_SOLUTION_GOOD,INS_RTKFIXED,17.59228769209,78.12171668776,530.6161,-76.2000,0.0666,1.8770,0.0129,0.322232904,0.577771557,86.354461460,0.6628,0.6284,1.2733,0.0126,0.0116,0.0097,0.0175,0.0174,0.6005,ab000342,0*96282951
#INSPVAXA,FILE,0,31.5,FINESTEERING,2319,306592.450,02000000,46eb,17139;INS_SOLUTION_GOOD,INS_RTKFIXED,17.59228772202,78.12171758351,530.6170,-76.2000,0.0682,1.9307,0.0149,0.320010303,0.578000807,86.349769626,0.6628,0.6284,1.2733,0.0126,0.0116,0.0097,0.0175,0.0174,0.6005,ab000342,0*d65a0c29
#INSPVAXA,FILE,0,31.5,FINESTEERING,2319,306592.500,02000000,46eb,17139;INS_SOLUTION_GOOD,INS_RTKFIXED,17.59228775201,78.12171850538,530.6177,-76.2000,0.0672,1.9858,0.0140,0.329058064,0.576931749,86.343152639,0.6628,0.6284,1.2733,0.0126,0.0116,0.0097,0.0175,0.0174,0.6005,ab000342,0*0e1ed194
#INSPVAXA,FILE,0,31.5,FINESTEERING,2319,306592.550,02000000,46eb,17139;INS_SOLUTION_GOOD,INS_RTKFIXED,17.59228778242,78.12171945347,530.6185,-76.2000,0.0688,2.0425,0.0151,0.318639783,0.595642128,86.339496172,0.6628,0.6284,1.2733,0.0126,0.0116,0.0097,0.0175,0.0174,0.6005,ab000342,0*44dd0d86
#INSPVAXA,FILE,0,31.5,FINESTEERING,2319,306592.600,02000000,46eb,17139;INS_SOLUTION_GOOD,INS_RTKFIXED,17.59228781381,78.12172042724,530.6192,-76.2000,0.0714,2.0965,0.0181,0.331834186,0.593628192,86.336472846,0.6628,0.6284,1.2733,0.0126,0.0116,0.0097,0.0175,0.0174,0.6005,ab000342,0*f37a99df
#INSPVAXA,FILE,0,31.5,FINESTEERING,2319,306592.650,02000000,46eb,17139;INS_SOLUTION_GOOD,INS_RTKFIXED,17.59228784608,78.12172142652,530.6200,-76.2000,0.0724,2.1487,0.0157,0.345475152,0.592230169,86.332611965,0.6628,0.6284,1.2733,0.0126,0.0116,0.0097,0.0175,0.0174,0.6005,ab000342,0*53e49a54
#INSPVAXA,FILE,0,31.5,FINESTEERING,2319,306592.700,02000000,46eb,17139;INS_SOLUTION_GOOD,INS_RTKFIXED,17.59228787883,78.12172245044,530.6211,-76.2000,0.0727,2.2017,0.0225,0.343903154,0.594200048,86.326222389,0.6628,0.6284,1.2733,0.0126,0.0116,0.0097,0.0175,0.0174,0.6005,ab000342,0*0d157fb5
#INSPVAXA,FILE,0,31.5,FINESTEERING,2319,306592.750,02000000,46eb,17139;INS_SOLUTION_GOOD,INS_RTKFIXED,17.59228791255,78.12172349959,530.6222,-76.2000,0.0775,2.2564,0.0232,0.348397296,0.587773843,86.313587671,0.6628,0.6284,1.2733,0.0126,0.0116,0.0097,0.0175,0.0174,0.6005,ab000342,0*039e78bd
#INSPVAXA,FILE,0,31.5,FINESTEERING,2319,306592.800,02000000,46eb,17139;INS_SOLUTION_GOOD,INS_RTKFIXED,17.59228794754,78.12172457434,530.6233,-76.2000,0.0791,2.3095,0.0181,0.359923098,0.585840170,86.298264252,0.6628,0.6284,1.2733,0.0126,0.0116,0.0097,0.0175,0.0174,0.6005,ab000342,0*7fbdcaf2
#INSPVAXA,FILE,0,31.5,FINESTEERING,2319,306592.850,02000000,46eb,17139;INS_SOLUTION_GOOD,INS_RTKFIXED,17.59228798333,78.12172567464,530.6242,-76.2000,0.0811,2.3650,0.0170,0.366557545,0.589812716,86.282802857,0.6628,0.6284,1.2733,0.0126,0.0116,0.0097,0.0175,0.0174,0.6005,ab000342,0*83c5fce4
#INSPVAXA,FILE,0,31.5,FINESTEERING,2319,306592.900,02000000,46eb,17139;INS_SOLUTION_GOOD,INS_RTKFIXED,17.59228802005,78.12172680080,530.6250,-76.2000,0.0834,2.4205,0.0165,0.380187570,0.586588128,86.269189374,0.6628,0.6284,1.2733,0.0126,0.0116,0.0097,0.0175,0.0174,0.6005,ab000342,0*1ea6ad0d
#INSPVAXA,FILE,0,31.5,FINESTEERING,2319,306592.950,02000000,46eb,17139;INS_SOLUTION_GOOD,INS_RTKFIXED,17.59228805864,78.12172795301,530.6258,-76.2000,0.0891,2.4746,0.0161,0.388841456,0.590516019,86.258893173,0.6628,0.6284,1.2733,0.0126,0.0116,0.0097,0.0175,0.0174,0.6005,ab000342,0*ba250557
#INSPVAXA,FILE,0,31.5,FINESTEERING,2319,306593.000,02000000,46eb,17139;INS_SOLUTION_GOOD,INS_RTKFIXED,17.59228809876,78.12172913149,530.6266,-76.2000,0.0916,2.5303,0.0187,0.394655278,0.597864370,86.250896956,0.6628,0.6284,1.2733,0.0126,0.0116,0.0097,0.0175,0.0174,0.6005,ab000342,0*35a9e9d3
#INSPVAXA,FILE,0,31.5,FINESTEERING,2319,306593.050,02000000,46eb,17139;INS_SOLUTION_GOOD,INS_RTKFIXED,17.59228814145,78.12173033514,530.6275,-76.2000,0.0946,2.5862,0.0201,0.395440059,0.605337169,86.244807573,0.6631,0.6283,1.2732,0.0158,0.0136,0.0114,0.0181,0.0180,0.6009,ab000342,0*1775591f
#INSPVAXA,FILE,0,31.0,FINESTEERING,2319,306593.100,02000000,46eb,17139;INS_SOLUTION_GOOD,INS_RTKFIXED,17.59228818626,78.12173156330,530.6284,-76.2000,0.0960,2.6372,0.0202,0.390571322,0.601732611,86.236981187,0.6631,0.6283,1.2732,0.0158,0.0136,0.0114,0.0181,0.0180,0.6009,ab000342,0*5a20ac86
#INSPVAXA,FILE,0,31.0,FINESTEERING,2319,306593.150,02000000,46eb,17139;INS_SOLUTION_GOOD,INS_RTKFIXED,17.59228823182,78.12173281592,530.6295,-76.2000,0.0973,2.6876,0.0252,0.369384187,0.588290751,86.226916607,0.6631,0.6283,1.2732,0.0158,0.0136,0.0114,0.0181,0.0180,0.6009,ab000342,0*5e1ab200
#INSPVAXA,FILE,0,31.0,FINESTEERING,2319,306593.200,02000000,46eb,17139;INS_SOLUTION_GOOD,INS_RTKFIXED,17.59228827865,78.12173409084,530.6308,-76.2000,0.1013,2.7344,0.0251,0.357541645,0.576595495,86.212068421,0.6631,0.6283,1.2732,0.0158,0.0136,0.0114,0.0181,0.0180,0.6009,ab000342,0*65cd3425
#INSPVAXA,FILE,0,31.0,FINESTEERING,2319,306593.250,02000000,46eb,17139;INS_SOLUTION_GOOD,INS_RTKFIXED,17.59228832576,78.12173538786,530.6321,-76.2000,0.1000,2.7815,0.0258,0.373833927,0.565757191,86.193003900,0.6631,0.6283,1.2732,0.0158,0.0136,0.0114,0.0181,0.0180,0.6009,ab000342,0*0d5243c7
#INSPVAXA,FILE,0,31.0,FINESTEERING,2319,306593.300,02000000,46eb,17139;INS_SOLUTION_GOOD,INS_RTKFIXED,17.59228837183,78.12173670719,530.6332,-76.2000,0.0972,2.8257,0.0190,0.370482778,0.565103523,86.174995429,0.6631,0.6283,1.2732,0.0158,0.0136,0.0114,0.0181,0.0180,0.6009,ab000342,0*d3104e91
#INSPVAXA,FILE,0,31.0,FINESTEERING,2319,306593.350,02000000,46eb,17139;INS_SOLUTION_GOOD,INS_RTKFIXED,17.59228841876,78.12173804525,530.6345,-76.2000,0.1026,2.8632,0.0304,0.366427550,0.564649589,86.159724899,0.6631,0.6283,1.2732,0.0158,0.0136,0.0114,0.0181,0.0180,0.6009,ab000342,0*7d8a0b84
#INSPVAXA,FILE,0,31.0,FINESTEERING,2319,306593.400,02000000,46eb,17139;INS_SOLUTION_GOOD,INS_RTKFIXED,17.59228846848,78.12173940016,530.6362,-76.2000,0.1097,2.8970,0.0381,0.385112743,0.539557199,86.153689639,0.6631,0.6283,1.2732,0.0158,0.0136,0.0114,0.0181,0.0180,0.6009,ab000342,0*c1680bff
#INSPVAXA,FILE,0,31.0,FINESTEERING,2319,306593.450,02000000,46eb,17139;INS_SOLUTION_GOOD,INS_RTKFIXED,17.59228852017,78.12174077365,530.6379,-76.2000,0.1131,2.9396,0.0313,0.378153231,0.518523633,86.150408677,0.6631,0.6283,1.2732,0.0158,0.0136,0.0114,0.0181,0.0180,0.6009,ab000342,0*99500e49
#INSPVAXA,FILE,0,31.0,FINESTEERING,2319,306593.500,02000000,46eb,17139;INS_SOLUTION_GOOD,INS_RTKFIXED,17.59228857298,78.12174216625,530.6393,-76.2000,0.1145,2.9810,0.0267,0.384077524,0.512002544,86.144262793,0.6631,0.6283,1.2732,0.0158,0.0136,0.0114,0.0181,0.0180,0.6009,ab000342,0*8181086e
#INSPVAXA,FILE,0,31.0,FINESTEERING,2319,306593.550,02000000,46eb,17139;INS_SOLUTION_GOOD,INS_RTKFIXED,17.59228862508,78.12174357910,530.6404,-76.2000,0.1114,3.0239,0.0190,0.390149957,0.518509616,86.128406940,0.6631,0.6283,1.2732,0.0158,0.0136,0.0114,0.0181,0.0180,0.6009,ab000342,0*ab61e6e1
#INSPVAXA,FILE,0,31.0,FINESTEERING,2319,306593.600,02000000,46eb,17139;INS_SOLUTION_GOOD,INS_RTKFIXED,17.59228867754,78.12174501170,530.6415,-76.2000,0.1150,3.0656,0.0234,0.395008969,0.537286629,86.110623833,0.6631,0.6283,1.2732,0.0158,0.0136,0.0114,0.0181,0.0180,0.6009,ab000342,0*4a7d4093
#INSPVAXA,FILE,0,31.0,FINESTEERING,2319,306593.650,02000000,46eb,17139;INS_SOLUTION_GOOD,INS_RTKFIXED,17.59228873134,78.12174646383,530.6425,-76.2000,0.1192,3.1076,0.0242,0.377288041,0.542901711,86.098085266,0.6631,0.6283,1.2732,0.0158,0.0136,0.0114,0.0181,0.0180,0.6009,ab000342,0*e912f20a
#INSPVAXA,FILE,0,31.0,FINESTEERING,2319,306593.700,02000000,46eb,17139;INS_SOLUTION_GOOD,INS_RTKFIXED,17.59228878853,78.12174793494,530.6438,-76.2000,0.1273,3.1463,0.0261,0.355783229,0.536382270,86.096619996,0.6631,0.6283,1.2732,0.0158,0.0136,0.0114,0.0181,0.0180,0.6009,ab000342,0*6c8bf34c
#INSPVAXA,FILE,0,31.0,FINESTEERING,2319,306593.750,02000000,46eb,17139;INS_SOLUTION_GOOD,INS_RTKFIXED,17.59228884758,78.12174942502,530.6450,-76.2000,0.1293,3.1848,0.0239,0.357138684,0.524154202,86.097678589,0.6631,0.6283,1.2732,0.0158,0.0136,0.0114,0.0181,0.0180,0.6009,ab000342,0*2dc32aac
#INSPVAXA,FILE,0,31.0,FINESTEERING,2319,306593.800,02000000,46eb,17139;INS_SOLUTION_GOOD,INS_RTKFIXED,17.59228890617,78.12175093282,530.6462,-76.2000,0.1257,3.2242,0.0255,0.339918562,0.530619688,86.096859298,0.6631,0.6283,1.2732,0.0158,0.0136,0.0114,0.0181,0.0180,0.6009,ab000342,0*2a5adf88
#INSPVAXA,FILE,0,31.0,FINESTEERING,2319,306593.850,02000000,46eb,17139;INS_SOLUTION_GOOD,INS_RTKFIXED,17.59228896407,78.12175245754,530.6478,-76.2000,0.1238,3.2565,0.0330,0.355543398,0.516565929,86.089055306,0.6631,0.6283,1.2732,0.0158,0.0136,0.0114,0.0181,0.0180,0.6009,ab000342,0*eadf4fc2
#INSPVAXA,FILE,0,31.0,FINESTEERING,2319,306593.900,02000000,46eb,17139;INS_SOLUTION_GOOD,INS_RTKFIXED,17.59228902004,78.12175400040,530.6493,-76.2000,0.1187,3.2971,0.0267,0.360430513,0.515880478,86.078262401,0.6631,0.6283,1.2732,0.0158,0.0136,0.0114,0.0181,0.0180,0.6009,ab000342,0*f52b19eb
#INSPVAXA,FILE,0,31.0,FINESTEERING,2319,306593.950,02000000,46eb,17139;INS_SOLUTION_GOOD,INS_RTKFIXED,17.59228907643,78.12175555964,530.6509,-76.2000,0.1253,3.3321,0.0341,0.362209193,0.515635536,86.069567127,0.6631,0.6283,1.2732,0.0158,0.0136,0.0114,0.0181,0.0180,0.6009,ab000342,0*f28ff7ce
#INSPVAXA,FILE,0,31.0,FINESTEERING,2319,306594.000,02000000,46eb,17139;INS_SOLUTION_GOOD,INS_RTKFIXED,17.59228913553,78.12175713732,530.6522,-76.2000,0.1311,3.3693,0.0271,0.398257566,0.495693326,86.065125894,0.6631,0.6283,1.2732,0.0158,0.0136,0.0114,0.0181,0.0180,0.6009,ab000342,0*67e6a435
#INSPVAXA,FILE,0,31.0,FINESTEERING,2319,306594.050,02000000,46eb,17139;INS_SOLUTION_GOOD,INS_RTKFIXED,17.59228919917,78.12175873129,530.6539,-76.2000,0.1347,3.4091,0.0309,0.401784974,0.497238884,86.065175169,0.6642,0.6290,1.2725,0.0181,0.0158,0.0139,0.0186,0.0186,0.6013,ab000342,0*53afb728
#INSPVAXA,FILE,0,31.0,FINESTEERING,2319,306594.100,02000000,46eb,17139;INS_SOLUTION_GOOD,INS_RTKFIXED,17.59228926770,78.12176034154,530.6554,-76.2000,0.1375,3.4507,0.0278,0.417961735,0.487666569,86.059330492,0.6642,0.6290,1.2725,0.0181,0.0158,0.0139,0.0186,0.0186,0.6013,ab000342,0*70a34244
#INSPVAXA,FILE,0,31.5,FINESTEERING,2319,306594.150,02000000,46eb,17139;INS_SOLUTION_GOOD,INS_RTKFIXED,17.59228933751,78.12176197210,530.6567,-76.2000,0.1395,3.4924,0.0187,0.410268782,0.492275392,86.052015832,0.6642,0.6290,1.2725,0.0181,0.0158,0.0139,0.0186,0.0186,0.6013,ab000342,0*10fb4ae4
#INSPVAXA,FILE,0,31.5,FINESTEERING,2319,306594.200,02000000,46eb,17139;INS_SOLUTION_GOOD,INS_RTKFIXED,17.59228940810,78.12176362213,530.6577,-76.2000,0.1414,3.5330,0.0169,0.411824205,0.519450730,86.039159321,0.6642,0.6290,1.2725,0.0181,0.0158,0.0139,0.0186,0.0186,0.6013,ab000342,0*9a97101f
#INSPVAXA,FILE,0,31.5,FINESTEERING,2319,306594.250,02000000,46eb,17139;INS_SOLUTION_GOOD,INS_RTKFIXED,17.59228947989,78.12176528838,530.6591,-76.2000,0.1448,3.5663,0.0280,0.390055598,0.539180159,86.029002793,0.6642,0.6290,1.2725,0.0181,0.0158,0.0139,0.0186,0.0186,0.6013,ab000342,0*87d94d6f
#INSPVAXA,FILE,0,31.5,FINESTEERING,2319,306594.300,02000000,46eb,17139;INS_SOLUTION_GOOD,INS_RTKFIXED,17.59228955292,78.12176697336,530.6607,-76.2000,0.1483,3.6028,0.0333,0.368820918,0.532460603,86.023078111,0.6642,0.6290,1.2725,0.0181,0.0158,0.0139,0.0186,0.0186,0.6013,ab000342,0*294b638c
#INSPVAXA,FILE,0,31.5,FINESTEERING,2319,306594.350,02000000,46eb,17139;INS_SOLUTION_GOOD,INS_RTKFIXED,17.59228962797,78.12176867645,530.6625,-76.2000,0.1546,3.6462,0.0275,0.329089987,0.552590706,86.021297949,0.6642,0.6290,1.2725,0.0181,0.0158,0.0139,0.0186,0.0186,0.6013,ab000342,0*017ec753
#INSPVAXA,FILE,0,31.5,FINESTEERING,2319,306594.400,02000000,46eb,17139;INS_SOLUTION_GOOD,INS_RTKFIXED,17.59228970388,78.12177039672,530.6641,-76.2000,0.1547,3.6803,0.0336,0.358583806,0.537066295,86.018499852,0.6642,0.6290,1.2725,0.0181,0.0158,0.0139,0.0186,0.0186,0.6013,ab000342,0*84a6ac08
#INSPVAXA,FILE,0,31.5,FINESTEERING,2319,306594.450,02000000,46eb,17139;INS_SOLUTION_GOOD,INS_RTKFIXED,17.59228977879,78.12177213741,530.6657,-76.2000,0.1520,3.7249,0.0232,0.354866994,0.547443522,86.013768864,0.6642,0.6290,1.2725,0.0181,0.0158,0.0139,0.0186,0.0186,0.6013,ab000342,0*c3ad5f56
#INSPVAXA,FILE,0,31.5,FINESTEERING,2319,306594.500,02000000,46eb,17139;INS_SOLUTION_GOOD,INS_RTKFIXED,17.59228985354,78.12177389904,530.6672,-76.2000,0.1533,3.7741,0.0312,0.342134366,0.566791070,86.010789026,0.6642,0.6290,1.2725,0.0181,0.0158,0.0139,0.0186,0.0186,0.6013,ab000342,0*7cf39469
#INSPVAXA,FILE,0,31.5,FINESTEERING,2319,306594.550,02000000,46eb,17139;INS_SOLUTION_GOOD,INS_RTKFIXED,17.59228993023,78.12177568355,530.6684,-76.2000,0.1610,3.8236,0.0172,0.326229982,0.578813910,86.003079490,0.6642,0.6290,1.2725,0.0181,0.0158,0.0139,0.0186,0.0186,0.6013,ab000342,0*c9ac52b3
#INSPVAXA,FILE,0,31.5,FINESTEERING,2319,306594.600,02000000,46eb,17139;INS_SOLUTION_GOOD,INS_RTKFIXED,17.59229000997,78.12177749402,530.6694,-76.2000,0.1667,3.8784,0.0166,0.316737291,0.610215066,85.994879934,0.6642,0.6290,1.2725,0.0181,0.0158,0.0139,0.0186,0.0186,0.6013,ab000342,0*2d3b08d7
#INSPVAXA,FILE,0,31.5,FINESTEERING,2319,306594.650,02000000,46eb,17139;INS_SOLUTION_GOOD,INS_RTKFIXED,17.59229009018,78.12177933164,530.6703,-76.2000,0.1662,3.9402,0.0154,0.318085087,0.662537674,85.982464301,0.6642,0.6290,1.2725,0.0181,0.0158,0.0139,0.0186,0.0186,0.6013,ab000342,0*9ffa1dff
#INSPVAXA,FILE,0,31.5,FINESTEERING,2319,306594.700,02000000,46eb,17139;INS_SOLUTION_GOOD,INS_RTKFIXED,17.59229017053,78.12178119588,530.6710,-76.2000,0.1674,3.9948,0.0152,0.317969793,0.694502135,85.968028041,0.6642,0.6290,1.2725,0.0181,0.0158,0.0139,0.0186,0.0186,0.6013,ab000342,0*6a81659d
#INSPVAXA,FILE,0,31.5,FINESTEERING,2319,306594.750,02000000,46eb,17139;INS_SOLUTION_GOOD,INS_RTKFIXED,17.59229025216,78.12178308759,530.6720,-76.2000,0.1717,4.0525,0.0194,0.293486228,0.706372788,85.959111581,0.6642,0.6290,1.2725,0.0181,0.0158,0.0139,0.0186,0.0186,0.6013,ab000342,0*6360a359
#INSPVAXA,FILE,0,31.5,FINESTEERING,2319,306594.800,02000000,46eb,17139;INS_SOLUTION_GOOD,INS_RTKFIXED,17.59229033618,78.12178500497,530.6734,-76.2000,0.1796,4.1051,0.0319,0.295599036,0.706697933,85.956902438,0.6642,0.6290,1.2725,0.0181,0.0158,0.0139,0.0186,0.0186,0.6013,ab000342,0*fad27f2f
#INSPVAXA,FILE,0,31.5,FINESTEERING,2319,306594.850,02000000,46eb,17139;INS_SOLUTION_GOOD,INS_RTKFIXED,17.59229042151,78.12178694607,530.6756,-76.2000,0.1796,4.1525,0.0546,0.325541434,0.696054562,85.957273337,0.6642,0.6290,1.2725,0.0181,0.0158,0.0139,0.0186,0.0186,0.6013,ab000342,0*8785d041
#INSPVAXA,FILE,0,31.5,FINESTEERING,2319,306594.900,02000000,46eb,17139;INS_SOLUTION_GOOD,INS_RTKFIXED,17.59229050516,78.12178891098,530.6783,-76.2000,0.1746,4.2047,0.0577,0.341520018,0.689565831,85.953943917,0.6642,0.6290,1.2725,0.0181,0.0158,0.0139,0.0186,0.0186,0.6013,ab000342,0*28637257
#INSPVAXA,FILE,0,31.5,FINESTEERING,2319,306594.950,02000000,46eb,17139;INS_SOLUTION_GOOD,INS_RTKFIXED,17.59229058821,78.12179089968,530.6811,-76.2000,0.1745,4.2547,0.0604,0.355807972,0.675750742,85.948980532,0.6642,0.6290,1.2725,0.0181,0.0158,0.0139,0.0186,0.0186,0.6013,ab000342,0*a446bd3f
#INSPVAXA,FILE,0,31.5,FINESTEERING,2319,306595.000,02000000,46eb,17139;INS_SOLUTION_GOOD,INS_RTKFIXED,17.59229067238,78.12179291131,530.6840,-76.2000,0.1790,4.3020,0.0560,0.349779682,0.658121140,85.938947403,0.6642,0.6290,1.2725,0.0181,0.0158,0.0139,0.0186,0.0186,0.6013,ab000342,0*1299708b
#INSPVAXA,FILE,0,31.5,FINESTEERING,2319,306595.050,02000000,46eb,17139;INS_SOLUTION_GOOD,INS_RTKFIXED,17.59229075912,78.12179494717,530.6867,-76.2000,0.1863,4.3513,0.0499,0.370096361,0.635096091,85.928783849,0.6661,0.6303,1.2710,0.0202,0.0179,0.0168,0.0191,0.0191,0.6015,ab000342,0*77dc5940
#INSPVAXA,FILE,0,31.5,FINESTEERING,2319,306595.100,02000000,46eb,17139;INS_SOLUTION_GOOD,INS_RTKFIXED,17.59229084575,78.12179700837,530.6888,-76.2000,0.1897,4.4021,0.0373,0.380973402,0.641076954,85.920911007,0.6661,0.6303,1.2710,0.0202,0.0179,0.0168,0.0191,0.0191,0.6015,ab000342,0*ecb13a88
#INSPVAXA,FILE,0,31.5,FINESTEERING,2319,306595.150,02000000,46eb,17139;INS_SOLUTION_GOOD,INS_RTKFIXED,17.59229093380,78.12179909167,530.6907,-76.2000,0.1944,4.4478,0.0395,0.359994126,0.632034769,85.916216813,0.6661,0.6303,1.2710,0.0202,0.0179,0.0168,0.0191,0.0191,0.6015,ab000342,0*8aaed31d
#INSPVAXA,FILE,0,31.5,FINESTEERING,2319,306595.200,02000000,46eb,17139;INS_SOLUTION_GOOD,INS_RTKFIXED,17.59229102507,78.12180119753,530.6923,-76.2000,0.2034,4.4961,0.0332,0.317140761,0.626071692,85.918485317,0.6661,0.6303,1.2710,0.0202,0.0179,0.0168,0.0191,0.0191,0.6015,ab000342,0*7abf2ae3
#INSPVAXA,FILE,0,31.5,FINESTEERING,2319,306595.250,02000000,46eb,17139;INS_SOLUTION_GOOD,INS_RTKFIXED,17.59229111848,78.12180332685,530.6939,-76.2000,0.2050,4.5448,0.0317,0.289816725,0.620555928,85.922111369,0.6661,0.6303,1.2710,0.0202,0.0179,0.0168,0.0191,0.0191,0.6015,ab000342,0*1116acd5
#INSPVAXA,FILE,0,31.5,FINESTEERING,2319,306595.300,02000000,46eb,17139;INS_SOLUTION_GOOD,INS_RTKFIXED,17.59229121184,78.12180547743,530.6956,-76.2000,0.2029,4.5915,0.0354,0.275184383,0.636688250,85.923077651,0.6661,0.6303,1.2710,0.0202,0.0179,0.0168,0.0191,0.0191,0.6015,ab000342,0*079e77a5
#INSPVAXA,FILE,0,31.5,FINESTEERING,2319,306595.350,02000000,46eb,17139;INS_SOLUTION_GOOD,INS_RTKFIXED,17.59229130457,78.12180765187,530.6970,-76.2000,0.2006,4.6411,0.0270,0.277115099,0.666780986,85.920467504,0.6661,0.6303,1.2710,0.0202,0.0179,0.0168,0.0191,0.0191,0.6015,ab000342,0*08aa4be5
#INSPVAXA,FILE,0,31.5,FINESTEERING,2319,306595.400,02000000,46eb,17139;INS_SOLUTION_GOOD,INS_RTKFIXED,17.59229139719,78.12180984790,530.6987,-76.2000,0.2002,4.6847,0.0434,0.295383067,0.704960172,85.918298044,0.6661,0.6303,1.2710,0.0202,0.0179,0.0168,0.0191,0.0191,0.6015,ab000342,0*12a0d8eb
#INSPVAXA,FILE,0,31.5,FINESTEERING,2319,306595.450,02000000,46eb,17139;INS_SOLUTION_GOOD,INS_RTKFIXED,17.59229148877,78.12181206550,530.7012,-76.2000,0.1987,4.7314,0.0540,0.306280673,0.706882076,85.911271929,0.6661,0.6303,1.2710,0.0202,0.0179,0.0168,0.0191,0.0191,0.6015,ab000342,0*fec748e2
#INSPVAXA,FILE,0,31.5,FINESTEERING,2319,306595.500,02000000,46eb,17139;INS_SOLUTION_GOOD,INS_RTKFIXED,17.59229158157,78.12181430341,530.7040,-76.2000,0.2041,4.7746,0.0559,0.307441397,0.706437331,85.908740480,0.6661,0.6303,1.2710,0.0202,0.0179,0.0168,0.0191,0.0191,0.6015,ab000342,0*0cd85400
#INSPVAXA,FILE,0,31.5,FINESTEERING,2319,306595.550,02000000,46eb,17139;INS_SOLUTION_GOOD,INS_RTKFIXED,17.59229167640,78.12181656298,530.7069,-76.2000,0.2104,4.8211,0.0612,0.305603509,0.670771517,85.907762316,0.6661,0.6303,1.2710,0.0202,0.0179,0.0168,0.0191,0.0191,0.6015,ab000342,0*14ac4127
#INSPVAXA,FILE,0,31.5,FINESTEERING,2319,306595.600,02000000,46eb,17139;INS_SOLUTION_GOOD,INS_RTKFIXED,17.59229177328,78.12181884319,530.7093,-76.2000,0.2137,4.8625,0.0457,0.276048108,0.664231149,85.911157463,0.6661,0.6303,1.2710,0.0202,0.0179,0.0168,0.0191,0.0191,0.6015,ab000342,0*e2b54842
#INSPVAXA,FILE,0,31.5,FINESTEERING,2319,306595.650,02000000,46eb,17139;INS_SOLUTION_GOOD,INS_RTKFIXED,17.59229187175,78.12182114488,530.7119,-76.2000,0.2156,4.9088,0.0494,0.276696380,0.651081688,85.912451185,0.6661,0.6303,1.2710,0.0202,0.0179,0.0168,0.0191,0.0191,0.6015,ab000342,0*78bce26d
#INSPVAXA,FILE,0,31.5,FINESTEERING,2319,306595.700,02000000,46eb,17139;INS_SOLUTION_GOOD,INS_RTKFIXED,17.59229196936,78.12182346698,530.7138,-76.2000,0.2131,4.9529,0.0344,0.285938471,0.672893652,85.911836160,0.6661,0.6303,1.2710,0.0202,0.0179,0.0168,0.0191,0.0191,0.6015,ab000342,0*812e8a1c
#INSPVAXA,FILE,0,31.5,FINESTEERING,2319,306595.750,02000000,46eb,17139;INS_SOLUTION_GOOD,INS_RTKFIXED,17.59229206712,78.12182580919,530.7155,-76.2000,0.2146,4.9925,0.0359,0.280510997,0.688283949,85.910337944,0.6661,0.6303,1.2710,0.0202,0.0179,0.0168,0.0191,0.0191,0.6015,ab000342,0*951afbda
#INSPVAXA,FILE,0,31.5,FINESTEERING,2319,306595.800,02000000,46eb,17139;INS_SOLUTION_GOOD,INS_RTKFIXED,17.59229216665,78.12182816869,530.7178,-76.2000,0.2192,5.0284,0.0534,0.316360286,0.705488302,85.911856916,0.6661,0.6303,1.2710,0.0202,0.0179,0.0168,0.0191,0.0191,0.6015,ab000342,0*639fda43
#INSPVAXA,FILE,0,31.5,FINESTEERING,2319,306595.850,02000000,46eb,17139;INS_SOLUTION_GOOD,INS_RTKFIXED,17.59229226639,78.12183054626,530.7204,-76.2000,0.2178,5.0677,0.0562,0.338885744,0.722301235,85.914322244,0.6661,0.6303,1.2710,0.0202,0.0179,0.0168,0.0191,0.0191,0.6015,ab000342,0*0865d7b7
#INSPVAXA,FILE,0,31.5,FINESTEERING,2319,306595.900,02000000,46eb,17139;INS_SOLUTION_GOOD,INS_RTKFIXED,17.59229236584,78.12183293921,530.7237,-76.2000,0.2186,5.0961,0.0751,0.342644154,0.707290284,85.914240003,0.6661,0.6303,1.2710,0.0202,0.0179,0.0168,0.0191,0.0191,0.6015,ab000342,0*1780eb35
#INSPVAXA,FILE,0,31.5,FINESTEERING,2319,306595.950,02000000,46eb,17139;INS_SOLUTION_GOOD,INS_RTKFIXED,17.59229246642,78.12183534904,530.7271,-76.2000,0.2207,5.1349,0.0620,0.318584847,0.680883043,85.915626910,0.6661,0.6303,1.2710,0.0202,0.0179,0.0168,0.0191,0.0191,0.6015,ab000342,0*4c387fdf
#INSPVAXA,FILE,0,31.5,FINESTEERING,2319,306596.000,02000000,46eb,17139;INS_SOLUTION_GOOD,INS_RTKFIXED,17.59229256834,78.12183777486,530.7306,-76.2000,0.2247,5.1683,0.0728,0.305144915,0.648049678,85.919046662,0.6661,0.6303,1.2710,0.0202,0.0179,0.0168,0.0191,0.0191,0.6015,ab000342,0*8fbf434b
#INSPVAXA,FILE,0,31.5,FINESTEERING,2319,306596.050,02000000,46eb,17139;INS_SOLUTION_GOOD,INS_RTKFIXED,17.59229267478,78.12184021678,530.7334,-76.2000,0.2241,5.2024,0.0476,0.288549042,0.634256433,85.922314392,0.6689,0.6329,1.2707,0.0207,0.0186,0.0183,0.0195,0.0197,0.6016,ab000342,0*f9b0c35c
#INSPVAXA,FILE,0,30.5,FINESTEERING,2319,306596.100,02000000,46eb,17139;INS_SOLUTION_GOOD,INS_RTKFIXED,17.59229278793,78.12184267029,530.7365,-76.2000,0.2303,5.2204,0.0666,0.283756866,0.621403293,85.930120119,0.6689,0.6329,1.2707,0.0207,0.0186,0.0183,0.0195,0.0197,0.6016,ab000342,0*147428cb
#INSPVAXA,FILE,0,30.5,FINESTEERING,2319,306596.150,02000000,46eb,17139;INS_SOLUTION_GOOD,INS_RTKFIXED,17.59229290160,78.12184513596,530.7395,-76.2000,0.2285,5.2468,0.0528,0.294323199,0.615984903,85.937890451,0.6689,0.6329,1.2707,0.0207,0.0186,0.0183,0.0195,0.0197,0.6016,ab000342,0*020d7ca0
#INSPVAXA,FILE,0,30.5,FINESTEERING,2319,306596.200,02000000,46eb,17139;INS_SOLUTION_GOOD,INS_RTKFIXED,17.59229301528,78.12184761401,530.7424,-76.2000,0.2284,5.2739,0.0520,0.306213834,0.626524960,85.946278401,0.6689,0.6329,1.2707,0.0207,0.0186,0.0183,0.0195,0.0197,0.6016,ab000342,0*4488b6bd
#INSPVAXA,FILE,0,30.5,FINESTEERING,2319,306596.250,02000000,46eb,17139;INS_SOLUTION_GOOD,INS_RTKFIXED,17.59229312788,78.12185010623,530.7451,-76.2000,0.2258,5.3077,0.0563,0.331806121,0.637121309,85.952360576,0.6689,0.6329,1.2707,0.0207,0.0186,0.0183,0.0195,0.0197,0.6016,ab000342,0*5b76e9a6
#INSPVAXA,FILE,0,30.5,FINESTEERING,2319,306596.300,02000000,46eb,17139;INS_SOLUTION_GOOD,INS_RTKFIXED,17.59229323867,78.12185261157,530.7482,-76.2000,0.2223,5.3327,0.0612,0.330528068,0.636531421,85.956904893,0.6689,0.6329,1.2707,0.0207,0.0186,0.0183,0.0195,0.0197,0.6016,ab000342,0*07089e16
#INSPVAXA,FILE,0,30.5,FINESTEERING,2319,306596.350,02000000,46eb,17139;INS_SOLUTION_GOOD,INS_RTKFIXED,17.59229334869,78.12185512989,530.7516,-76.2000,0.2229,5.3605,0.0675,0.328425418,0.621627380,85.961656313,0.6689,0.6329,1.2707,0.0207,0.0186,0.0183,0.0195,0.0197,0.6016,ab000342,0*d5a481a6
#INSPVAXA,FILE,0,30.5,FINESTEERING,2319,306596.400,02000000,46eb,17139;INS_SOLUTION_GOOD,INS_RTKFIXED,17.59229345981,78.12185765946,530.7549,-76.2000,0.2277,5.3818,0.0577,0.335475264,0.615432933,85.968049164,0.6689,0.6329,1.2707,0.0207,0.0186,0.0183,0.0195,0.0197,0.6016,ab000342,0*65475009
#INSPVAXA,FILE,0,30.5,FINESTEERING,2319,306596.450,02000000,46eb,17139;INS_SOLUTION_GOOD,INS_RTKFIXED,17.59229357281,78.12186019996,530.7582,-76.2000,0.2304,5.4052,0.0693,0.381686911,0.608351541,85.978531640,0.6689,0.6329,1.2707,0.0207,0.0186,0.0183,0.0195,0.0197,0.6016,ab000342,0*fa9e37d5
#INSPVAXA,FILE,0,30.5,FINESTEERING,2319,306596.500,02000000,46eb,17139;INS_SOLUTION_GOOD,INS_RTKFIXED,17.59229368518,78.12186275165,530.7617,-76.2000,0.2288,5.4296,0.0688,0.377332562,0.597299655,85.985763323,0.6689,0.6329,1.2707,0.0207,0.0186,0.0183,0.0195,0.0197,0.6016,ab000342,0*72b1c021
#INSPVAXA,FILE,0,30.5,FINESTEERING,2319,306596.550,02000000,46eb,17139;INS_SOLUTION_GOOD,INS_RTKFIXED,17.59229379772,78.12186531553,530.7652,-76.2000,0.2298,5.4576,0.0662,0.366213826,0.589955603,85.991278784,0.6689,0.6329,1.2707,0.0207,0.0186,0.0183,0.0195,0.0197,0.6016,ab000342,0*fb8af274
#INSPVAXA,FILE,0,30.5,FINESTEERING,2319,306596.600,02000000,46eb,17139;INS_SOLUTION_GOOD,INS_RTKFIXED,17.59229391177,78.12186789100,530.7686,-76.2000,0.2328,5.4788,0.0575,0.351907875,0.571051489,85.994979688,0.6689,0.6329,1.2707,0.0207,0.0186,0.0183,0.0195,0.0197,0.6016,ab000342,0*0ad00c3c
#INSPVAXA,FILE,0,30.5,FINESTEERING,2319,306596.650,02000000,46eb,17139;INS_SOLUTION_GOOD,INS_RTKFIXED,17.59229402648,78.12187047706,530.7717,-76.2000,0.2351,5.5007,0.0592,0.340570562,0.564041184,85.999728565,0.6689,0.6329,1.2707,0.0207,0.0186,0.0183,0.0195,0.0197,0.6016,ab000342,0*1c5b1264
#INSPVAXA,FILE,0,30.5,FINESTEERING,2319,306596.700,02000000,46eb,17139;INS_SOLUTION_GOOD,INS_RTKFIXED,17.59229414127,78.12187307497,530.7751,-76.2000,0.2358,5.5285,0.0651,0.326120174,0.542854129,86.008813725,0.6689,0.6329,1.2707,0.0207,0.0186,0.0183,0.0195,0.0197,0.6016,ab000342,0*8c5f1711
#INSPVAXA,FILE,0,30.5,FINESTEERING,2319,306596.750,02000000,46eb,17139;INS_SOLUTION_GOOD,INS_RTKFIXED,17.59229425528,78.12187568638,530.7781,-76.2000,0.2357,5.5596,0.0537,0.320313052,0.526998504,86.018406017,0.6689,0.6329,1.2707,0.0207,0.0186,0.0183,0.0195,0.0197,0.6016,ab000342,0*252ace52
#INSPVAXA,FILE,0,30.5,FINESTEERING,2319,306596.800,02000000,46eb,17139;INS_SOLUTION_GOOD,INS_RTKFIXED,17.59229436982,78.12187831093,530.7811,-76.2000,0.2368,5.5877,0.0611,0.319414849,0.496292793,86.029227156,0.6689,0.6329,1.2707,0.0207,0.0186,0.0183,0.0195,0.0197,0.6016,ab000342,0*682534ae
#INSPVAXA,FILE,0,30.5,FINESTEERING,2319,306596.850,02000000,46eb,17139;INS_SOLUTION_GOOD,INS_RTKFIXED,17.59229448376,78.12188094745,530.7844,-76.2000,0.2349,5.6096,0.0640,0.336860263,0.457265083,86.035195795,0.6689,0.6329,1.2707,0.0207,0.0186,0.0183,0.0195,0.0197,0.6016,ab000342,0*659dd1cf
#INSPVAXA,FILE,0,30.5,FINESTEERING,2319,306596.900,02000000,46eb,17139;INS_SOLUTION_GOOD,INS_RTKFIXED,17.59229459755,78.12188359776,530.7875,-76.2000,0.2349,5.6396,0.0587,0.354585140,0.462841192,86.038276543,0.6689,0.6329,1.2707,0.0207,0.0186,0.0183,0.0195,0.0197,0.6016,ab000342,0*5b22d57b
#INSPVAXA,FILE,0,30.5,FINESTEERING,2319,306596.950,02000000,46eb,17139;INS_SOLUTION_GOOD,INS_RTKFIXED,17.59229471094,78.12188626060,530.7907,-76.2000,0.2353,5.6680,0.0611,0.358566532,0.462866443,86.042458076,0.6689,0.6329,1.2707,0.0207,0.0186,0.0183,0.0195,0.0197,0.6016,ab000342,0*3c3d09f9
#INSPVAXA,FILE,0,30.5,FINESTEERING,2319,306597.000,02000000,46eb,17139;INS_SOLUTION_GOOD,INS_RTKFIXED,17.59229482456,78.12188893542,530.7938,-76.2000,0.2371,5.6938,0.0621,0.348067030,0.452523365,86.052341174,0.6689,0.6329,1.2707,0.0207,0.0186,0.0183,0.0195,0.0197,0.6016,ab000342,0*445eb6a0
#INSPVAXA,FILE,0,30.5,FINESTEERING,2319,306597.050,02000000,46eb,17139;INS_SOLUTION_GOOD,INS_RTKFIXED,17.59229494046,78.12189162010,530.7972,-76.2000,0.2406,5.7161,0.0642,0.319146774,0.445156695,86.063832520,0.6715,0.6356,1.2704,0.0197,0.0182,0.0182,0.0199,0.0202,0.6016,ab000342,0*2c68ad2c
#INSPVAXA,FILE,0,30.0,FINESTEERING,2319,306597.100,02000000,46eb,17139;INS_SOLUTION_GOOD,INS_RTKFIXED,17.59229505595,78.12189431542,530.8004,-76.2000,0.2432,5.7446,0.0594,0.339805156,0.434652307,86.075445226,0.6715,0.6356,1.2704,0.0197,0.0182,0.0182,0.0199,0.0202,0.6016,ab000342,0*71926527
#INSPVAXA,FILE,0,30.0,FINESTEERING,2319,306597.150,02000000,46eb,17139;INS_SOLUTION_GOOD,INS_RTKFIXED,17.59229517099,78.12189702492,530.8030,-76.2000,0.2392,5.7751,0.0448,0.369863220,0.455872743,86.084421532,0.6715,0.6356,1.2704,0.0197,0.0182,0.0182,0.0199,0.0202,0.6016,ab000342,0*a092097b
#INSPVAXA,FILE,0,30.0,FINESTEERING,2319,306597.200,02000000,46eb,17139;INS_SOLUTION_GOOD,INS_RTKFIXED,17.59229528425,78.12189974948,530.8049,-76.2000,0.2359,5.8092,0.0291,0.384159653,0.484956602,86.089700181,0.6715,0.6356,1.2704,0.0197,0.0182,0.0182,0.0199,0.0202,0.6016,ab000342,0*c099ab61
#INSPVAXA,FILE,0,30.0,FINESTEERING,2319,306597.250,02000000,46eb,17139;INS_SOLUTION_GOOD,INS_RTKFIXED,17.59229539679,78.12190248750,530.8064,-76.2000,0.2382,5.8357,0.0262,0.380356294,0.512823864,86.094431504,0.6715,0.6356,1.2704,0.0197,0.0182,0.0182,0.0199,0.0202,0.6016,ab000342,0*009ca006
#INSPVAXA,FILE,0,30.0,FINESTEERING,2319,306597.300,02000000,46eb,17139;INS_SOLUTION_GOOD,INS_RTKFIXED,17.59229551114,78.12190523761,530.8079,-76.2000,0.2418,5.8578,0.0391,0.369993308,0.550669398,86.104592306,0.6715,0.6356,1.2704,0.0197,0.0182,0.0182,0.0199,0.0202,0.6016,ab000342,0*2dec0650
#INSPVAXA,FILE,0,30.0,FINESTEERING,2319,306597.350,02000000,46eb,17139;INS_SOLUTION_GOOD,INS_RTKFIXED,17.59229562572,78.12190800018,530.8104,-76.2000,0.2392,5.8841,0.0504,0.350573375,0.561698637,86.114035040,0.6715,0.6356,1.2704,0.0197,0.0182,0.0182,0.0199,0.0202,0.6016,ab000342,0*2ced706e
#INSPVAXA,FILE,0,30.0,FINESTEERING,2319,306597.400,02000000,46eb,17139;INS_SOLUTION_GOOD,INS_RTKFIXED,17.59229574081,78.12191077475,530.8133,-76.2000,0.2419,5.9113,0.0615,0.372020878,0.567116897,86.121328880,0.6715,0.6356,1.2704,0.0197,0.0182,0.0182,0.0199,0.0202,0.6016,ab000342,0*ceae9910
#INSPVAXA,FILE,0,30.0,FINESTEERING,2319,306597.450,02000000,46eb,17139;INS_SOLUTION_GOOD,INS_RTKFIXED,17.59229585549,78.12191356129,530.8170,-76.2000,0.2383,5.9359,0.0777,0.374776355,0.553833289,86.129696035,0.6715,0.6356,1.2704,0.0197,0.0182,0.0182,0.0199,0.0202,0.6016,ab000342,0*f12e3edd
#INSPVAXA,FILE,0,30.0,FINESTEERING,2319,306597.500,02000000,46eb,17139;INS_SOLUTION_GOOD,INS_RTKFIXED,17.59229596956,78.12191635886,530.8211,-76.2000,0.2409,5.9589,0.0779,0.365958622,0.526668945,86.132900467,0.6715,0.6356,1.2704,0.0197,0.0182,0.0182,0.0199,0.0202,0.6016,ab000342,0*f51ba279
#INSPVAXA,FILE,0,30.0,FINESTEERING,2319,306597.550,02000000,46eb,17139;INS_SOLUTION_GOOD,INS_RTKFIXED,17.59229608453,78.12191916839,530.8250,-76.2000,0.2421,5.9831,0.0761,0.372043485,0.506119655,86.138506748,0.6715,0.6356,1.2704,0.0197,0.0182,0.0182,0.0199,0.0202,0.6016,ab000342,0*156b85ef
