#BESTVELA,FILE,0,34.5,FINESTEERING,2319,306585.600,02000800,10a2,17139;SOL_COMPUTED,INS_RTKFIXED,0.000,0.000,0.0061,103.433821,0.0018,0*f9308be9
#BESTVELA,FILE,0,34.5,FINESTEERING,2319,306585.700,02000800,10a2,17139;SOL_COMPUTED,INS_RTKFIXED,0.000,0.000,0.0010,291.086054,-0.0086,0*963651da
#BESTVELA,FILE,0,34.5,FINESTEERING,2319,306585.750,02000800,10a2,17139;SOL_COMPUTED,INS_RTKFIXED,0.000,0.000,0.0143,131.101695,-0.0115,0*963a8851
#BESTVELA,FILE,0,34.5,FINESTEERING,2319,306585.800,02000800,10a2,17139;SOL_COMPUTED,INS_RTKFIXED,0.000,0.000,0.0045,130.918372,-0.0030,0*01e1e4a9
#BESTVELA,FILE,0,34.5,FINESTEERING,2319,306585.900,02000800,10a2,17139;SOL_COMPUTED,INS_RTKFIXED,0.000,0.000,0.0060,184.923180,-0.0025,0*c80b86c3
#BESTVELA,FILE,0,34.5,FINESTEERING,2319,306586.050,02000800,10a2,17139;SOL_COMPUTED,INS_RTKFIXED,0.000,0.000,0.0012,190.486438,-0.0022,0*ce79e8d5
#BESTVELA,FILE,0,34.0,FINESTEERING,2319,306586.150,02000800,10a2,17139;SOL_COMPUTED,INS_RTKFIXED,0.000,0.000,0.0017,173.693669,-0.0007,0*b785c33c
#BESTVELA,FILE,0,34.0,FINESTEERING,2319,306586.300,02000800,10a2,17139;SOL_COMPUTED,INS_RTKFIXED,0.000,0.000,0.0084,163.952387,-0.0030,0*3e8e2f32
#BESTVELA,FILE,0,34.0,FINESTEERING,2319,306586.400,02000800,10a2,17139;SOL_COMPUTED,INS_RTKFIXED,0.000,0.000,0.0055,157.844066,-0.0029,0*304329f0
#BESTVELA,FILE,0,34.0,FINESTEERING,2319,306586.450,02000800,10a2,17139;SOL_COMPUTED,INS_RTKFIXED,0.000,0.000,0.0039,158.002220,-0.0005,0*34e4e0dc
#BESTVELA,FILE,0,34.0,FINESTEERING,2319,306586.550,02000800,10a2,17139;SOL_COMPUTED,INS_RTKFIXED,0.000,0.000,0.0036,213.519837,-0.0021,0*9e0fc4dc
#BESTVELA,FILE,0,34.0,FINESTEERING,2319,306586.700,02000800,10a2,17139;SOL_COMPUTED,INS_RTKFIXED,0.000,0.000,0.0052,356.413442,0.0007,0*b634b139
#BESTVELA,FILE,0,34.0,FINESTEERING,2319,306586.800,02000800,10a2,17139;SOL_COMPUTED,INS_RTKFIXED,0.000,0.000,0.0012,17.214185,0.0006,0*f57f4da3
#BESTVELA,FILE,0,34.0,FINESTEERING,2319,306586.850,02000800,10a2,17139;SOL_COMPUTED,INS_RTKFIXED,0.000,0.000,0.0017,203.262602,0.0009,0*b4d5bced
#BESTVELA,FILE,0,34.0,FINESTEERING,2319,306586.950,02000800,10a2,17139;SOL_COMPUTED,INS_RTKFIXED,0.000,0.000,0.0043,228.749766,-0.0012,0*fbb6796c
#BESTVELA,FILE,0,34.0,FINESTEERING,2319,306587.100,02000800,10a2,17139;SOL_COMPUTED,INS_RTKFIXED,0.000,0.000,0.0013,54.264867,0.0013,0*7ec59518
#BESTVELA,FILE,0,35.5,FINESTEERING,2319,306587.150,02000800,10a2,17139;SOL_COMPUTED,INS_RTKFIXED,0.000,0.000,0.0017,32.301023,0.0023,0*a9f84b09
#BESTVELA,FILE,0,35.5,FINESTEERING,2319,306587.300,02000800,10a2,17139;SOL_COMPUTED,INS_RTKFIXED,0.000,0.000,0.0010,294.276124,-0.0012,0*50dedc9a
#BESTVELA,FILE,0,35.5,FINESTEERING,2319,306587.350,02000800,10a2,17139;SOL_COMPUTED,INS_RTKFIXED,0.000,0.000,0.0008,267.063592,-0.0007,0*5547046d
#BESTVELA,FILE,0,35.5,FINESTEERING,2319,306587.400,02000800,10a2,17139;SOL_COMPUTED,INS_RTKFIXED,0.000,0.000,0.0011,75.823297,0.0019,0*6a990f76
#BESTVELA,FILE,0,35.5,FINESTEERING,2319,306587.450,02000800,10a2,17139;SOL_COMPUTED,INS_RTKFIXED,0.000,0.000,0.0024,88.346939,0.0023,0*eaf413ab
#BESTVELA,FILE,0,35.5,FINESTEERING,2319,306587.650,02000800,10a2,17139;SOL_COMPUTED,INS_RTKFIXED,0.000,0.000,0.0026,178.297284,-0.0003,0*11055e5a
#BESTVELA,FILE,0,35.5,FINESTEERING,2319,306587.800,02000800,10a2,17139;SOL_COMPUTED,INS_RTKFIXED,0.000,0.000,0.0034,52.378189,0.0026,0*39e660c8
#BESTVELA,FILE,0,35.5,FINESTEERING,2319,306587.850,02000800,10a2,17139;SOL_COMPUTED,INS_RTKFIXED,0.000,0.000,0.0033,45.650908,0.0027,0*50b0c209
#BESTVELA,FILE,0,35.5,FINESTEERING,2319,306587.900,02000800,10a2,17139;SOL_COMPUTED,INS_RTKFIXED,0.000,0.000,0.0022,55.845105,0.0013,0*fe48b129
#BESTVELA,FILE,0,35.5,FINESTEERING,2319,306588.100,02000800,10a2,17139;SOL_COMPUTED,INS_RTKFIXED,0.000,0.000,0.0029,114.660993,-0.0004,0*55d0d246
#BESTVELA,FILE,0,36.0,FINESTEERING,2319,306588.150,02000800,10a2,17139;SOL_COMPUTED,INS_RTKFIXED,0.000,0.000,0.0028,40.722430,0.0014,0*5cf14535
#BESTVELA,FILE,0,36.0,FINESTEERING,2319,306588.200,02000800,10a2,17139;SOL_COMPUTED,INS_RTKFIXED,0.000,0.000,0.0025,46.052770,0.0027,0*d46d5253
#BESTVELA,FILE,0,36.0,FINESTEERING,2319,306588.400,02000800,10a2,17139;SOL_COMPUTED,INS_RTKFIXED,0.000,0.000,0.0005,105.860312,0.0011,0*5f61eccc
#BESTVELA,FILE,0,36.0,FINESTEERING,2319,306588.450,02000800,10a2,17139;SOL_COMPUTED,INS_RTKFIXED,0.000,0.000,0.0020,92.388896,0.0016,0*1a0c633e
#BESTVELA,FILE,0,36.0,FINESTEERING,2319,306588.500,02000800,10a2,17139;SOL_COMPUTED,INS_RTKFIXED,0.000,0.000,0.0028,109.034395,0.0013,0*cb356d79
#BESTVELA,FILE,0,36.0,FINESTEERING,2319,306588.550,02000800,10a2,17139;SOL_COMPUTED,INS_RTKFIXED,0.000,0.000,0.0023,109.866501,0.0003,0*ec126a50
#BESTVELA,FILE,0,36.0,FINESTEERING,2319,306588.600,02000800,10a2,17139;SOL_COMPUTED,INS_RTKFIXED,0.000,0.000,0.0019,64.902196,-0.0014,0*c833023a
#BESTVELA,FILE,0,36.0,FINESTEERING,2319,306588.750,02000800,10a2,17139;SOL_COMPUTED,INS_RTKFIXED,0.000,0.000,0.0011,31.534142,0.0018,0*ca2caa4f
#BESTVELA,FILE,0,36.0,FINESTEERING,2319,306589.050,02000800,10a2,17139;SOL_COMPUTED,INS_RTKFIXED,0.000,0.000,0.0290,85.447185,-0.0192,0*1b198597
#BESTVELA,FILE,0,34.5,FINESTEERING,2319,306589.150,02000800,10a2,17139;SOL_COMPUTED,INS_RTKFIXED,0.000,0.000,0.0518,85.614755,-0.0049,0*816eb7c7
#BESTVELA,FILE,0,34.5,FINESTEERING,2319,306589.200,02000800,10a2,17139;SOL_COMPUTED,INS_RTKFIXED,0.000,0.000,0.0645,85.587190,0.0052,0*9aa1063d
#BESTVELA,FILE,0,34.5,FINESTEERING,2319,306589.250,02000800,10a2,17139;SOL_COMPUTED,INS_RTKFIXED,0.000,0.000,0.0756,87.077803,0.0100,0*95cb75e9
#BESTVELA,FILE,0,34.5,FINESTEERING,2319,306589.300,02000800,10a2,17139;SOL_COMPUTED,INS_RTKFIXED,0.000,0.000,0.0872,89.144096,0.0096,0*358bb924
#BESTVELA,FILE,0,34.5,FINESTEERING,2319,306589.350,02000800,10a2,17139;SOL_COMPUTED,INS_RTKFIXED,0.000,0.000,0.0982,90.537785,0.0060,0*2d11d332
#BESTVELA,FILE,0,34.5,FINESTEERING,2319,306589.400,02000800,10a2,17139;SOL_COMPUTED,INS_RTKFIXED,0.000,0.000,0.1053,89.520075,0.0018,0*a56527a6
#BESTVELA,FILE,0,34.5,FINESTEERING,2319,306589.450,02000800,10a2,17139;SOL_COMPUTED,INS_RTKFIXED,0.000,0.000,0.1130,88.265992,-0.0023,0*07ab3e01
#BESTVELA,FILE,0,34.5,FINESTEERING,2319,306589.500,02000800,10a2,17139;SOL_COMPUTED,INS_RTKFIXED,0.000,0.000,0.1197,87.399804,-0.0037,0*e8555900
#BESTVELA,FILE,0,34.5,FINESTEERING,2319,306589.550,02000800,10a2,17139;SOL_COMPUTED,INS_RTKFIXED,0.000,0.000,0.1280,87.220565,0.0003,0*8ba63712
#BESTVELA,FILE,0,34.5,FINESTEERING,2319,306589.600,02000800,10a2,17139;SOL_COMPUTED,INS_RTKFIXED,0.000,0.000,0.1408,88.482438,0.0020,0*10af9432
#BESTVELA,FILE,0,34.5,FINESTEERING,2319,306589.650,02000800,10a2,17139;SOL_COMPUTED,INS_RTKFIXED,0.000,0.000,0.1518,89.112366,0.0024,0*03d2d547
#BESTVELA,FILE,0,34.5,FINESTEERING,2319,306589.700,02000000,10a2,17139;SOL_COMPUTED,INS_RTKFIXED,0.000,0.000,0.1648,90.182339,0.0003,0*08f77ec6
#BESTVELA,FILE,0,34.5,FINESTEERING,2319,306589.750,02000000,10a2,17139;SOL_COMPUTED,INS_RTKFIXED,0.000,0.000,0.1708,88.890140,0.0035,0*3d9f261b
#BESTVELA,FILE,0,34.5,FINESTEERING,2319,306589.800,02000000,10a2,17139;SOL_COMPUTED,INS_RTKFIXED,0.000,0.000,0.1747,87.643217,0.0069,0*adb1b181
#BESTVELA,FILE,0,34.5,FINESTEERING,2319,306589.850,02000000,10a2,17139;SOL_COMPUTED,INS_RTKFIXED,0.000,0.000,0.1791,87.013118,0.0042,0*9a24478e
#BESTVELA,FILE,0,34.5,FINESTEERING,2319,306589.900,02000000,10a2,17139;SOL_COMPUTED,INS_RTKFIXED,0.000,0.000,0.1857,86.473533,0.0015,0*a19f78cb
#BESTVELA,FILE,0,34.5,FINESTEERING,2319,306589.950,02000000,10a2,17139;SOL_COMPUTED,INS_RTKFIXED,0.000,0.000,0.1945,88.119338,-0.0021,0*74d77856
#BESTVELA,FILE,0,34.5,FINESTEERING,2319,306590.000,02000000,10a2,17139;SOL_COMPUTED,INS_RTKFIXED,0.000,0.000,0.2022,88.368393,-0.0012,0*511b2aa5
#BESTVELA,FILE,0,34.5,FINESTEERING,2319,306590.050,02000000,10a2,17139;SOL_COMPUTED,INS_RTKFIXED,0.000,0.000,0.2166,88.536801,0.0018,0*dfda8643
#BESTVELA,FILE,0,26.0,FINESTEERING,2319,306590.100,02000000,10a2,17139;SOL_COMPUTED,INS_RTKFIXED,0.000,0.000,0.2283,87.739003,0.0012,0*987df1c8
#BESTVELA,FILE,0,26.0,FINESTEERING,2319,306590.150,02000000,10a2,17139;SOL_COMPUTED,INS_RTKFIXED,0.000,0.000,0.2379,87.257899,0.0031,0*fa2d1cf4
#BESTVELA,FILE,0,26.0,FINESTEERING,2319,306590.200,02000000,10a2,17139;SOL_COMPUTED,INS_RTKFIXED,0.000,0.000,0.2532,88.685026,-0.0002,0*776a2cc3
#BESTVELA,FILE,0,26.0,FINESTEERING,2319,306590.250,02000000,10a2,17139;SOL_COMPUTED,INS_RTKFIXED,0.000,0.000,0.2654,88.522038,0.0016,0*4f01106f
#BESTVELA,FILE,0,26.0,FINESTEERING,2319,306590.300,02000000,10a2,17139;SOL_COMPUTED,INS_RTKFIXED,0.000,0.000,0.2809,88.159742,0.0002,0*7287f36e
#BESTVELA,FILE,0,26.0,FINESTEERING,2319,306590.350,02000000,10a2,17139;SOL_COMPUTED,INS_RTKFIXED,0.000,0.000,0.2984,88.154503,-0.0008,0*30faa099
#BESTVELA,FILE,0,26.0,FINESTEERING,2319,306590.400,02000000,10a2,17139;SOL_COMPUTED,INS_RTKFIXED,0.000,0.000,0.3146,88.284687,0.0005,0*4d9aef1b
#BESTVELA,FILE,0,26.0,FINESTEERING,2319,306590.450,02000000,10a2,17139;SOL_COMPUTED,INS_RTKFIXED,0.000,0.000,0.3316,88.431171,0.0031,0*fc31668f
#BESTVELA,FILE,0,26.0,FINESTEERING,2319,306590.500,02000000,10a2,17139;SOL_COMPUTED,INS_RTKFIXED,0.000,0.000,0.3512,88.827372,0.0043,0*11674427
#BESTVELA,FILE,0,26.0,FINESTEERING,2319,306590.550,02000000,10a2,17139;SOL_COMPUTED,INS_RTKFIXED,0.000,0.000,0.3689,88.506019,0.0029,0*b2735f9c
#BESTVELA,FILE,0,26.0,FINESTEERING,2319,306590.600,02000000,10a2,17139;SOL_COMPUTED,INS_RTKFIXED,0.000,0.000,0.3863,88.680491,-0.0001,0*231b18d1
#BESTVELA,FILE,0,26.0,FINESTEERING,2319,306590.650,02000000,10a2,17139;SOL_COMPUTED,INS_RTKFIXED,0.000,0.000,0.4037,88.452363,0.0005,0*cb2ca6db
#BESTVELA,FILE,0,26.0,FINESTEERING,2319,306590.700,02000000,10a2,17139;SOL_COMPUTED,INS_RTKFIXED,0.000,0.000,0.4243,88.455341,0.0027,0*7a1bbc6e
#BESTVELA,FILE,0,26.0,FINESTEERING,2319,306590.750,02000000,10a2,17139;SOL_COMPUTED,INS_RTKFIXED,0.000,0.000,0.4450,88.682671,0.0018,0*dfc9e7eb
#BESTVELA,FILE,0,26.0,FINESTEERING,2319,306590.800,02000000,10a2,17139;SOL_COMPUTED,INS_RTKFIXED,0.000,0.000,0.4675,88.254193,0.0035,0*2626c428
#BESTVELA,FILE,0,26.0,FINESTEERING,2319,306590.850,02000000,10a2,17139;SOL_COMPUTED,INS_RTKFIXED,0.000,0.000,0.4906,88.268339,0.0011,0*f3684c5e
#BESTVELA,FILE,0,26.0,FINESTEERING,2319,306590.900,02000000,10a2,17139;SOL_COMPUTED,INS_RTKFIXED,0.000,0.000,0.5123,87.989039,0.0016,0*52b641c6
#BESTVELA,FILE,0,26.0,FINESTEERING,2319,306590.950,02000000,10a2,17139;SOL_COMPUTED,INS_RTKFIXED,0.000,0.000,0.5358,87.957347,0.0017,0*b636857b
#BESTVELA,FILE,0,26.0,FINESTEERING,2319,306591.000,02000000,10a2,17139;SOL_COMPUTED,INS_RTKFIXED,0.000,0.000,0.5620,88.190645,-0.0001,0*9b2b0fec
#BESTVELA,FILE,0,26.0,FINESTEERING,2319,306591.050,02000000,10a2,17139;SOL_COMPUTED,INS_RTKFIXED,0.000,0.000,0.5902,88.329032,-0.0009,0*5472d54a
#BESTVELA,FILE,0,26.0,FINESTEERING,2319,306591.100,02000000,10a2,17139;SOL_COMPUTED,INS_RTKFIXED,0.000,0.000,0.6208,88.491385,-0.0017,0*dc4c569d
#BESTVELA,FILE,0,30.5,FINESTEERING,2319,306591.150,02000000,10a2,17139;SOL_COMPUTED,INS_RTKFIXED,0.000,0.000,0.6520,88.503997,-0.0053,0*680bea8d
#BESTVELA,FILE,0,30.5,FINESTEERING,2319,306591.200,02000000,10a2,17139;SOL_COMPUTED,INS_RTKFIXED,0.000,0.000,0.6866,88.400704,-0.0050,0*f8363155
#BESTVELA,FILE,0,30.5,FINESTEERING,2319,306591.250,02000000,10a2,17139;SOL_COMPUTED,INS_RTKFIXED,0.000,0.000,0.7241,88.500866,-0.0056,0*9ed56835
#BESTVELA,FILE,0,30.5,FINESTEERING,2319,306591.300,02000000,10a2,17139;SOL_COMPUTED,INS_RTKFIXED,0.000,0.000,0.7637,88.258798,-0.0028,0*40ce5167
#BESTVELA,FILE,0,30.5,FINESTEERING,2319,306591.350,02000000,10a2,17139;SOL_COMPUTED,INS_RTKFIXED,0.000,0.000,0.8077,88.247815,-0.0023,0*6cf81280
#BESTVELA,FILE,0,30.5,FINESTEERING,2319,306591.400,02000000,10a2,17139;SOL_COMPUTED,INS_RTKFIXED,0.000,0.000,0.8522,88.236908,0.0003,0*5fd5766f
#BESTVELA,FILE,0,30.5,FINESTEERING,2319,306591.450,02000000,10a2,17139;SOL_COMPUTED,INS_RTKFIXED,0.000,0.000,0.8985,88.086908,0.0059,0*da45636e
#BESTVELA,FILE,0,30.5,FINESTEERING,2319,306591.500,02000000,10a2,17139;SOL_COMPUTED,INS_RTKFIXED,0.000,0.000,0.9451,88.007436,0.0063,0*8da34ad2
#BESTVELA,FILE,0,30.5,FINESTEERING,2319,306591.550,02000000,10a2,17139;SOL_COMPUTED,INS_RTKFIXED,0.000,0.000,0.9935,87.968820,0.0062,0*fd54b684
#BESTVELA,FILE,0,30.5,FINESTEERING,2319,306591.600,02000000,10a2,17139;SOL_COMPUTED,INS_RTKFIXED,0.000,0.000,1.0431,88.099362,0.0021,0*bcdb614b
#BESTVELA,FILE,0,30.5,FINESTEERING,2319,306591.650,02000000,10a2,17139;SOL_COMPUTED,INS_RTKFIXED,0.000,0.000,1.0917,88.120009,-0.0012,0*d546173b
#BESTVELA,FILE,0,30.5,FINESTEERING,2319,306591.700,02000000,10a2,17139;SOL_COMPUTED,INS_RTKFIXED,0.000,0.000,1.1441,88.133385,0.0008,0*a753959d
#BESTVELA,FILE,0,30.5,FINESTEERING,2319,306591.750,02000000,10a2,17139;SOL_COMPUTED,INS_RTKFIXED,0.000,0.000,1.1982,88.187052,-0.0017,0*9f651a89
#BESTVELA,FILE,0,30.5,FINESTEERING,2319,306591.800,02000000,10a2,17139;SOL_COMPUTED,INS_RTKFIXED,0.000,0.000,1.2533,88.229951,-0.0013,0*9c5572f9
#BESTVELA,FILE,0,30.5,FINESTEERING,2319,306591.850,02000000,10a2,17139;SOL_COMPUTED,INS_RTKFIXED,0.000,0.000,1.3053,88.331037,0.0020,0*7aa280ae
#BESTVELA,FILE,0,30.5,FINESTEERING,2319,306591.900,02000000,10a2,17139;SOL_COMPUTED,INS_RTKFIXED,0.000,0.000,1.3584,88.389428,0.0038,0*d8a3f3b4
#BESTVELA,FILE,0,30.5,FINESTEERING,2319,306591.950,02000000,10a2,17139;SOL_COMPUTED,INS_RTKFIXED,0.000,0.000,1.4105,88.291694,0.0041,0*160e28bb
#BESTVELA,FILE,0,30.5,FINESTEERING,2319,306592.000,02000000,10a2,17139;SOL_COMPUTED,INS_RTKFIXED,0.000,0.000,1.4686,88.210444,0.0092,0*3330ab62
#BESTVELA,FILE,0,30.5,FINESTEERING,2319,306592.050,02000000,10a2,17139;SOL_COMPUTED,INS_RTKFIXED,0.000,0.000,1.5167,88.060010,0.0124,0*bed84714
#BESTVELA,FILE,0,30.5,FINESTEERING,2319,306592.100,02000000,10a2,17139;SOL_COMPUTED,INS_RTKFIXED,0.000,0.000,1.5699,87.871227,0.0148,0*4c00f296
#BESTVELA,FILE,0,30.5,FINESTEERING,2319,306592.150,02000000,10a2,17139;SOL_COMPUTED,INS_RTKFIXED,0.000,0.000,1.6270,88.002871,0.0129,0*b31b703d
#BESTVELA,FILE,0,31.5,FINESTEERING,2319,306592.200,02000000,10a2,17139;SOL_COMPUTED,INS_RTKFIXED,0.000,0.000,1.6728,88.070506,0.0132,0*bd439b45
#BESTVELA,FILE,0,31.5,FINESTEERING,2319,306592.250,02000000,10a2,17139;SOL_COMPUTED,INS_RTKFIXED,0.000,0.000,1.7273,88.061860,0.0119,0*d2decf7e
#BESTVELA,FILE,0,31.5,FINESTEERING,2319,306592.300,02000000,10a2,17139;SOL_COMPUTED,INS_RTKFIXED,0.000,0.000,1.7729,87.957766,0.0117,0*6a0bce50
#BESTVELA,FILE,0,31.5,FINESTEERING,2319,306592.350,02000000,10a2,17139;SOL_COMPUTED,INS_RTKFIXED,0.000,0.000,1.8220,87.845686,0.0144,0*8a2a583a
#BESTVELA,FILE,0,31.5,FINESTEERING,2319,306592.400,02000000,10a2,17139;SOL_COMPUTED,INS_RTKFIXED,0.000,0.000,1.8741,87.653830,0.0173,0*3872621d
#BESTVELA,FILE,0,31.5,FINESTEERING,2319,306592.450,02000000,10a2,17139;SOL_COMPUTED,INS_RTKFIXED,0.000,0.000,1.9293,87.742059,0.0183,0*a4cd12ed
#BESTVELA,FILE,0,31.5,FINESTEERING,2319,306592.500,02000000,10a2,17139;SOL_COMPUTED,INS_RTKFIXED,0.000,0.000,1.9950,88.189525,0.0123,0*6103bf0f
#BESTVELA,FILE,0,31.5,FINESTEERING,2319,306592.550,02000000,10a2,17139;SOL_COMPUTED,INS_RTKFIXED,0.000,0.000,2.0388,87.987124,0.0162,0*6143b80d
#BESTVELA,FILE,0,31.5,FINESTEERING,2319,306592.600,02000000,10a2,17139;SOL_COMPUTED,INS_RTKFIXED,0.000,0.000,2.0938,88.183451,0.0157,0*92403ed2
#BESTVELA,FILE,0,31.5,FINESTEERING,2319,306592.650,02000000,10a2,17139;SOL_COMPUTED,INS_RTKFIXED,0.000,0.000,2.1522,88.331452,0.0114,0*58181e9d
#BESTVELA,FILE,0,31.5,FINESTEERING,2319,306592.700,02000000,10a2,17139;SOL_COMPUTED,INS_RTKFIXED,0.000,0.000,2.2034,88.016040,0.0241,0*732fd759
#BESTVELA,FILE,0,31.5,FINESTEERING,2319,306592.750,02000000,10a2,17139;SOL_COMPUTED,INS_RTKFIXED,0.000,0.000,2.2614,88.053630,0.0230,0*267da340
#BESTVELA,FILE,0,31.5,FINESTEERING,2319,306592.800,02000000,10a2,17139;SOL_COMPUTED,INS_RTKFIXED,0.000,0.000,2.3182,88.200989,0.0154,0*ba09d55c
#BESTVELA,FILE,0,31.5,FINESTEERING,2319,306592.850,02000000,10a2,17139;SOL_COMPUTED,INS_RTKFIXED,0.000,0.000,2.3689,88.067589,0.0165,0*4b1ff542
#BESTVELA,FILE,0,31.5,FINESTEERING,2319,306592.900,02000000,10a2,17139;SOL_COMPUTED,INS_RTKFIXED,0.000,0.000,2.4242,88.156942,0.0141,0*1688c67c
#BESTVELA,FILE,0,31.5,FINESTEERING,2319,306592.950,02000000,10a2,17139;SOL_COMPUTED,INS_RTKFIXED,0.000,0.000,2.4769,88.105847,0.0129,0*79ddd154
#BESTVELA,FILE,0,31.5,FINESTEERING,2319,306593.000,02000000,10a2,17139;SOL_COMPUTED,INS_RTKFIXED,0.000,0.000,2.5320,87.969433,0.0179,0*16b51400
#BESTVELA,FILE,0,31.5,FINESTEERING,2319,306593.050,02000000,10a2,17139;SOL_COMPUTED,INS_RTKFIXED,0.000,0.000,2.5857,87.901404,0.0201,0*8e41b8f8
#BESTVELA,FILE,0,31.0,FINESTEERING,2319,306593.100,02000000,10a2,17139;SOL_COMPUTED,INS_RTKFIXED,0.000,0.000,2.6411,87.882250,0.0210,0*ff6bedcd
#BESTVELA,FILE,0,31.0,FINESTEERING,2319,306593.150,02000000,10a2,17139;SOL_COMPUTED,INS_RTKFIXED,0.000,0.000,2.7003,87.725073,0.0298,0*9f516a5e
#BESTVELA,FILE,0,31.0,FINESTEERING,2319,306593.200,02000000,10a2,17139;SOL_COMPUTED,INS_RTKFIXED,0.000,0.000,2.7431,87.792281,0.0272,0*6694cbd9
#BESTVELA,FILE,0,31.0,FINESTEERING,2319,306593.250,02000000,10a2,17139;SOL_COMPUTED,INS_RTKFIXED,0.000,0.000,2.7889,88.022744,0.0242,0*a92854a0
#BESTVELA,FILE,0,31.0,FINESTEERING,2319,306593.300,02000000,10a2,17139;SOL_COMPUTED,INS_RTKFIXED,0.000,0.000,2.8345,88.025284,0.0194,0*d5a9c40b
#BESTVELA,FILE,0,31.0,FINESTEERING,2319,306593.350,02000000,10a2,17139;SOL_COMPUTED,INS_RTKFIXED,0.000,0.000,2.8684,87.909777,0.0314,0*c587eef7
#BESTVELA,FILE,0,31.0,FINESTEERING,2319,306593.400,02000000,10a2,17139;SOL_COMPUTED,INS_RTKFIXED,0.000,0.000,2.9111,87.976485,0.0352,0*e9a84a40
#BESTVELA,FILE,0,31.0,FINESTEERING,2319,306593.450,02000000,10a2,17139;SOL_COMPUTED,INS_RTKFIXED,0.000,0.000,2.9549,87.799522,0.0317,0*2be1bb38
#BESTVELA,FILE,0,31.0,FINESTEERING,2319,306593.500,02000000,10a2,17139;SOL_COMPUTED,INS_RTKFIXED,0.000,0.000,2.9856,87.865873,0.0253,0*27f34a0b
#BESTVELA,FILE,0,31.0,FINESTEERING,2319,306593.550,02000000,10a2,17139;SOL_COMPUTED,INS_RTKFIXED,0.000,0.000,3.0256,87.996749,0.0164,0*edfdc4a4
#BESTVELA,FILE,0,31.0,FINESTEERING,2319,306593.600,02000000,10a2,17139;SOL_COMPUTED,INS_RTKFIXED,0.000,0.000,3.0648,87.860607,0.0231,0*8b75db15
#BESTVELA,FILE,0,31.0,FINESTEERING,2319,306593.650,02000000,10a2,17139;SOL_COMPUTED,INS_RTKFIXED,0.000,0.000,3.1111,87.655498,0.0278,0*f7444da3
#BESTVELA,FILE,0,31.0,FINESTEERING,2319,306593.700,02000000,10a2,17139;SOL_COMPUTED,INS_RTKFIXED,0.000,0.000,3.1494,87.491662,0.0308,0*08230fcc
#BESTVELA,FILE,0,31.0,FINESTEERING,2319,306593.750,02000000,10a2,17139;SOL_COMPUTED,INS_RTKFIXED,0.000,0.000,3.1933,87.682739,0.0240,0*612c4939
#BESTVELA,FILE,0,31.0,FINESTEERING,2319,306593.800,02000000,10a2,17139;SOL_COMPUTED,INS_RTKFIXED,0.000,0.000,3.2242,87.650486,0.0284,0*a1e722bf
#BESTVELA,FILE,0,31.0,FINESTEERING,2319,306593.850,02000000,10a2,17139;SOL_COMPUTED,INS_RTKFIXED,0.000,0.000,3.2628,87.905081,0.0311,0*abe47f72
#BESTVELA,FILE,0,31.0,FINESTEERING,2319,306593.900,02000000,10a2,17139;SOL_COMPUTED,INS_RTKFIXED,0.000,0.000,3.3079,88.016714,0.0249,0*e74c8346
#BESTVELA,FILE,0,31.0,FINESTEERING,2319,306593.950,02000000,10a2,17139;SOL_COMPUTED,INS_RTKFIXED,0.000,0.000,3.3312,87.792773,0.0354,0*ae82056a
#BESTVELA,FILE,0,31.0,FINESTEERING,2319,306594.000,02000000,10a2,17139;SOL_COMPUTED,INS_RTKFIXED,0.000,0.000,3.3853,88.134918,0.0180,0*013aa996
#BESTVELA,FILE,0,31.0,FINESTEERING,2319,306594.050,02000000,10a2,17139;SOL_COMPUTED,INS_RTKFIXED,0.000,0.000,3.4154,87.773431,0.0301,0*a19cc853
#BESTVELA,FILE,0,31.0,FINESTEERING,2319,306594.100,02000000,10a2,17139;SOL_COMPUTED,INS_RTKFIXED,0.000,0.000,3.4558,87.839388,0.0247,0*74590639
#BESTVELA,FILE,0,31.5,FINESTEERING,2319,306594.150,02000000,10a2,17139;SOL_COMPUTED,INS_RTKFIXED,0.000,0.000,3.4956,87.720745,0.0185,0*f4dc92db
#BESTVELA,FILE,0,31.5,FINESTEERING,2319,306594.200,02000000,10a2,17139;SOL_COMPUTED,INS_RTKFIXED,0.000,0.000,3.5268,87.730278,0.0160,0*b2574718
#BESTVELA,FILE,0,31.5,FINESTEERING,2319,306594.250,02000000,10a2,17139;SOL_COMPUTED,INS_RTKFIXED,0.000,0.000,3.5579,87.499918,0.0325,0*9e55e21a
#BESTVELA,FILE,0,31.5,FINESTEERING,2319,306594.300,02000000,10a2,17139;SOL_COMPUTED,INS_RTKFIXED,0.000,0.000,3.6143,87.500450,0.0377,0*31d39f0b
#BESTVELA,FILE,0,31.5,FINESTEERING,2319,306594.350,02000000,10a2,17139;SOL_COMPUTED,INS_RTKFIXED,0.000,0.000,3.6436,87.329654,0.0341,0*12293883
#BESTVELA,FILE,0,31.5,FINESTEERING,2319,306594.400,02000000,10a2,17139;SOL_COMPUTED,INS_RTKFIXED,0.000,0.000,3.6832,87.705075,0.0304,0*f3521483
#BESTVELA,FILE,0,31.5,FINESTEERING,2319,306594.450,02000000,10a2,17139;SOL_COMPUTED,INS_RTKFIXED,0.000,0.000,3.7336,87.739686,0.0211,0*c93e9574
#BESTVELA,FILE,0,31.5,FINESTEERING,2319,306594.500,02000000,10a2,17139;SOL_COMPUTED,INS_RTKFIXED,0.000,0.000,3.7673,87.449664,0.0374,0*b73df460
#BESTVELA,FILE,0,31.5,FINESTEERING,2319,306594.550,02000000,10a2,17139;SOL_COMPUTED,INS_RTKFIXED,0.000,0.000,3.8171,87.594215,0.0166,0*bef7f841
#BESTVELA,FILE,0,31.5,FINESTEERING,2319,306594.600,02000000,10a2,17139;SOL_COMPUTED,INS_RTKFIXED,0.000,0.000,3.8718,87.545706,0.0160,0*aefd3f90
#BESTVELA,FILE,0,31.5,FINESTEERING,2319,306594.650,02000000,10a2,17139;SOL_COMPUTED,INS_RTKFIXED,0.000,0.000,3.9227,87.549477,0.0157,0*d8568d9a
#BESTVELA,FILE,0,31.5,FINESTEERING,2319,306594.700,02000000,10a2,17139;SOL_COMPUTED,INS_RTKFIXED,0.000,0.000,3.9788,87.632847,0.0135,0*3702102d
#BESTVELA,FILE,0,31.5,FINESTEERING,2319,306594.750,02000000,10a2,17139;SOL_COMPUTED,INS_RTKFIXED,0.000,0.000,4.0507,87.420910,0.0240,0*09159adb
#BESTVELA,FILE,0,31.5,FINESTEERING,2319,306594.800,02000000,10a2,17139;SOL_COMPUTED,INS_RTKFIXED,0.000,0.000,4.1109,87.481468,0.0324,0*668799f7
#BESTVELA,FILE,0,31.5,FINESTEERING,2319,306594.850,02000000,10a2,17139;SOL_COMPUTED,INS_RTKFIXED,0.000,0.000,4.1650,87.697899,0.0492,0*66c64687
#BESTVELA,FILE,0,31.5,FINESTEERING,2319,306594.900,02000000,10a2,17139;SOL_COMPUTED,INS_RTKFIXED,0.000,0.000,4.2146,87.730549,0.0544,0*d60a54d9
#BESTVELA,FILE,0,31.5,FINESTEERING,2319,306594.950,02000000,10a2,17139;SOL_COMPUTED,INS_RTKFIXED,0.000,0.000,4.2644,87.712988,0.0586,0*cc58435c
#BESTVELA,FILE,0,31.5,FINESTEERING,2319,306595.000,02000000,10a2,17139;SOL_COMPUTED,INS_RTKFIXED,0.000,0.000,4.3137,87.635222,0.0557,0*9d65cb74
#BESTVELA,FILE,0,31.5,FINESTEERING,2319,306595.050,02000000,10a2,17139;SOL_COMPUTED,INS_RTKFIXED,0.000,0.000,4.3719,87.684533,0.0459,0*70db914c
#BESTVELA,FILE,0,31.5,FINESTEERING,2319,306595.100,02000000,10a2,17139;SOL_COMPUTED,INS_RTKFIXED,0.000,0.000,4.4076,87.578884,0.0357,0*e3ac848d
#BESTVELA,FILE,0,31.5,FINESTEERING,2319,306595.150,02000000,10a2,17139;SOL_COMPUTED,INS_RTKFIXED,0.000,0.000,4.4520,87.316566,0.0458,0*6d5c6ab0
#BESTVELA,FILE,0,31.5,FINESTEERING,2319,306595.200,02000000,10a2,17139;SOL_COMPUTED,INS_RTKFIXED,0.000,0.000,4.4993,87.191274,0.0408,0*a9eb158c
#BESTVELA,FILE,0,31.5,FINESTEERING,2319,306595.250,02000000,10a2,17139;SOL_COMPUTED,INS_RTKFIXED,0.000,0.000,4.5507,87.237498,0.0381,0*02d514cf
#BESTVELA,FILE,0,31.5,FINESTEERING,2319,306595.300,02000000,10a2,17139;SOL_COMPUTED,INS_RTKFIXED,0.000,0.000,4.5888,87.322419,0.0404,0*84fd44cf
#BESTVELA,FILE,0,31.5,FINESTEERING,2319,306595.350,02000000,10a2,17139;SOL_COMPUTED,INS_RTKFIXED,0.000,0.000,4.6354,87.594866,0.0241,0*82c7275a
#BESTVELA,FILE,0,31.5,FINESTEERING,2319,306595.400,02000000,10a2,17139;SOL_COMPUTED,INS_RTKFIXED,0.000,0.000,4.6705,87.678611,0.0381,0*49f88d18
#BESTVELA,FILE,0,31.5,FINESTEERING,2319,306595.450,02000000,10a2,17139;SOL_COMPUTED,INS_RTKFIXED,0.000,0.000,4.7373,87.684157,0.0508,0*be4d1fc7
#BESTVELA,FILE,0,31.5,FINESTEERING,2319,306595.500,02000000,10a2,17139;SOL_COMPUTED,INS_RTKFIXED,0.000,0.000,4.7782,87.570362,0.0552,0*d57d07fd
#BESTVELA,FILE,0,31.5,FINESTEERING,2319,306595.550,02000000,10a2,17139;SOL_COMPUTED,INS_RTKFIXED,0.000,0.000,4.8432,87.452577,0.0637,0*cd4df72c
#BESTVELA,FILE,0,31.5,FINESTEERING,2319,306595.600,02000000,10a2,17139;SOL_COMPUTED,INS_RTKFIXED,0.000,0.000,4.8713,87.433888,0.0477,0*e9bd2b2a
#BESTVELA,FILE,0,31.5,FINESTEERING,2319,306595.650,02000000,10a2,17139;SOL_COMPUTED,INS_RTKFIXED,0.000,0.000,4.9208,87.438148,0.0515,0*62ed6a2e
#BESTVELA,FILE,0,31.5,FINESTEERING,2319,306595.700,02000000,10a2,17139;SOL_COMPUTED,INS_RTKFIXED,0.000,0.000,4.9517,87.593415,0.0319,0*c22e8852
#BESTVELA,FILE,0,31.5,FINESTEERING,2319,306595.750,02000000,10a2,17139;SOL_COMPUTED,INS_RTKFIXED,0.000,0.000,4.9897,87.512258,0.0366,0*5abf4400
#BESTVELA,FILE,0,31.5,FINESTEERING,2319,306595.800,02000000,10a2,17139;SOL_COMPUTED,INS_RTKFIXED,0.000,0.000,5.0257,87.650934,0.0474,0*233096e8
#BESTVELA,FILE,0,31.5,FINESTEERING,2319,306595.850,02000000,10a2,17139;SOL_COMPUTED,INS_RTKFIXED,0.000,0.000,5.0654,87.695040,0.0497,0*25f5dd1f
#BESTVELA,FILE,0,31.5,FINESTEERING,2319,306595.900,02000000,10a2,17139;SOL_COMPUTED,INS_RTKFIXED,0.000,0.000,5.1055,87.513376,0.0765,0*e4fe4ab4
#BESTVELA,FILE,0,31.5,FINESTEERING,2319,306595.950,02000000,10a2,17139;SOL_COMPUTED,INS_RTKFIXED,0.000,0.000,5.1551,87.431638,0.0670,0*f100b53d
#BESTVELA,FILE,0,31.5,FINESTEERING,2319,306596.000,02000000,10a2,17139;SOL_COMPUTED,INS_RTKFIXED,0.000,0.000,5.1824,87.384174,0.0783,0*c279c3e8
#BESTVELA,FILE,0,31.5,FINESTEERING,2319,306596.050,02000000,10a2,17139;SOL_COMPUTED,INS_RTKFIXED,0.000,0.000,5.2131,87.492672,0.0494,0*166eb9dc
#BESTVELA,FILE,0,30.5,FINESTEERING,2319,306596.100,02000000,10a2,17139;SOL_COMPUTED,INS_RTKFIXED,0.000,0.000,5.2219,87.412955,0.0689,0*5642ec67
#BESTVELA,FILE,0,30.5,FINESTEERING,2319,306596.150,02000000,10a2,17139;SOL_COMPUTED,INS_RTKFIXED,0.000,0.000,5.2599,87.612896,0.0487,0*29ce8000
#BESTVELA,FILE,0,30.5,FINESTEERING,2319,306596.200,02000000,10a2,17139;SOL_COMPUTED,INS_RTKFIXED,0.000,0.000,5.2726,87.555180,0.0503,0*4e2ade47
#BESTVELA,FILE,0,30.5,FINESTEERING,2319,306596.250,02000000,10a2,17139;SOL_COMPUTED,INS_RTKFIXED,0.000,0.000,5.3096,87.682048,0.0514,0*97f48381
#BESTVELA,FILE,0,30.5,FINESTEERING,2319,306596.300,02000000,10a2,17139;SOL_COMPUTED,INS_RTKFIXED,0.000,0.000,5.3356,87.594768,0.0619,0*e6960366
#BESTVELA,FILE,0,30.5,FINESTEERING,2319,306596.350,02000000,10a2,17139;SOL_COMPUTED,INS_RTKFIXED,0.000,0.000,5.3714,87.552900,0.0705,0*eb72b3b8
#BESTVELA,FILE,0,30.5,FINESTEERING,2319,306596.400,02000000,10a2,17139;SOL_COMPUTED,INS_RTKFIXED,0.000,0.000,5.3847,87.589764,0.0571,0*c7c69c02
#BESTVELA,FILE,0,30.5,FINESTEERING,2319,306596.450,02000000,10a2,17139;SOL_COMPUTED,INS_RTKFIXED,0.000,0.000,5.4105,87.737263,0.0618,0*50e9317c
#BESTVELA,FILE,0,30.5,FINESTEERING,2319,306596.500,02000000,10a2,17139;SOL_COMPUTED,INS_RTKFIXED,0.000,0.000,5.4409,87.609850,0.0681,0*2d1b85c7
#BESTVELA,FILE,0,30.5,FINESTEERING,2319,306596.550,02000000,10a2,17139;SOL_COMPUTED,INS_RTKFIXED,0.000,0.000,5.4651,87.544029,0.0682,0*10dd9f23
#BESTVELA,FILE,0,30.5,FINESTEERING,2319,306596.600,02000000,10a2,17139;SOL_COMPUTED,INS_RTKFIXED,0.000,0.000,5.4911,87.535543,0.0592,0*4e4c736e
#BESTVELA,FILE,0,30.5,FINESTEERING,2319,306596.650,02000000,10a2,17139;SOL_COMPUTED,INS_RTKFIXED,0.000,0.000,5.5098,87.478073,0.0625,0*48390031
#BESTVELA,FILE,0,30.5,FINESTEERING,2319,306596.700,02000000,10a2,17139;SOL_COMPUTED,INS_RTKFIXED,0.000,0.000,5.5440,87.445541,0.0703,0*bc851fa5
#BESTVELA,FILE,0,30.5,FINESTEERING,2319,306596.750,02000000,10a2,17139;SOL_COMPUTED,INS_RTKFIXED,0.000,0.000,5.5727,87.579714,0.0537,0*446a0ab2
#BESTVELA,FILE,0,30.5,FINESTEERING,2319,306596.800,02000000,10a2,17139;SOL_COMPUTED,INS_RTKFIXED,0.000,0.000,5.6004,87.561053,0.0619,0*1fc5d5ee
#BESTVELA,FILE,0,30.5,FINESTEERING,2319,306596.850,02000000,10a2,17139;SOL_COMPUTED,INS_RTKFIXED,0.000,0.000,5.6324,87.692974,0.0607,0*3096e8d5
#BESTVELA,FILE,0,30.5,FINESTEERING,2319,306596.900,02000000,10a2,17139;SOL_COMPUTED,INS_RTKFIXED,0.000,0.000,5.6459,87.764658,0.0522,0*2edf9d58
#BESTVELA,FILE,0,30.5,FINESTEERING,2319,306596.950,02000000,10a2,17139;SOL_COMPUTED,INS_RTKFIXED,0.000,0.000,5.6630,87.611565,0.0612,0*1c7765af
#BESTVELA,FILE,0,30.5,FINESTEERING,2319,306597.000,02000000,10a2,17139;SOL_COMPUTED,INS_RTKFIXED,0.000,0.000,5.6984,87.617718,0.0620,0*6a4ee948
#BESTVELA,FILE,0,30.5,FINESTEERING,2319,306597.050,02000000,10a2,17139;SOL_COMPUTED,INS_RTKFIXED,0.000,0.000,5.7181,87.454513,0.0701,0*7093b8a2
#BESTVELA,FILE,0,30.0,FINESTEERING,2319,306597.100,02000000,10a2,17139;SOL_COMPUTED,INS_RTKFIXED,0.000,0.000,5.7537,87.621646,0.0575,0*4b07aeaf
#BESTVELA,FILE,0,30.0,FINESTEERING,2319,306597.150,02000000,10a2,17139;SOL_COMPUTED,INS_RTKFIXED,0.000,0.000,5.7728,87.797321,0.0370,0*5682cb28
#BESTVELA,FILE,0,30.0,FINESTEERING,2319,306597.200,02000000,10a2,17139;SOL_COMPUTED,INS_RTKFIXED,0.000,0.000,5.7927,87.712645,0.0267,0*86369c09
#BESTVELA,FILE,0,30.0,FINESTEERING,2319,306597.250,02000000,10a2,17139;SOL_COMPUTED,INS_RTKFIXED,0.000,0.000,5.8242,87.636520,0.0268,0*da3f0900
#BESTVELA,FILE,0,30.0,FINESTEERING,2319,306597.300,02000000,10a2,17139;SOL_COMPUTED,INS_RTKFIXED,0.000,0.000,5.8461,87.631725,0.0387,0*722b987f
#BESTVELA,FILE,0,30.0,FINESTEERING,2319,306597.350,02000000,10a2,17139;SOL_COMPUTED,INS_RTKFIXED,0.000,0.000,5.8845,87.604075,0.0534,0*9e9129a7
#BESTVELA,FILE,0,30.0,FINESTEERING,2319,306597.400,02000000,10a2,17139;SOL_COMPUTED,INS_RTKFIXED,0.000,0.000,5.9163,87.800562,0.0549,0*a2bc3f74
#BESTVELA,FILE,0,30.0,FINESTEERING,2319,306597.450,02000000,10a2,17139;SOL_COMPUTED,INS_RTKFIXED,0.000,0.000,5.9479,87.695608,0.0782,0*564dc570
#BESTVELA,FILE,0,30.0,FINESTEERING,2319,306597.500,02000000,10a2,17139;SOL_COMPUTED,INS_RTKFIXED,0.000,0.000,5.9775,87.638731,0.0805,0*a5eb8a54
#BESTVELA,FILE,0,30.0,FINESTEERING,2319,306597.550,02000000,10a2,17139;SOL_COMPUTED,INS_RTKFIXED,0.000,0.000,5.9995,87.690198,0.0762,0*fba60ab5
#BESTVELA,FILE,0,30.0,FINESTEERING,2319,306597.600,02000000,10a2,17139;SOL_COMPUTED,INS_RTKFIXED,0.000,0.000,6.0035,87.790150,0.0569,0*5cfe5959
#BESTVELA,FILE,0,30.0,FINESTEERING,2319,306597.650,02000000,10a2,17139;SOL_COMPUTED,INS_RTKFIXED,0.000,0.000,6.0276,87.761419,0.0642,0*ec983738
#BESTVELA,FILE,0,30.0,FINESTEERING,2319,306597.700,02000000,10a2,17139;SOL_COMPUTED,INS_RTKFIXED,0.000,0.000,6.0572,87.704292,0.0660,0*16d87446
#BESTVELA,FILE,0,30.0,FINESTEERING,2319,306597.750,02000000,10a2,17139;SOL_COMPUTED,INS_RTKFIXED,0.000,0.000,6.0779,87.714217,0.0574,0*aefda9a1
#BESTVELA,FILE,0,30.0,FINESTEERING,2319,306597.800,02000000,10a2,17139;SOL_COMPUTED,INS_RTKFIXED,0.000,0.000,6.1071,87.727265,0.0642,0*75293608
#BESTVELA,FILE,0,30.0,FINESTEERING,2319,306597.850,02000000,10a2,17139;SOL_COMPUTED,INS_RTKFIXED,0.000,0.000,6.1234,87.644924,0.0549,0*66720f3e
#BESTVELA,FILE,0,30.0,FINESTEERING,2319,306597.900,02000000,10a2,17139;SOL_COMPUTED,INS_RTKFIXED,0.000,0.000,6.1547,87.618403,0.0543,0*c27ec68f
#BESTVELA,FILE,0,30.0,FINESTEERING,2319,306597.950,02000000,10a2,17139;SOL_COMPUTED,INS_RTKFIXED,0.000,0.000,6.1746,87.709861,0.0506,0*8d3f2410
#BESTVELA,FILE,0,30.0,FINESTEERING,2319,306598.000,02000000,10a2,17139;SOL_COMPUTED,INS_RTKFIXED,0.000,0.000,6.1899,87.738773,0.0759,0*fac011b6
#BESTVELA,FILE,0,30.0,FINESTEERING,2319,306598.050,02000000,10a2,17139;SOL_COMPUTED,INS_RTKFIXED,0.000,0.000,6.2158,87.947386,0.0722,0*a54e19e4
#BESTVELA,FILE,0,30.0,FINESTEERING,2319,306598.100,02000000,10a2,17139;SOL_COMPUTED,INS_RTKFIXED,0.000,0.000,6.2404,87.938800,0.0764,0*8fc53883
#BESTVELA,FILE,0,32.0,FINESTEERING,2319,306598.150,02000000,10a2,17139;SOL_COMPUTED,INS_RTKFIXED,0.000,0.000,6.2645,87.980688,0.0582,0*834030e1
#BESTVELA,FILE,0,32.0,FINESTEERING,2319,306598.200,02000000,10a2,17139;SOL_COMPUTED,INS_RTKFIXED,0.000,0.000,6.2841,87.711324,0.0632,0*d8bc189f
#BESTVELA,FILE,0,32.0,FINESTEERING,2319,306598.250,02000000,10a2,17139;SOL_COMPUTED,INS_RTKFIXED,0.000,0.000,6.3045,88.024213,0.0466,0*bfd75e8d
#BESTVELA,FILE,0,32.0,FINESTEERING,2319,306598.300,02000000,10a2,17139;SOL_COMPUTED,INS_RTKFIXED,0.000,0.000,6.3087,87.994627,0.0393,0*f2570447
#BESTVELA,FILE,0,32.0,FINESTEERING,2319,306598.350,02000000,10a2,17139;SOL_COMPUTED,INS_RTKFIXED,0.000,0.000,6.3350,88.052759,0.0569,0*534e13f3
#BESTVELA,FILE,0,32.0,FINESTEERING,2319,306598.400,02000000,10a2,17139;SOL_COMPUTED,INS_RTKFIXED,0.000,0.000,6.3507,88.160628,0.0661,0*961772c8
#BESTVELA,FILE,0,32.0,FINESTEERING,2319,306598.450,02000000,10a2,17139;SOL_COMPUTED,INS_RTKFIXED,0.000,0.000,6.3565,87.998778,0.0817,0*fe17720d
#BESTVELA,FILE,0,32.0,FINESTEERING,2319,306598.500,02000000,10a2,17139;SOL_COMPUTED,INS_RTKFIXED,0.000,0.000,6.3706,87.883398,0.0806,0*92eaa6e2
#BESTVELA,FILE,0,32.0,FINESTEERING,2319,306598.550,02000000,10a2,17139;SOL_COMPUTED,INS_RTKFIXED,0.000,0.000,6.3780,87.849542,0.0797,0*7377fe09
#BESTVELA,FILE,0,32.0,FINESTEERING,2319,306598.600,02000000,10a2,17139;SOL_COMPUTED,INS_RTKFIXED,0.000,0.000,6.3785,88.065088,0.0617,0*e7ec6b8f
#BESTVELA,FILE,0,32.0,FINESTEERING,2319,306598.650,02000000,10a2,17139;SOL_COMPUTED,INS_RTKFIXED,0.000,0.000,6.3831,88.173274,0.0527,0*027b58a8
#BESTVELA,FILE,0,32.0,FINESTEERING,2319,306598.700,02000000,10a2,17139;SOL_COMPUTED,INS_RTKFIXED,0.000,0.000,6.3838,88.226694,0.0590,0*c1024ed3
#BESTVELA,FILE,0,32.0,FINESTEERING,2319,306598.750,02000000,10a2,17139;SOL_COMPUTED,INS_RTKFIXED,0.000,0.000,6.3866,88.118182,0.0636,0*cb4c908c
#BESTVELA,FILE,0,32.0,FINESTEERING,2319,306598.800,02000000,10a2,17139;SOL_COMPUTED,INS_RTKFIXED,0.000,0.000,6.3853,88.089299,0.0649,0*8cc00eb6
#BESTVELA,FILE,0,32.0,FINESTEERING,2319,306598.850,02000000,10a2,17139;SOL_COMPUTED,INS_RTKFIXED,0.000,0.000,6.3913,88.053493,0.0778,0*4f4b50f1
#BESTVELA,FILE,0,32.0,FINESTEERING,2319,306598.900,02000000,10a2,17139;SOL_COMPUTED,INS_RTKFIXED,0.000,0.000,6.3981,88.104199,0.0963,0*cbd40301
#BESTVELA,FILE,0,32.0,FINESTEERING,2319,306598.950,02000000,10a2,17139;SOL_COMPUTED,INS_RTKFIXED,0.000,0.000,6.3994,88.163536,0.0895,0*16ee914d
#BESTVELA,FILE,0,32.0,FINESTEERING,2319,306599.000,02000000,10a2,17139;SOL_COMPUTED,INS_RTKFIXED,0.000,0.000,6.3928,88.273466,0.0834,0*a84396d8
#BESTVELA,FILE,0,32.0,FINESTEERING,2319,306599.050,02000000,10a2,17139;SOL_COMPUTED,INS_RTKFIXED,0.000,0.000,6.3909,88.270114,0.0736,0*3d64c03d
#BESTVELA,FILE,0,32.0,FINESTEERING,2319,306599.100,02000000,10a2,17139;SOL_COMPUTED,INS_RTKFIXED,0.000,0.000,6.3861,88.250633,0.0862,0*ec61fa59
#BESTVELA,FILE,0,32.0,FINESTEERING,2319,306599.150,02000000,10a2,17139;SOL_COMPUTED,INS_RTKFIXED,0.000,0.000,6.3777,88.302188,0.0904,0*582e927f
#BESTVELA,FILE,0,32.0,FINESTEERING,2319,306599.200,02000000,10a2,17139;SOL_COMPUTED,INS_RTKFIXED,0.000,0.000,6.3840,88.441154,0.0919,0*f0c4a8e3
#BESTVELA,FILE,0,32.0,FINESTEERING,2319,306599.250,02000000,10a2,17139;SOL_COMPUTED,INS_RTKFIXED,0.000,0.000,6.3860,88.391285,0.0795,0*855abcfd
#BESTVELA,FILE,0,32.0,FINESTEERING,2319,306599.300,02000000,10a2,17139;SOL_COMPUTED,INS_RTKFIXED,0.000,0.000,6.3671,88.486418,0.0693,0*a7411833
#BESTVELA,FILE,0,32.0,FINESTEERING,2319,306599.350,02000000,10a2,17139;SOL_COMPUTED,INS_RTKFIXED,0.000,0.000,6.3382,88.502786,0.0816,0*b6cdfbfd
#BESTVELA,FILE,0,32.0,FINESTEERING,2319,306599.400,02000000,10a2,17139;SOL_COMPUTED,INS_RTKFIXED,0.000,0.000,6.3228,88.534524,0.0806,0*3379f482
#BESTVELA,FILE,0,32.0,FINESTEERING,2319,306599.450,02000000,10a2,17139;SOL_COMPUTED,INS_RTKFIXED,0.000,0.000,6.2952,88.554968,0.0867,0*f8b0e2a1
#BESTVELA,FILE,0,32.0,FINESTEERING,2319,306599.500,02000000,10a2,17139;SOL_COMPUTED,INS_RTKFIXED,0.000,0.000,6.2860,88.504807,0.0654,0*c739a361
#BESTVELA,FILE,0,32.0,FINESTEERING,2319,306599.550,02000000,10a2,17139;SOL_COMPUTED,INS_RTKFIXED,0.000,0.000,6.2541,88.684003,0.0487,0*8e882eb4
#BESTVELA,FILE,0,32.0,FINESTEERING,2319,306599.600,02000000,10a2,17139;SOL_COMPUTED,INS_RTKFIXED,0.000,0.000,6.2149,88.498619,0.0489,0*634ff625
#BESTVELA,FILE,0,32.0,FINESTEERING,2319,306599.650,02000000,10a2,17139;SOL_COMPUTED,INS_RTKFIXED,0.000,0.000,6.1753,88.543173,0.0405,0*9c0a31a7
#BESTVELA,FILE,0,32.0,FINESTEERING,2319,306599.700,02000000,10a2,17139;SOL_COMPUTED,INS_RTKFIXED,0.000,0.000,6.1553,88.415188,0.0446,0*f9d17935
#BESTVELA,FILE,0,32.0,FINESTEERING,2319,306599.750,02000000,10a2,17139;SOL_COMPUTED,INS_RTKFIXED,0.000,0.000,6.1169,88.623807,0.0471,0*a1154b4c
#BESTVELA,FILE,0,32.0,FINESTEERING,2319,306599.800,02000000,10a2,17139;SOL_COMPUTED,INS_RTKFIXED,0.000,0.000,6.0954,88.689104,0.0410,0*f16db3ba
#BESTVELA,FILE,0,32.0,FINESTEERING,2319,306599.850,02000000,10a2,17139;SOL_COMPUTED,INS_RTKFIXED,0.000,0.000,6.0682,88.655751,0.0459,0*4942eee3
#BESTVELA,FILE,0,32.0,FINESTEERING,2319,306599.900,02000000,10a2,17139;SOL_COMPUTED,INS_RTKFIXED,0.000,0.000,6.0364,88.602228,0.0476,0*7025ebe9
#BESTVELA,FILE,0,32.0,FINESTEERING,2319,306599.950,02000000,10a2,17139;SOL_COMPUTED,INS_RTKFIXED,0.000,0.000,6.0010,88.532631,0.0570,0*99cc0f7c
#BESTVELA,FILE,0,32.0,FINESTEERING,2319,306600.000,02000000,10a2,17139;SOL_COMPUTED,INS_RTKFIXED,0.000,0.000,5.9752,88.632373,0.0528,0*2fd35cc2
#BESTVELA,FILE,0,32.0,FINESTEERING,2319,306600.050,02000000,10a2,17139;SOL_COMPUTED,INS_RTKFIXED,0.000,0.000,5.9308,88.718322,0.0569,0*464c5aa7
#BESTVELA,FILE,0,31.5,FINESTEERING,2319,306600.100,02000000,10a2,17139;SOL_COMPUTED,INS_RTKFIXED,0.000,0.000,5.9066,88.794461,0.0619,0*a3db9b28
#BESTVELA,FILE,0,31.5,FINESTEERING,2319,306600.150,02000000,10a2,17139;SOL_COMPUTED,INS_RTKFIXED,0.000,0.000,5.8734,88.889970,0.0613,0*b4b43d47
#BESTVELA,FILE,0,31.5,FINESTEERING,2319,306600.200,02000000,10a2,17139;SOL_COMPUTED,INS_RTKFIXED,0.000,0.000,5.8495,88.764409,0.0705,0*8bf3eb35
#BESTVELA,FILE,0,31.5,FINESTEERING,2319,306600.250,02000000,10a2,17139;SOL_COMPUTED,INS_RTKFIXED,0.000,0.000,5.8183,88.719782,0.0656,0*59d09698
#BESTVELA,FILE,0,31.5,FINESTEERING,2319,306600.300,02000000,10a2,17139;SOL_COMPUTED,INS_RTKFIXED,0.000,0.000,5.7895,88.679801,0.0704,0*c12b846b
#BESTVELA,FILE,0,31.5,FINESTEERING,2319,306600.350,02000000,10a2,17139;SOL_COMPUTED,INS_RTKFIXED,0.000,0.000,5.7584,88.963347,0.0454,0*1b587596
#BESTVELA,FILE,0,31.5,FINESTEERING,2319,306600.400,02000000,10a2,17139;SOL_COMPUTED,INS_RTKFIXED,0.000,0.000,5.7434,88.852875,0.0593,0*be0a6705
#BESTVELA,FILE,0,31.5,FINESTEERING,2319,306600.450,02000000,10a2,17139;SOL_COMPUTED,INS_RTKFIXED,0.000,0.000,5.7302,88.974979,0.0603,0*fa58ee51
#BESTVELA,FILE,0,31.5,FINESTEERING,2319,306600.500,02000000,10a2,17139;SOL_COMPUTED,INS_RTKFIXED,0.000,0.000,5.7085,88.950878,0.0581,0*e3bc2eba
#BESTVELA,FILE,0,31.5,FINESTEERING,2319,306600.550,02000000,10a2,17139;SOL_COMPUTED,INS_RTKFIXED,0.000,0.000,5.7097,89.115313,0.0465,0*dc827280
#BESTVELA,FILE,0,31.5,FINESTEERING,2319,306600.600,02000000,10a2,17139;SOL_COMPUTED,INS_RTKFIXED,0.000,0.000,5.6827,89.062411,0.0478,0*71933ce9
#BESTVELA,FILE,0,31.5,FINESTEERING,2319,306600.650,02000000,10a2,17139;SOL_COMPUTED,INS_RTKFIXED,0.000,0.000,5.6661,88.990765,0.0496,0*cb1fc8a7
#BESTVELA,FILE,0,31.5,FINESTEERING,2319,306600.700,02000000,10a2,17139;SOL_COMPUTED,INS_RTKFIXED,0.000,0.000,5.6628,89.123795,0.0490,0*3cf8340e
#BESTVELA,FILE,0,31.5,FINESTEERING,2319,306600.750,02000000,10a2,17139;SOL_COMPUTED,INS_RTKFIXED,0.000,0.000,5.6540,89.103405,0.0543,0*d360dcd7
#BESTVELA,FILE,0,31.5,FINESTEERING,2319,306600.800,02000000,10a2,17139;SOL_COMPUTED,INS_RTKFIXED,0.000,0.000,5.6495,89.171325,0.0492,0*a5e68a6c
#BESTVELA,FILE,0,31.5,FINESTEERING,2319,306600.850,02000000,10a2,17139;SOL_COMPUTED,INS_RTKFIXED,0.000,0.000,5.6448,89.121080,0.0408,0*a1b51692
#BESTVELA,FILE,0,31.5,FINESTEERING,2319,306600.900,02000000,10a2,17139;SOL_COMPUTED,INS_RTKFIXED,0.000,0.000,5.6279,89.151283,0.0368,0*08bd3452
#BESTVELA,FILE,0,31.5,FINESTEERING,2319,306600.950,02000000,10a2,17139;SOL_COMPUTED,INS_RTKFIXED,0.000,0.000,5.6154,89.395883,0.0204,0*474b4280
#BESTVELA,FILE,0,31.5,FINESTEERING,2319,306601.000,02000000,10a2,17139;SOL_COMPUTED,INS_RTKFIXED,0.000,0.000,5.5923,89.423887,0.0216,0*fdc9d5b7
#BESTVELA,FILE,0,31.5,FINESTEERING,2319,306601.050,02000000,10a2,17139;SOL_COMPUTED,INS_RTKFIXED,0.000,0.000,5.5882,89.317038,0.0444,0*9ba248a7
#BESTVELA,FILE,0,28.0,FINESTEERING,2319,306601.100,02000000,10a2,17139;SOL_COMPUTED,INS_RTKFIXED,0.000,0.000,5.5841,89.333898,0.0538,0*a1328ef4
#BESTVELA,FILE,0,28.0,FINESTEERING,2319,306601.150,02000000,10a2,17139;SOL_COMPUTED,INS_RTKFIXED,0.000,0.000,5.5850,89.229162,0.0699,0*e87f3588
#BESTVELA,FILE,0,28.0,FINESTEERING,2319,306601.200,02000000,10a2,17139;SOL_COMPUTED,INS_RTKFIXED,0.000,0.000,5.5835,89.223520,0.0702,0*440124b0
#BESTVELA,FILE,0,28.0,FINESTEERING,2319,306601.250,02000000,10a2,17139;SOL_COMPUTED,INS_RTKFIXED,0.000,0.000,5.5701,89.222278,0.0610,0*7d49e24c
#BESTVELA,FILE,0,28.0,FINESTEERING,2319,306601.300,02000000,10a2,17139;SOL_COMPUTED,INS_RTKFIXED,0.000,0.000,5.5418,89.302616,0.0380,0*0b5af223
#BESTVELA,FILE,0,28.0,FINESTEERING,2319,306601.350,02000000,10a2,17139;SOL_COMPUTED,INS_RTKFIXED,0.000,0.000,5.5410,89.360940,0.0466,0*cb47bf88
#BESTVELA,FILE,0,28.0,FINESTEERING,2319,306601.400,02000000,10a2,17139;SOL_COMPUTED,INS_RTKFIXED,0.000,0.000,5.5385,89.572778,0.0361,0*5e182c41
#BESTVELA,FILE,0,28.0,FINESTEERING,2319,306601.450,02000000,10a2,17139;SOL_COMPUTED,INS_RTKFIXED,0.000,0.000,5.5478,89.556339,0.0593,0*f51fd6e3
#BESTVELA,FILE,0,28.0,FINESTEERING,2319,306601.500,02000000,10a2,17139;SOL_COMPUTED,INS_RTKFIXED,0.000,0.000,5.5619,89.601738,0.0493,0*4116972b
#BESTVELA,FILE,0,28.0,FINESTEERING,2319,306601.550,02000000,10a2,17139;SOL_COMPUTED,INS_RTKFIXED,0.000,0.000,5.5603,89.393076,0.0727,0*a4834eb9
#BESTVELA,FILE,0,28.0,FINESTEERING,2319,306601.600,02000000,10a2,17139;SOL_COMPUTED,INS_RTKFIXED,0.000,0.000,5.5814,89.487493,0.0586,0*c47f221c
#BESTVELA,FILE,0,28.0,FINESTEERING,2319,306601.650,02000000,10a2,17139;SOL_COMPUTED,INS_RTKFIXED,0.000,0.000,5.5669,89.421220,0.0718,0*15238269
#BESTVELA,FILE,0,28.0,FINESTEERING,2319,306601.700,02000000,10a2,17139;SOL_COMPUTED,INS_RTKFIXED,0.000,0.000,5.5744,89.366217,0.0752,0*6681c5ac
#BESTVELA,FILE,0,28.0,FINESTEERING,2319,306601.750,02000000,10a2,17139;SOL_COMPUTED,INS_RTKFIXED,0.000,0.000,5.5649,89.273832,0.0823,0*29e380f6
#BESTVELA,FILE,0,28.0,FINESTEERING,2319,306601.800,02000000,10a2,17139;SOL_COMPUTED,INS_RTKFIXED,0.000,0.000,5.5774,89.144430,0.0865,0*6ca3e773
#BESTVELA,FILE,0,28.0,FINESTEERING,2319,306601.850,02000000,10a2,17139;SOL_COMPUTED,INS_RTKFIXED,0.000,0.000,5.5651,89.090116,0.0968,0*1fe36680
#BESTVELA,FILE,0,28.0,FINESTEERING,2319,306601.900,02000000,10a2,17139;SOL_COMPUTED,INS_RTKFIXED,0.000,0.000,5.5698,88.980411,0.0903,0*dfc4aac2
#BESTVELA,FILE,0,28.0,FINESTEERING,2319,306601.950,02000000,10a2,17139;SOL_COMPUTED,INS_RTKFIXED,0.000,0.000,5.5604,88.882824,0.0886,0*7654a113
#BESTVELA,FILE,0,28.0,FINESTEERING,2319,306602.000,02000000,10a2,17139;SOL_COMPUTED,INS_RTKFIXED,0.000,0.000,5.5702,89.256967,0.0576,0*e1fd2f1d
#BESTVELA,FILE,0,28.0,FINESTEERING,2319,306602.050,02000000,10a2,17139;SOL_COMPUTED,INS_RTKFIXED,0.000,0.000,5.5526,89.318908,0.0395,0*d6a508ff
#BESTVELA,FILE,0,28.0,FINESTEERING,2319,306602.100,02000000,10a2,17139;SOL_COMPUTED,INS_RTKFIXED,0.000,0.000,5.5676,89.375476,0.0429,0*287c428c
#BESTVELA,FILE,0,30.5,FINESTEERING,2319,306602.150,02000000,10a2,17139;SOL_COMPUTED,INS_RTKFIXED,0.000,0.000,5.5609,89.192306,0.0432,0*a8ae96d0
#BESTVELA,FILE,0,30.5,FINESTEERING,2319,306602.200,02000000,10a2,17139;SOL_COMPUTED,INS_RTKFIXED,0.000,0.000,5.5628,89.176147,0.0609,0*45aeb56d
#BESTVELA,FILE,0,30.5,FINESTEERING,2319,306602.250,02000000,10a2,17139;SOL_COMPUTED,INS_RTKFIXED,0.000,0.000,5.5635,89.242147,0.0664,0*71c428e4
#BESTVELA,FILE,0,30.5,FINESTEERING,2319,306602.300,02000000,10a2,17139;SOL_COMPUTED,INS_RTKFIXED,0.000,0.000,5.5571,89.071998,0.0908,0*df3d0eaa
#BESTVELA,FILE,0,30.5,FINESTEERING,2319,306602.350,02000000,10a2,17139;SOL_COMPUTED,INS_RTKFIXED,0.000,0.000,5.5541,88.972984,0.0988,0*6bccda0b
#BESTVELA,FILE,0,30.5,FINESTEERING,2319,306602.400,02000000,10a2,17139;SOL_COMPUTED,INS_RTKFIXED,0.000,0.000,5.5449,88.859307,0.0974,0*de3fdb45
#BESTVELA,FILE,0,30.5,FINESTEERING,2319,306602.450,02000000,10a2,17139;SOL_COMPUTED,INS_RTKFIXED,0.000,0.000,5.5342,88.897410,0.0900,0*0964afb2
#BESTVELA,FILE,0,30.5,FINESTEERING,2319,306602.500,02000000,10a2,17139;SOL_COMPUTED,INS_RTKFIXED,0.000,0.000,5.5220,88.906369,0.0793,0*b9461014
#BESTVELA,FILE,0,30.5,FINESTEERING,2319,306602.550,02000000,10a2,17139;SOL_COMPUTED,INS_RTKFIXED,0.000,0.000,5.5101,88.785708,0.0600,0*b9d55e82
#BESTVELA,FILE,0,30.5,FINESTEERING,2319,306602.600,02000000,10a2,17139;SOL_COMPUTED,INS_RTKFIXED,0.000,0.000,5.5020,88.865133,0.0520,0*635aaff5
#BESTVELA,FILE,0,30.5,FINESTEERING,2319,306602.650,02000000,10a2,17139;SOL_COMPUTED,INS_RTKFIXED,0.000,0.000,5.4931,89.038679,0.0323,0*e4cd06d2
#BESTVELA,FILE,0,30.5,FINESTEERING,2319,306602.700,02000000,10a2,17139;SOL_COMPUTED,INS_RTKFIXED,0.000,0.000,5.4812,89.128699,0.0303,0*54093ac3
#BESTVELA,FILE,0,30.5,FINESTEERING,2319,306602.750,02000000,10a2,17139;SOL_COMPUTED,INS_RTKFIXED,0.000,0.000,5.4662,89.107465,0.0340,0*456e835b
#BESTVELA,FILE,0,30.5,FINESTEERING,2319,306602.800,02000000,10a2,17139;SOL_COMPUTED,INS_RTKFIXED,0.000,0.000,5.4478,88.847386,0.0508,0*8d39c821
#BESTVELA,FILE,0,30.5,FINESTEERING,2319,306602.850,02000000,10a2,17139;SOL_COMPUTED,INS_RTKFIXED,0.000,0.000,5.4525,88.716727,0.0588,0*faf68837
#BESTVELA,FILE,0,30.5,FINESTEERING,2319,306602.900,02000000,10a2,17139;SOL_COMPUTED,INS_RTKFIXED,0.000,0.000,5.4452,88.679204,0.0730,0*bb14b429
#BESTVELA,FILE,0,30.5,FINESTEERING,2319,306602.950,02000000,10a2,17139;SOL_COMPUTED,INS_RTKFIXED,0.000,0.000,5.4318,88.591769,0.0804,0*94379579
#BESTVELA,FILE,0,30.5,FINESTEERING,2319,306603.000,02000000,10a2,17139;SOL_COMPUTED,INS_RTKFIXED,0.000,0.000,5.4182,88.675332,0.0640,0*cb679efa
#BESTVELA,FILE,0,30.5,FINESTEERING,2319,306603.050,02000000,10a2,17139;SOL_COMPUTED,INS_RTKFIXED,0.000,0.000,5.3923,88.614486,0.0456,0*80ccf62d
#BESTVELA,FILE,0,30.5,FINESTEERING,2319,306603.100,02000000,10a2,17139;SOL_COMPUTED,INS_RTKFIXED,0.000,0.000,5.3788,88.680811,0.0413,0*f3ed7cbc
#BESTVELA,FILE,0,31.5,FINESTEERING,2319,306603.150,02000000,10a2,17139;SOL_COMPUTED,INS_RTKFIXED,0.000,0.000,5.3657,88.638376,0.0225,0*5b5ccaaf
#BESTVELA,FILE,0,31.5,FINESTEERING,2319,306603.200,02000000,10a2,17139;SOL_COMPUTED,INS_RTKFIXED,0.000,0.000,5.3638,88.456032,0.0508,0*15807cc3
#BESTVELA,FILE,0,31.5,FINESTEERING,2319,306603.250,02000000,10a2,17139;SOL_COMPUTED,INS_RTKFIXED,0.000,0.000,5.3582,88.542825,0.0499,0*384fe56b
#BESTVELA,FILE,0,31.5,FINESTEERING,2319,306603.300,02000000,10a2,17139;SOL_COMPUTED,INS_RTKFIXED,0.000,0.000,5.3460,88.387695,0.0598,0*e5fed7f3
#BESTVELA,FILE,0,31.5,FINESTEERING,2319,306603.350,02000000,10a2,17139;SOL_COMPUTED,INS_RTKFIXED,0.000,0.000,5.3400,88.625786,0.0463,0*d7920cc4
#BESTVELA,FILE,0,31.5,FINESTEERING,2319,306603.400,02000000,10a2,17139;SOL_COMPUTED,INS_RTKFIXED,0.000,0.000,5.3209,88.672357,0.0525,0*5f364459
#BESTVELA,FILE,0,31.5,FINESTEERING,2319,306603.450,02000000,10a2,17139;SOL_COMPUTED,INS_RTKFIXED,0.000,0.000,5.3161,88.591955,0.0676,0*6b8994bc
#BESTVELA,FILE,0,31.5,FINESTEERING,2319,306603.500,02000000,10a2,17139;SOL_COMPUTED,INS_RTKFIXED,0.000,0.000,5.3120,88.455578,0.0753,0*46901a47
#BESTVELA,FILE,0,31.5,FINESTEERING,2319,306603.550,02000000,10a2,17139;SOL_COMPUTED,INS_RTKFIXED,0.000,0.000,5.3047,88.071452,0.0907,0*2b916463
#BESTVELA,FILE,0,31.5,FINESTEERING,2319,306603.600,02000000,10a2,17139;SOL_COMPUTED,INS_RTKFIXED,0.000,0.000,5.3034,88.159078,0.0839,0*36cb6926
#BESTVELA,FILE,0,31.5,FINESTEERING,2319,306603.650,02000000,10a2,17139;SOL_COMPUTED,INS_RTKFIXED,0.000,0.000,5.2851,88.032260,0.0794,0*291c4b9a
#BESTVELA,FILE,0,31.5,FINESTEERING,2319,306603.700,02000000,10a2,17139;SOL_COMPUTED,INS_RTKFIXED,0.000,0.000,5.2645,88.240498,0.0625,0*2a35e9e6
#BESTVELA,FILE,0,31.5,FINESTEERING,2319,306603.750,02000000,10a2,17139;SOL_COMPUTED,INS_RTKFIXED,0.000,0.000,5.2393,88.215132,0.0554,0*ffaeb6dc
#BESTVELA,FILE,0,31.5,FINESTEERING,2319,306603.800,02000000,10a2,17139;SOL_COMPUTED,INS_RTKFIXED,0.000,0.000,5.2198,88.157164,0.0573,0*5d560eae
#BESTVELA,FILE,0,31.5,FINESTEERING,2319,306603.850,02000000,10a2,17139;SOL_COMPUTED,INS_RTKFIXED,0.000,0.000,5.2021,88.270039,0.0517,0*c1d7c91f
#BESTVELA,FILE,0,31.5,FINESTEERING,2319,306603.900,02000000,10a2,17139;SOL_COMPUTED,INS_RTKFIXED,0.000,0.000,5.1813,88.254951,0.0632,0*23d58195
#BESTVELA,FILE,0,31.5,FINESTEERING,2319,306603.950,02000000,10a2,17139;SOL_COMPUTED,INS_RTKFIXED,0.000,0.000,5.1667,88.558323,0.0625,0*292b8bcb
#BESTVELA,FILE,0,31.5,FINESTEERING,2319,306604.000,02000000,10a2,17139;SOL_COMPUTED,INS_RTKFIXED,0.000,0.000,5.1485,88.522952,0.0656,0*4ac7df46
#BESTVELA,FILE,0,31.5,FINESTEERING,2319,306604.050,02000000,10a2,17139;SOL_COMPUTED,INS_RTKFIXED,0.000,0.000,5.1400,88.643769,0.0613,0*ecfb1430
#BESTVELA,FILE,0,29.0,FINESTEERING,2319,306604.100,02000000,10a2,17139;SOL_COMPUTED,INS_RTKFIXED,0.000,0.000,5.1258,88.891271,0.0496,0*88111b92
#BESTVELA,FILE,0,29.0,FINESTEERING,2319,306604.150,02000000,10a2,17139;SOL_COMPUTED,INS_RTKFIXED,0.000,0.000,5.1125,89.091655,0.0448,0*117217f1
#BESTVELA,FILE,0,29.0,FINESTEERING,2319,306604.200,02000000,10a2,17139;SOL_COMPUTED,INS_RTKFIXED,0.000,0.000,5.1013,89.295028,0.0498,0*e04be7d2
#BESTVELA,FILE,0,29.0,FINESTEERING,2319,306604.250,02000000,10a2,17139;SOL_COMPUTED,INS_RTKFIXED,0.000,0.000,5.0875,89.286123,0.0509,0*2fb87439
#BESTVELA,FILE,0,29.0,FINESTEERING,2319,306604.300,02000000,10a2,17139;SOL_COMPUTED,INS_RTKFIXED,0.000,0.000,5.0733,89.723743,0.0507,0*a47badc8
#BESTVELA,FILE,0,29.0,FINESTEERING,2319,306604.350,02000000,10a2,17139;SOL_COMPUTED,INS_RTKFIXED,0.000,0.000,5.0587,89.903643,0.0749,0*6f598c0f
#BESTVELA,FILE,0,29.0,FINESTEERING,2319,306604.400,02000000,10a2,17139;SOL_COMPUTED,INS_RTKFIXED,0.000,0.000,5.0510,90.348460,0.0947,0*a393981f
#BESTVELA,FILE,0,29.0,FINESTEERING,2319,306604.450,02000000,10a2,17139;SOL_COMPUTED,INS_RTKFIXED,0.000,0.000,5.0460,90.611963,0.0949,0*0f1cc66f
#BESTVELA,FILE,0,29.0,FINESTEERING,2319,306604.500,02000000,10a2,17139;SOL_COMPUTED,INS_RTKFIXED,0.000,0.000,5.0321,90.805228,0.0994,0*5e8dfec7
#BESTVELA,FILE,0,29.0,FINESTEERING,2319,306604.550,02000000,10a2,17139;SOL_COMPUTED,INS_RTKFIXED,0.000,0.000,5.0173,91.075052,0.0799,0*e2efac0c
#BESTVELA,FILE,0,29.0,FINESTEERING,2319,306604.600,02000000,10a2,17139;SOL_COMPUTED,INS_RTKFIXED,0.000,0.000,4.9899,91.119919,0.0712,0*816c942d
#BESTVELA,FILE,0,29.0,FINESTEERING,2319,306604.650,02000000,10a2,17139;SOL_COMPUTED,INS_RTKFIXED,0.000,0.000,4.9600,91.411244,0.0545,0*4153257d
#BESTVELA,FILE,0,29.0,FINESTEERING,2319,306604.700,02000000,10a2,17139;SOL_COMPUTED,INS_RTKFIXED,0.000,0.000,4.9385,91.589469,0.0504,0*b5095b95
#BESTVELA,FILE,0,29.0,FINESTEERING,2319,306604.750,02000000,10a2,17139;SOL_COMPUTED,INS_RTKFIXED,0.000,0.000,4.9260,92.176718,0.0452,0*d0c544a2
#BESTVELA,FILE,0,29.0,FINESTEERING,2319,306604.800,02000000,10a2,17139;SOL_COMPUTED,INS_RTKFIXED,0.000,0.000,4.9110,92.513848,0.0546,0*6b859fee
#BESTVELA,FILE,0,29.0,FINESTEERING,2319,306604.850,02000000,10a2,17139;SOL_COMPUTED,INS_RTKFIXED,0.000,0.000,4.9028,92.737468,0.0679,0*8de12797
#BESTVELA,FILE,0,29.0,FINESTEERING,2319,306604.900,02000000,10a2,17139;SOL_COMPUTED,INS_RTKFIXED,0.000,0.000,4.8946,93.061532,0.0668,0*1b790408
#BESTVELA,FILE,0,29.0,FINESTEERING,2319,306604.950,02000000,10a2,17139;SOL_COMPUTED,INS_RTKFIXED,0.000,0.000,4.8795,93.487374,0.0730,0*fd118b31
#BESTVELA,FILE,0,29.0,FINESTEERING,2319,306605.000,02000000,10a2,17139;SOL_COMPUTED,INS_RTKFIXED,0.000,0.000,4.8597,93.985463,0.0648,0*473bce67
#BESTVELA,FILE,0,29.0,FINESTEERING,2319,306605.050,02000000,10a2,17139;SOL_COMPUTED,INS_RTKFIXED,0.000,0.000,4.8436,94.228194,0.0793,0*28108e98
#BESTVELA,FILE,0,29.0,FINESTEERING,2319,306605.100,02000000,10a2,17139;SOL_COMPUTED,INS_RTKFIXED,0.000,0.000,4.8296,94.865950,0.0743,0*65c51f8b
#BESTVELA,FILE,0,30.5,FINESTEERING,2319,306605.150,02000000,10a2,17139;SOL_COMPUTED,INS_RTKFIXED,0.000,0.000,4.8164,95.400114,0.0806,0*2a09640c
#BESTVELA,FILE,0,30.5,FINESTEERING,2319,306605.200,02000000,10a2,17139;SOL_COMPUTED,INS_RTKFIXED,0.000,0.000,4.8046,96.002182,0.0734,0*ff22edde
#BESTVELA,FILE,0,30.5,FINESTEERING,2319,306605.250,02000000,10a2,17139;SOL_COMPUTED,INS_RTKFIXED,0.000,0.000,4.7853,96.578352,0.0748,0*c6b1d2fe
#BESTVELA,FILE,0,30.5,FINESTEERING,2319,306605.300,02000000,10a2,17139;SOL_COMPUTED,INS_RTKFIXED,0.000,0.000,4.7650,96.874485,0.0733,0*38468d9f
#BESTVELA,FILE,0,30.5,FINESTEERING,2319,306605.350,02000000,10a2,17139;SOL_COMPUTED,INS_RTKFIXED,0.000,0.000,4.7417,97.321466,0.0716,0*ad013d90
#BESTVELA,FILE,0,30.5,FINESTEERING,2319,306605.400,02000000,10a2,17139;SOL_COMPUTED,INS_RTKFIXED,0.000,0.000,4.7270,97.845247,0.0725,0*0c806dfc
#BESTVELA,FILE,0,30.5,FINESTEERING,2319,306605.450,02000000,10a2,17139;SOL_COMPUTED,INS_RTKFIXED,0.000,0.000,4.6977,98.387149,0.0675,0*5a4dd176
#BESTVELA,FILE,0,30.5,FINESTEERING,2319,306605.500,02000000,10a2,17139;SOL_COMPUTED,INS_RTKFIXED,0.000,0.000,4.6798,99.036571,0.0579,0*cd59c17e
#BESTVELA,FILE,0,30.5,FINESTEERING,2319,306605.550,02000000,10a2,17139;SOL_COMPUTED,INS_RTKFIXED,0.000,0.000,4.6578,99.671496,0.0611,0*acc3a05a
#BESTVELA,FILE,0,30.5,FINESTEERING,2319,306605.600,02000000,10a2,17139;SOL_COMPUTED,INS_RTKFIXED,0.000,0.000,4.6385,100.270712,0.0648,0*c13671dd
#BESTVELA,FILE,0,30.5,FINESTEERING,2319,306605.650,02000000,10a2,17139;SOL_COMPUTED,INS_RTKFIXED,0.000,0.000,4.6230,100.895131,0.0689,0*860eb923
#BESTVELA,FILE,0,30.5,FINESTEERING,2319,306605.700,02000000,10a2,17139;SOL_COMPUTED,INS_RTKFIXED,0.000,0.000,4.6053,101.546798,0.0753,0*00aa3a18
#BESTVELA,FILE,0,30.5,FINESTEERING,2319,306605.750,02000000,10a2,17139;SOL_COMPUTED,INS_RTKFIXED,0.000,0.000,4.5805,102.444190,0.0836,0*45043fa2
#BESTVELA,FILE,0,30.5,FINESTEERING,2319,306605.800,02000000,10a2,17139;SOL_COMPUTED,INS_RTKFIXED,0.000,0.000,4.5570,103.416381,0.0777,0*43bead71
#BESTVELA,FILE,0,30.5,FINESTEERING,2319,306605.850,02000000,10a2,17139;SOL_COMPUTED,INS_RTKFIXED,0.000,0.000,4.5225,104.151932,0.0833,0*dbe7b5a2
#BESTVELA,FILE,0,30.5,FINESTEERING,2319,306605.900,02000000,10a2,17139;SOL_COMPUTED,INS_RTKFIXED,0.000,0.000,4.4928,105.174199,0.0703,0*5351fafc
#BESTVELA,FILE,0,30.5,FINESTEERING,2319,306605.950,02000000,10a2,17139;SOL_COMPUTED,INS_RTKFIXED,0.000,0.000,4.4606,105.938038,0.0782,0*b175e449
#BESTVELA,FILE,0,30.5,FINESTEERING,2319,306606.000,02000000,10a2,17139;SOL_COMPUTED,INS_RTKFIXED,0.000,0.000,4.4403,106.804092,0.0857,0*539873d6
#BESTVELA,FILE,0,30.5,FINESTEERING,2319,306606.050,02000000,10a2,17139;SOL_COMPUTED,INS_RTKFIXED,0.000,0.000,4.4195,107.885195,0.0843,0*48de2caf
#BESTVELA,FILE,0,30.5,FINESTEERING,2319,306606.100,02000000,10a2,17139;SOL_COMPUTED,INS_RTKFIXED,0.000,0.000,4.3940,109.162765,0.0877,0*ce0e6b50
#BESTVELA,FILE,0,33.0,FINESTEERING,2319,306606.150,02000000,10a2,17139;SOL_COMPUTED,INS_RTKFIXED,0.000,0.000,4.3750,110.489104,0.0843,0*9331dda1
#BESTVELA,FILE,0,33.0,FINESTEERING,2319,306606.200,02000000,10a2,17139;SOL_COMPUTED,INS_RTKFIXED,0.000,0.000,4.3471,112.055609,0.0705,0*205293c1
#BESTVELA,FILE,0,33.0,FINESTEERING,2319,306606.250,02000000,10a2,17139;SOL_COMPUTED,INS_RTKFIXED,0.000,0.000,4.3158,113.583272,0.0576,0*cc2d864c
#BESTVELA,FILE,0,33.0,FINESTEERING,2319,306606.300,02000000,10a2,17139;SOL_COMPUTED,INS_RTKFIXED,0.000,0.000,4.2966,115.153013,0.0505,0*693695f1
#BESTVELA,FILE,0,33.0,FINESTEERING,2319,306606.350,02000000,10a2,17139;SOL_COMPUTED,INS_RTKFIXED,0.000,0.000,4.2804,116.627237,0.0491,0*84d83eb5
#BESTVELA,FILE,0,33.0,FINESTEERING,2319,306606.400,02000000,10a2,17139;SOL_COMPUTED,INS_RTKFIXED,0.000,0.000,4.2783,118.020772,0.0552,0*8cc3b1b7
#BESTVELA,FILE,0,33.0,FINESTEERING,2319,306606.450,02000000,10a2,17139;SOL_COMPUTED,INS_RTKFIXED,0.000,0.000,4.2688,119.529996,0.0423,0*1eab4bed
#BESTVELA,FILE,0,33.0,FINESTEERING,2319,306606.500,02000000,10a2,17139;SOL_COMPUTED,INS_RTKFIXED,0.000,0.000,4.2596,120.927506,0.0375,0*47e14aa1
#BESTVELA,FILE,0,33.0,FINESTEERING,2319,306606.550,02000000,10a2,17139;SOL_COMPUTED,INS_RTKFIXED,0.000,0.000,4.2485,122.176128,0.0289,0*ac041816
#BESTVELA,FILE,0,33.0,FINESTEERING,2319,306606.600,02000000,10a2,17139;SOL_COMPUTED,INS_RTKFIXED,0.000,0.000,4.2358,123.312860,0.0280,0*295ea9fd
#BESTVELA,FILE,0,33.0,FINESTEERING,2319,306606.650,02000000,10a2,17139;SOL_COMPUTED,INS_RTKFIXED,0.000,0.000,4.2165,124.644271,0.0250,0*23b96952
#BESTVELA,FILE,0,33.0,FINESTEERING,2319,306606.700,02000000,10a2,17139;SOL_COMPUTED,INS_RTKFIXED,0.000,0.000,4.2072,125.924585,0.0288,0*df44995e
#BESTVELA,FILE,0,33.0,FINESTEERING,2319,306606.750,02000000,10a2,17139;SOL_COMPUTED,INS_RTKFIXED,0.000,0.000,4.2008,127.119812,0.0284,0*22edace1
#BESTVELA,FILE,0,33.0,FINESTEERING,2319,306606.800,02000000,10a2,17139;SOL_COMPUTED,INS_RTKFIXED,0.000,0.000,4.2072,128.280841,0.0407,0*72e4319b
#BESTVELA,FILE,0,33.0,FINESTEERING,2319,306606.850,02000000,10a2,17139;SOL_COMPUTED,INS_RTKFIXED,0.000,0.000,4.2184,129.680678,0.0297,0*c7fe8b71
#BESTVELA,FILE,0,33.0,FINESTEERING,2319,306606.900,02000000,10a2,17139;SOL_COMPUTED,INS_RTKFIXED,0.000,0.000,4.2294,131.246490,0.0219,0*edf27b96
#BESTVELA,FILE,0,33.0,FINESTEERING,2319,306606.950,02000000,10a2,17139;SOL_COMPUTED,INS_RTKFIXED,0.000,0.000,4.2386,132.875264,0.0045,0*36e3f775
#BESTVELA,FILE,0,33.0,FINESTEERING,2319,306607.000,02000000,10a2,17139;SOL_COMPUTED,INS_RTKFIXED,0.000,0.000,4.2427,133.945337,0.0038,0*8e84347b
#BESTVELA,FILE,0,33.0,FINESTEERING,2319,306607.050,02000000,10a2,17139;SOL_COMPUTED,INS_RTKFIXED,0.000,0.000,4.2447,134.793247,0.0131,0*d13e29f7
#BESTVELA,FILE,0,33.0,FINESTEERING,2319,306607.100,02000000,10a2,17139;SOL_COMPUTED,INS_RTKFIXED,0.000,0.000,4.2370,135.537737,0.0048,0*f41797f5
#BESTVELA,FILE,0,33.0,FINESTEERING,2319,306607.150,02000000,10a2,17139;SOL_COMPUTED,INS_RTKFIXED,0.000,0.000,4.2371,135.977512,0.0282,0*2ff170e7
#BESTVELA,FILE,0,33.0,FINESTEERING,2319,306607.200,02000000,10a2,17139;SOL_COMPUTED,INS_RTKFIXED,0.000,0.000,4.2452,136.751129,0.0285,0*1bfa54eb
#BESTVELA,FILE,0,33.0,FINESTEERING,2319,306607.250,02000000,10a2,17139;SOL_COMPUTED,INS_RTKFIXED,0.000,0.000,4.2455,137.178436,0.0347,0*1a34751b
#BESTVELA,FILE,0,33.0,FINESTEERING,2319,306607.300,02000000,10a2,17139;SOL_COMPUTED,INS_RTKFIXED,0.000,0.000,4.2400,137.584747,0.0312,0*3ae17c7a
#BESTVELA,FILE,0,33.0,FINESTEERING,2319,306607.350,02000000,10a2,17139;SOL_COMPUTED,INS_RTKFIXED,0.000,0.000,4.2296,137.885546,0.0256,0*6f8dc672
#BESTVELA,FILE,0,33.0,FINESTEERING,2319,306607.400,02000000,10a2,17139;SOL_COMPUTED,INS_RTKFIXED,0.000,0.000,4.2161,138.087975,0.0351,0*8103bd91
#BESTVELA,FILE,0,33.0,FINESTEERING,2319,306607.450,02000000,10a2,17139;SOL_COMPUTED,INS_RTKFIXED,0.000,0.000,4.2116,138.634196,0.0369,0*89445992
#BESTVELA,FILE,0,33.0,FINESTEERING,2319,306607.500,02000000,10a2,17139;SOL_COMPUTED,INS_RTKFIXED,0.000,0.000,4.2145,139.410091,0.0470,0*eb4fa0ca
#BESTVELA,FILE,0,33.0,FINESTEERING,2319,306607.550,02000000,10a2,17139;SOL_COMPUTED,INS_RTKFIXED,0.000,0.000,4.2165,140.438923,0.0532,0*828b3035
#BESTVELA,FILE,0,33.0,FINESTEERING,2319,306607.600,02000000,10a2,17139;SOL_COMPUTED,INS_RTKFIXED,0.000,0.000,4.2188,141.337907,0.0638,0*4e5a2a7b
#BESTVELA,FILE,0,33.0,FINESTEERING,2319,306607.650,02000000,10a2,17139;SOL_COMPUTED,INS_RTKFIXED,0.000,0.000,4.2169,142.108491,0.0645,0*b056ec3f
#BESTVELA,FILE,0,33.0,FINESTEERING,2319,306607.700,02000000,10a2,17139;SOL_COMPUTED,INS_RTKFIXED,0.000,0.000,4.2141,142.686222,0.0609,0*684649bf
#BESTVELA,FILE,0,33.0,FINESTEERING,2319,306607.750,02000000,10a2,17139;SOL_COMPUTED,INS_RTKFIXED,0.000,0.000,4.2041,143.327783,0.0444,0*579b0114
#BESTVELA,FILE,0,33.0,FINESTEERING,2319,306607.800,02000000,10a2,17139;SOL_COMPUTED,INS_RTKFIXED,0.000,0.000,4.1899,143.852175,0.0273,0*4f7b9249
#BESTVELA,FILE,0,33.0,FINESTEERING,2319,306607.850,02000000,10a2,17139;SOL_COMPUTED,INS_RTKFIXED,0.000,0.000,4.1852,144.159946,0.0275,0*42926872
#BESTVELA,FILE,0,33.0,FINESTEERING,2319,306607.900,02000000,10a2,17139;SOL_COMPUTED,INS_RTKFIXED,0.000,0.000,4.1753,144.415464,0.0288,0*a90bdc66
#BESTVELA,FILE,0,33.0,FINESTEERING,2319,306607.950,02000000,10a2,17139;SOL_COMPUTED,INS_RTKFIXED,0.000,0.000,4.1662,144.469169,0.0324,0*2aad0020
#BESTVELA,FILE,0,33.0,FINESTEERING,2319,306608.000,02000000,10a2,17139;SOL_COMPUTED,INS_RTKFIXED,0.000,0.000,4.1507,144.626513,0.0325,0*4b803232
