#BESTPOSA,FILE,0,34.5,FINESTEERING,2319,306585.900,02000800,cdba,17139;SOL_COMPUTED,INS_RTKFIXED,17.59228144173,78.12169653570,531.9626,-76.2000,WGS84,0.6726,0.6426,1.2612,"",0.000,0.000,56,41,41,41,00,06,39,33*117a5146
#BESTPOSA,FILE,0,34.5,FINESTEERING,2319,306585.950,02000800,cdba,17139;SOL_COMPUTED,INS_RTKFIXED,17.59228143835,78.12169653386,531.9625,-76.2000,WGS84,0.6726,0.6426,1.2612,"",0.000,0.000,56,41,41,41,00,06,39,33*29797976
#BESTPOSA,FILE,0,34.5,FINESTEERING,2319,306586.000,02000800,cdba,17139;SOL_COMPUTED,INS_RTKFIXED,17.59228143695,78.12169653340,531.9625,-76.2000,WGS84,0.6726,0.6426,1.2612,"",0.000,0.000,56,41,41,41,00,06,39,33*4cedab07
#BESTPOSA,FILE,0,34.5,FINESTEERING,2319,306586.050,02000800,cdba,17139;SOL_COMPUTED,INS_RTKFIXED,17.59228144186,78.12169653295,531.9628,-76.2000,WGS84,0.6657,0.6331,1.2696,"",0.000,0.000,56,41,41,41,00,06,39,33*b158742b
#BESTPOSA,FILE,0,34.0,FINESTEERING,2319,306586.100,02000800,cdba,17139;SOL_COMPUTED,INS_RTKFIXED,17.59228145178,78.12169653076,531.9635,-76.2000,WGS84,0.6657,0.6331,1.2696,"",0.000,0.000,56,41,41,41,00,06,39,33*05f9b4c9
#BESTPOSA,FILE,0,34.0,FINESTEERING,2319,306586.250,02000800,cdba,17139;SOL_COMPUTED,INS_RTKFIXED,17.59228148149,78.12169651894,531.9656,-76.2000,WGS84,0.6657,0.6331,1.2696,"",0.000,0.000,56,41,41,41,00,06,39,33*f146c19d
#BESTPOSA,FILE,0,34.0,FINESTEERING,2319,306586.300,02000800,cdba,17139;SOL_COMPUTED,INS_RTKFIXED,17.59228148901,78.12169651563,531.9662,-76.2000,WGS84,0.6657,0.6331,1.2696,"",0.000,0.000,56,41,41,41,00,06,39,33*8df3b70e
#BESTPOSA,FILE,0,34.0,FINESTEERING,2319,306586.350,02000800,cdba,17139;SOL_COMPUTED,INS_RTKFIXED,17.59228149743,78.12169651243,531.9669,-76.2000,WGS84,0.6657,0.6331,1.2696,"",0.000,0.000,56,41,41,41,00,06,39,33*92e4dc03
#BESTPOSA,FILE,0,34.0,FINESTEERING,2319,306586.400,02000800,cdba,17139;SOL_COMPUTED,INS_RTKFIXED,17.59228150480,78.12169651055,531.9676,-76.2000,WGS84,0.6657,0.6331,1.2696,"",0.000,0.000,56,41,41,41,00,06,39,33*84ce4dd3
#BESTPOSA,FILE,0,34.0,FINESTEERING,2319,306586.600,02000800,cdba,17139;SOL_COMPUTED,INS_RTKFIXED,17.59228153705,78.12169649785,531.9702,-76.2000,WGS84,0.6657,0.6331,1.2696,"",0.000,0.000,56,41,41,41,00,06,39,33*331ba4a2
#BESTPOSA,FILE,0,34.0,FINESTEERING,2319,306586.700,02000800,cdba,17139;SOL_COMPUTED,INS_RTKFIXED,17.59228155804,78.12169649045,531.9715,-76.2000,WGS84,0.6657,0.6331,1.2696,"",0.000,0.000,56,41,41,41,00,06,39,33*ae77128c
#BESTPOSA,FILE,0,34.0,FINESTEERING,2319,306587.000,02000800,cdba,17139;SOL_COMPUTED,INS_RTKFIXED,17.59228161114,78.12169647245,531.9756,-76.2000,WGS84,0.6657,0.6331,1.2696,"",0.000,0.000,56,41,41,41,00,06,39,33*05f7550b
#BESTPOSA,FILE,0,34.0,FINESTEERING,2319,306587.050,02000800,cdba,17139;SOL_COMPUTED,INS_RTKFIXED,17.59228161628,78.12169647102,531.9760,-76.2000,WGS84,0.6657,0.6332,1.2694,"",0.000,0.000,56,41,41,41,00,06,39,33*241faf63
#BESTPOSA,FILE,0,34.0,FINESTEERING,2319,306587.100,02000800,cdba,17139;SOL_COMPUTED,INS_RTKFIXED,17.59228161637,78.12169647198,531.9760,-76.2000,WGS84,0.6657,0.6332,1.2694,"",0.000,0.000,56,41,41,41,00,06,39,33*e14ee0ea
#BESTPOSA,FILE,0,35.5,FINESTEERING,2319,306587.150,02000800,cdba,17139;SOL_COMPUTED,INS_RTKFIXED,17.59228161698,78.12169647311,531.9761,-76.2000,WGS84,0.6657,0.6332,1.2694,"",0.000,0.000,56,41,41,41,00,06,39,33*cef65fea
#BESTPOSA,FILE,0,35.5,FINESTEERING,2319,306587.200,02000800,cdba,17139;SOL_COMPUTED,INS_RTKFIXED,17.59228161778,78.12169647420,531.9762,-76.2000,WGS84,0.6657,0.6332,1.2694,"",0.000,0.000,56,41,41,41,00,06,39,33*b07b0bff
#BESTPOSA,FILE,0,35.5,FINESTEERING,2319,306587.250,02000800,cdba,17139;SOL_COMPUTED,INS_RTKFIXED,17.59228161822,78.12169647394,531.9763,-76.2000,WGS84,0.6657,0.6332,1.2694,"",0.000,0.000,56,41,41,41,00,06,39,33*517b25d2
#BESTPOSA,FILE,0,35.5,FINESTEERING,2319,306587.300,02000800,cdba,17139;SOL_COMPUTED,INS_RTKFIXED,17.59228161817,78.12169647376,531.9763,-76.2000,WGS84,0.6657,0.6332,1.2694,"",0.000,0.000,56,41,41,41,00,06,39,33*8c0e4ea8
#BESTPOSA,FILE,0,35.5,FINESTEERING,2319,306587.350,02000800,cdba,17139;SOL_COMPUTED,INS_RTKFIXED,17.59228161815,78.12169647357,531.9762,-76.2000,WGS84,0.6657,0.6332,1.2694,"",0.000,0.000,56,41,41,41,00,06,39,33*e8abdfd6
#BESTPOSA,FILE,0,35.5,FINESTEERING,2319,306587.400,02000800,cdba,17139;SOL_COMPUTED,INS_RTKFIXED,17.59228161806,78.12169647432,531.9763,-76.2000,WGS84,0.6657,0.6332,1.2694,"",0.000,0.000,56,41,41,41,00,06,39,33*2a3daf8a
#BESTPOSA,FILE,0,35.5,FINESTEERING,2319,306587.600,02000800,cdba,17139;SOL_COMPUTED,INS_RTKFIXED,17.59228161749,78.12169647830,531.9766,-76.2000,WGS84,0.6657,0.6332,1.2694,"",0.000,0.000,56,41,41,41,00,06,39,33*a5840a9d
#BESTPOSA,FILE,0,35.5,FINESTEERING,2319,306587.750,02000800,cdba,17139;SOL_COMPUTED,INS_RTKFIXED,17.59228161399,78.12169648014,531.9765,-76.2000,WGS84,0.6657,0.6332,1.2694,"",0.000,0.000,56,41,41,41,00,06,39,33*322e8f1c
#BESTPOSA,FILE,0,35.5,FINESTEERING,2319,306587.900,02000800,cdba,17139;SOL_COMPUTED,INS_RTKFIXED,17.59228161499,78.12169648393,531.9768,-76.2000,WGS84,0.6657,0.6332,1.2694,"",0.000,0.000,56,41,41,41,00,06,39,33*df9fabef
#BESTPOSA,FILE,0,35.5,FINESTEERING,2319,306588.000,02000800,cdba,17139;SOL_COMPUTED,INS_RTKFIXED,17.59228161521,78.12169648532,531.9768,-76.2000,WGS84,0.6657,0.6332,1.2694,"",0.000,0.000,56,41,41,41,00,06,39,33*866106b8
#BESTPOSA,FILE,0,35.5,FINESTEERING,2319,306588.150,02000800,cdba,17139;SOL_COMPUTED,INS_RTKFIXED,17.59228161482,78.12169648586,531.9768,-76.2000,WGS84,0.6656,0.6330,1.2694,"",0.000,0.000,56,41,41,41,00,06,39,33*5fdf7bba
#BESTPOSA,FILE,0,36.0,FINESTEERING,2319,306588.200,02000800,cdba,17139;SOL_COMPUTED,INS_RTKFIXED,17.59228161526,78.12169648691,531.9768,-76.2000,WGS84,0.6656,0.6330,1.2694,"",0.000,0.000,56,41,41,41,00,06,39,33*f2e6a53b
#BESTPOSA,FILE,0,36.0,FINESTEERING,2319,306588.300,02000800,cdba,17139;SOL_COMPUTED,INS_RTKFIXED,17.59228161505,78.12169648755,531.9767,-76.2000,WGS84,0.6656,0.6330,1.2694,"",0.000,0.000,56,41,41,41,00,06,39,33*6dd52eb6
#BESTPOSA,FILE,0,36.0,FINESTEERING,2319,306588.350,02000800,cdba,17139;SOL_COMPUTED,INS_RTKFIXED,17.59228161466,78.12169648798,531.9766,-76.2000,WGS84,0.6656,0.6330,1.2694,"",0.000,0.000,56,41,41,41,00,06,39,33*cf8a023c
#BESTPOSA,FILE,0,36.0,FINESTEERING,2319,306588.400,02000800,cdba,17139;SOL_COMPUTED,INS_RTKFIXED,17.59228161458,78.12169648824,531.9766,-76.2000,WGS84,0.6656,0.6330,1.2694,"",0.000,0.000,56,41,41,41,00,06,39,33*8c75789a
#BESTPOSA,FILE,0,36.0,FINESTEERING,2319,306588.450,02000800,cdba,17139;SOL_COMPUTED,INS_RTKFIXED,17.59228161387,78.12169648933,531.9766,-76.2000,WGS84,0.6656,0.6330,1.2694,"",0.000,0.000,56,41,41,41,00,06,39,33*273b8c8a
#BESTPOSA,FILE,0,36.0,FINESTEERING,2319,306588.700,02000800,cdba,17139;SOL_COMPUTED,INS_RTKFIXED,17.59228161416,78.12169649372,531.9765,-76.2000,WGS84,0.6656,0.6330,1.2694,"",0.000,0.000,56,41,41,41,00,06,39,33*0e24f79c
#BESTPOSA,FILE,0,36.0,FINESTEERING,2319,306588.900,02000800,cdba,17139;SOL_COMPUTED,INS_RTKFIXED,17.59228161594,78.12169649802,531.9762,-76.2000,WGS84,0.6656,0.6330,1.2694,"",0.000,0.000,56,41,41,41,00,06,39,33*0f928a80
#BESTPOSA,FILE,0,36.0,FINESTEERING,2319,306588.950,02000800,cdba,17139;SOL_COMPUTED,INS_RTKFIXED,17.59228161726,78.12169650201,531.9755,-76.2000,WGS84,0.6656,0.6330,1.2694,"",0.000,0.000,56,41,41,41,00,06,39,33*c484a4f1
#BESTPOSA,FILE,0,36.0,FINESTEERING,2319,306589.000,02000800,cdba,17139;SOL_COMPUTED,INS_RTKFIXED,17.59228161763,78.12169650913,531.9744,-76.2000,WGS84,0.6656,0.6330,1.2694,"",0.000,0.000,56,41,41,41,00,06,39,33*c10609e0
#BESTPOSA,FILE,0,36.0,FINESTEERING,2319,306589.050,02000800,cdba,17139;SOL_COMPUTED,INS_RTKFIXED,17.59228161774,78.12169652115,531.9733,-76.2000,WGS84,0.6647,0.6317,1.2705,"",0.000,0.000,56,41,41,41,00,06,39,33*a2eaf5ad
#BESTPOSA,FILE,0,34.5,FINESTEERING,2319,306589.100,02000800,cdba,17139;SOL_COMPUTED,INS_RTKFIXED,17.59228161760,78.12169653755,531.9724,-76.2000,WGS84,0.6647,0.6317,1.2705,"",0.000,0.000,56,41,41,41,00,06,39,33*7f373c29
#BESTPOSA,FILE,0,34.5,FINESTEERING,2319,306589.150,02000800,cdba,17139;SOL_COMPUTED,INS_RTKFIXED,17.59228161843,78.12169655878,531.9719,-76.2000,WGS84,0.6647,0.6317,1.2705,"",0.000,0.000,56,41,41,41,00,06,39,33*0c20cfab
#BESTPOSA,FILE,0,34.5,FINESTEERING,2319,306589.250,02000800,cdba,17139;SOL_COMPUTED,INS_RTKFIXED,17.59228162069,78.12169662024,531.9721,-76.2000,WGS84,0.6647,0.6317,1.2705,"",0.000,0.000,56,41,41,41,00,06,39,33*254e9e28
#BESTPOSA,FILE,0,34.5,FINESTEERING,2319,306589.300,02000800,cdba,17139;SOL_COMPUTED,INS_RTKFIXED,17.59228162018,78.12169665980,531.9725,-76.2000,WGS84,0.6647,0.6317,1.2705,"",0.000,0.000,56,41,41,41,00,06,39,33*773dd713
#BESTPOSA,FILE,0,34.5,FINESTEERING,2319,306589.350,02000800,cdba,17139;SOL_COMPUTED,INS_RTKFIXED,17.59228161927,78.12169670395,531.9729,-76.2000,WGS84,0.6647,0.6317,1.2705,"",0.000,0.000,56,41,41,41,00,06,39,33*5047c7e2
#BESTPOSA,FILE,0,34.5,FINESTEERING,2319,306589.400,02000800,cdba,17139;SOL_COMPUTED,INS_RTKFIXED,17.59228161949,78.12169675079,531.9731,-76.2000,WGS84,0.6647,0.6317,1.2705,"",0.000,0.000,56,41,41,41,00,06,39,33*589e5061
#BESTPOSA,FILE,0,34.5,FINESTEERING,2319,306589.450,02000800,cdba,17139;SOL_COMPUTED,INS_RTKFIXED,17.59228162046,78.12169680098,531.9730,-76.2000,WGS84,0.6647,0.6317,1.2705,"",0.000,0.000,56,41,41,41,00,06,39,33*ec82d7d8
#BESTPOSA,FILE,0,34.5,FINESTEERING,2319,306589.500,02000800,cdba,17139;SOL_COMPUTED,INS_RTKFIXED,17.59228162196,78.12169685443,531.9729,-76.2000,WGS84,0.6647,0.6317,1.2705,"",0.000,0.000,56,41,41,41,00,06,39,33*0ed0b732
#BESTPOSA,FILE,0,34.5,FINESTEERING,2319,306589.550,02000800,cdba,17139;SOL_COMPUTED,INS_RTKFIXED,17.59228162308,78.12169691312,531.9727,-76.2000,WGS84,0.6647,0.6317,1.2705,"",0.000,0.000,56,41,41,41,00,06,39,33*38caca30
#BESTPOSA,FILE,0,34.5,FINESTEERING,2319,306589.600,02000800,cdba,17139;SOL_COMPUTED,INS_RTKFIXED,17.59228162364,78.12169697747,531.9727,-76.2000,WGS84,0.6647,0.6317,1.2705,"",0.000,0.000,56,41,41,41,00,06,39,33*c2b33a7a
#BESTPOSA,FILE,0,34.5,FINESTEERING,2319,306589.650,02000800,cdba,17139;SOL_COMPUTED,INS_RTKFIXED,17.59228162403,78.12169704623,531.9727,-76.2000,WGS84,0.6647,0.6317,1.2705,"",0.000,0.000,56,41,41,41,00,06,39,33*11a9e077
#BESTPOSA,FILE,0,34.5,FINESTEERING,2319,306589.700,02000000,cdba,17139;SOL_COMPUTED,INS_RTKFIXED,17.59228162356,78.12169712062,531.9728,-76.2000,WGS84,0.6647,0.6317,1.2705,"",0.000,0.000,56,41,41,41,00,06,39,33*ecfa0ce7
#BESTPOSA,FILE,0,34.5,FINESTEERING,2319,306589.750,02000000,cdba,17139;SOL_COMPUTED,INS_RTKFIXED,17.59228162459,78.12169719802,531.9729,-76.2000,WGS84,0.6647,0.6317,1.2705,"",0.000,0.000,56,41,41,41,00,06,39,33*1420bd97
#BESTPOSA,FILE,0,34.5,FINESTEERING,2319,306589.800,02000000,cdba,17139;SOL_COMPUTED,INS_RTKFIXED,17.59228162637,78.12169727956,531.9731,-76.2000,WGS84,0.6647,0.6317,1.2705,"",0.000,0.000,56,41,41,41,00,06,39,33*2c35c54b
#BESTPOSA,FILE,0,34.5,FINESTEERING,2319,306589.850,02000000,cdba,17139;SOL_COMPUTED,INS_RTKFIXED,17.59228162921,78.12169736288,531.9733,-76.2000,WGS84,0.6647,0.6317,1.2705,"",0.000,0.000,56,41,41,41,00,06,39,33*e1580214
#BESTPOSA,FILE,0,34.5,FINESTEERING,2319,306589.900,02000000,cdba,17139;SOL_COMPUTED,INS_RTKFIXED,17.59228163230,78.12169744904,531.9734,-76.2000,WGS84,0.6647,0.6317,1.2705,"",0.000,0.000,56,41,41,41,00,06,39,33*d3befa2f
#BESTPOSA,FILE,0,34.5,FINESTEERING,2319,306589.950,02000000,cdba,17139;SOL_COMPUTED,INS_RTKFIXED,17.59228163424,78.12169753759,531.9732,-76.2000,WGS84,0.6647,0.6317,1.2705,"",0.000,0.000,56,41,41,41,00,06,39,33*eefc2bb6
#BESTPOSA,FILE,0,34.5,FINESTEERING,2319,306590.000,02000000,cdba,17139;SOL_COMPUTED,INS_RTKFIXED,17.59228163718,78.12169763012,531.9731,-76.2000,WGS84,0.6647,0.6317,1.2705,"",0.000,0.000,56,41,41,41,00,06,39,33*e863d243
#BESTPOSA,FILE,0,34.5,FINESTEERING,2319,306590.050,02000000,cdba,17139;SOL_COMPUTED,INS_RTKFIXED,17.59228163957,78.12169772901,531.9731,-76.2000,WGS84,0.6639,0.6303,1.2717,"",0.000,0.000,56,41,41,41,00,06,39,33*db127611
#BESTPOSA,FILE,0,26.0,FINESTEERING,2319,306590.100,02000000,cdba,17139;SOL_COMPUTED,INS_RTKFIXED,17.59228164308,78.12169783274,531.9732,-76.2000,WGS84,0.6639,0.6303,1.2717,"",0.000,0.000,56,41,41,41,00,06,39,33*d9242539
#BESTPOSA,FILE,0,26.0,FINESTEERING,2319,306590.150,02000000,cdba,17139;SOL_COMPUTED,INS_RTKFIXED,17.59228164587,78.12169794212,531.9732,-76.2000,WGS84,0.6639,0.6303,1.2717,"",0.000,0.000,56,41,41,41,00,06,39,33*d1726d83
#BESTPOSA,FILE,0,26.0,FINESTEERING,2319,306590.200,02000000,cdba,17139;SOL_COMPUTED,INS_RTKFIXED,17.59228164738,78.12169805816,531.9730,-76.2000,WGS84,0.6639,0.6303,1.2717,"",0.000,0.000,56,41,41,41,00,06,39,33*2cbed1ad
#BESTPOSA,FILE,0,26.0,FINESTEERING,2319,306590.250,02000000,cdba,17139;SOL_COMPUTED,INS_RTKFIXED,17.59228165002,78.12169817952,531.9731,-76.2000,WGS84,0.6639,0.6303,1.2717,"",0.000,0.000,56,41,41,41,00,06,39,33*0e1f4aa6
#BESTPOSA,FILE,0,26.0,FINESTEERING,2319,306590.300,02000000,cdba,17139;SOL_COMPUTED,INS_RTKFIXED,17.59228165329,78.12169830802,531.9731,-76.2000,WGS84,0.6639,0.6303,1.2717,"",0.000,0.000,56,41,41,41,00,06,39,33*d543a251
#BESTPOSA,FILE,0,26.0,FINESTEERING,2319,306590.350,02000000,cdba,17139;SOL_COMPUTED,INS_RTKFIXED,17.59228165681,78.12169844399,531.9731,-76.2000,WGS84,0.6639,0.6303,1.2717,"",0.000,0.000,56,41,41,41,00,06,39,33*b58a29ff
#BESTPOSA,FILE,0,26.0,FINESTEERING,2319,306590.400,02000000,cdba,17139;SOL_COMPUTED,INS_RTKFIXED,17.59228165996,78.12169858759,531.9730,-76.2000,WGS84,0.6639,0.6303,1.2717,"",0.000,0.000,56,41,41,41,00,06,39,33*a0f5d2e5
#BESTPOSA,FILE,0,26.0,FINESTEERING,2319,306590.450,02000000,cdba,17139;SOL_COMPUTED,INS_RTKFIXED,17.59228166297,78.12169873987,531.9731,-76.2000,WGS84,0.6639,0.6303,1.2717,"",0.000,0.000,56,41,41,41,00,06,39,33*31faa178
#BESTPOSA,FILE,0,26.0,FINESTEERING,2319,306590.500,02000000,cdba,17139;SOL_COMPUTED,INS_RTKFIXED,17.59228166540,78.12169890127,531.9732,-76.2000,WGS84,0.6639,0.6303,1.2717,"",0.000,0.000,56,41,41,41,00,06,39,33*5612ccb2
#BESTPOSA,FILE,0,26.0,FINESTEERING,2319,306590.550,02000000,cdba,17139;SOL_COMPUTED,INS_RTKFIXED,17.59228166895,78.12169907026,531.9733,-76.2000,WGS84,0.6639,0.6303,1.2717,"",0.000,0.000,56,41,41,41,00,06,39,33*4c2ceaef
#BESTPOSA,FILE,0,26.0,FINESTEERING,2319,306590.600,02000000,cdba,17139;SOL_COMPUTED,INS_RTKFIXED,17.59228167187,78.12169924727,531.9733,-76.2000,WGS84,0.6639,0.6303,1.2717,"",0.000,0.000,56,41,41,41,00,06,39,33*d8968922
#BESTPOSA,FILE,0,26.0,FINESTEERING,2319,306590.650,02000000,cdba,17139;SOL_COMPUTED,INS_RTKFIXED,17.59228167573,78.12169943253,531.9733,-76.2000,WGS84,0.6639,0.6303,1.2717,"",0.000,0.000,56,41,41,41,00,06,39,33*e1a76e47
#BESTPOSA,FILE,0,26.0,FINESTEERING,2319,306590.700,02000000,cdba,17139;SOL_COMPUTED,INS_RTKFIXED,17.59228167964,78.12169962744,531.9733,-76.2000,WGS84,0.6639,0.6303,1.2717,"",0.000,0.000,56,41,41,41,00,06,39,33*a0e233c9
#BESTPOSA,FILE,0,26.0,FINESTEERING,2319,306590.750,02000000,cdba,17139;SOL_COMPUTED,INS_RTKFIXED,17.59228168374,78.12169983182,531.9734,-76.2000,WGS84,0.6639,0.6303,1.2717,"",0.000,0.000,56,41,41,41,00,06,39,33*833b6f56
#BESTPOSA,FILE,0,26.0,FINESTEERING,2319,306590.800,02000000,cdba,17139;SOL_COMPUTED,INS_RTKFIXED,17.59228168899,78.12170004682,531.9735,-76.2000,WGS84,0.6639,0.6303,1.2717,"",0.000,0.000,56,41,41,41,00,06,39,33*cb7731a9
#BESTPOSA,FILE,0,26.0,FINESTEERING,2319,306590.850,02000000,cdba,17139;SOL_COMPUTED,INS_RTKFIXED,17.59228169477,78.12170027156,531.9735,-76.2000,WGS84,0.6639,0.6303,1.2717,"",0.000,0.000,56,41,41,41,00,06,39,33*9d94eb69
#BESTPOSA,FILE,0,26.0,FINESTEERING,2319,306590.900,02000000,cdba,17139;SOL_COMPUTED,INS_RTKFIXED,17.59228170194,78.12170050651,531.9736,-76.2000,WGS84,0.6639,0.6303,1.2717,"",0.000,0.000,56,41,41,41,00,06,39,33*76a8ec31
#BESTPOSA,FILE,0,26.0,FINESTEERING,2319,306590.950,02000000,cdba,17139;SOL_COMPUTED,INS_RTKFIXED,17.59228170966,78.12170075280,531.9736,-76.2000,WGS84,0.6639,0.6303,1.2717,"",0.000,0.000,56,41,41,41,00,06,39,33*24677ee2
#BESTPOSA,FILE,0,26.0,FINESTEERING,2319,306591.000,02000000,cdba,17139;SOL_COMPUTED,INS_RTKFIXED,17.59228171703,78.12170101087,531.9736,-76.2000,WGS84,0.6639,0.6303,1.2717,"",0.000,0.000,56,41,41,41,00,06,39,33*ea2231ff
#BESTPOSA,FILE,0,26.0,FINESTEERING,2319,306591.050,02000000,cdba,17139;SOL_COMPUTED,INS_RTKFIXED,17.59228172411,78.12170128189,531.9735,-76.2000,WGS84,0.6631,0.6291,1.2727,"",0.000,0.000,56,41,41,41,00,06,39,33*0776dd92
#BESTPOSA,FILE,0,26.0,FINESTEERING,2319,306591.100,02000000,cdba,17139;SOL_COMPUTED,INS_RTKFIXED,17.59228173053,78.12170156606,531.9734,-76.2000,WGS84,0.6631,0.6291,1.2727,"",0.000,0.000,56,41,41,41,00,06,39,33*1fc6e21f
#BESTPOSA,FILE,0,30.5,FINESTEERING,2319,306591.150,02000000,cdba,17139;SOL_COMPUTED,INS_RTKFIXED,17.59228173772,78.12170186465,531.9732,-76.2000,WGS84,0.6631,0.6291,1.2727,"",0.000,0.000,56,41,41,41,00,06,39,33*11847aa9
#BESTPOSA,FILE,0,30.5,FINESTEERING,2319,306591.200,02000000,cdba,17139;SOL_COMPUTED,INS_RTKFIXED,17.59228174505,78.12170217940,531.9729,-76.2000,WGS84,0.6631,0.6291,1.2727,"",0.000,0.000,56,41,41,41,00,06,39,33*8c808fd7
#BESTPOSA,FILE,0,30.5,FINESTEERING,2319,306591.250,02000000,cdba,17139;SOL_COMPUTED,INS_RTKFIXED,17.59228175292,78.12170251128,531.9725,-76.2000,WGS84,0.6631,0.6291,1.2727,"",0.000,0.000,56,41,41,41,00,06,39,33*2155a46a
#BESTPOSA,FILE,0,30.5,FINESTEERING,2319,306591.300,02000000,cdba,17139;SOL_COMPUTED,INS_RTKFIXED,17.59228176262,78.12170286091,531.9723,-76.2000,WGS84,0.6631,0.6291,1.2727,"",0.000,0.000,56,41,41,41,00,06,39,33*41639079
#BESTPOSA,FILE,0,30.5,FINESTEERING,2319,306591.350,02000000,cdba,17139;SOL_COMPUTED,INS_RTKFIXED,17.59228177251,78.12170323058,531.9721,-76.2000,WGS84,0.6631,0.6291,1.2727,"",0.000,0.000,56,41,41,41,00,06,39,33*8d1470e3
#BESTPOSA,FILE,0,30.5,FINESTEERING,2319,306591.400,02000000,cdba,17139;SOL_COMPUTED,INS_RTKFIXED,17.59228178352,78.12170362125,531.9720,-76.2000,WGS84,0.6631,0.6291,1.2727,"",0.000,0.000,56,41,41,41,00,06,39,33*8b6fba44
#BESTPOSA,FILE,0,30.5,FINESTEERING,2319,306591.450,02000000,cdba,17139;SOL_COMPUTED,INS_RTKFIXED,17.59228179569,78.12170403375,531.9722,-76.2000,WGS84,0.6631,0.6291,1.2727,"",0.000,0.000,56,41,41,41,00,06,39,33*61c78643
#BESTPOSA,FILE,0,30.5,FINESTEERING,2319,306591.500,02000000,cdba,17139;SOL_COMPUTED,INS_RTKFIXED,17.59228180950,78.12170446776,531.9725,-76.2000,WGS84,0.6631,0.6291,1.2727,"",0.000,0.000,56,41,41,41,00,06,39,33*157e8099
#BESTPOSA,FILE,0,30.5,FINESTEERING,2319,306591.550,02000000,cdba,17139;SOL_COMPUTED,INS_RTKFIXED,17.59228182358,78.12170492404,531.9727,-76.2000,WGS84,0.6631,0.6291,1.2727,"",0.000,0.000,56,41,41,41,00,06,39,33*49937c07
#BESTPOSA,FILE,0,30.5,FINESTEERING,2319,306591.600,02000000,cdba,17139;SOL_COMPUTED,INS_RTKFIXED,17.59228183797,78.12170540278,531.9729,-76.2000,WGS84,0.6631,0.6291,1.2727,"",0.000,0.000,56,41,41,41,00,06,39,33*24a64d23
#BESTPOSA,FILE,0,30.5,FINESTEERING,2319,306591.650,02000000,cdba,17139;SOL_COMPUTED,INS_RTKFIXED,17.59228185346,78.12170590398,531.9729,-76.2000,WGS84,0.6631,0.6291,1.2727,"",0.000,0.000,56,41,41,41,00,06,39,33*b6047f94
#BESTPOSA,FILE,0,30.5,FINESTEERING,2319,306591.700,02000000,cdba,17139;SOL_COMPUTED,INS_RTKFIXED,17.59228186923,78.12170643007,531.9728,-76.2000,WGS84,0.6631,0.6291,1.2727,"",0.000,0.000,56,41,41,41,00,06,39,33*bc002bfd
#BESTPOSA,FILE,0,30.5,FINESTEERING,2319,306591.750,02000000,cdba,17139;SOL_COMPUTED,INS_RTKFIXED,17.59228188577,78.12170698150,531.9728,-76.2000,WGS84,0.6631,0.6291,1.2727,"",0.000,0.000,56,41,41,41,00,06,39,33*69d98be5
#BESTPOSA,FILE,0,30.5,FINESTEERING,2319,306591.800,02000000,cdba,17139;SOL_COMPUTED,INS_RTKFIXED,17.59228190216,78.12170755851,531.9727,-76.2000,WGS84,0.6631,0.6291,1.2727,"",0.000,0.000,56,41,41,41,00,06,39,33*f244e560
#BESTPOSA,FILE,0,30.5,FINESTEERING,2319,306591.850,02000000,cdba,17139;SOL_COMPUTED,INS_RTKFIXED,17.59228191837,78.12170816033,531.9726,-76.2000,WGS84,0.6631,0.6291,1.2727,"",0.000,0.000,56,41,41,41,00,06,39,33*b106f5be
#BESTPOSA,FILE,0,30.5,FINESTEERING,2319,306591.900,02000000,cdba,17139;SOL_COMPUTED,INS_RTKFIXED,17.59228193522,78.12170878683,531.9728,-76.2000,WGS84,0.6631,0.6291,1.2727,"",0.000,0.000,56,41,41,41,00,06,39,33*9d02ebdc
#BESTPOSA,FILE,0,30.5,FINESTEERING,2319,306591.950,02000000,cdba,17139;SOL_COMPUTED,INS_RTKFIXED,17.59228195300,78.12170943822,531.9729,-76.2000,WGS84,0.6631,0.6291,1.2727,"",0.000,0.000,56,41,41,41,00,06,39,33*5268d9c7
#BESTPOSA,FILE,0,30.5,FINESTEERING,2319,306592.000,02000000,cdba,17139;SOL_COMPUTED,INS_RTKFIXED,17.59228197209,78.12171011719,531.9732,-76.2000,WGS84,0.6631,0.6291,1.2727,"",0.000,0.000,56,41,41,41,00,06,39,33*488b0193
#BESTPOSA,FILE,0,30.5,FINESTEERING,2319,306592.050,02000000,cdba,17139;SOL_COMPUTED,INS_RTKFIXED,17.59228199517,78.12171081823,531.9737,-76.2000,WGS84,0.6628,0.6284,1.2733,"",0.000,0.000,56,41,41,41,00,06,39,33*aefa5833
#BESTPOSA,FILE,0,30.5,FINESTEERING,2319,306592.100,02000000,cdba,17139;SOL_COMPUTED,INS_RTKFIXED,17.59228202111,78.12171154651,531.9745,-76.2000,WGS84,0.6628,0.6284,1.2733,"",0.000,0.000,56,41,41,41,00,06,39,33*5bf0da66
#BESTPOSA,FILE,0,30.5,FINESTEERING,2319,306592.150,02000000,cdba,17139;SOL_COMPUTED,INS_RTKFIXED,17.59228204694,78.12171229874,531.9752,-76.2000,WGS84,0.6628,0.6284,1.2733,"",0.000,0.000,56,41,41,41,00,06,39,33*d55544e4
#BESTPOSA,FILE,0,31.5,FINESTEERING,2319,306592.200,02000000,cdba,17139;SOL_COMPUTED,INS_RTKFIXED,17.59228207201,78.12171307391,531.9759,-76.2000,WGS84,0.6628,0.6284,1.2733,"",0.000,0.000,56,41,41,41,00,06,39,33*ffb692a2
#BESTPOSA,FILE,0,31.5,FINESTEERING,2319,306592.250,02000000,cdba,17139;SOL_COMPUTED,INS_RTKFIXED,17.59228209834,78.12171387429,531.9765,-76.2000,WGS84,0.6628,0.6284,1.2733,"",0.000,0.000,56,41,41,41,00,06,39,33*7c232afd
#BESTPOSA,FILE,0,31.5,FINESTEERING,2319,306592.300,02000000,cdba,17139;SOL_COMPUTED,INS_RTKFIXED,17.59228212620,78.12171469491,531.9772,-76.2000,WGS84,0.6628,0.6284,1.2733,"",0.000,0.000,56,41,41,41,00,06,39,33*d4b09876
#BESTPOSA,FILE,0,31.5,FINESTEERING,2319,306592.350,02000000,cdba,17139;SOL_COMPUTED,INS_RTKFIXED,17.59228215566,78.12171554084,531.9778,-76.2000,WGS84,0.6628,0.6284,1.2733,"",0.000,0.000,56,41,41,41,00,06,39,33*fefdefa8
#BESTPOSA,FILE,0,31.5,FINESTEERING,2319,306592.400,02000000,cdba,17139;SOL_COMPUTED,INS_RTKFIXED,17.59228218926,78.12171640852,531.9787,-76.2000,WGS84,0.6628,0.6284,1.2733,"",0.000,0.000,56,41,41,41,00,06,39,33*5d5d58ba
#BESTPOSA,FILE,0,31.5,FINESTEERING,2319,306592.450,02000000,cdba,17139;SOL_COMPUTED,INS_RTKFIXED,17.59228221965,78.12171730466,531.9796,-76.2000,WGS84,0.6628,0.6284,1.2733,"",0.000,0.000,56,41,41,41,00,06,39,33*8ed806c5
#BESTPOSA,FILE,0,31.5,FINESTEERING,2319,306592.500,02000000,cdba,17139;SOL_COMPUTED,INS_RTKFIXED,17.59228224767,78.12171822756,531.9802,-76.2000,WGS84,0.6628,0.6284,1.2733,"",0.000,0.000,56,41,41,41,00,06,39,33*f64cbd19
#BESTPOSA,FILE,0,31.5,FINESTEERING,2319,306592.550,02000000,cdba,17139;SOL_COMPUTED,INS_RTKFIXED,17.59228228005,78.12171917167,531.9811,-76.2000,WGS84,0.6628,0.6284,1.2733,"",0.000,0.000,56,41,41,41,00,06,39,33*8bd8255e
#BESTPOSA,FILE,0,31.5,FINESTEERING,2319,306592.600,02000000,cdba,17139;SOL_COMPUTED,INS_RTKFIXED,17.59228230861,78.12172014639,531.9817,-76.2000,WGS84,0.6628,0.6284,1.2733,"",0.000,0.000,56,41,41,41,00,06,39,33*b69b8a64
#BESTPOSA,FILE,0,31.5,FINESTEERING,2319,306592.650,02000000,cdba,17139;SOL_COMPUTED,INS_RTKFIXED,17.59228233796,78.12172114658,531.9823,-76.2000,WGS84,0.6628,0.6284,1.2733,"",0.000,0.000,56,41,41,41,00,06,39,33*a69b851e
#BESTPOSA,FILE,0,31.5,FINESTEERING,2319,306592.700,02000000,cdba,17139;SOL_COMPUTED,INS_RTKFIXED,17.59228237099,78.12172217067,531.9834,-76.2000,WGS84,0.6628,0.6284,1.2733,"",0.000,0.000,56,41,41,41,00,06,39,33*3d155e50
#BESTPOSA,FILE,0,31.5,FINESTEERING,2319,306592.750,02000000,cdba,17139;SOL_COMPUTED,INS_RTKFIXED,17.59228240377,78.12172322259,531.9845,-76.2000,WGS84,0.6628,0.6284,1.2733,"",0.000,0.000,56,41,41,41,00,06,39,33*aebcd379
#BESTPOSA,FILE,0,31.5,FINESTEERING,2319,306592.800,02000000,cdba,17139;SOL_COMPUTED,INS_RTKFIXED,17.59228243624,78.12172429948,531.9854,-76.2000,WGS84,0.6628,0.6284,1.2733,"",0.000,0.000,56,41,41,41,00,06,39,33*42fe8629
#BESTPOSA,FILE,0,31.5,FINESTEERING,2319,306592.850,02000000,cdba,17139;SOL_COMPUTED,INS_RTKFIXED,17.59228247048,78.12172540055,531.9863,-76.2000,WGS84,0.6628,0.6284,1.2733,"",0.000,0.000,56,41,41,41,00,06,39,33*439985a7
#BESTPOSA,FILE,0,31.5,FINESTEERING,2319,306592.900,02000000,cdba,17139;SOL_COMPUTED,INS_RTKFIXED,17.59228250426,78.12172652900,531.9870,-76.2000,WGS84,0.6628,0.6284,1.2733,"",0.000,0.000,56,41,41,41,00,06,39,33*75d378a5
#BESTPOSA,FILE,0,31.5,FINESTEERING,2319,306592.950,02000000,cdba,17139;SOL_COMPUTED,INS_RTKFIXED,17.59228254089,78.12172768150,531.9877,-76.2000,WGS84,0.6628,0.6284,1.2733,"",0.000,0.000,56,41,41,41,00,06,39,33*3af2f329
#BESTPOSA,FILE,0,31.5,FINESTEERING,2319,306593.000,02000000,cdba,17139;SOL_COMPUTED,INS_RTKFIXED,17.59228257962,78.12172885922,531.9884,-76.2000,WGS84,0.6628,0.6284,1.2733,"",0.000,0.000,56,41,41,41,00,06,39,33*462e9771
#BESTPOSA,FILE,0,31.5,FINESTEERING,2319,306593.050,02000000,cdba,17139;SOL_COMPUTED,INS_RTKFIXED,17.59228262217,78.12173006288,531.9893,-76.2000,WGS84,0.6631,0.6283,1.2732,"",0.000,0.000,56,41,41,41,00,06,39,33*e6e20114
#BESTPOSA,FILE,0,31.0,FINESTEERING,2319,306593.100,02000000,cdba,17139;SOL_COMPUTED,INS_RTKFIXED,17.59228266803,78.12173129250,531.9902,-76.2000,WGS84,0.6631,0.6283,1.2732,"",0.000,0.000,56,41,41,41,00,06,39,33*3dc1f101
#BESTPOSA,FILE,0,31.0,FINESTEERING,2319,306593.150,02000000,cdba,17139;SOL_COMPUTED,INS_RTKFIXED,17.59228271827,78.12173254875,531.9916,-76.2000,WGS84,0.6631,0.6283,1.2732,"",0.000,0.000,56,41,41,41,00,06,39,33*8cad5f08
#BESTPOSA,FILE,0,31.0,FINESTEERING,2319,306593.200,02000000,cdba,17139;SOL_COMPUTED,INS_RTKFIXED,17.59228276773,78.12173382753,531.9930,-76.2000,WGS84,0.6631,0.6283,1.2732,"",0.000,0.000,56,41,41,41,00,06,39,33*a2536a1d
#BESTPOSA,FILE,0,31.0,FINESTEERING,2319,306593.250,02000000,cdba,17139;SOL_COMPUTED,INS_RTKFIXED,17.59228281141,78.12173512909,531.9942,-76.2000,WGS84,0.6631,0.6283,1.2732,"",0.000,0.000,56,41,41,41,00,06,39,33*45a2c91a
#BESTPOSA,FILE,0,31.0,FINESTEERING,2319,306593.300,02000000,cdba,17139;SOL_COMPUTED,INS_RTKFIXED,17.59228285812,78.12173645027,531.9953,-76.2000,WGS84,0.6631,0.6283,1.2732,"",0.000,0.000,56,41,41,41,00,06,39,33*97e40200
#BESTPOSA,FILE,0,31.0,FINESTEERING,2319,306593.350,02000000,cdba,17139;SOL_COMPUTED,INS_RTKFIXED,17.59228290585,78.12173778984,531.9967,-76.2000,WGS84,0.6631,0.6283,1.2732,"",0.000,0.000,56,41,41,41,00,06,39,33*efa375f5
#BESTPOSA,FILE,0,31.0,FINESTEERING,2319,306593.400,02000000,cdba,17139;SOL_COMPUTED,INS_RTKFIXED,17.59228295190,78.12173915121,531.9982,-76.2000,WGS84,0.6631,0.6283,1.2732,"",0.000,0.000,56,41,41,41,00,06,39,33*12d13ce8
#BESTPOSA,FILE,0,31.0,FINESTEERING,2319,306593.450,02000000,cdba,17139;SOL_COMPUTED,INS_RTKFIXED,17.59228300536,78.12174052957,532.0000,-76.2000,WGS84,0.6631,0.6283,1.2732,"",0.000,0.000,56,41,41,41,00,06,39,33*35feee6a
#BESTPOSA,FILE,0,31.0,FINESTEERING,2319,306593.500,02000000,cdba,17139;SOL_COMPUTED,INS_RTKFIXED,17.59228305696,78.12174192427,532.0013,-76.2000,WGS84,0.6631,0.6283,1.2732,"",0.000,0.000,56,41,41,41,00,06,39,33*b49b42f3
#BESTPOSA,FILE,0,31.0,FINESTEERING,2319,306593.550,02000000,cdba,17139;SOL_COMPUTED,INS_RTKFIXED,17.59228310759,78.12174333731,532.0023,-76.2000,WGS84,0.6631,0.6283,1.2732,"",0.000,0.000,56,41,41,41,00,06,39,33*b10d03c9
#BESTPOSA,FILE,0,31.0,FINESTEERING,2319,306593.600,02000000,cdba,17139;SOL_COMPUTED,INS_RTKFIXED,17.59228315866,78.12174476752,532.0033,-76.2000,WGS84,0.6631,0.6283,1.2732,"",0.000,0.000,56,41,41,41,00,06,39,33*0615c709
#BESTPOSA,FILE,0,31.0,FINESTEERING,2319,306593.650,02000000,cdba,17139;SOL_COMPUTED,INS_RTKFIXED,17.59228321612,78.12174621931,532.0046,-76.2000,WGS84,0.6631,0.6283,1.2732,"",0.000,0.000,56,41,41,41,00,06,39,33*0c43e88d
#BESTPOSA,FILE,0,31.0,FINESTEERING,2319,306593.700,02000000,cdba,17139;SOL_COMPUTED,INS_RTKFIXED,17.59228327799,78.12174769163,532.0061,-76.2000,WGS84,0.6631,0.6283,1.2732,"",0.000,0.000,56,41,41,41,00,06,39,33*67507a0d
#BESTPOSA,FILE,0,31.0,FINESTEERING,2319,306593.750,02000000,cdba,17139;SOL_COMPUTED,INS_RTKFIXED,17.59228333693,78.12174918430,532.0072,-76.2000,WGS84,0.6631,0.6283,1.2732,"",0.000,0.000,56,41,41,41,00,06,39,33*77c1219e
#BESTPOSA,FILE,0,31.0,FINESTEERING,2319,306593.800,02000000,cdba,17139;SOL_COMPUTED,INS_RTKFIXED,17.59228339911,78.12175069041,532.0087,-76.2000,WGS84,0.6631,0.6283,1.2732,"",0.000,0.000,56,41,41,41,00,06,39,33*a820a9cb
#BESTPOSA,FILE,0,31.0,FINESTEERING,2319,306593.850,02000000,cdba,17139;SOL_COMPUTED,INS_RTKFIXED,17.59228345382,78.12175221925,532.0101,-76.2000,WGS84,0.6631,0.6283,1.2732,"",0.000,0.000,56,41,41,41,00,06,39,33*e516934a
#BESTPOSA,FILE,0,31.0,FINESTEERING,2319,306593.900,02000000,cdba,17139;SOL_COMPUTED,INS_RTKFIXED,17.59228350870,78.12175376338,532.0115,-76.2000,WGS84,0.6631,0.6283,1.2732,"",0.000,0.000,56,41,41,41,00,06,39,33*196d536a
#BESTPOSA,FILE,0,31.0,FINESTEERING,2319,306593.950,02000000,cdba,17139;SOL_COMPUTED,INS_RTKFIXED,17.59228356468,78.12175532352,532.0132,-76.2000,WGS84,0.6631,0.6283,1.2732,"",0.000,0.000,56,41,41,41,00,06,39,33*55b0368f
#BESTPOSA,FILE,0,31.0,FINESTEERING,2319,306594.000,02000000,cdba,17139;SOL_COMPUTED,INS_RTKFIXED,17.59228361632,78.12175690663,532.0141,-76.2000,WGS84,0.6631,0.6283,1.2732,"",0.000,0.000,56,41,41,41,00,06,39,33*4f3ec805
#BESTPOSA,FILE,0,31.0,FINESTEERING,2319,306594.050,02000000,cdba,17139;SOL_COMPUTED,INS_RTKFIXED,17.59228367949,78.12175850308,532.0157,-76.2000,WGS84,0.6642,0.6290,1.2725,"",0.000,0.000,56,41,41,41,00,06,39,33*78273e52
#BESTPOSA,FILE,0,31.0,FINESTEERING,2319,306594.100,02000000,cdba,17139;SOL_COMPUTED,INS_RTKFIXED,17.59228374466,78.12176011617,532.0171,-76.2000,WGS84,0.6642,0.6290,1.2725,"",0.000,0.000,56,41,41,41,00,06,39,33*323b1052
#BESTPOSA,FILE,0,31.5,FINESTEERING,2319,306594.150,02000000,cdba,17139;SOL_COMPUTED,INS_RTKFIXED,17.59228381600,78.12176174617,532.0185,-76.2000,WGS84,0.6642,0.6290,1.2725,"",0.000,0.000,56,41,41,41,00,06,39,33*2ea37263
#BESTPOSA,FILE,0,31.5,FINESTEERING,2319,306594.200,02000000,cdba,17139;SOL_COMPUTED,INS_RTKFIXED,17.59228388579,78.12176339131,532.0194,-76.2000,WGS84,0.6642,0.6290,1.2725,"",0.000,0.000,56,41,41,41,00,06,39,33*1c736fab
#BESTPOSA,FILE,0,31.5,FINESTEERING,2319,306594.250,02000000,cdba,17139;SOL_COMPUTED,INS_RTKFIXED,17.59228396189,78.12176505367,532.0210,-76.2000,WGS84,0.6642,0.6290,1.2725,"",0.000,0.000,56,41,41,41,00,06,39,33*4df68725
#BESTPOSA,FILE,0,31.5,FINESTEERING,2319,306594.300,02000000,cdba,17139;SOL_COMPUTED,INS_RTKFIXED,17.59228403953,78.12176674025,532.0228,-76.2000,WGS84,0.6642,0.6290,1.2725,"",0.000,0.000,56,41,41,41,00,06,39,33*168d796b
#BESTPOSA,FILE,0,31.5,FINESTEERING,2319,306594.350,02000000,cdba,17139;SOL_COMPUTED,INS_RTKFIXED,17.59228412277,78.12176843823,532.0250,-76.2000,WGS84,0.6642,0.6290,1.2725,"",0.000,0.000,56,41,41,41,00,06,39,33*df9ceb29
#BESTPOSA,FILE,0,31.5,FINESTEERING,2319,306594.400,02000000,cdba,17139;SOL_COMPUTED,INS_RTKFIXED,17.59228419256,78.12177016259,532.0264,-76.2000,WGS84,0.6642,0.6290,1.2725,"",0.000,0.000,56,41,41,41,00,06,39,33*07924476
#BESTPOSA,FILE,0,31.5,FINESTEERING,2319,306594.450,02000000,cdba,17139;SOL_COMPUTED,INS_RTKFIXED,17.59228426809,78.12177190124,532.0280,-76.2000,WGS84,0.6642,0.6290,1.2725,"",0.000,0.000,56,41,41,41,00,06,39,33*a6e534d5
#BESTPOSA,FILE,0,31.5,FINESTEERING,2319,306594.500,02000000,cdba,17139;SOL_COMPUTED,INS_RTKFIXED,17.59228434525,78.12177365849,532.0296,-76.2000,WGS84,0.6642,0.6290,1.2725,"",0.000,0.000,56,41,41,41,00,06,39,33*7ecfc2e7
#BESTPOSA,FILE,0,31.5,FINESTEERING,2319,306594.550,02000000,cdba,17139;SOL_COMPUTED,INS_RTKFIXED,17.59228442512,78.12177544068,532.0309,-76.2000,WGS84,0.6642,0.6290,1.2725,"",0.000,0.000,56,41,41,41,00,06,39,33*5768e37d
#BESTPOSA,FILE,0,31.5,FINESTEERING,2319,306594.600,02000000,cdba,17139;SOL_COMPUTED,INS_RTKFIXED,17.59228450637,78.12177724465,532.0320,-76.2000,WGS84,0.6642,0.6290,1.2725,"",0.000,0.000,56,41,41,41,00,06,39,33*822355ff
#BESTPOSA,FILE,0,31.5,FINESTEERING,2319,306594.650,02000000,cdba,17139;SOL_COMPUTED,INS_RTKFIXED,17.59228458543,78.12177907170,532.0328,-76.2000,WGS84,0.6642,0.6290,1.2725,"",0.000,0.000,56,41,41,41,00,06,39,33*30b95bad
#BESTPOSA,FILE,0,31.5,FINESTEERING,2319,306594.700,02000000,cdba,17139;SOL_COMPUTED,INS_RTKFIXED,17.59228466525,78.12178093010,532.0335,-76.2000,WGS84,0.6642,0.6290,1.2725,"",0.000,0.000,56,41,41,41,00,06,39,33*b5628810
#BESTPOSA,FILE,0,31.5,FINESTEERING,2319,306594.750,02000000,cdba,17139;SOL_COMPUTED,INS_RTKFIXED,17.59228475189,78.12178281950,532.0347,-76.2000,WGS84,0.6642,0.6290,1.2725,"",0.000,0.000,56,41,41,41,00,06,39,33*726a89e2
#BESTPOSA,FILE,0,31.5,FINESTEERING,2319,306594.800,02000000,cdba,17139;SOL_COMPUTED,INS_RTKFIXED,17.59228483543,78.12178473691,532.0361,-76.2000,WGS84,0.6642,0.6290,1.2725,"",0.000,0.000,56,41,41,41,00,06,39,33*d749c480
#BESTPOSA,FILE,0,31.5,FINESTEERING,2319,306594.850,02000000,cdba,17139;SOL_COMPUTED,INS_RTKFIXED,17.59228491448,78.12178668072,532.0380,-76.2000,WGS84,0.6642,0.6290,1.2725,"",0.000,0.000,56,41,41,41,00,06,39,33*312fe727
#BESTPOSA,FILE,0,31.5,FINESTEERING,2319,306594.900,02000000,cdba,17139;SOL_COMPUTED,INS_RTKFIXED,17.59228499478,78.12178864755,532.0405,-76.2000,WGS84,0.6642,0.6290,1.2725,"",0.000,0.000,56,41,41,41,00,06,39,33*f2092de0
#BESTPOSA,FILE,0,31.5,FINESTEERING,2319,306594.950,02000000,cdba,17139;SOL_COMPUTED,INS_RTKFIXED,17.59228507495,78.12179063994,532.0432,-76.2000,WGS84,0.6642,0.6290,1.2725,"",0.000,0.000,56,41,41,41,00,06,39,33*f0eef68e
#BESTPOSA,FILE,0,31.5,FINESTEERING,2319,306595.000,02000000,cdba,17139;SOL_COMPUTED,INS_RTKFIXED,17.59228516061,78.12179265627,532.0462,-76.2000,WGS84,0.6642,0.6290,1.2725,"",0.000,0.000,56,41,41,41,00,06,39,33*ef03c500
#BESTPOSA,FILE,0,31.5,FINESTEERING,2319,306595.050,02000000,cdba,17139;SOL_COMPUTED,INS_RTKFIXED,17.59228524336,78.12179469917,532.0487,-76.2000,WGS84,0.6661,0.6303,1.2710,"",0.000,0.000,56,41,41,41,00,06,39,33*b7e7257c
#BESTPOSA,FILE,0,31.5,FINESTEERING,2319,306595.100,02000000,cdba,17139;SOL_COMPUTED,INS_RTKFIXED,17.59228532753,78.12179675997,532.0507,-76.2000,WGS84,0.6661,0.6303,1.2710,"",0.000,0.000,56,41,41,41,00,06,39,33*ae1adbf3
#BESTPOSA,FILE,0,31.5,FINESTEERING,2319,306595.150,02000000,cdba,17139;SOL_COMPUTED,INS_RTKFIXED,17.59228542019,78.12179884537,532.0528,-76.2000,WGS84,0.6661,0.6303,1.2710,"",0.000,0.000,56,41,41,41,00,06,39,33*b00faf03
#BESTPOSA,FILE,0,31.5,FINESTEERING,2319,306595.200,02000000,cdba,17139;SOL_COMPUTED,INS_RTKFIXED,17.59228552074,78.12180095158,532.0549,-76.2000,WGS84,0.6661,0.6303,1.2710,"",0.000,0.000,56,41,41,41,00,06,39,33*821fc407
#BESTPOSA,FILE,0,31.5,FINESTEERING,2319,306595.250,02000000,cdba,17139;SOL_COMPUTED,INS_RTKFIXED,17.59228562010,78.12180308127,532.0568,-76.2000,WGS84,0.6661,0.6303,1.2710,"",0.000,0.000,56,41,41,41,00,06,39,33*281eb986
#BESTPOSA,FILE,0,31.5,FINESTEERING,2319,306595.300,02000000,cdba,17139;SOL_COMPUTED,INS_RTKFIXED,17.59228571635,78.12180522786,532.0586,-76.2000,WGS84,0.6661,0.6303,1.2710,"",0.000,0.000,56,41,41,41,00,06,39,33*d664c79f
#BESTPOSA,FILE,0,31.5,FINESTEERING,2319,306595.350,02000000,cdba,17139;SOL_COMPUTED,INS_RTKFIXED,17.59228580820,78.12180739584,532.0599,-76.2000,WGS84,0.6661,0.6303,1.2710,"",0.000,0.000,56,41,41,41,00,06,39,33*89251e2d
#BESTPOSA,FILE,0,31.5,FINESTEERING,2319,306595.400,02000000,cdba,17139;SOL_COMPUTED,INS_RTKFIXED,17.59228589630,78.12180958383,532.0615,-76.2000,WGS84,0.6661,0.6303,1.2710,"",0.000,0.000,56,41,41,41,00,06,39,33*eec002d3
#BESTPOSA,FILE,0,31.5,FINESTEERING,2319,306595.450,02000000,cdba,17139;SOL_COMPUTED,INS_RTKFIXED,17.59228598549,78.12181180186,532.0638,-76.2000,WGS84,0.6661,0.6303,1.2710,"",0.000,0.000,56,41,41,41,00,06,39,33*2f563fa9
#BESTPOSA,FILE,0,31.5,FINESTEERING,2319,306595.500,02000000,cdba,17139;SOL_COMPUTED,INS_RTKFIXED,17.59228607802,78.12181404011,532.0666,-76.2000,WGS84,0.6661,0.6303,1.2710,"",0.000,0.000,56,41,41,41,00,06,39,33*718e6b7d
#BESTPOSA,FILE,0,31.5,FINESTEERING,2319,306595.550,02000000,cdba,17139;SOL_COMPUTED,INS_RTKFIXED,17.59228617379,78.12181630769,532.0695,-76.2000,WGS84,0.6661,0.6303,1.2710,"",0.000,0.000,56,41,41,41,00,06,39,33*81ce0976
#BESTPOSA,FILE,0,31.5,FINESTEERING,2319,306595.600,02000000,cdba,17139;SOL_COMPUTED,INS_RTKFIXED,17.59228627712,78.12181858848,532.0723,-76.2000,WGS84,0.6661,0.6303,1.2710,"",0.000,0.000,56,41,41,41,00,06,39,33*33591fcd
#BESTPOSA,FILE,0,31.5,FINESTEERING,2319,306595.650,02000000,cdba,17139;SOL_COMPUTED,INS_RTKFIXED,17.59228637565,78.12182089296,532.0748,-76.2000,WGS84,0.6661,0.6303,1.2710,"",0.000,0.000,56,41,41,41,00,06,39,33*f11eb7e4
#BESTPOSA,FILE,0,31.5,FINESTEERING,2319,306595.700,02000000,cdba,17139;SOL_COMPUTED,INS_RTKFIXED,17.59228647094,78.12182321037,532.0766,-76.2000,WGS84,0.6661,0.6303,1.2710,"",0.000,0.000,56,41,41,41,00,06,39,33*7645518e
#BESTPOSA,FILE,0,31.5,FINESTEERING,2319,306595.750,02000000,cdba,17139;SOL_COMPUTED,INS_RTKFIXED,17.59228656962,78.12182554916,532.0784,-76.2000,WGS84,0.6661,0.6303,1.2710,"",0.000,0.000,56,41,41,41,00,06,39,33*61b2215e
#BESTPOSA,FILE,0,31.5,FINESTEERING,2319,306595.800,02000000,cdba,17139;SOL_COMPUTED,INS_RTKFIXED,17.59228666121,78.12182790525,532.0803,-76.2000,WGS84,0.6661,0.6303,1.2710,"",0.000,0.000,56,41,41,41,00,06,39,33*ead65d2d
#BESTPOSA,FILE,0,31.5,FINESTEERING,2319,306595.850,02000000,cdba,17139;SOL_COMPUTED,INS_RTKFIXED,17.59228675587,78.12183027917,532.0827,-76.2000,WGS84,0.6661,0.6303,1.2710,"",0.000,0.000,56,41,41,41,00,06,39,33*b92fd9fd
#BESTPOSA,FILE,0,31.5,FINESTEERING,2319,306595.900,02000000,cdba,17139;SOL_COMPUTED,INS_RTKFIXED,17.59228685474,78.12183267551,532.0859,-76.2000,WGS84,0.6661,0.6303,1.2710,"",0.000,0.000,56,41,41,41,00,06,39,33*b2703a77
#BESTPOSA,FILE,0,31.5,FINESTEERING,2319,306595.950,02000000,cdba,17139;SOL_COMPUTED,INS_RTKFIXED,17.59228696088,78.12183509065,532.0896,-76.2000,WGS84,0.6661,0.6303,1.2710,"",0.000,0.000,56,41,41,41,00,06,39,33*7fba043e
#BESTPOSA,FILE,0,31.5,FINESTEERING,2319,306596.000,02000000,cdba,17139;SOL_COMPUTED,INS_RTKFIXED,17.59228706620,78.12183752321,532.0933,-76.2000,WGS84,0.6661,0.6303,1.2710,"",0.000,0.000,56,41,41,41,00,06,39,33*eb0244b5
#BESTPOSA,FILE,0,31.5,FINESTEERING,2319,306596.050,02000000,cdba,17139;SOL_COMPUTED,INS_RTKFIXED,17.59228717668,78.12183997036,532.0963,-76.2000,WGS84,0.6689,0.6329,1.2707,"",0.000,0.000,54,39,39,39,00,06,39,33*090d37ca
#BESTPOSA,FILE,0,30.5,FINESTEERING,2319,306596.100,02000000,cdba,17139;SOL_COMPUTED,INS_RTKFIXED,17.59228729108,78.12184242574,532.0995,-76.2000,WGS84,0.6689,0.6329,1.2707,"",0.000,0.000,54,39,39,39,00,06,39,33*a370d231
#BESTPOSA,FILE,0,30.5,FINESTEERING,2319,306596.150,02000000,cdba,17139;SOL_COMPUTED,INS_RTKFIXED,17.59228740258,78.12184489188,532.1024,-76.2000,WGS84,0.6689,0.6329,1.2707,"",0.000,0.000,54,39,39,39,00,06,39,33*673455b7
#BESTPOSA,FILE,0,30.5,FINESTEERING,2319,306596.200,02000000,cdba,17139;SOL_COMPUTED,INS_RTKFIXED,17.59228751357,78.12184736679,532.1051,-76.2000,WGS84,0.6689,0.6329,1.2707,"",0.000,0.000,54,39,39,39,00,06,39,33*715386a3
#BESTPOSA,FILE,0,30.5,FINESTEERING,2319,306596.250,02000000,cdba,17139;SOL_COMPUTED,INS_RTKFIXED,17.59228762053,78.12184985634,532.1076,-76.2000,WGS84,0.6689,0.6329,1.2707,"",0.000,0.000,54,39,39,39,00,06,39,33*3ec7a5e3
#BESTPOSA,FILE,0,30.5,FINESTEERING,2319,306596.300,02000000,cdba,17139;SOL_COMPUTED,INS_RTKFIXED,17.59228773161,78.12185236119,532.1106,-76.2000,WGS84,0.6689,0.6329,1.2707,"",0.000,0.000,54,39,39,39,00,06,39,33*0fa57ceb
#BESTPOSA,FILE,0,30.5,FINESTEERING,2319,306596.350,02000000,cdba,17139;SOL_COMPUTED,INS_RTKFIXED,17.59228784232,78.12185488219,532.1141,-76.2000,WGS84,0.6689,0.6329,1.2707,"",0.000,0.000,54,39,39,39,00,06,39,33*b02064a6
#BESTPOSA,FILE,0,30.5,FINESTEERING,2319,306596.400,02000000,cdba,17139;SOL_COMPUTED,INS_RTKFIXED,17.59228795204,78.12185741247,532.1173,-76.2000,WGS84,0.6689,0.6329,1.2707,"",0.000,0.000,54,39,39,39,00,06,39,33*7de6eaec
#BESTPOSA,FILE,0,30.5,FINESTEERING,2319,306596.450,02000000,cdba,17139;SOL_COMPUTED,INS_RTKFIXED,17.59228805527,78.12185995415,532.1201,-76.2000,WGS84,0.6689,0.6329,1.2707,"",0.000,0.000,54,39,39,39,00,06,39,33*a5895b57
#BESTPOSA,FILE,0,30.5,FINESTEERING,2319,306596.500,02000000,cdba,17139;SOL_COMPUTED,INS_RTKFIXED,17.59228816875,78.12186250736,532.1237,-76.2000,WGS84,0.6689,0.6329,1.2707,"",0.000,0.000,54,39,39,39,00,06,39,33*e330cede
#BESTPOSA,FILE,0,30.5,FINESTEERING,2319,306596.550,02000000,cdba,17139;SOL_COMPUTED,INS_RTKFIXED,17.59228828380,78.12186507200,532.1273,-76.2000,WGS84,0.6689,0.6329,1.2707,"",0.000,0.000,54,39,39,39,00,06,39,33*52779ea3
#BESTPOSA,FILE,0,30.5,FINESTEERING,2319,306596.600,02000000,cdba,17139;SOL_COMPUTED,INS_RTKFIXED,17.59228840120,78.12186765095,532.1308,-76.2000,WGS84,0.6689,0.6329,1.2707,"",0.000,0.000,54,39,39,39,00,06,39,33*e3d5df23
#BESTPOSA,FILE,0,30.5,FINESTEERING,2319,306596.650,02000000,cdba,17139;SOL_COMPUTED,INS_RTKFIXED,17.59228851845,78.12187023776,532.1341,-76.2000,WGS84,0.6689,0.6329,1.2707,"",0.000,0.000,54,39,39,39,00,06,39,33*1411adb4
#BESTPOSA,FILE,0,30.5,FINESTEERING,2319,306596.700,02000000,cdba,17139;SOL_COMPUTED,INS_RTKFIXED,17.59228863668,78.12187283911,532.1377,-76.2000,WGS84,0.6689,0.6329,1.2707,"",0.000,0.000,54,39,39,39,00,06,39,33*b83fdf33
#BESTPOSA,FILE,0,30.5,FINESTEERING,2319,306596.750,02000000,cdba,17139;SOL_COMPUTED,INS_RTKFIXED,17.59228875220,78.12187545287,532.1407,-76.2000,WGS84,0.6689,0.6329,1.2707,"",0.000,0.000,54,39,39,39,00,06,39,33*f1784b1f
#BESTPOSA,FILE,0,30.5,FINESTEERING,2319,306596.800,02000000,cdba,17139;SOL_COMPUTED,INS_RTKFIXED,17.59228886742,78.12187808304,532.1439,-76.2000,WGS84,0.6689,0.6329,1.2707,"",0.000,0.000,54,39,39,39,00,06,39,33*ea1d7b47
#BESTPOSA,FILE,0,30.5,FINESTEERING,2319,306596.850,02000000,cdba,17139;SOL_COMPUTED,INS_RTKFIXED,17.59228897820,78.12188072783,532.1470,-76.2000,WGS84,0.6689,0.6329,1.2707,"",0.000,0.000,54,39,39,39,00,06,39,33*761450b7
#BESTPOSA,FILE,0,30.5,FINESTEERING,2319,306596.900,02000000,cdba,17139;SOL_COMPUTED,INS_RTKFIXED,17.59228908811,78.12188337674,532.1499,-76.2000,WGS84,0.6689,0.6329,1.2707,"",0.000,0.000,54,39,39,39,00,06,39,33*6e956415
#BESTPOSA,FILE,0,30.5,FINESTEERING,2319,306596.950,02000000,cdba,17139;SOL_COMPUTED,INS_RTKFIXED,17.59228920064,78.12188603907,532.1530,-76.2000,WGS84,0.6689,0.6329,1.2707,"",0.000,0.000,54,39,39,39,00,06,39,33*39cd524e
#BESTPOSA,FILE,0,30.5,FINESTEERING,2319,306597.000,02000000,cdba,17139;SOL_COMPUTED,INS_RTKFIXED,17.59228931669,78.12188871490,532.1562,-76.2000,WGS84,0.6689,0.6329,1.2707,"",0.000,0.000,54,39,39,39,00,06,39,33*e72ec4f6
#BESTPOSA,FILE,0,30.5,FINESTEERING,2319,306597.050,02000000,cdba,17139;SOL_COMPUTED,INS_RTKFIXED,17.59228943911,78.12189140095,532.1600,-76.2000,WGS84,0.6715,0.6356,1.2704,"",0.000,0.000,53,38,38,38,00,06,39,33*0d4d75ba
#BESTPOSA,FILE,0,30.0,FINESTEERING,2319,306597.100,02000000,cdba,17139;SOL_COMPUTED,INS_RTKFIXED,17.59228955036,78.12189409771,532.1630,-76.2000,WGS84,0.6715,0.6356,1.2704,"",0.000,0.000,53,38,38,38,00,06,39,33*ec7f943b
#BESTPOSA,FILE,0,30.0,FINESTEERING,2319,306597.150,02000000,cdba,17139;SOL_COMPUTED,INS_RTKFIXED,17.59228965867,78.12189680199,532.1652,-76.2000,WGS84,0.6715,0.6356,1.2704,"",0.000,0.000,53,38,38,38,00,06,39,33*c63f7b07
#BESTPOSA,FILE,0,30.0,FINESTEERING,2319,306597.200,02000000,cdba,17139;SOL_COMPUTED,INS_RTKFIXED,17.59228976844,78.12189951968,532.1670,-76.2000,WGS84,0.6715,0.6356,1.2704,"",0.000,0.000,53,38,38,38,00,06,39,33*676ebe26
#BESTPOSA,FILE,0,30.0,FINESTEERING,2319,306597.250,02000000,cdba,17139;SOL_COMPUTED,INS_RTKFIXED,17.59228988140,78.12190225086,532.1684,-76.2000,WGS84,0.6715,0.6356,1.2704,"",0.000,0.000,53,38,38,38,00,06,39,33*b0d5cd56
#BESTPOSA,FILE,0,30.0,FINESTEERING,2319,306597.300,02000000,cdba,17139;SOL_COMPUTED,INS_RTKFIXED,17.59228999745,78.12190499125,532.1701,-76.2000,WGS84,0.6715,0.6356,1.2704,"",0.000,0.000,53,38,38,38,00,06,39,33*55e8d2b8
#BESTPOSA,FILE,0,30.0,FINESTEERING,2319,306597.350,02000000,cdba,17139;SOL_COMPUTED,INS_RTKFIXED,17.59229011606,78.12190775003,532.1727,-76.2000,WGS84,0.6715,0.6356,1.2704,"",0.000,0.000,53,38,38,38,00,06,39,33*0d07cc3d
#BESTPOSA,FILE,0,30.0,FINESTEERING,2319,306597.400,02000000,cdba,17139;SOL_COMPUTED,INS_RTKFIXED,17.59229022649,78.12191052292,532.1753,-76.2000,WGS84,0.6715,0.6356,1.2704,"",0.000,0.000,53,38,38,38,00,06,39,33*6ae595cf
#BESTPOSA,FILE,0,30.0,FINESTEERING,2319,306597.450,02000000,cdba,17139;SOL_COMPUTED,INS_RTKFIXED,17.59229034080,78.12191331156,532.1791,-76.2000,WGS84,0.6715,0.6356,1.2704,"",0.000,0.000,53,38,38,38,00,06,39,33*640d29d0
#BESTPOSA,FILE,0,30.0,FINESTEERING,2319,306597.500,02000000,cdba,17139;SOL_COMPUTED,INS_RTKFIXED,17.59229045717,78.12191611466,532.1832,-76.2000,WGS84,0.6715,0.6356,1.2704,"",0.000,0.000,53,38,38,38,00,06,39,33*f7deebac
#BESTPOSA,FILE,0,30.0,FINESTEERING,2319,306597.550,02000000,cdba,17139;SOL_COMPUTED,INS_RTKFIXED,17.59229057114,78.12191892826,532.1871,-76.2000,WGS84,0.6715,0.6356,1.2704,"",0.000,0.000,53,38,38,38,00,06,39,33*e7e64f10
#BESTPOSA,FILE,0,30.0,FINESTEERING,2319,306597.600,02000000,cdba,17139;SOL_COMPUTED,INS_RTKFIXED,17.59229068168,78.12192174681,532.1904,-76.2000,WGS84,0.6715,0.6356,1.2704,"",0.000,0.000,53,38,38,38,00,06,39,33*69ebf18f
#BESTPOSA,FILE,0,30.0,FINESTEERING,2319,306597.650,02000000,cdba,17139;SOL_COMPUTED,INS_RTKFIXED,17.59229079394,78.12192457654,532.1936,-76.2000,WGS84,0.6715,0.6356,1.2704,"",0.000,0.000,53,38,38,38,00,06,39,33*9a1f6e38
#BESTPOSA,FILE,0,30.0,FINESTEERING,2319,306597.700,02000000,cdba,17139;SOL_COMPUTED,INS_RTKFIXED,17.59229091012,78.12192741642,532.1972,-76.2000,WGS84,0.6715,0.6356,1.2704,"",0.000,0.000,53,38,38,38,00,06,39,33*337f169b
#BESTPOSA,FILE,0,30.0,FINESTEERING,2319,306597.750,02000000,cdba,17139;SOL_COMPUTED,INS_RTKFIXED,17.59229102332,78.12193026855,532.2003,-76.2000,WGS84,0.6715,0.6356,1.2704,"",0.000,0.000,53,38,38,38,00,06,39,33*de4577ab
#BESTPOSA,FILE,0,30.0,FINESTEERING,2319,306597.800,02000000,cdba,17139;SOL_COMPUTED,INS_RTKFIXED,17.59229113670,78.12193313450,532.2033,-76.2000,WGS84,0.6715,0.6356,1.2704,"",0.000,0.000,53,38,38,38,00,06,39,33*2ff89433
#BESTPOSA,FILE,0,30.0,FINESTEERING,2319,306597.850,02000000,cdba,17139;SOL_COMPUTED,INS_RTKFIXED,17.59229125680,78.12193600842,532.2066,-76.2000,WGS84,0.6715,0.6356,1.2704,"",0.000,0.000,53,38,38,38,00,06,39,33*88c371da
#BESTPOSA,FILE,0,30.0,FINESTEERING,2319,306597.900,02000000,cdba,17139;SOL_COMPUTED,INS_RTKFIXED,17.59229137544,78.12193889753,532.2095,-76.2000,WGS84,0.6715,0.6356,1.2704,"",0.000,0.000,53,38,38,38,00,06,39,33*eea4b607
#BESTPOSA,FILE,0,30.0,FINESTEERING,2319,306597.950,02000000,cdba,17139;SOL_COMPUTED,INS_RTKFIXED,17.59229149490,78.12194179133,532.2123,-76.2000,WGS84,0.6715,0.6356,1.2704,"",0.000,0.000,53,38,38,38,00,06,39,33*a0e1122e
#BESTPOSA,FILE,0,30.0,FINESTEERING,2319,306598.000,02000000,cdba,17139;SOL_COMPUTED,INS_RTKFIXED,17.59229160818,78.12194469618,532.2156,-76.2000,WGS84,0.6715,0.6356,1.2704,"",0.000,0.000,53,38,38,38,00,06,39,33*12b510ea
#BESTPOSA,FILE,0,30.0,FINESTEERING,2319,306598.050,02000000,cdba,17139;SOL_COMPUTED,INS_RTKFIXED,17.59229171309,78.12194761230,532.2194,-76.2000,WGS84,0.6745,0.6381,1.2701,"",0.000,0.000,53,38,38,38,00,06,39,33*d9179181
#BESTPOSA,FILE,0,30.0,FINESTEERING,2319,306598.100,02000000,cdba,17139;SOL_COMPUTED,INS_RTKFIXED,17.59229181389,78.12195053886,532.2240,-76.2000,WGS84,0.6745,0.6381,1.2701,"",0.000,0.000,53,38,38,38,00,06,39,33*c0ca93f3
#BESTPOSA,FILE,0,32.0,FINESTEERING,2319,306598.150,02000000,cdba,17139;SOL_COMPUTED,INS_RTKFIXED,17.59229191443,78.12195347811,532.2279,-76.2000,WGS84,0.6745,0.6381,1.2701,"",0.000,0.000,53,38,38,38,00,06,39,33*20d27273
#BESTPOSA,FILE,0,32.0,FINESTEERING,2319,306598.200,02000000,cdba,17139;SOL_COMPUTED,INS_RTKFIXED,17.59229202565,78.12195642497,532.2322,-76.2000,WGS84,0.6745,0.6381,1.2701,"",0.000,0.000,53,38,38,38,00,06,39,33*af3e6834
#BESTPOSA,FILE,0,32.0,FINESTEERING,2319,306598.250,02000000,cdba,17139;SOL_COMPUTED,INS_RTKFIXED,17.59229212217,78.12195938143,532.2351,-76.2000,WGS84,0.6745,0.6381,1.2701,"",0.000,0.000,53,38,38,38,00,06,39,33*85dda563
#BESTPOSA,FILE,0,32.0,FINESTEERING,2319,306598.300,02000000,cdba,17139;SOL_COMPUTED,INS_RTKFIXED,17.59229222473,78.12196234039,532.2382,-76.2000,WGS84,0.6745,0.6381,1.2701,"",0.000,0.000,53,38,38,38,00,06,39,33*42daf0c4
#BESTPOSA,FILE,0,32.0,FINESTEERING,2319,306598.350,02000000,cdba,17139;SOL_COMPUTED,INS_RTKFIXED,17.59229231866,78.12196531463,532.2412,-76.2000,WGS84,0.6745,0.6381,1.2701,"",0.000,0.000,53,38,38,38,00,06,39,33*ba5222f8
#BESTPOSA,FILE,0,32.0,FINESTEERING,2319,306598.400,02000000,cdba,17139;SOL_COMPUTED,INS_RTKFIXED,17.59229241318,78.12196829275,532.2449,-76.2000,WGS84,0.6745,0.6381,1.2701,"",0.000,0.000,53,38,38,38,00,06,39,33*dd17ad7a
#BESTPOSA,FILE,0,32.0,FINESTEERING,2319,306598.450,02000000,cdba,17139;SOL_COMPUTED,INS_RTKFIXED,17.59229251385,78.12197128016,532.2493,-76.2000,WGS84,0.6745,0.6381,1.2701,"",0.000,0.000,53,38,38,38,00,06,39,33*a75f4480
#BESTPOSA,FILE,0,32.0,FINESTEERING,2319,306598.500,02000000,cdba,17139;SOL_COMPUTED,INS_RTKFIXED,17.59229262063,78.12197427355,532.2542,-76.2000,WGS84,0.6745,0.6381,1.2701,"",0.000,0.000,53,38,38,38,00,06,39,33*97f91eba
#BESTPOSA,FILE,0,32.0,FINESTEERING,2319,306598.550,02000000,cdba,17139;SOL_COMPUTED,INS_RTKFIXED,17.59229272823,78.12197726714,532.2590,-76.2000,WGS84,0.6745,0.6381,1.2701,"",0.000,0.000,53,38,38,38,00,06,39,33*ef3a79d1
#BESTPOSA,FILE,0,32.0,FINESTEERING,2319,306598.600,02000000,cdba,17139;SOL_COMPUTED,INS_RTKFIXED,17.59229282699,78.12198026214,532.2629,-76.2000,WGS84,0.6745,0.6381,1.2701,"",0.000,0.000,53,38,38,38,00,06,39,33*cbd91ad7
#BESTPOSA,FILE,0,32.0,FINESTEERING,2319,306598.650,02000000,cdba,17139;SOL_COMPUTED,INS_RTKFIXED,17.59229292117,78.12198326149,532.2665,-76.2000,WGS84,0.6745,0.6381,1.2701,"",0.000,0.000,53,38,38,38,00,06,39,33*bf8bcf18
#BESTPOSA,FILE,0,32.0,FINESTEERING,2319,306598.700,02000000,cdba,17139;SOL_COMPUTED,INS_RTKFIXED,17.59229300982,78.12198626285,532.2700,-76.2000,WGS84,0.6745,0.6381,1.2701,"",0.000,0.000,53,38,38,38,00,06,39,33*a928f362
#BESTPOSA,FILE,0,32.0,FINESTEERING,2319,306598.750,02000000,cdba,17139;SOL_COMPUTED,INS_RTKFIXED,17.59229310663,78.12198926401,532.2739,-76.2000,WGS84,0.6745,0.6381,1.2701,"",0.000,0.000,53,38,38,38,00,06,39,33*7d2357c1
#BESTPOSA,FILE,0,32.0,FINESTEERING,2319,306598.800,02000000,cdba,17139;SOL_COMPUTED,INS_RTKFIXED,17.59229320397,78.12199226496,532.2777,-76.2000,WGS84,0.6745,0.6381,1.2701,"",0.000,0.000,53,38,38,38,00,06,39,33*70b1c5c4
#BESTPOSA,FILE,0,32.0,FINESTEERING,2319,306598.850,02000000,cdba,17139;SOL_COMPUTED,INS_RTKFIXED,17.59229330025,78.12199526740,532.2820,-76.2000,WGS84,0.6745,0.6381,1.2701,"",0.000,0.000,53,38,38,38,00,06,39,33*a55431fb
#BESTPOSA,FILE,0,32.0,FINESTEERING,2319,306598.900,02000000,cdba,17139;SOL_COMPUTED,INS_RTKFIXED,17.59229339306,78.12199827542,532.2869,-76.2000,WGS84,0.6745,0.6381,1.2701,"",0.000,0.000,53,38,38,38,00,06,39,33*542fe473
#BESTPOSA,FILE,0,32.0,FINESTEERING,2319,306598.950,02000000,cdba,17139;SOL_COMPUTED,INS_RTKFIXED,17.59229348680,78.12200128417,532.2921,-76.2000,WGS84,0.6745,0.6381,1.2701,"",0.000,0.000,53,38,38,38,00,06,39,33*0b8d94cc
#BESTPOSA,FILE,0,32.0,FINESTEERING,2319,306599.000,02000000,cdba,17139;SOL_COMPUTED,INS_RTKFIXED,17.59229357264,78.12200429081,532.2968,-76.2000,WGS84,0.6745,0.6381,1.2701,"",0.000,0.000,53,38,38,38,00,06,39,33*39c9f9d7
#BESTPOSA,FILE,0,32.0,FINESTEERING,2319,306599.050,02000000,cdba,17139;SOL_COMPUTED,INS_RTKFIXED,17.59229366083,78.12200729689,532.3014,-76.2000,WGS84,0.6776,0.6406,1.2697,"",0.000,0.000,53,38,38,38,00,06,39,33*7f5d3809
#BESTPOSA,FILE,0,32.0,FINESTEERING,2319,306599.100,02000000,cdba,17139;SOL_COMPUTED,INS_RTKFIXED,17.59229374692,78.12201030440,532.3059,-76.2000,WGS84,0.6776,0.6406,1.2697,"",0.000,0.000,53,38,38,38,00,06,39,33*7c6e1fbe
#BESTPOSA,FILE,0,32.0,FINESTEERING,2319,306599.150,02000000,cdba,17139;SOL_COMPUTED,INS_RTKFIXED,17.59229383187,78.12201331293,532.3106,-76.2000,WGS84,0.6776,0.6406,1.2697,"",0.000,0.000,53,38,38,38,00,06,39,33*e56d4b10
#BESTPOSA,FILE,0,32.0,FINESTEERING,2319,306599.200,02000000,cdba,17139;SOL_COMPUTED,INS_RTKFIXED,17.59229391014,78.12201632597,532.3154,-76.2000,WGS84,0.6776,0.6406,1.2697,"",0.000,0.000,53,38,38,38,00,06,39,33*88b43d78
#BESTPOSA,FILE,0,32.0,FINESTEERING,2319,306599.250,02000000,cdba,17139;SOL_COMPUTED,INS_RTKFIXED,17.59229399136,78.12201933657,532.3204,-76.2000,WGS84,0.6776,0.6406,1.2697,"",0.000,0.000,53,38,38,38,00,06,39,33*de327de3
#BESTPOSA,FILE,0,32.0,FINESTEERING,2319,306599.300,02000000,cdba,17139;SOL_COMPUTED,INS_RTKFIXED,17.59229406500,78.12202233907,532.3244,-76.2000,WGS84,0.6776,0.6406,1.2697,"",0.000,0.000,53,38,38,38,00,06,39,33*1e127506
#BESTPOSA,FILE,0,32.0,FINESTEERING,2319,306599.350,02000000,cdba,17139;SOL_COMPUTED,INS_RTKFIXED,17.59229413896,78.12202533262,532.3288,-76.2000,WGS84,0.6776,0.6406,1.2697,"",0.000,0.000,53,38,38,38,00,06,39,33*10bff374
#BESTPOSA,FILE,0,32.0,FINESTEERING,2319,306599.400,02000000,cdba,17139;SOL_COMPUTED,INS_RTKFIXED,17.59229421382,78.12202831606,532.3333,-76.2000,WGS84,0.6776,0.6406,1.2697,"",0.000,0.000,53,38,38,38,00,06,39,33*64399725
#BESTPOSA,FILE,0,32.0,FINESTEERING,2319,306599.450,02000000,cdba,17139;SOL_COMPUTED,INS_RTKFIXED,17.59229428517,78.12203128674,532.3377,-76.2000,WGS84,0.6776,0.6406,1.2697,"",0.000,0.000,53,38,38,38,00,06,39,33*a2039dd9
#BESTPOSA,FILE,0,32.0,FINESTEERING,2319,306599.500,02000000,cdba,17139;SOL_COMPUTED,INS_RTKFIXED,17.59229435968,78.12203425437,532.3421,-76.2000,WGS84,0.6776,0.6406,1.2697,"",0.000,0.000,53,38,38,38,00,06,39,33*744dbe55
#BESTPOSA,FILE,0,32.0,FINESTEERING,2319,306599.550,02000000,cdba,17139;SOL_COMPUTED,INS_RTKFIXED,17.59229442340,78.12203720857,532.3453,-76.2000,WGS84,0.6776,0.6406,1.2697,"",0.000,0.000,53,38,38,38,00,06,39,33*cecc9b26
#BESTPOSA,FILE,0,32.0,FINESTEERING,2319,306599.600,02000000,cdba,17139;SOL_COMPUTED,INS_RTKFIXED,17.59229449649,78.12204014281,532.3487,-76.2000,WGS84,0.6776,0.6406,1.2697,"",0.000,0.000,53,38,38,38,00,06,39,33*d2f318bc
#BESTPOSA,FILE,0,32.0,FINESTEERING,2319,306599.650,02000000,cdba,17139;SOL_COMPUTED,INS_RTKFIXED,17.59229456573,78.12204306068,532.3511,-76.2000,WGS84,0.6776,0.6406,1.2697,"",0.000,0.000,53,38,38,38,00,06,39,33*ec6e840e
#BESTPOSA,FILE,0,32.0,FINESTEERING,2319,306599.700,02000000,cdba,17139;SOL_COMPUTED,INS_RTKFIXED,17.59229464176,78.12204596527,532.3540,-76.2000,WGS84,0.6776,0.6406,1.2697,"",0.000,0.000,53,38,38,38,00,06,39,33*0fb143ce
#BESTPOSA,FILE,0,32.0,FINESTEERING,2319,306599.750,02000000,cdba,17139;SOL_COMPUTED,INS_RTKFIXED,17.59229470719,78.12204885519,532.3563,-76.2000,WGS84,0.6776,0.6406,1.2697,"",0.000,0.000,53,38,38,38,00,06,39,33*ed923e6c
#BESTPOSA,FILE,0,32.0,FINESTEERING,2319,306599.800,02000000,cdba,17139;SOL_COMPUTED,INS_RTKFIXED,17.59229477225,78.12205173401,532.3590,-76.2000,WGS84,0.6776,0.6406,1.2697,"",0.000,0.000,53,38,38,38,00,06,39,33*f6ddb033
#BESTPOSA,FILE,0,32.0,FINESTEERING,2319,306599.850,02000000,cdba,17139;SOL_COMPUTED,INS_RTKFIXED,17.59229483349,78.12205460250,532.3617,-76.2000,WGS84,0.6776,0.6406,1.2697,"",0.000,0.000,53,38,38,38,00,06,39,33*b2fb6493
#BESTPOSA,FILE,0,32.0,FINESTEERING,2319,306599.900,02000000,cdba,17139;SOL_COMPUTED,INS_RTKFIXED,17.59229489883,78.12205745349,532.3645,-76.2000,WGS84,0.6776,0.6406,1.2697,"",0.000,0.000,53,38,38,38,00,06,39,33*771fa93b
#BESTPOSA,FILE,0,32.0,FINESTEERING,2319,306599.950,02000000,cdba,17139;SOL_COMPUTED,INS_RTKFIXED,17.59229496381,78.12206029022,532.3675,-76.2000,WGS84,0.6776,0.6406,1.2697,"",0.000,0.000,53,38,38,38,00,06,39,33*2982cb5b
#BESTPOSA,FILE,0,32.0,FINESTEERING,2319,306600.000,02000000,cdba,17139;SOL_COMPUTED,INS_RTKFIXED,17.59229502723,78.12206311154,532.3704,-76.2000,WGS84,0.6776,0.6406,1.2697,"",0.000,0.000,53,38,38,38,00,06,39,33*b66142bc
#BESTPOSA,FILE,0,32.0,FINESTEERING,2319,306600.050,02000000,cdba,17139;SOL_COMPUTED,INS_RTKFIXED,17.59229508367,78.12206591292,532.3735,-76.2000,WGS84,0.6810,0.6432,1.2697,"",0.000,0.000,53,38,38,38,00,06,3d,33*264b2152
#BESTPOSA,FILE,0,31.5,FINESTEERING,2319,306600.100,02000000,cdba,17139;SOL_COMPUTED,INS_RTKFIXED,17.59229513027,78.12206870192,532.3774,-76.2000,WGS84,0.6810,0.6432,1.2697,"",0.000,0.000,53,38,38,38,00,06,3d,33*0f3c31a8
#BESTPOSA,FILE,0,31.5,FINESTEERING,2319,306600.150,02000000,cdba,17139;SOL_COMPUTED,INS_RTKFIXED,17.59229517179,78.12207147458,532.3812,-76.2000,WGS84,0.6810,0.6432,1.2697,"",0.000,0.000,53,38,38,38,00,06,3d,33*8e874b10
#BESTPOSA,FILE,0,31.5,FINESTEERING,2319,306600.200,02000000,cdba,17139;SOL_COMPUTED,INS_RTKFIXED,17.59229521742,78.12207423350,532.3855,-76.2000,WGS84,0.6810,0.6432,1.2697,"",0.000,0.000,53,38,38,38,00,06,3d,33*885c3da8
#BESTPOSA,FILE,0,31.5,FINESTEERING,2319,306600.250,02000000,cdba,17139;SOL_COMPUTED,INS_RTKFIXED,17.59229526539,78.12207698030,532.3896,-76.2000,WGS84,0.6810,0.6432,1.2697,"",0.000,0.000,53,38,38,38,00,06,3d,33*f2576f04
#BESTPOSA,FILE,0,31.5,FINESTEERING,2319,306600.300,02000000,cdba,17139;SOL_COMPUTED,INS_RTKFIXED,17.59229531345,78.12207971051,532.3938,-76.2000,WGS84,0.6810,0.6432,1.2697,"",0.000,0.000,53,38,38,38,00,06,3d,33*35543905
#BESTPOSA,FILE,0,31.5,FINESTEERING,2319,306600.350,02000000,cdba,17139;SOL_COMPUTED,INS_RTKFIXED,17.59229535187,78.12208242766,532.3971,-76.2000,WGS84,0.6810,0.6432,1.2697,"",0.000,0.000,53,38,38,38,00,06,3d,33*34dd0fec
#BESTPOSA,FILE,0,31.5,FINESTEERING,2319,306600.400,02000000,cdba,17139;SOL_COMPUTED,INS_RTKFIXED,17.59229539133,78.12208513580,532.4007,-76.2000,WGS84,0.6810,0.6432,1.2697,"",0.000,0.000,53,38,38,38,00,06,3d,33*d27eec29
#BESTPOSA,FILE,0,31.5,FINESTEERING,2319,306600.450,02000000,cdba,17139;SOL_COMPUTED,INS_RTKFIXED,17.59229542735,78.12208783696,532.4043,-76.2000,WGS84,0.6810,0.6432,1.2697,"",0.000,0.000,53,38,38,38,00,06,3d,33*2d57c577
#BESTPOSA,FILE,0,31.5,FINESTEERING,2319,306600.500,02000000,cdba,17139;SOL_COMPUTED,INS_RTKFIXED,17.59229546483,78.12209052550,532.4079,-76.2000,WGS84,0.6810,0.6432,1.2697,"",0.000,0.000,53,38,38,38,00,06,3d,33*11905710
#BESTPOSA,FILE,0,31.5,FINESTEERING,2319,306600.550,02000000,cdba,17139;SOL_COMPUTED,INS_RTKFIXED,17.59229549470,78.12209321466,532.4109,-76.2000,WGS84,0.6810,0.6432,1.2697,"",0.000,0.000,53,38,38,38,00,06,3d,33*7059e78e
#BESTPOSA,FILE,0,31.5,FINESTEERING,2319,306600.600,02000000,cdba,17139;SOL_COMPUTED,INS_RTKFIXED,17.59229553106,78.12209588995,532.4142,-76.2000,WGS84,0.6810,0.6432,1.2697,"",0.000,0.000,53,38,38,38,00,06,3d,33*33ae0eed
#BESTPOSA,FILE,0,31.5,FINESTEERING,2319,306600.650,02000000,cdba,17139;SOL_COMPUTED,INS_RTKFIXED,17.59229556577,78.12209856367,532.4173,-76.2000,WGS84,0.6810,0.6432,1.2697,"",0.000,0.000,53,38,38,38,00,06,3d,33*5fd4e724
#BESTPOSA,FILE,0,31.5,FINESTEERING,2319,306600.700,02000000,cdba,17139;SOL_COMPUTED,INS_RTKFIXED,17.59229559527,78.12210122888,532.4203,-76.2000,WGS84,0.6810,0.6432,1.2697,"",0.000,0.000,53,38,38,38,00,06,3d,33*49181022
#BESTPOSA,FILE,0,31.5,FINESTEERING,2319,306600.750,02000000,cdba,17139;SOL_COMPUTED,INS_RTKFIXED,17.59229562730,78.12210389165,532.4236,-76.2000,WGS84,0.6810,0.6432,1.2697,"",0.000,0.000,53,38,38,38,00,06,3d,33*3a910799
#BESTPOSA,FILE,0,31.5,FINESTEERING,2319,306600.800,02000000,cdba,17139;SOL_COMPUTED,INS_RTKFIXED,17.59229565552,78.12210655333,532.4268,-76.2000,WGS84,0.6810,0.6432,1.2697,"",0.000,0.000,53,38,38,38,00,06,3d,33*55582ed8
#BESTPOSA,FILE,0,31.5,FINESTEERING,2319,306600.850,02000000,cdba,17139;SOL_COMPUTED,INS_RTKFIXED,17.59229568687,78.12210921207,532.4298,-76.2000,WGS84,0.6810,0.6432,1.2697,"",0.000,0.000,53,38,38,38,00,06,3d,33*65ffab48
#BESTPOSA,FILE,0,31.5,FINESTEERING,2319,306600.900,02000000,cdba,17139;SOL_COMPUTED,INS_RTKFIXED,17.59229571423,78.12211186426,532.4324,-76.2000,WGS84,0.6810,0.6432,1.2697,"",0.000,0.000,53,38,38,38,00,06,3d,33*e362fee7
