#CORRIMUDATAA,FILE,0,34.5,FINESTEERING,2319,306585.650,02000800,e5fc,17139;2319,306585.650000000,0.0000551927036197,-0.0000616298127172,-0.0000077089308644,0.0004789461097310,-0.0000608455061550,-0.0066689350660273*c6100ac9
#CORRIMUDATAA,FILE,0,34.5,FINESTEERING,2319,306585.750,02000800,e5fc,17139;2319,306585.750000000,0.0000083092271886,-0.0000017904027198,0.0000008670755637,0.0013848622022794,-0.0011054761173207,-0.0004561513718773*26245579
#CORRIMUDATAA,FILE,0,34.5,FINESTEERING,2319,306585.850,02000800,e5fc,17139;2319,306585.850000000,-0.0000413476179994,0.0001035461412899,-0.0000197619104000,0.0011040617692284,-0.0016655979355547,-0.0035325507523998*26e833da
#CORRIMUDATAA,FILE,0,34.5,FINESTEERING,2319,306585.900,02000800,e5fc,17139;2319,306585.900000000,0.0000858915712987,0.0000131984906423,-0.0000202045613907,-0.0008950298086569,-0.0015719078814422,0.0026768458171530*7668c051
#CORRIMUDATAA,FILE,0,34.5,FINESTEERING,2319,306585.950,02000800,e5fc,17139;2319,306585.950000000,-0.0000141290991538,0.0000832704858540,-0.0000132689766767,0.0001000391760575,-0.0014396507381559,0.0014984479948226*3ed88543
#CORRIMUDATAA,FILE,0,34.5,FINESTEERING,2319,306586.000,02000800,e5fc,17139;2319,306586.000000000,0.0000081488981416,-0.0000315778535548,0.0000221157027532,0.0000489858971135,0.0024424188734504,-0.0017952583059413*bbc4cac5
#CORRIMUDATAA,FILE,0,34.0,FINESTEERING,2319,306586.300,02000800,e5fc,17139;2319,306586.300000000,0.0000646734968967,-0.0000231909846680,-0.0000122237409021,0.0010702046141112,0.0001983415055542,-0.0008759401518678*130e6ec6
#CORRIMUDATAA,FILE,0,34.0,FINESTEERING,2319,306586.350,02000800,e5fc,17139;2319,306586.350000000,-0.0000256434108243,0.0000371836135042,0.0000139696541551,0.0002433050254696,-0.0003633568297913,0.0006700841592260*1ee0a554
#CORRIMUDATAA,FILE,0,34.0,FINESTEERING,2319,306586.400,02000800,e5fc,17139;2319,306586.400000000,-0.0000475897098068,0.0000533993355299,0.0000129715665738,0.0004264326403589,0.0005163829171259,-0.0005194255525624*e5a96c3e
#CORRIMUDATAA,FILE,0,34.0,FINESTEERING,2319,306586.700,02000800,e5fc,17139;2319,306586.700000000,0.0000082587636812,-0.0000136804329756,-0.0000443461291434,-0.0019852617508328,0.0016399836986187,0.0010094788945468*f181e258
#CORRIMUDATAA,FILE,0,34.0,FINESTEERING,2319,306586.750,02000800,e5fc,17139;2319,306586.750000000,-0.0000365159003673,-0.0000276156813803,-0.0000567216019961,0.0000820539906592,0.0004305571306940,0.0013424053627610*73ce5b56
#CORRIMUDATAA,FILE,0,34.0,FINESTEERING,2319,306586.800,02000800,e5fc,17139;2319,306586.800000000,-0.0000521625067592,-0.0000294431823592,-0.0000274382240251,0.0022898744023424,-0.0006095972871070,-0.0000742126982023*a4420e34
#CORRIMUDATAA,FILE,0,34.0,FINESTEERING,2319,306586.850,02000800,e5fc,17139;2319,306586.850000000,-0.0000322372031451,-0.0000139847996161,0.0000266465334854,0.0027710109879269,-0.0008882294245671,-0.0006602551138253*801dc113
#CORRIMUDATAA,FILE,0,34.0,FINESTEERING,2319,306586.900,02000800,e5fc,17139;2319,306586.900000000,0.0000089040985841,-0.0000188989230911,0.0000377903523052,0.0010841362375431,-0.0003203828142838,0.0000157358921997*805038b4
#CORRIMUDATAA,FILE,0,34.0,FINESTEERING,2319,306587.000,02000800,e5fc,17139;2319,306587.000000000,0.0000393222988030,0.0000619034012065,-0.0000181374546517,-0.0010481659262785,0.0002650092003314,-0.0008309692915252*a825ce26
#CORRIMUDATAA,FILE,0,34.0,FINESTEERING,2319,306587.300,02000800,e5fc,17139;2319,306587.300000000,0.0000243727278084,-0.0000073941586466,-0.0000248690594667,-0.0003002212376550,0.0000806382736173,-0.0010148411281312*a88485ab
#CORRIMUDATAA,FILE,0,35.5,FINESTEERING,2319,306587.400,02000800,e5fc,17139;2319,306587.400000000,0.0000128302619543,0.0000050149574782,-0.0000073739057200,0.0009488014623819,0.0006354731762735,0.0012078414039309*091ec189
#CORRIMUDATAA,FILE,0,35.5,FINESTEERING,2319,306587.450,02000800,e5fc,17139;2319,306587.450000000,-0.0000097998534771,-0.0000298578757713,0.0000280152162559,0.0003022935218772,0.0003869403720537,0.0010838656995194*3849162e
#CORRIMUDATAA,FILE,0,35.5,FINESTEERING,2319,306587.500,02000800,e5fc,17139;2319,306587.500000000,-0.0000417559437787,-0.0000142478204675,0.0000257538523291,-0.0003672155656604,0.0001795961515661,0.0003488517377756*52cc55c6
#CORRIMUDATAA,FILE,0,35.5,FINESTEERING,2319,306587.600,02000800,e5fc,17139;2319,306587.600000000,0.0000161171060713,-0.0000024405005322,-0.0000133189240676,0.0002748195492573,-0.0002912331043106,-0.0007472970197779*ebe003c5
#CORRIMUDATAA,FILE,0,35.5,FINESTEERING,2319,306587.650,02000800,e5fc,17139;2319,306587.650000000,0.0000145985896915,0.0000363397243965,-0.0000104358088139,0.0008021359525597,-0.0001430602732454,-0.0004276119036713*f7e6c9ce
#CORRIMUDATAA,FILE,0,35.5,FINESTEERING,2319,306587.800,02000800,e5fc,17139;2319,306587.800000000,-0.0000080128261508,-0.0000069379356320,0.0000197510311060,-0.0012686147526718,0.0004949784934851,0.0002478077191722*d59cc7c6
#CORRIMUDATAA,FILE,0,35.5,FINESTEERING,2319,306587.850,02000800,e5fc,17139;2319,306587.850000000,-0.0000185638711258,-0.0000131544765963,0.0000012228579436,-0.0010945142693732,-0.0000019650200728,0.0003125269836045*b4e970da
#CORRIMUDATAA,FILE,0,35.5,FINESTEERING,2319,306587.900,02000800,e5fc,17139;2319,306587.900000000,-0.0000354369906719,-0.0000252929729068,-0.0000189963241206,0.0000459257556828,-0.0003155432629795,-0.0006441721525535*e9a32a1a
#CORRIMUDATAA,FILE,0,35.5,FINESTEERING,2319,306587.950,02000800,e5fc,17139;2319,306587.950000000,-0.0000059828018745,-0.0000315009991021,-0.0000112223849782,0.0010990491009957,-0.0001157492863519,-0.0010123168223586*f56f2e08
#CORRIMUDATAA,FILE,0,35.5,FINESTEERING,2319,306588.000,02000800,e5fc,17139;2319,306588.000000000,0.0000061727315782,-0.0000203336726887,0.0000077395489255,0.0007755375021997,-0.0001299082311559,-0.0001775790024485*39260b59
#CORRIMUDATAA,FILE,0,35.5,FINESTEERING,2319,306588.350,02000800,e5fc,17139;2319,306588.350000000,0.0000391060162779,-0.0000097708555385,0.0000026684634445,0.0003134845570121,0.0005521165588060,0.0001589740047247*402e2ce7
#CORRIMUDATAA,FILE,0,36.0,FINESTEERING,2319,306588.400,02000800,e5fc,17139;2319,306588.400000000,0.0000151546613327,0.0000019218282772,-0.0000124896452539,-0.0000117858072452,-0.0001187263949727,0.0012219741855488*47b43016
#CORRIMUDATAA,FILE,0,36.0,FINESTEERING,2319,306588.500,02000800,e5fc,17139;2319,306588.500000000,-0.0000075628086608,0.0000228630336511,0.0000024514104131,-0.0000690042650206,0.0000881820065865,0.0000569677343804*5f4f6853
#CORRIMUDATAA,FILE,0,36.0,FINESTEERING,2319,306588.550,02000800,e5fc,17139;2319,306588.550000000,-0.0000153281312347,0.0000113310789764,0.0000115683998106,-0.0005032799786266,-0.0000672955380169,-0.0004879963290844*20406aca
#CORRIMUDATAA,FILE,0,36.0,FINESTEERING,2319,306588.600,02000800,e5fc,17139;2319,306588.600000000,0.0000025144940084,-0.0000021064523777,0.0000031713062418,-0.0009290979592801,0.0002483769993962,-0.0007716127145439*a38a114a
#CORRIMUDATAA,FILE,0,36.0,FINESTEERING,2319,306588.700,02000800,e5fc,17139;2319,306588.700000000,0.0000118513537764,-0.0000294530051233,-0.0000178668200077,0.0008266714783425,-0.0004949082679965,0.0004710114248331*b993abce
#CORRIMUDATAA,FILE,0,36.0,FINESTEERING,2319,306588.900,02000800,e5fc,17139;2319,306588.900000000,0.0001349748629521,-0.0000561956626096,-0.0000415113761939,0.0000976507870376,0.0063606107487919,-0.0062347527829199*317ba525
#CORRIMUDATAA,FILE,0,36.0,FINESTEERING,2319,306588.950,02000800,e5fc,17139;2319,306588.950000000,0.0002761474264058,-0.0001004871076264,-0.0000308700062750,0.0015130173920562,0.0089089835325968,-0.0093271294917081*0767376a
#CORRIMUDATAA,FILE,0,36.0,FINESTEERING,2319,306589.000,02000800,e5fc,17139;2319,306589.000000000,0.0004208892469492,-0.0000835542270125,0.0000405873541235,0.0019911811176681,0.0086859325498749,-0.0061461716688249*33f16c86
#CORRIMUDATAA,FILE,0,36.0,FINESTEERING,2319,306589.050,02000800,e5fc,17139;2319,306589.050000000,0.0004205108073910,-0.0000811889158869,0.0000855753193174,-0.0000980622050277,0.0081782272163741,0.0006305880025450*9b08ffb5
#CORRIMUDATAA,FILE,0,34.5,FINESTEERING,2319,306589.200,02000800,e5fc,17139;2319,306589.200000000,0.0000927000901611,0.0000010160017572,-0.0000600176472527,0.0002271974731915,0.0093039493880525,0.0094592957873588*074d70bd
#CORRIMUDATAA,FILE,0,34.5,FINESTEERING,2319,306589.250,02000800,e5fc,17139;2319,306589.250000000,-0.0000577968991283,0.0000006247006942,-0.0000708097808102,0.0012897219543789,0.0088546981278568,0.0068391965924134*806136e2
#CORRIMUDATAA,FILE,0,34.5,FINESTEERING,2319,306589.300,02000800,e5fc,17139;2319,306589.300000000,-0.0001565840441468,0.0000604656880013,-0.0000239234601478,0.0015715660920461,0.0087660935631545,0.0018878971641687*c39924a2
#CORRIMUDATAA,FILE,0,34.5,FINESTEERING,2319,306589.350,02000800,e5fc,17139;2319,306589.350000000,-0.0001708619983659,0.0000631942061891,0.0000361335132870,0.0015300602337855,0.0087455627324823,-0.0018981533024561*7af608cc
#CORRIMUDATAA,FILE,0,34.5,FINESTEERING,2319,306589.400,02000800,e5fc,17139;2319,306589.400000000,-0.0001124789915106,0.0000046404259747,0.0000642214977717,0.0007320173561138,0.0089725812112684,-0.0037642198457542*12eb8364
#CORRIMUDATAA,FILE,0,34.5,FINESTEERING,2319,306589.450,02000800,e5fc,17139;2319,306589.450000000,-0.0000082889964464,-0.0000421076785460,0.0000661354262421,-0.0002254371359224,0.0105050635239183,-0.0049506694336649*07778dfc
#CORRIMUDATAA,FILE,0,34.5,FINESTEERING,2319,306589.500,02000800,e5fc,17139;2319,306589.500000000,0.0000953449773570,-0.0000368752210512,0.0000209796963749,-0.0011587669491630,0.0106867901396837,-0.0027187727124992*a287e4d5
#CORRIMUDATAA,FILE,0,34.5,FINESTEERING,2319,306589.550,02000800,e5fc,17139;2319,306589.550000000,0.0000735296560016,0.0000271973397098,-0.0000093423901075,-0.0001612623446802,0.0092761320889223,0.0020003387816642*00ded532
#CORRIMUDATAA,FILE,0,34.5,FINESTEERING,2319,306589.600,02000800,e5fc,17139;2319,306589.600000000,0.0000136914022916,0.0000235267860919,-0.0000090303250878,0.0012606420118349,0.0083482898280772,0.0023957471016508*084511ff
#CORRIMUDATAA,FILE,0,34.5,FINESTEERING,2319,306589.650,02000800,e5fc,17139;2319,306589.650000000,-0.0000282997196125,0.0000166271695212,0.0000167732965165,0.0016088696187207,0.0092788205900472,0.0013066463989366*52afb9a2
#CORRIMUDATAA,FILE,0,34.5,FINESTEERING,2319,306589.700,02000000,e5fc,17139;2319,306589.700000000,-0.0000213139329848,0.0000402207942415,0.0000400568035137,0.0008974621268509,0.0112908839192419,-0.0003573600777078*ae002db9
#CORRIMUDATAA,FILE,0,34.5,FINESTEERING,2319,306589.750,02000000,e5fc,17139;2319,306589.750000000,-0.0000030449151344,0.0000188845430629,0.0000562290943737,0.0002431849123986,0.0084956401164125,0.0009754177656173*23baa78e
#CORRIMUDATAA,FILE,0,34.5,FINESTEERING,2319,306589.800,02000000,e5fc,17139;2319,306589.800000000,-0.0000922511703657,-0.0000084170083073,0.0000436858453567,-0.0006554818074274,0.0056711037183149,0.0014284831948512*ae31d8b9
#CORRIMUDATAA,FILE,0,34.5,FINESTEERING,2319,306589.850,02000000,e5fc,17139;2319,306589.850000000,-0.0000639903772603,-0.0000755082418878,0.0000249827603463,-0.0011086011018224,0.0056230847108455,-0.0010066544896456*8cbc10b9
#CORRIMUDATAA,FILE,0,34.5,FINESTEERING,2319,306589.900,02000000,e5fc,17139;2319,306589.900000000,-0.0000205389174277,-0.0000515016457695,-0.0000017114128069,-0.0008525233769723,0.0073165444138594,-0.0020868351450842*ebc909e4
#CORRIMUDATAA,FILE,0,34.5,FINESTEERING,2319,306589.950,02000000,e5fc,17139;2319,306589.950000000,0.0001230420257571,-0.0000386876618999,-0.0000039540384865,0.0002769524322864,0.0084490704879746,-0.0033175798065034*e7eb588c
#CORRIMUDATAA,FILE,0,34.5,FINESTEERING,2319,306590.000,02000000,e5fc,17139;2319,306590.000000000,0.0001244458032938,-0.0000572068090979,-0.0000004971942431,0.0008887894436706,0.0087812136837165,0.0004008979708046*723802cb
#CORRIMUDATAA,FILE,0,34.5,FINESTEERING,2319,306590.050,02000000,e5fc,17139;2319,306590.050000000,0.0000718624252369,-0.0000197199311384,0.0000303635531564,0.0012629189476832,0.0099745110982833,0.0017427551711199*4dbc250d
#CORRIMUDATAA,FILE,0,26.0,FINESTEERING,2319,306590.100,02000000,e5fc,17139;2319,306590.100000000,0.0000524742796343,-0.0000624335795428,0.0000443480013650,0.0007218657736483,0.0117558046347404,-0.0002560636567700*a1d6bfba
#CORRIMUDATAA,FILE,0,26.0,FINESTEERING,2319,306590.150,02000000,e5fc,17139;2319,306590.150000000,0.0000494775847715,-0.0000191421458826,0.0000517177714766,0.0001990245762396,0.0129959587880925,-0.0002352044043880*9c9667ec
#CORRIMUDATAA,FILE,0,26.0,FINESTEERING,2319,306590.200,02000000,e5fc,17139;2319,306590.200000000,0.0000934719871685,-0.0000041845002483,0.0000346770272325,0.0000396810401236,0.0127856713429743,0.0000231178715022*c7caf4d6
#CORRIMUDATAA,FILE,0,26.0,FINESTEERING,2319,306590.250,02000000,e5fc,17139;2319,306590.250000000,0.0000761860411033,0.0000268435560624,0.0000162348493947,0.0007425138625005,0.0124757089804126,0.0017018281261164*f86ab515
#CORRIMUDATAA,FILE,0,26.0,FINESTEERING,2319,306590.300,02000000,e5fc,17139;2319,306590.300000000,0.0000520968778657,-0.0000210763292660,0.0000164679610747,0.0013188193019542,0.0144406026051407,-0.0011634539874455*3d0162db
#CORRIMUDATAA,FILE,0,26.0,FINESTEERING,2319,306590.350,02000000,e5fc,17139;2319,306590.350000000,0.0000835881421047,-0.0000742231734727,0.0000328582316151,0.0005346498496195,0.0166431249960192,-0.0016235900548786*017c6d48
#CORRIMUDATAA,FILE,0,26.0,FINESTEERING,2319,306590.400,02000000,e5fc,17139;2319,306590.400000000,0.0001042186416957,-0.0000078965648792,0.0000391985134951,-0.0004935037219485,0.0172505935407994,0.0005139928376502*456eba0f
#CORRIMUDATAA,FILE,0,26.0,FINESTEERING,2319,306590.450,02000000,e5fc,17139;2319,306590.450000000,0.0000657056141439,0.0000493950047845,0.0000443383671020,0.0004910872591217,0.0164008710329667,0.0022143144408158*2f0624b1
#CORRIMUDATAA,FILE,0,26.0,FINESTEERING,2319,306590.500,02000000,e5fc,17139;2319,306590.500000000,-0.0000030985695706,0.0000665818331366,0.0000545169013207,0.0019245553628898,0.0164463673150348,0.0019069806687921*f70d03b6
#CORRIMUDATAA,FILE,0,26.0,FINESTEERING,2319,306590.550,02000000,e5fc,17139;2319,306590.550000000,-0.0000093110377268,0.0000102019505410,0.0000489992747666,0.0007670799933629,0.0177701804581606,-0.0002177602570732*aacfae57
#CORRIMUDATAA,FILE,0,26.0,FINESTEERING,2319,306590.600,02000000,e5fc,17139;2319,306590.600000000,0.0000370194318501,0.0000648664398311,0.0000111304877589,-0.0006731991821627,0.0193212588072980,-0.0025743514013058*1909d768
#CORRIMUDATAA,FILE,0,26.0,FINESTEERING,2319,306590.650,02000000,e5fc,17139;2319,306590.650000000,0.0000855718179705,0.0000986430239089,-0.0000317116058253,-0.0005722179444691,0.0189750377304903,0.0000258708878331*cdfaf582
#CORRIMUDATAA,FILE,0,26.0,FINESTEERING,2319,306590.700,02000000,e5fc,17139;2319,306590.700000000,0.0000578761442624,0.0001171875355229,-0.0000397335799846,0.0007191912710449,0.0184982238504313,0.0009093068573246*9cdfa551
#CORRIMUDATAA,FILE,0,26.0,FINESTEERING,2319,306590.750,02000000,e5fc,17139;2319,306590.750000000,0.0000237503002231,0.0000775257111306,-0.0000060591311877,0.0014616423895851,0.0193942351145782,0.0001707414140649*94a446e7
#CORRIMUDATAA,FILE,0,26.0,FINESTEERING,2319,306590.800,02000000,e5fc,17139;2319,306590.800000000,-0.0000131680954675,0.0000598889063667,0.0000302311598678,0.0006852787770162,0.0213988998156886,0.0007376124896385*e19b4177
#CORRIMUDATAA,FILE,0,26.0,FINESTEERING,2319,306590.850,02000000,e5fc,17139;2319,306590.850000000,0.0000581960732088,-0.0000010669519556,0.0000440002586426,0.0002513300725932,0.0233830868711106,-0.0016859104418309*5f59381b
#CORRIMUDATAA,FILE,0,26.0,FINESTEERING,2319,306590.900,02000000,e5fc,17139;2319,306590.900000000,0.0001138314629009,-0.0000171099436911,0.0000298799462767,-0.0004515149152831,0.0239109946224626,-0.0007562596995185*4b13cdc0
#CORRIMUDATAA,FILE,0,26.0,FINESTEERING,2319,306590.950,02000000,e5fc,17139;2319,306590.950000000,0.0001146234830178,-0.0000298748313620,0.0000050943353476,0.0005614497019341,0.0238846061235020,-0.0003694580159633*0f6c7b37
#CORRIMUDATAA,FILE,0,26.0,FINESTEERING,2319,306591.000,02000000,e5fc,17139;2319,306591.000000000,0.0001350924937219,-0.0000258282875002,0.0000002547195812,0.0014057410850552,0.0253627389856091,-0.0012184327489833*d9219dcb
#CORRIMUDATAA,FILE,0,26.0,FINESTEERING,2319,306591.050,02000000,e5fc,17139;2319,306591.050000000,0.0001291181424217,0.0000210788510226,0.0000095782732634,0.0015581063160910,0.0275422291032586,-0.0000731440406074*5ec79c8d
#CORRIMUDATAA,FILE,0,26.0,FINESTEERING,2319,306591.100,02000000,e5fc,17139;2319,306591.100000000,0.0002008757964303,0.0000821833666731,0.0000106202391241,0.0012202422300974,0.0305488001886347,-0.0007657308611598*770616b8
#CORRIMUDATAA,FILE,0,30.5,FINESTEERING,2319,306591.150,02000000,e5fc,17139;2319,306591.150000000,0.0002733197202205,0.0000773737630280,0.0000029270363062,0.0009633996245612,0.0334877216940658,-0.0022793642186457*babf1485
#CORRIMUDATAA,FILE,0,30.5,FINESTEERING,2319,306591.200,02000000,e5fc,17139;2319,306591.200000000,0.0003228623832041,0.0001401073878904,-0.0000074841284428,0.0002125996941091,0.0353691627016277,-0.0013609321637435*95317805
#CORRIMUDATAA,FILE,0,30.5,FINESTEERING,2319,306591.250,02000000,e5fc,17139;2319,306591.250000000,0.0003570834656633,0.0001311136471896,-0.0000115839408959,0.0012532214483827,0.0366973108288629,-0.0006094353012404*52d0da0d
#CORRIMUDATAA,FILE,0,30.5,FINESTEERING,2319,306591.300,02000000,e5fc,17139;2319,306591.300000000,0.0003697165211925,0.0000790701244197,-0.0000197203665855,0.0010948234725116,0.0392073405256215,0.0015214006631876*e318bf3b
#CORRIMUDATAA,FILE,0,30.5,FINESTEERING,2319,306591.350,02000000,e5fc,17139;2319,306591.350000000,0.0003926288811219,0.0000736611717806,-0.0000168977996723,0.0010212355815004,0.0428589443911481,0.0002564440210754*b6609de5
#CORRIMUDATAA,FILE,0,30.5,FINESTEERING,2319,306591.400,02000000,e5fc,17139;2319,306591.400000000,0.0003589540223560,0.0000460315701386,-0.0000152539026094,0.0016046615084273,0.0431952788601393,0.0014798157939560*52c63da6
#CORRIMUDATAA,FILE,0,30.5,FINESTEERING,2319,306591.450,02000000,e5fc,17139;2319,306591.450000000,0.0002829937922381,0.0000165279616484,0.0000174698253065,0.0014416617565870,0.0429415630019858,0.0035723345965569*048005d0
#CORRIMUDATAA,FILE,0,30.5,FINESTEERING,2319,306591.500,02000000,e5fc,17139;2319,306591.500000000,0.0001853871017237,-0.0000610743612222,0.0000530456588304,0.0011864856034308,0.0435492884055474,0.0012923681566079*3bfb92cf
#CORRIMUDATAA,FILE,0,30.5,FINESTEERING,2319,306591.550,02000000,e5fc,17139;2319,306591.550000000,0.0001401671940308,-0.0000254676513159,0.0000751486179671,0.0008394115540324,0.0465966673467731,-0.0002208390228683*0106c040
#CORRIMUDATAA,FILE,0,30.5,FINESTEERING,2319,306591.600,02000000,e5fc,17139;2319,306591.600000000,0.0001666897579892,-0.0000232172711770,0.0000776449256931,0.0010153395324703,0.0487786570754531,-0.0028337049210132*1d455e03
#CORRIMUDATAA,FILE,0,30.5,FINESTEERING,2319,306591.650,02000000,e5fc,17139;2319,306591.650000000,0.0002139309935392,-0.0000135469086236,0.0000477425752416,0.0017740096809724,0.0504500206988682,-0.0031384293896535*2559fec1
#CORRIMUDATAA,FILE,0,30.5,FINESTEERING,2319,306591.700,02000000,e5fc,17139;2319,306591.700000000,0.0001940330463779,-0.0000107279864940,0.0000366664438680,0.0025964927673952,0.0519185268318685,-0.0009639827294491*0c819089
#CORRIMUDATAA,FILE,0,30.5,FINESTEERING,2319,306591.750,02000000,e5fc,17139;2319,306591.750000000,0.0002017933325521,-0.0000361013367578,0.0000560315056851,0.0014816357310790,0.0530484888046690,-0.0012238767812010*2db376fc
#CORRIMUDATAA,FILE,0,30.5,FINESTEERING,2319,306591.800,02000000,e5fc,17139;2319,306591.800000000,0.0001838950320442,0.0000526718719162,0.0000732538402688,0.0017105373130961,0.0532347694630478,-0.0002589720379230*9d2d92f0
#CORRIMUDATAA,FILE,0,30.5,FINESTEERING,2319,306591.850,02000000,e5fc,17139;2319,306591.850000000,0.0001684760375111,0.0000914366879001,0.0001055093838452,0.0022972401667237,0.0524823681817850,0.0018524866615340*eb7f15e1
#CORRIMUDATAA,FILE,0,30.5,FINESTEERING,2319,306591.900,02000000,e5fc,17139;2319,306591.900000000,0.0002035988718522,0.0000769059537541,0.0001416106338138,0.0024056748545782,0.0532253602661411,0.0023112998502200*89a5b904
#CORRIMUDATAA,FILE,0,30.5,FINESTEERING,2319,306591.950,02000000,e5fc,17139;2319,306591.950000000,0.0001932911438437,0.0001276906912267,0.0001355302608597,-0.0000296519220786,0.0529948992718182,0.0005831262741847*39224d80
#CORRIMUDATAA,FILE,0,30.5,FINESTEERING,2319,306592.000,02000000,e5fc,17139;2319,306592.000000000,0.0000972332985099,0.0001700735448392,0.0000798182660691,0.0002175245377041,0.0534418560027279,0.0022416467912844*0e554c3d
#CORRIMUDATAA,FILE,0,30.5,FINESTEERING,2319,306592.050,02000000,e5fc,17139;2319,306592.050000000,0.0000414748603275,0.0000233248052417,0.0000044932825112,-0.0001922678114384,0.0513045607785908,0.0017882451633151*fdfe4257
#CORRIMUDATAA,FILE,0,30.5,FINESTEERING,2319,306592.100,02000000,e5fc,17139;2319,306592.100000000,-0.0001362989464463,-0.0000494882817909,-0.0000149650852576,-0.0004451760692818,0.0503954766309770,0.0021533279669939*28d92ee8
#CORRIMUDATAA,FILE,0,30.5,FINESTEERING,2319,306592.150,02000000,e5fc,17139;2319,306592.150000000,-0.0000789302692009,-0.0000465825933035,0.0000079908750660,0.0013788866058936,0.0527403949802538,0.0000315668018532*1c8a00eb
#CORRIMUDATAA,FILE,0,31.5,FINESTEERING,2319,306592.200,02000000,e5fc,17139;2319,306592.200000000,-0.0000991808612189,0.0000522074366838,0.0000648699917918,0.0035335106913815,0.0502460317214748,-0.0008160143049974*8b4c4649
#CORRIMUDATAA,FILE,0,31.5,FINESTEERING,2319,306592.250,02000000,e5fc,17139;2319,306592.250000000,-0.0000369258531098,-0.0000512651835320,0.0001042661795745,0.0040110895401659,0.0515461449829953,-0.0026470143410069*eefd5f95
#CORRIMUDATAA,FILE,0,31.5,FINESTEERING,2319,306592.300,02000000,e5fc,17139;2319,306592.300000000,0.0000858864482839,-0.0001321035439540,0.0000785780358417,0.0014788149459297,0.0514027717253333,-0.0014411696598038*768b11e5
#CORRIMUDATAA,FILE,0,31.5,FINESTEERING,2319,306592.350,02000000,e5fc,17139;2319,306592.350000000,0.0000738787804998,-0.0001515726851067,0.0000428446559010,-0.0004145986668133,0.0503375447471856,-0.0010006144992283*a13d25ed
#CORRIMUDATAA,FILE,0,31.5,FINESTEERING,2319,306592.400,02000000,e5fc,17139;2319,306592.400000000,0.0002171249734102,-0.0002970699295603,0.0000161513009243,-0.0001425717252174,0.0521152514966972,0.0023944014629121*9b6f408f
#CORRIMUDATAA,FILE,0,31.5,FINESTEERING,2319,306592.450,02000000,e5fc,17139;2319,306592.450000000,0.0000209116397386,-0.0000731350596907,0.0000727826886685,0.0011812645155207,0.0529321117443313,0.0036147054042532*9398aa25
#CORRIMUDATAA,FILE,0,31.5,FINESTEERING,2319,306592.500,02000000,e5fc,17139;2319,306592.500000000,0.0001250935185765,-0.0000292969000788,0.0000975893173386,0.0036210740925476,0.0552264263509922,-0.0035780111961635*3f9e528c
#CORRIMUDATAA,FILE,0,31.5,FINESTEERING,2319,306592.550,02000000,e5fc,17139;2319,306592.550000000,0.0001454467764070,-0.0000645735470459,0.0000842911894966,0.0027665819747904,0.0558848310849356,-0.0001443735162107*18027721
#CORRIMUDATAA,FILE,0,31.5,FINESTEERING,2319,306592.600,02000000,e5fc,17139;2319,306592.600000000,-0.0000220524037912,0.0001119769165143,0.0000599711908363,0.0012685641201887,0.0543114974231981,0.0002180273656512*d92d3a51
#CORRIMUDATAA,FILE,0,31.5,FINESTEERING,2319,306592.650,02000000,e5fc,17139;2319,306592.650000000,0.0000579030699898,0.0001641050551206,0.0000492553701235,0.0018028773650039,0.0540265117523872,-0.0004313862725348*fbc42fae
#CORRIMUDATAA,FILE,0,31.5,FINESTEERING,2319,306592.700,02000000,e5fc,17139;2319,306592.700000000,0.0000053498898702,0.0001748256566050,0.0000921218761065,0.0023687917528668,0.0523831929468474,0.0052466450740929*e25586a3
#CORRIMUDATAA,FILE,0,31.5,FINESTEERING,2319,306592.750,02000000,e5fc,17139;2319,306592.750000000,-0.0000828728617533,0.0000157923273696,0.0001839537832768,0.0010480329288985,0.0536076084100197,0.0016596934190974*e99c3de8
#CORRIMUDATAA,FILE,0,31.5,FINESTEERING,2319,306592.800,02000000,e5fc,17139;2319,306592.800000000,0.0000047628553084,0.0001167574717876,0.0002413179258549,0.0005159568528700,0.0544339914248331,-0.0037668452788746*e7ad4a03
#CORRIMUDATAA,FILE,0,31.5,FINESTEERING,2319,306592.850,02000000,e5fc,17139;2319,306592.850000000,0.0000005377086847,0.0002001635097625,0.0002750244643880,0.0018935307454845,0.0544288376991008,-0.0023914994813849*9354127b
#CORRIMUDATAA,FILE,0,31.5,FINESTEERING,2319,306592.900,02000000,e5fc,17139;2319,306592.900000000,-0.0000592921983703,0.0001781439916820,0.0002445934009793,0.0015352741837689,0.0547862517375913,-0.0029547991643469*7436fbab
#CORRIMUDATAA,FILE,0,31.5,FINESTEERING,2319,306592.950,02000000,e5fc,17139;2319,306592.950000000,0.0000550975220905,0.0001260352450219,0.0002062075987854,-0.0007687819419017,0.0553672635142650,-0.0013898250254477*6516f1f5
#CORRIMUDATAA,FILE,0,31.5,FINESTEERING,2319,306593.000,02000000,e5fc,17139;2319,306593.000000000,0.0001249435415850,0.0001826958991275,0.0001510361028554,0.0002372316345132,0.0559501690779803,0.0008209884286205*ffb08f63
#CORRIMUDATAA,FILE,0,31.5,FINESTEERING,2319,306593.050,02000000,e5fc,17139;2319,306593.050000000,0.0001004753250339,0.0000474440167362,0.0001161602301176,0.0005483322566290,0.0550099761585782,0.0008864835397182*1c99e1b4
#CORRIMUDATAA,FILE,0,31.0,FINESTEERING,2319,306593.100,02000000,e5fc,17139;2319,306593.100000000,-0.0000010072283566,-0.0000645885449528,0.0001201791936650,0.0013711837366898,0.0530555290395202,-0.0005712073340860*6631d5cc
#CORRIMUDATAA,FILE,0,31.0,FINESTEERING,2319,306593.150,02000000,e5fc,17139;2319,306593.150000000,-0.0001110434633777,-0.0002519527329561,0.0001394656773225,0.0018791255037116,0.0518106630755166,0.0037220740462901*6fd54b3a
#CORRIMUDATAA,FILE,0,31.0,FINESTEERING,2319,306593.200,02000000,e5fc,17139;2319,306593.200000000,-0.0002824706170974,-0.0002790892836398,0.0002185214296564,0.0001147450321279,0.0473703144362855,0.0028269599703584*8a941676
#CORRIMUDATAA,FILE,0,31.0,FINESTEERING,2319,306593.250,02000000,e5fc,17139;2319,306593.250000000,-0.0002255499233395,0.0001678685318842,0.0002952712309980,0.0026979681133473,0.0466128874813907,-0.0000632729888488*df94c5c8
#CORRIMUDATAA,FILE,0,31.0,FINESTEERING,2319,306593.300,02000000,e5fc,17139;2319,306593.300000000,0.0000123031717394,0.0000081028898077,0.0003052162265420,0.0056772569009857,0.0469570727655384,-0.0056996104689172*013c4970
#CORRIMUDATAA,FILE,0,31.0,FINESTEERING,2319,306593.350,02000000,e5fc,17139;2319,306593.350000000,-0.0000544292817390,-0.0000412574524215,0.0002820286208230,0.0004450281760624,0.0393364201813655,0.0058981517934314*e6b89374
#CORRIMUDATAA,FILE,0,31.0,FINESTEERING,2319,306593.400,02000000,e5fc,17139;2319,306593.400000000,-0.0002856722012004,0.0001821483908196,0.0001599699068729,-0.0045152913115598,0.0355496375862470,0.0070069239071709*813282f5
#CORRIMUDATAA,FILE,0,31.0,FINESTEERING,2319,306593.450,02000000,e5fc,17139;2319,306593.450000000,-0.0003425811074053,-0.0000126418282552,0.0000538946937778,-0.0013235477392219,0.0401440462616643,-0.0016491560164353*e32ebf13
#CORRIMUDATAA,FILE,0,31.0,FINESTEERING,2319,306593.500,02000000,e5fc,17139;2319,306593.500000000,-0.0002846429925617,0.0000621490299337,0.0000779349366440,0.0005323005839465,0.0409760917894701,-0.0052204941193085*983281be
#CORRIMUDATAA,FILE,0,31.0,FINESTEERING,2319,306593.550,02000000,e5fc,17139;2319,306593.550000000,0.0000382807809954,0.0000803895297494,0.0001974957877758,0.0047837359709629,0.0426811845729230,-0.0079542052763783*78cc87b4
#CORRIMUDATAA,FILE,0,31.0,FINESTEERING,2319,306593.600,02000000,e5fc,17139;2319,306593.600000000,0.0002877499098645,0.0001656415341445,0.0002964359482005,0.0018386819064125,0.0417845807517815,0.0002629898880553*a267bdb4
#CORRIMUDATAA,FILE,0,31.0,FINESTEERING,2319,306593.650,02000000,e5fc,17139;2319,306593.650000000,0.0001760626126576,-0.0001817909575275,0.0002421878640436,-0.0003209630988712,0.0418034015821466,0.0000672892741720*3801ff04
#CORRIMUDATAA,FILE,0,31.0,FINESTEERING,2319,306593.700,02000000,e5fc,17139;2319,306593.700000000,-0.0000899103669582,-0.0003407714801388,0.0000912011474651,-0.0052030793357767,0.0404240291247243,0.0029742906761557*aa1d618c
#CORRIMUDATAA,FILE,0,31.0,FINESTEERING,2319,306593.750,02000000,e5fc,17139;2319,306593.750000000,-0.0001319543258975,-0.0001407611833169,-0.0000119772757647,-0.0009038110654592,0.0403080644628215,-0.0023663469819294*1ef9250c
#CORRIMUDATAA,FILE,0,31.0,FINESTEERING,2319,306593.800,02000000,e5fc,17139;2319,306593.800000000,-0.0000204155700013,-0.0001905580401078,-0.0000261696112619,0.0041466938079341,0.0375441466295698,0.0020071656949777*aec9faae
#CORRIMUDATAA,FILE,0,31.0,FINESTEERING,2319,306593.850,02000000,e5fc,17139;2319,306593.850000000,-0.0001702398583883,0.0001054213456431,0.0000947380963828,0.0041727004018374,0.0353442187103892,0.0047275123747568*7cbdf43a
#CORRIMUDATAA,FILE,0,31.0,FINESTEERING,2319,306593.900,02000000,e5fc,17139;2319,306593.900000000,0.0000383286326553,0.0000883365570933,0.0001377990036438,0.0071951489867782,0.0385204243144697,-0.0025297425180543*e4d2ceab
#CORRIMUDATAA,FILE,0,31.0,FINESTEERING,2319,306593.950,02000000,e5fc,17139;2319,306593.950000000,-0.0001619989063480,0.0001518810725955,0.0001775277450974,0.0005081636497609,0.0346430287562551,0.0045940168562144*964b7745
#CORRIMUDATAA,FILE,0,31.0,FINESTEERING,2319,306594.000,02000000,e5fc,17139;2319,306594.000000000,-0.0001058157804713,0.0002559767487527,0.0000833885874548,-0.0035350931629160,0.0389967496799733,-0.0081138387271148*20c4e023
#CORRIMUDATAA,FILE,0,31.0,FINESTEERING,2319,306594.050,02000000,e5fc,17139;2319,306594.050000000,-0.0000981171030527,0.0003542452540621,0.0000132779706338,-0.0022710879019845,0.0382657555398904,0.0065007665957078*f8b23247
#CORRIMUDATAA,FILE,0,31.0,FINESTEERING,2319,306594.100,02000000,e5fc,17139;2319,306594.100000000,-0.0002007094731844,0.0002090693527548,0.0000487527697237,0.0005789389872588,0.0398513412145614,-0.0047169073930670*a2cf94be
#CORRIMUDATAA,FILE,0,31.5,FINESTEERING,2319,306594.150,02000000,e5fc,17139;2319,306594.150000000,0.0000426752765077,-0.0000285009921410,0.0000766267979050,0.0002180561471542,0.0432407851946641,-0.0059990343863455*37f76841
#CORRIMUDATAA,FILE,0,31.5,FINESTEERING,2319,306594.200,02000000,e5fc,17139;2319,306594.200000000,0.0003182049258318,0.0000226097959019,0.0001707757465815,0.0013467437637374,0.0411885041323333,-0.0064462444837437*81ffc844
#CORRIMUDATAA,FILE,0,31.5,FINESTEERING,2319,306594.250,02000000,e5fc,17139;2319,306594.250000000,0.0003205455310352,-0.0001934740093927,0.0001715514044398,-0.0002943508144792,0.0342842748687050,0.0092922071132694*bc4f4109
#CORRIMUDATAA,FILE,0,31.5,FINESTEERING,2319,306594.300,02000000,e5fc,17139;2319,306594.300000000,0.0001893793331319,-0.0004050843583153,0.0001048034995261,-0.0001229004244199,0.0397981073136592,0.0034244917243142*c24d7e6d
#CORRIMUDATAA,FILE,0,31.5,FINESTEERING,2319,306594.350,02000000,e5fc,17139;2319,306594.350000000,0.0001491094653843,-0.0005906928682808,0.0000308552196895,-0.0019356344564820,0.0394585210148007,0.0030409812517437*bf58389f
#CORRIMUDATAA,FILE,0,31.5,FINESTEERING,2319,306594.400,02000000,e5fc,17139;2319,306594.400000000,-0.0002016504590438,0.0001769188577237,0.0000179806406042,0.0005044071601188,0.0360794827436806,-0.0024697201877315*9c7c02ea
#CORRIMUDATAA,FILE,0,31.5,FINESTEERING,2319,306594.450,02000000,e5fc,17139;2319,306594.450000000,0.0002597266009692,-0.0000307572175310,0.0000350052539222,0.0056449610149069,0.0431681071540210,-0.0040948614682428*2e3183a2
#CORRIMUDATAA,FILE,0,31.5,FINESTEERING,2319,306594.500,02000000,e5fc,17139;2319,306594.500000000,0.0001236367538361,0.0000803684335630,0.0000441056933591,0.0033666056171521,0.0452049788430524,0.0015574665990031*a792c32f
#CORRIMUDATAA,FILE,0,31.5,FINESTEERING,2319,306594.550,02000000,e5fc,17139;2319,306594.550000000,0.0001861941797313,-0.0004991154251428,0.0000742591673349,-0.0013115603019939,0.0485860870560096,-0.0100262172905861*4f4ec7de
#CORRIMUDATAA,FILE,0,31.5,FINESTEERING,2319,306594.600,02000000,e5fc,17139;2319,306594.600000000,0.0005372879959778,-0.0001640561821308,0.0001083385225645,-0.0028532510392266,0.0559148239635987,-0.0029505287450716*83088810
#CORRIMUDATAA,FILE,0,31.5,FINESTEERING,2319,306594.650,02000000,e5fc,17139;2319,306594.650000000,0.0007410126348015,0.0000755301376608,0.0001693148399468,0.0035796191657517,0.0583541377386289,-0.0018713206738690*89cfa93f
#CORRIMUDATAA,FILE,0,31.5,FINESTEERING,2319,306594.700,02000000,e5fc,17139;2319,306594.700000000,0.0005696614901170,-0.0000658671323798,0.0002150116492595,0.0039019237827453,0.0558360775446470,-0.0042235889438917*65a68813
#CORRIMUDATAA,FILE,0,31.5,FINESTEERING,2319,306594.750,02000000,e5fc,17139;2319,306594.750000000,0.0004367038989033,-0.0002372730357629,0.0001682099471876,0.0011350353185824,0.0583711875396291,0.0050668975727533*75b633d8
#CORRIMUDATAA,FILE,0,31.5,FINESTEERING,2319,306594.800,02000000,e5fc,17139;2319,306594.800000000,0.0001333786580240,-0.0001135612180004,0.0000646450411785,-0.0020579101424630,0.0549109546396088,0.0066252833147564*6660fc87
#CORRIMUDATAA,FILE,0,31.5,FINESTEERING,2319,306594.850,02000000,e5fc,17139;2319,306594.850000000,-0.0000913802159175,0.0003180165989424,-0.0000292531310837,0.0008690272716417,0.0497664246431180,0.0174644250104824*5c3a57fd
#CORRIMUDATAA,FILE,0,31.5,FINESTEERING,2319,306594.900,02000000,e5fc,17139;2319,306594.900000000,-0.0001565474946474,0.0003523336092316,0.0000058142776712,0.0075098122658923,0.0505047018585025,0.0089354173559405*cc5afbb7
#CORRIMUDATAA,FILE,0,31.5,FINESTEERING,2319,306594.950,02000000,e5fc,17139;2319,306594.950000000,-0.0002466619977149,0.0003041222945864,0.0000522815819899,0.0046021961960205,0.0503808016647911,0.0019248512858804*496c9148
#CORRIMUDATAA,FILE,0,31.5,FINESTEERING,2319,306595.000,02000000,e5fc,17139;2319,306595.000000000,-0.0002979946569418,-0.0000529729449446,0.0001052964704121,0.0007181910740115,0.0484677393140738,0.0000832228145973*a387abea
#CORRIMUDATAA,FILE,0,31.5,FINESTEERING,2319,306595.050,02000000,e5fc,17139;2319,306595.050000000,-0.0002798590822412,0.0002186520496284,0.0001552757129895,-0.0033322551013150,0.0499247084800630,-0.0051704088955425*8dec613d
#CORRIMUDATAA,FILE,0,31.5,FINESTEERING,2319,306595.100,02000000,e5fc,17139;2319,306595.100000000,-0.0001146581641866,0.0002995158922659,0.0001452174481972,0.0000162225427612,0.0495417184399136,-0.0119760058125506*0b24b4b8
#CORRIMUDATAA,FILE,0,31.5,FINESTEERING,2319,306595.150,02000000,e5fc,17139;2319,306595.150000000,-0.0001646115533108,-0.0001013789030471,0.0000885436104670,0.0002983205532122,0.0472324192516379,-0.0048089996404538*d9dc786b
#CORRIMUDATAA,FILE,0,31.5,FINESTEERING,2319,306595.200,02000000,e5fc,17139;2319,306595.200000000,-0.0000995371380689,-0.0007028289711016,0.0000071574162518,-0.0039509066862899,0.0477048505478512,-0.0043434011747655*557b0811
#CORRIMUDATAA,FILE,0,31.5,FINESTEERING,2319,306595.250,02000000,e5fc,17139;2319,306595.250000000,-0.0000565190061020,-0.0005215338624725,-0.0000679951287312,-0.0009185072824255,0.0499983333534564,-0.0023691820332160*b97ffd98
#CORRIMUDATAA,FILE,0,31.5,FINESTEERING,2319,306595.300,02000000,e5fc,17139;2319,306595.300000000,0.0001491552816323,-0.0002884598433892,-0.0000346290566597,0.0035828999992680,0.0450903477750451,0.0032333362300428*e8b8b120
#CORRIMUDATAA,FILE,0,31.5,FINESTEERING,2319,306595.350,02000000,e5fc,17139;2319,306595.350000000,0.0004607408567034,-0.0002231933406336,0.0000133735993254,0.0052089887650288,0.0504746668311257,-0.0089538363551330*5e911108
#CORRIMUDATAA,FILE,0,31.5,FINESTEERING,2319,306595.400,02000000,e5fc,17139;2319,306595.400000000,0.0005403173946830,0.0002536034058926,0.0000406847056816,0.0035011523379552,0.0452792808218428,0.0091037124366408*84c5c8af
#CORRIMUDATAA,FILE,0,31.5,FINESTEERING,2319,306595.450,02000000,e5fc,17139;2319,306595.450000000,0.0003223786229416,0.0002275465658472,0.0000853990176912,0.0053806988697418,0.0459020307977864,0.0131177740241286*a5b235c3
#CORRIMUDATAA,FILE,0,31.5,FINESTEERING,2319,306595.500,02000000,e5fc,17139;2319,306595.500000000,-0.0000282304825593,0.0001081510186749,0.0000705948061699,-0.0000348387826174,0.0433360040429764,0.0059067856008435*fa4fcf19
#CORRIMUDATAA,FILE,0,31.5,FINESTEERING,2319,306595.550,02000000,e5fc,17139;2319,306595.550000000,-0.0003394737820141,0.0000436279572495,0.0000266363838641,-0.0016059584486133,0.0463679938562691,0.0016341259027090*a54e1842
#CORRIMUDATAA,FILE,0,31.5,FINESTEERING,2319,306595.600,02000000,e5fc,17139;2319,306595.600000000,-0.0003058021876479,-0.0005090840260573,-0.0000455535131454,-0.0014096452699531,0.0434397130748281,-0.0103251480300793*54d17fee
#CORRIMUDATAA,FILE,0,31.5,FINESTEERING,2319,306595.650,02000000,e5fc,17139;2319,306595.650000000,-0.0001878013914501,0.0000075747063226,-0.0000452219164743,0.0002463763810443,0.0456473610921056,0.0010482601622147*9a3c04b3
#CORRIMUDATAA,FILE,0,31.5,FINESTEERING,2319,306595.700,02000000,e5fc,17139;2319,306595.700000000,0.0001767047955938,0.0000338855762358,-0.0000036138356819,0.0053670957105821,0.0429899667441944,-0.0136970224269275*434ca118
#CORRIMUDATAA,FILE,0,31.5,FINESTEERING,2319,306595.750,02000000,e5fc,17139;2319,306595.750000000,0.0002433219835970,0.0000151626633621,0.0000122581045223,0.0026808905970826,0.0427579306014886,-0.0033218999364288*a877e116
#CORRIMUDATAA,FILE,0,31.5,FINESTEERING,2319,306595.800,02000000,e5fc,17139;2319,306595.800000000,0.0003033033330172,0.0003977788785721,-0.0000042269723449,-0.0016448713441506,0.0366189600578435,0.0115579056797583*4ea1000e
#CORRIMUDATAA,FILE,0,31.5,FINESTEERING,2319,306595.850,02000000,e5fc,17139;2319,306595.850000000,0.0003019812460730,0.0003796508282257,-0.0000440257987380,0.0023336053481332,0.0380683880701497,0.0074842755235460*3f04b386
#CORRIMUDATAA,FILE,0,31.5,FINESTEERING,2319,306595.900,02000000,e5fc,17139;2319,306595.900000000,-0.0000842264085934,0.0003077142480219,-0.0000189882233838,0.0028631269044049,0.0323161405823644,0.0124942973310887*85074179
#CORRIMUDATAA,FILE,0,31.5,FINESTEERING,2319,306595.950,02000000,e5fc,17139;2319,306595.950000000,-0.0002953745721733,-0.0003210392216220,-0.0000264735403261,0.0001821296659606,0.0361917173172336,-0.0006356928477009*240ea907
#CORRIMUDATAA,FILE,0,31.5,FINESTEERING,2319,306596.000,02000000,e5fc,17139;2319,306596.000000000,-0.0006572648109609,-0.0002067281262418,-0.0000502785135614,-0.0004817150718904,0.0339683070053970,0.0024975253865687*24d24de5
#CORRIMUDATAA,FILE,0,31.5,FINESTEERING,2319,306596.050,02000000,e5fc,17139;2319,306596.050000000,-0.0002972305501088,-0.0004032963069212,-0.0000755465491765,0.0018647678673001,0.0340078374070072,-0.0152118924656797*f0bf0dc2
#CORRIMUDATAA,FILE,0,30.5,FINESTEERING,2319,306596.100,02000000,e5fc,17139;2319,306596.100000000,-0.0003425702404885,-0.0000544783732563,-0.0001159919601017,-0.0022114865335790,0.0235341662879525,0.0036646313565348*59c85f29
#CORRIMUDATAA,FILE,0,30.5,FINESTEERING,2319,306596.150,02000000,e5fc,17139;2319,306596.150000000,0.0000687294080280,-0.0000490160237468,-0.0001700667062089,0.0008737758067309,0.0257462361725790,-0.0032011304497609*e27b9a18
#CORRIMUDATAA,FILE,0,30.5,FINESTEERING,2319,306596.200,02000000,e5fc,17139;2319,306596.200000000,-0.0000198802050277,0.0003106596972450,-0.0001554351602545,0.0021260963287436,0.0261206792334678,-0.0029115900854418*8e5e8637
#CORRIMUDATAA,FILE,0,30.5,FINESTEERING,2319,306596.250,02000000,e5fc,17139;2319,306596.250000000,0.0002200497696605,0.0003319215016309,-0.0001582039946603,0.0048795302101911,0.0301730044406557,-0.0015826008771016*e95a5517
#CORRIMUDATAA,FILE,0,30.5,FINESTEERING,2319,306596.300,02000000,e5fc,17139;2319,306596.300000000,0.0000140741929046,0.0001657740879239,-0.0001038114872520,0.0057646680155363,0.0279732570592332,0.0059856610808339*9e27334f
#CORRIMUDATAA,FILE,0,30.5,FINESTEERING,2319,306596.350,02000000,e5fc,17139;2319,306596.350000000,-0.0001387594183342,0.0000272645111530,-0.0001108318567155,0.0035118093203733,0.0276956883522954,0.0061679864569126*17987c35
#CORRIMUDATAA,FILE,0,30.5,FINESTEERING,2319,306596.400,02000000,e5fc,17139;2319,306596.400000000,-0.0002271275147198,0.0000168875117841,-0.0001214354872262,-0.0010407577416883,0.0232201894648022,-0.0044565400924800*8a1bd5aa
#CORRIMUDATAA,FILE,0,30.5,FINESTEERING,2319,306596.450,02000000,e5fc,17139;2319,306596.450000000,-0.0000841086713805,0.0005701669775874,-0.0001829991136640,-0.0027609765690002,0.0226573471949480,0.0020036010203290*f0cbef8e
#CORRIMUDATAA,FILE,0,30.5,FINESTEERING,2319,306596.500,02000000,e5fc,17139;2319,306596.500000000,-0.0001054630271706,0.0001398510834595,-0.0001797138948629,0.0032483601862470,0.0239209905300334,0.0058466533836268*cc17c1cd
#CORRIMUDATAA,FILE,0,30.5,FINESTEERING,2319,306596.550,02000000,e5fc,17139;2319,306596.550000000,-0.0001849035677802,-0.0000941768060692,-0.0001287642635836,0.0015150808823428,0.0264283041672272,-0.0031537983892366*15003628
#CORRIMUDATAA,FILE,0,30.5,FINESTEERING,2319,306596.600,02000000,e5fc,17139;2319,306596.600000000,-0.0002638590896901,-0.0002695509763484,-0.0001000613879529,-0.0018870890793569,0.0247264649733105,-0.0046075657283907*374d87c7
#CORRIMUDATAA,FILE,0,30.5,FINESTEERING,2319,306596.650,02000000,e5fc,17139;2319,306596.650000000,-0.0001618778749551,-0.0001345961309113,-0.0000921868671604,0.0003784352309950,0.0220637854576683,-0.0038973748434965*f58c6a46
#CORRIMUDATAA,FILE,0,30.5,FINESTEERING,2319,306596.700,02000000,e5fc,17139;2319,306596.700000000,-0.0002622895316375,-0.0002019941706786,-0.0001678579462007,0.0014245936697258,0.0253552032977046,0.0064394383086025*4c135e4c
#CORRIMUDATAA,FILE,0,30.5,FINESTEERING,2319,306596.750,02000000,e5fc,17139;2319,306596.750000000,-0.0003116341900373,-0.0002737465678428,-0.0001792466661730,0.0033168533942198,0.0289566234644144,-0.0082735349857546*571b9647
#CORRIMUDATAA,FILE,0,30.5,FINESTEERING,2319,306596.800,02000000,e5fc,17139;2319,306596.800000000,-0.0005385992333299,0.0000126816688998,-0.0002131212930554,0.0008539628161525,0.0283546927615266,0.0025656424981387*f3059f5a
#CORRIMUDATAA,FILE,0,30.5,FINESTEERING,2319,306596.850,02000000,e5fc,17139;2319,306596.850000000,-0.0005468272432832,0.0001520446617870,-0.0001645992859912,0.0031443795546994,0.0249886889670418,0.0023980637163563*64aefce6
#CORRIMUDATAA,FILE,0,30.5,FINESTEERING,2319,306596.900,02000000,e5fc,17139;2319,306596.900000000,-0.0001546964585689,0.0002299369166624,-0.0000898390892464,0.0021325242304765,0.0287143794856273,-0.0045630852402552*c82e1b4d
#CORRIMUDATAA,FILE,0,30.5,FINESTEERING,2319,306596.950,02000000,e5fc,17139;2319,306596.950000000,-0.0001579611037214,0.0003115472967602,-0.0000945184007780,0.0028039558838262,0.0264450887932693,0.0041590906009119*9d69a526
#CORRIMUDATAA,FILE,0,30.5,FINESTEERING,2319,306597.000,02000000,e5fc,17139;2319,306597.000000000,-0.0000190516660349,-0.0002085804991564,-0.0001542562699436,0.0015583463740607,0.0258257458048638,-0.0017622068751670*55744d6d
#CORRIMUDATAA,FILE,0,30.5,FINESTEERING,2319,306597.050,02000000,e5fc,17139;2319,306597.050000000,-0.0001633488374450,-0.0002991799425673,-0.0002233417937675,-0.0019179522243907,0.0241846182283195,0.0045936556022176*c3c24d11
#CORRIMUDATAA,FILE,0,30.0,FINESTEERING,2319,306597.100,02000000,e5fc,17139;2319,306597.100000000,-0.0000843001662138,0.0000869285109536,-0.0002138740785047,0.0003123855943767,0.0270770460596697,-0.0063865772116792*cdc09b11
#CORRIMUDATAA,FILE,0,30.0,FINESTEERING,2319,306597.150,02000000,e5fc,17139;2319,306597.150000000,0.0001836931970345,0.0003439014660140,-0.0001999673300548,0.0037779230077321,0.0296968798685844,-0.0126877843494766*25e4c7f2
#CORRIMUDATAA,FILE,0,30.0,FINESTEERING,2319,306597.200,02000000,e5fc,17139;2319,306597.200000000,0.0003005245553631,0.0004535567368893,-0.0001133512353621,0.0062798778074787,0.0318487588513513,-0.0129320188832062*ff30d9ec
#CORRIMUDATAA,FILE,0,30.0,FINESTEERING,2319,306597.250,02000000,e5fc,17139;2319,306597.250000000,0.0005567935284805,0.0000287723483434,-0.0001072718839876,0.0029382946536232,0.0284240011956379,-0.0096363127692006*f56041a9
#CORRIMUDATAA,FILE,0,30.0,FINESTEERING,2319,306597.300,02000000,e5fc,17139;2319,306597.300000000,0.0006765211813685,-0.0002163023100439,-0.0001379968090334,-0.0029654971036987,0.0253248755057460,0.0032634834733158*aea6b8b2
#CORRIMUDATAA,FILE,0,30.0,FINESTEERING,2319,306597.350,02000000,e5fc,17139;2319,306597.350000000,0.0003710570589983,-0.0002462036718482,-0.0001945150589860,0.0014272161770896,0.0263775104954265,0.0164901625466200*6b7174a4
#CORRIMUDATAA,FILE,0,30.0,FINESTEERING,2319,306597.400,02000000,e5fc,17139;2319,306597.400000000,0.0001502866342199,0.0000447828095414,-0.0001425517189927,0.0010272868602509,0.0256743029755484,0.0104421167230062*7e028eaf
#CORRIMUDATAA,FILE,0,30.0,FINESTEERING,2319,306597.450,02000000,e5fc,17139;2319,306597.450000000,-0.0001195800002882,0.0002756219661779,-0.0001688495710231,0.0029856134404967,0.0258437044092848,0.0175284071777382*3b77825e
#CORRIMUDATAA,FILE,0,30.0,FINESTEERING,2319,306597.500,02000000,e5fc,17139;2319,306597.500000000,-0.0003843848580245,-0.0000919123608911,-0.0000936533837971,0.0023721316652039,0.0235702529215045,0.0034356205479339*1a8fb1d1
#CORRIMUDATAA,FILE,0,30.0,FINESTEERING,2319,306597.550,02000000,e5fc,17139;2319,306597.550000000,-0.0003940755469698,0.0000231957457297,-0.0001142674165264,0.0000474085333741,0.0247968964218674,-0.0029955876398858*75f1414a
#CORRIMUDATAA,FILE,0,30.0,FINESTEERING,2319,306597.600,02000000,e5fc,17139;2319,306597.600000000,-0.0001663713404643,0.0002158926398628,-0.0000865528245485,0.0026103915846055,0.0227052384968554,-0.0107998221041804*75f25036
#CORRIMUDATAA,FILE,0,30.0,FINESTEERING,2319,306597.650,02000000,e5fc,17139;2319,306597.650000000,0.0000552774176733,0.0001350343239310,-0.0001211519421164,0.0055399626163845,0.0215393943287153,0.0001293595728287*e7c42649
#CORRIMUDATAA,FILE,0,30.0,FINESTEERING,2319,306597.700,02000000,e5fc,17139;2319,306597.700000000,0.0001522058188041,-0.0002514053297887,-0.0001078380713380,0.0014465484450509,0.0228751266845650,0.0000696731888086*a0b048fe
#CORRIMUDATAA,FILE,0,30.0,FINESTEERING,2319,306597.750,02000000,e5fc,17139;2319,306597.750000000,-0.0001236181604807,0.0000723823979421,-0.0001939541682638,-0.0033297229887543,0.0233055692460482,-0.0053136434820099*21d709ee
#CORRIMUDATAA,FILE,0,30.0,FINESTEERING,2319,306597.800,02000000,e5fc,17139;2319,306597.800000000,-0.0001917697070792,0.0001712567777351,-0.0002036728643832,-0.0004949957601943,0.0230696667241998,0.0004666535702898*f6f9b7d2
#CORRIMUDATAA,FILE,0,30.0,FINESTEERING,2319,306597.850,02000000,e5fc,17139;2319,306597.850000000,-0.0001875536735132,-0.0001531518335840,-0.0002399938413341,0.0018165632202736,0.0255547120740547,-0.0044052075672829*27d97524
#CORRIMUDATAA,FILE,0,30.0,FINESTEERING,2319,306597.900,02000000,e5fc,17139;2319,306597.900000000,-0.0001770214855607,-0.0001711439257380,-0.0002623256093006,0.0010996980522648,0.0260827741605397,-0.0044158537345222*28888408
#CORRIMUDATAA,FILE,0,30.0,FINESTEERING,2319,306597.950,02000000,e5fc,17139;2319,306597.950000000,0.0001767076667877,-0.0003893357568502,-0.0003946346147437,0.0017412231001319,0.0255474419695902,-0.0014394877613910*1b1bfd17
#CORRIMUDATAA,FILE,0,30.0,FINESTEERING,2319,306598.000,02000000,e5fc,17139;2319,306598.000000000,0.0001396701202825,0.0001155607186085,-0.0004170756427260,0.0048821716507347,0.0218352613261637,0.0141093886536320*4c06ff07
#CORRIMUDATAA,FILE,0,30.0,FINESTEERING,2319,306598.050,02000000,e5fc,17139;2319,306598.050000000,0.0000583454881273,0.0002878681997006,-0.0004508092655528,0.0029439370379359,0.0194496059810008,0.0095712501407680*1897ec9e
#CORRIMUDATAA,FILE,0,30.0,FINESTEERING,2319,306598.100,02000000,e5fc,17139;2319,306598.100000000,-0.0001636695378086,0.0005818107331501,-0.0004217659099202,0.0064330519911189,0.0205878715553133,0.0072531847919165*45fd5fdb
#CORRIMUDATAA,FILE,0,32.0,FINESTEERING,2319,306598.150,02000000,e5fc,17139;2319,306598.150000000,-0.0003076596019160,0.0002741564285135,-0.0003459273748582,0.0069140241915847,0.0203676523239319,-0.0167238906450622*a14e980e
#CORRIMUDATAA,FILE,0,32.0,FINESTEERING,2319,306598.200,02000000,e5fc,17139;2319,306598.200000000,-0.0002813746755001,-0.0001746841823960,-0.0003242125656259,0.0006558405268943,0.0215977744595576,-0.0033850631942083*09d0f663
#CORRIMUDATAA,FILE,0,32.0,FINESTEERING,2319,306598.250,02000000,e5fc,17139;2319,306598.250000000,-0.0001912890473662,0.0001643664365269,-0.0003914603180209,-0.0011966143286695,0.0202780975614253,-0.0106113507690498*19e74d6e
#CORRIMUDATAA,FILE,0,32.0,FINESTEERING,2319,306598.300,02000000,e5fc,17139;2319,306598.300000000,0.0001003846359839,0.0002139873748512,-0.0004299569332084,0.0051848899715804,0.0213020774104574,-0.0066099262660813*1dbeee42
#CORRIMUDATAA,FILE,0,32.0,FINESTEERING,2319,306598.350,02000000,e5fc,17139;2319,306598.350000000,0.0000420398964214,0.0006063206702223,-0.0003933444527978,0.0036298031414401,0.0186761554849715,0.0079371299694960*89846c8f
#CORRIMUDATAA,FILE,0,32.0,FINESTEERING,2319,306598.400,02000000,e5fc,17139;2319,306598.400000000,0.0002136954655595,0.0003761531839412,-0.0003614664675122,0.0050140297608036,0.0148570140392962,0.0121932747733731*dbf65a92
#CORRIMUDATAA,FILE,0,32.0,FINESTEERING,2319,306598.450,02000000,e5fc,17139;2319,306598.450000000,-0.0002257047418386,0.0001833742959453,-0.0003239878840137,0.0025210204217017,0.0089091039628411,0.0085221590738917*89595176
#CORRIMUDATAA,FILE,0,32.0,FINESTEERING,2319,306598.500,02000000,e5fc,17139;2319,306598.500000000,-0.0003416277447554,-0.0003801953113109,-0.0003572484323860,0.0004408833385428,0.0079666560468563,0.0006546226090955*04ca72ae
#CORRIMUDATAA,FILE,0,32.0,FINESTEERING,2319,306598.550,02000000,e5fc,17139;2319,306598.550000000,-0.0001825166155022,-0.0005365160909494,-0.0004455320783746,-0.0018383491410224,0.0099302691965250,-0.0012538899198540*9a448101
#CORRIMUDATAA,FILE,0,32.0,FINESTEERING,2319,306598.600,02000000,e5fc,17139;2319,306598.600000000,0.0000331242033890,-0.0001961906550290,-0.0004647174341641,-0.0002721931918471,0.0101587707831003,-0.0095573573592369*85b22345
#CORRIMUDATAA,FILE,0,32.0,FINESTEERING,2319,306598.650,02000000,e5fc,17139;2319,306598.650000000,0.0001215329819571,0.0003479129484484,-0.0004724921355577,0.0051038166803788,0.0074834046152130,-0.0031505152432220*6524c589
#CORRIMUDATAA,FILE,0,32.0,FINESTEERING,2319,306598.700,02000000,e5fc,17139;2319,306598.700000000,0.0000978204776132,0.0005663815088732,-0.0004063558762241,0.0094639489672252,0.0011044645880875,-0.0009157196078220*286c0206
#CORRIMUDATAA,FILE,0,32.0,FINESTEERING,2319,306598.750,02000000,e5fc,17139;2319,306598.750000000,0.0001511202287707,-0.0000895535832435,-0.0004219333631462,0.0044344865672422,0.0014813029676170,-0.0014968583338635*e4f667ff
#CORRIMUDATAA,FILE,0,32.0,FINESTEERING,2319,306598.800,02000000,e5fc,17139;2319,306598.800000000,0.0001678318989720,-0.0003447569546735,-0.0004350769493950,-0.0014899032936632,0.0021633285140511,-0.0007125762868093*86c6cc01
#CORRIMUDATAA,FILE,0,32.0,FINESTEERING,2319,306598.850,02000000,e5fc,17139;2319,306598.850000000,0.0001996184239005,-0.0001352715371801,-0.0005314774231450,0.0003514273099474,0.0024962925511977,0.0104653999067356*2fecdb67
#CORRIMUDATAA,FILE,0,32.0,FINESTEERING,2319,306598.900,02000000,e5fc,17139;2319,306598.900000000,-0.0002219620359665,-0.0000535306644203,-0.0005501685295427,0.0004615556099073,-0.0032453545531946,0.0146413381601580*d88e981d
#CORRIMUDATAA,FILE,0,32.0,FINESTEERING,2319,306598.950,02000000,e5fc,17139;2319,306598.950000000,-0.0005273547491933,-0.0001315988452047,-0.0005742498788333,0.0024653999780463,-0.0027991151957292,0.0046757931711057*3b4e693e
#CORRIMUDATAA,FILE,0,32.0,FINESTEERING,2319,306599.000,02000000,e5fc,17139;2319,306599.000000000,-0.0004931435617259,0.0002794950836654,-0.0005144084970366,0.0044053557763164,-0.0029623942298654,-0.0051718478736681*c8f8421d
#CORRIMUDATAA,FILE,0,32.0,FINESTEERING,2319,306599.050,02000000,e5fc,17139;2319,306599.050000000,-0.0002341045615111,-0.0000303042316414,-0.0004678392131385,0.0074286002391486,-0.0013706420186653,-0.0089318652795507*564a98b2
#CORRIMUDATAA,FILE,0,32.0,FINESTEERING,2319,306599.100,02000000,e5fc,17139;2319,306599.100000000,-0.0000502759142916,-0.0001838821645720,-0.0004297807960472,0.0073879819930884,-0.0023776287690360,-0.0001746847348178*0cf4bda3
#CORRIMUDATAA,FILE,0,32.0,FINESTEERING,2319,306599.150,02000000,e5fc,17139;2319,306599.150000000,-0.0003573069343852,-0.0003515755999529,-0.0004369663430322,0.0003746387801159,-0.0074812979625202,0.0057568605829657*5dbce318
#CORRIMUDATAA,FILE,0,32.0,FINESTEERING,2319,306599.200,02000000,e5fc,17139;2319,306599.200000000,-0.0008411900308435,0.0002003002890115,-0.0005387127718670,-0.0033230604147481,-0.0105712575377589,0.0096494911105934*7888d8d2
#CORRIMUDATAA,FILE,0,32.0,FINESTEERING,2319,306599.250,02000000,e5fc,17139;2319,306599.250000000,-0.0010915117513023,0.0001672049751038,-0.0004963441662107,0.0072662444353010,-0.0089649959146920,-0.0062293347329053*4d500cdd
#CORRIMUDATAA,FILE,0,32.0,FINESTEERING,2319,306599.300,02000000,e5fc,17139;2319,306599.300000000,-0.0009948186579779,0.0002588221425159,-0.0004061296117509,0.0026261789199231,-0.0090673102173062,-0.0108918249639891*990a8f50
#CORRIMUDATAA,FILE,0,32.0,FINESTEERING,2319,306599.350,02000000,e5fc,17139;2319,306599.350000000,-0.0010101168915359,0.0002620320603805,-0.0004290936146146,0.0046612588515005,-0.0203434850607878,0.0066842684123205*840e39a3
#CORRIMUDATAA,FILE,0,32.0,FINESTEERING,2319,306599.400,02000000,e5fc,17139;2319,306599.400000000,-0.0008016320342308,-0.0001054201704977,-0.0004614374174799,0.0040132136318289,-0.0206053674559734,-0.0025317801595990*5712ad71
#CORRIMUDATAA,FILE,0,32.0,FINESTEERING,2319,306599.450,02000000,e5fc,17139;2319,306599.450000000,-0.0007483725758542,0.0000847687621812,-0.0005023345814435,0.0008579482509411,-0.0196007302023006,0.0013088834860262*8c84e904
#CORRIMUDATAA,FILE,0,32.0,FINESTEERING,2319,306599.500,02000000,e5fc,17139;2319,306599.500000000,-0.0008383209393278,-0.0000465874574557,-0.0005028195633061,0.0002552352855914,-0.0147273840253397,-0.0063314875872367*b2abbe1a
#CORRIMUDATAA,FILE,0,32.0,FINESTEERING,2319,306599.550,02000000,e5fc,17139;2319,306599.550000000,-0.0007641533423889,0.0003414551675648,-0.0004282521306405,0.0025732121131116,-0.0257967871737340,-0.0146531675178181*54c856bf
#CORRIMUDATAA,FILE,0,32.0,FINESTEERING,2319,306599.600,02000000,e5fc,17139;2319,306599.600000000,-0.0003775652998082,-0.0000609261549097,-0.0003267148778502,0.0027528990323505,-0.0270053220078316,-0.0070875564874825*33fbd1b9
#CORRIMUDATAA,FILE,0,32.0,FINESTEERING,2319,306599.650,02000000,e5fc,17139;2319,306599.650000000,-0.0000607555499223,-0.0001941177282945,-0.0003878917583399,0.0005688361027410,-0.0263350926222862,-0.0142926006721143*8a7c4ecd
#CORRIMUDATAA,FILE,0,32.0,FINESTEERING,2319,306599.700,02000000,e5fc,17139;2319,306599.700000000,0.0002844727901817,-0.0005588572003599,-0.0004473182637881,0.0001998665448474,-0.0227448005976602,0.0011567800943598*31ab47b2
#CORRIMUDATAA,FILE,0,32.0,FINESTEERING,2319,306599.750,02000000,e5fc,17139;2319,306599.750000000,0.0002880979066791,-0.0003157475962597,-0.0004489002619008,0.0019014282009417,-0.0289454267655241,-0.0002341322123162*a2dfe522
#CORRIMUDATAA,FILE,0,32.0,FINESTEERING,2319,306599.800,02000000,e5fc,17139;2319,306599.800000000,0.0003841281098391,-0.0001549913542750,-0.0003899712126827,0.0010794741995127,-0.0257131808264128,0.0045956623087489*71d026b5
#CORRIMUDATAA,FILE,0,32.0,FINESTEERING,2319,306599.850,02000000,e5fc,17139;2319,306599.850000000,0.0001786160713411,0.0001402762297485,-0.0003069748236222,0.0056669096505707,-0.0298016892874459,0.0027547067176258*9dff0408
#CORRIMUDATAA,FILE,0,32.0,FINESTEERING,2319,306599.900,02000000,e5fc,17139;2319,306599.900000000,0.0003001483011680,-0.0003775237687838,-0.0003192574923131,-0.0009123017610166,-0.0318319982075972,-0.0030291919863899*75467ced
#CORRIMUDATAA,FILE,0,32.0,FINESTEERING,2319,306599.950,02000000,e5fc,17139;2319,306599.950000000,0.0000888809723696,-0.0002249183729474,-0.0004071367712163,-0.0016572820839632,-0.0341805276162430,0.0028513637647541*15e40bc7
#CORRIMUDATAA,FILE,0,32.0,FINESTEERING,2319,306600.000,02000000,e5fc,17139;2319,306600.000000000,0.0002102494016964,-0.0004523647049469,-0.0004622703081643,0.0005578551050984,-0.0307253518434710,0.0017120384749389*46050a1e
#CORRIMUDATAA,FILE,0,32.0,FINESTEERING,2319,306600.050,02000000,e5fc,17139;2319,306600.050000000,0.0002023678291785,-0.0003003656011143,-0.0004454480714719,0.0022452983812483,-0.0335805096666150,0.0007019567392357*2c4893c9
#CORRIMUDATAA,FILE,0,31.5,FINESTEERING,2319,306600.100,02000000,e5fc,17139;2319,306600.100000000,0.0001346027974265,-0.0000115029931340,-0.0004034540527973,0.0003009048743908,-0.0340137633900511,0.0120536100440391*01c6cedd
#CORRIMUDATAA,FILE,0,31.5,FINESTEERING,2319,306600.150,02000000,e5fc,17139;2319,306600.150000000,0.0000328001919289,0.0002695846664231,-0.0003826600393043,0.0025786347565261,-0.0359149134799190,0.0027875840810816*90b22c6b
#CORRIMUDATAA,FILE,0,31.5,FINESTEERING,2319,306600.200,02000000,e5fc,17139;2319,306600.200000000,-0.0000313136100020,0.0001143270982646,-0.0003856154106495,0.0033818339790923,-0.0301533529583849,0.0022235891113029*ce366b3d
#CORRIMUDATAA,FILE,0,31.5,FINESTEERING,2319,306600.250,02000000,e5fc,17139;2319,306600.250000000,-0.0002663382734007,-0.0004087334791054,-0.0003756040170015,0.0047251798713652,-0.0312764650903240,-0.0080137312753806*cb4f45be
#CORRIMUDATAA,FILE,0,31.5,FINESTEERING,2319,306600.300,02000000,e5fc,17139;2319,306600.300000000,-0.0001064893858119,-0.0005751909037349,-0.0003589934902084,-0.0026739212851728,-0.0285201743969148,0.0021237101100488*50e5dbda
#CORRIMUDATAA,FILE,0,31.5,FINESTEERING,2319,306600.350,02000000,e5fc,17139;2319,306600.350000000,-0.0000193611661184,-0.0001973774307597,-0.0003805278255293,-0.0003818162879375,-0.0248171294606361,-0.0111876089749972*40395110
#CORRIMUDATAA,FILE,0,31.5,FINESTEERING,2319,306600.400,02000000,e5fc,17139;2319,306600.400000000,0.0000176291917121,0.0002472817705095,-0.0003571933246831,0.0008555284466488,-0.0228727659659847,0.0077642615531864*b83b78a0
#CORRIMUDATAA,FILE,0,31.5,FINESTEERING,2319,306600.450,02000000,e5fc,17139;2319,306600.450000000,-0.0002270170119702,0.0000843601643097,-0.0003789056971095,0.0020749223421107,-0.0231724874357287,0.0006164723042649*20af9185
#CORRIMUDATAA,FILE,0,31.5,FINESTEERING,2319,306600.500,02000000,e5fc,17139;2319,306600.500000000,-0.0001933518930687,0.0001377387347055,-0.0004082186842912,0.0004543313540290,-0.0166222169678318,-0.0007562023377237*98e98909
#CORRIMUDATAA,FILE,0,31.5,FINESTEERING,2319,306600.550,02000000,e5fc,17139;2319,306600.550000000,-0.0002147296779856,0.0004215710509005,-0.0004441598174918,0.0030156321144863,-0.0063244210676842,-0.0068690572355377*cab4c095
#CORRIMUDATAA,FILE,0,31.5,FINESTEERING,2319,306600.600,02000000,e5fc,17139;2319,306600.600000000,0.0000939411397917,-0.0000245364610979,-0.0004738915157392,0.0055397465698778,-0.0091514849421245,-0.0045816541155083*00ab8ec9
#CORRIMUDATAA,FILE,0,31.5,FINESTEERING,2319,306600.650,02000000,e5fc,17139;2319,306600.650000000,0.0000886168343617,-0.0000159322798711,-0.0004687884972677,0.0033391898043684,-0.0102415570843746,-0.0017661779859088*4b383224
#CORRIMUDATAA,FILE,0,31.5,FINESTEERING,2319,306600.700,02000000,e5fc,17139;2319,306600.700000000,0.0005000452377540,0.0000111499497223,-0.0004590629898564,-0.0004517719212403,-0.0102691560359252,0.0020387383012748*e6896ef7
#CORRIMUDATAA,FILE,0,31.5,FINESTEERING,2319,306600.750,02000000,e5fc,17139;2319,306600.750000000,0.0003172576519503,0.0000840076848755,-0.0004381285422927,0.0003255752311636,-0.0087659695958842,0.0049577863089641*08a438fb
