#BESTPOSA,FILE,0,28.5,FINESTEERING,2319,306304.100,02000000,cdba,17139;SOL_COMPUTED,INS_RTKFIXED,17.59203277430,78.12247903053,533.4868,-76.2000,WGS84,0.3035,0.3166,0.4295,"0",116.000,0.000,55,17,17,0,00,08,00,11*b3f03f43
#BESTPOSA,FILE,0,31.0,FINESTEERING,2319,306304.150,02000000,cdba,17139;SOL_COMPUTED,INS_RTKFIXED,17.59203246078,78.12247948822,533.4869,-76.2000,WGS84,0.3035,0.3166,0.4295,"0",116.000,0.000,55,17,17,0,00,08,00,11*5296c2c7
#BESTPOSA,FILE,0,31.0,FINESTEERING,2319,306304.200,02000000,cdba,17139;SOL_COMPUTED,INS_RTKFIXED,17.59203213695,78.12247997135,533.4874,-76.2000,WGS84,0.3035,0.3166,0.4295,"0",116.000,0.000,55,17,17,0,00,08,00,11*da702718
#BESTPOSA,FILE,0,31.0,FINESTEERING,2319,306304.250,02000000,cdba,17139;SOL_COMPUTED,INS_RTKFIXED,17.59203180198,78.12248048156,533.4879,-76.2000,WGS84,0.3035,0.3166,0.4295,"0",116.000,0.000,55,17,17,0,00,08,00,11*5056e0a2
#BESTPOSA,FILE,0,31.0,FINESTEERING,2319,306304.300,02000000,cdba,17139;SOL_COMPUTED,INS_RTKFIXED,17.59203145800,78.12248101963,533.4884,-76.2000,WGS84,0.3035,0.3166,0.4295,"0",116.000,0.000,55,17,17,0,00,08,00,11*98dfc670
#BESTPOSA,FILE,0,31.0,FINESTEERING,2319,306304.350,02000000,cdba,17139;SOL_COMPUTED,INS_RTKFIXED,17.59203110740,78.12248158634,533.4888,-76.2000,WGS84,0.3035,0.3166,0.4295,"0",116.000,0.000,55,17,17,0,00,08,00,11*88c0c1c1
#BESTPOSA,FILE,0,31.0,FINESTEERING,2319,306304.400,02000000,cdba,17139;SOL_COMPUTED,INS_RTKFIXED,17.59203074774,78.12248218077,533.4891,-76.2000,WGS84,0.3035,0.3166,0.4295,"0",116.000,0.000,55,17,17,0,00,08,00,11*c63d1d0f
#BESTPOSA,FILE,0,31.0,FINESTEERING,2319,306304.450,02000000,cdba,17139;SOL_COMPUTED,INS_RTKFIXED,17.59203037933,78.12248280570,533.4892,-76.2000,WGS84,0.3035,0.3166,0.4295,"0",116.000,0.000,55,17,17,0,00,08,00,11*c7712fba
#BESTPOSA,FILE,0,31.0,FINESTEERING,2319,306304.500,02000000,cdba,17139;SOL_COMPUTED,INS_RTKFIXED,17.59203000822,78.12248346072,533.4898,-76.2000,WGS84,0.3035,0.3166,0.4295,"0",116.000,0.000,55,17,17,0,00,08,00,11*c5d0d59b
#BESTPOSA,FILE,0,31.0,FINESTEERING,2319,306304.550,02000000,cdba,17139;SOL_COMPUTED,INS_RTKFIXED,17.59202963292,78.12248414466,533.4907,-76.2000,WGS84,0.3035,0.3166,0.4295,"0",116.000,0.000,55,17,17,0,00,08,00,11*a024cccf
#BESTPOSA,FILE,0,31.0,FINESTEERING,2319,306304.600,02000000,cdba,17139;SOL_COMPUTED,INS_RTKFIXED,17.59202925544,78.12248485342,533.4916,-76.2000,WGS84,0.3035,0.3166,0.4295,"0",116.000,0.000,55,17,17,0,00,08,00,11*a6dd6bd0
#BESTPOSA,FILE,0,31.0,FINESTEERING,2319,306304.650,02000000,cdba,17139;SOL_COMPUTED,INS_RTKFIXED,17.59202887657,78.12248558557,533.4925,-76.2000,WGS84,0.3035,0.3166,0.4295,"0",116.000,0.000,55,17,17,0,00,08,00,11*ebe54623
#BESTPOSA,FILE,0,31.0,FINESTEERING,2319,306304.700,02000000,cdba,17139;SOL_COMPUTED,INS_RTKFIXED,17.59202849822,78.12248634543,533.4933,-76.2000,WGS84,0.3035,0.3166,0.4295,"0",116.000,0.000,55,17,17,0,00,08,00,11*0730f1da
#BESTPOSA,FILE,0,31.0,FINESTEERING,2319,306304.750,02000000,cdba,17139;SOL_COMPUTED,INS_RTKFIXED,17.59202812393,78.12248713110,533.4940,-76.2000,WGS84,0.3035,0.3166,0.4295,"0",116.000,0.000,55,17,17,0,00,08,00,11*bc2ccea9
#BESTPOSA,FILE,0,31.0,FINESTEERING,2319,306304.800,02000000,cdba,17139;SOL_COMPUTED,INS_RTKFIXED,17.59202775283,78.12248794401,533.4947,-76.2000,WGS84,0.3035,0.3166,0.4295,"0",116.000,0.000,55,17,17,0,00,08,00,11*d8bb1174
#BESTPOSA,FILE,0,31.0,FINESTEERING,2319,306304.850,02000000,cdba,17139;SOL_COMPUTED,INS_RTKFIXED,17.59202739075,78.12248878067,533.4959,-76.2000,WGS84,0.3035,0.3166,0.4295,"0",116.000,0.000,55,17,17,0,00,08,00,11*2289a721
#BESTPOSA,FILE,0,31.0,FINESTEERING,2319,306304.900,02000000,cdba,17139;SOL_COMPUTED,INS_RTKFIXED,17.59202703388,78.12248964090,533.4971,-76.2000,WGS84,0.3035,0.3166,0.4295,"0",116.000,0.000,55,17,17,0,00,08,00,11*f6a5a51a
#BESTPOSA,FILE,0,31.0,FINESTEERING,2319,306304.950,02000000,cdba,17139;SOL_COMPUTED,INS_RTKFIXED,17.59202668384,78.12249052159,533.4982,-76.2000,WGS84,0.3035,0.3166,0.4295,"0",116.000,0.000,55,17,17,0,00,08,00,11*86df28e7
#BESTPOSA,FILE,0,31.0,FINESTEERING,2319,306305.000,02000800,cdba,17139;SOL_COMPUTED,INS_RTKFIXED,17.59202634379,78.12249142106,533.4994,-76.2000,WGS84,0.3035,0.3166,0.4295,"0",116.000,0.000,55,17,17,0,00,08,00,11*73b76def
#BESTPOSA,FILE,0,31.0,FINESTEERING,2319,306305.050,02000800,cdba,17139;SOL_COMPUTED,INS_RTKFIXED,17.59202602334,78.12249233152,533.5009,-76.2000,WGS84,0.3039,0.3159,0.4308,"0",117.000,0.000,55,17,17,0,00,08,00,11*aa843045
#BESTPOSA,FILE,0,31.0,FINESTEERING,2319,306305.100,02000800,cdba,17139;SOL_COMPUTED,INS_RTKFIXED,17.59202573320,78.12249323965,533.5028,-76.2000,WGS84,0.3039,0.3159,0.4308,"0",117.000,0.000,55,17,17,0,00,08,00,11*c41a48be
#BESTPOSA,FILE,0,32.5,FINESTEERING,2319,306305.150,02000800,cdba,17139;SOL_COMPUTED,INS_RTKFIXED,17.59202545579,78.12249415923,533.5050,-76.2000,WGS84,0.3039,0.3159,0.4308,"0",117.000,0.000,55,17,17,0,00,08,00,11*d5166a3a
#BESTPOSA,FILE,0,32.5,FINESTEERING,2319,306305.200,02000800,cdba,17139;SOL_COMPUTED,INS_RTKFIXED,17.59202519049,78.12249508970,533.5073,-76.2000,WGS84,0.3039,0.3159,0.4308,"0",117.000,0.000,55,17,17,0,00,08,00,11*9006bc5f
#BESTPOSA,FILE,0,32.5,FINESTEERING,2319,306305.250,02000800,cdba,17139;SOL_COMPUTED,INS_RTKFIXED,17.59202493992,78.12249602391,533.5096,-76.2000,WGS84,0.3039,0.3159,0.4308,"0",117.000,0.000,55,17,17,0,00,08,00,11*b27ae878
#BESTPOSA,FILE,0,32.5,FINESTEERING,2319,306305.300,02000800,cdba,17139;SOL_COMPUTED,INS_RTKFIXED,17.59202470473,78.12249696195,533.5119,-76.2000,WGS84,0.3039,0.3159,0.4308,"0",117.000,0.000,55,17,17,0,00,08,00,11*59402c42
#BESTPOSA,FILE,0,32.5,FINESTEERING,2319,306305.350,02000800,cdba,17139;SOL_COMPUTED,INS_RTKFIXED,17.59202448626,78.12249790052,533.5140,-76.2000,WGS84,0.3039,0.3159,0.4308,"0",117.000,0.000,55,17,17,0,00,08,00,11*f738522b
#BESTPOSA,FILE,0,32.5,FINESTEERING,2319,306305.400,02000800,cdba,17139;SOL_COMPUTED,INS_RTKFIXED,17.59202428353,78.12249883892,533.5158,-76.2000,WGS84,0.3039,0.3159,0.4308,"0",117.000,0.000,55,17,17,0,00,08,00,11*c6aa6ccd
#BESTPOSA,FILE,0,32.5,FINESTEERING,2319,306305.450,02000800,cdba,17139;SOL_COMPUTED,INS_RTKFIXED,17.59202409849,78.12249977593,533.5174,-76.2000,WGS84,0.3039,0.3159,0.4308,"0",117.000,0.000,55,17,17,0,00,08,00,11*0f6c6ad9
#BESTPOSA,FILE,0,32.5,FINESTEERING,2319,306305.500,02000800,cdba,17139;SOL_COMPUTED,INS_RTKFIXED,17.59202393011,78.12250071211,533.5188,-76.2000,WGS84,0.3039,0.3159,0.4308,"0",117.000,0.000,55,17,17,0,00,08,00,11*f8e1918a
#BESTPOSA,FILE,0,32.5,FINESTEERING,2319,306305.550,02000800,cdba,17139;SOL_COMPUTED,INS_RTKFIXED,17.59202377796,78.12250164712,533.5202,-76.2000,WGS84,0.3039,0.3159,0.4308,"0",117.000,0.000,55,17,17,0,00,08,00,11*eaa29885
#BESTPOSA,FILE,0,32.5,FINESTEERING,2319,306305.600,02000800,cdba,17139;SOL_COMPUTED,INS_RTKFIXED,17.59202364065,78.12250258153,533.5215,-76.2000,WGS84,0.3039,0.3159,0.4308,"0",117.000,0.000,55,17,17,0,00,08,00,11*ad2fd7dc
#BESTPOSA,FILE,0,32.5,FINESTEERING,2319,306305.650,02000800,cdba,17139;SOL_COMPUTED,INS_RTKFIXED,17.59202351830,78.12250351720,533.5230,-76.2000,WGS84,0.3039,0.3159,0.4308,"0",117.000,0.000,55,17,17,0,00,08,00,11*615a61bd
#BESTPOSA,FILE,0,32.5,FINESTEERING,2319,306305.700,02000800,cdba,17139;SOL_COMPUTED,INS_RTKFIXED,17.59202341106,78.12250445223,533.5246,-76.2000,WGS84,0.3039,0.3159,0.4308,"0",117.000,0.000,55,17,17,0,00,08,00,11*cf6f4fc1
#BESTPOSA,FILE,0,32.5,FINESTEERING,2319,306305.750,02000800,cdba,17139;SOL_COMPUTED,INS_RTKFIXED,17.59202331980,78.12250538717,533.5266,-76.2000,WGS84,0.3039,0.3159,0.4308,"0",117.000,0.000,55,17,17,0,00,08,00,11*110effdc
#BESTPOSA,FILE,0,32.5,FINESTEERING,2319,306305.800,02000800,cdba,17139;SOL_COMPUTED,INS_RTKFIXED,17.59202323920,78.12250632054,533.5285,-76.2000,WGS84,0.3039,0.3159,0.4308,"0",117.000,0.000,55,17,17,0,00,08,00,11*4a5343c6
#BESTPOSA,FILE,0,32.5,FINESTEERING,2319,306305.850,02000800,cdba,17139;SOL_COMPUTED,INS_RTKFIXED,17.59202316699,78.12250725419,533.5302,-76.2000,WGS84,0.3039,0.3159,0.4308,"0",117.000,0.000,55,17,17,0,00,08,00,11*dac2bd28
#BESTPOSA,FILE,0,32.5,FINESTEERING,2319,306305.900,02000800,cdba,17139;SOL_COMPUTED,INS_RTKFIXED,17.59202310593,78.12250818280,533.5317,-76.2000,WGS84,0.3039,0.3159,0.4308,"0",117.000,0.000,55,17,17,0,00,08,00,11*feb23e22
#BESTPOSA,FILE,0,32.5,FINESTEERING,2319,306305.950,02000800,cdba,17139;SOL_COMPUTED,INS_RTKFIXED,17.59202305571,78.12250910884,533.5330,-76.2000,WGS84,0.3039,0.3159,0.4308,"0",117.000,0.000,55,17,17,0,00,08,00,11*cb18ed06
#BESTPOSA,FILE,0,32.5,FINESTEERING,2319,306306.000,02000800,cdba,17139;SOL_COMPUTED,INS_RTKFIXED,17.59202301684,78.12251003386,533.5343,-76.2000,WGS84,0.3039,0.3159,0.4308,"0",117.000,0.000,55,17,17,0,00,08,00,11*95d0e762
#BESTPOSA,FILE,0,32.5,FINESTEERING,2319,306306.050,02000800,cdba,17139;SOL_COMPUTED,INS_RTKFIXED,17.59202298865,78.12251094424,533.5358,-76.2000,WGS84,0.3037,0.3152,0.4319,"0",118.000,0.000,55,17,17,0,00,08,00,11*efda13b6
#BESTPOSA,FILE,0,31.0,FINESTEERING,2319,306306.100,02000800,cdba,17139;SOL_COMPUTED,INS_RTKFIXED,17.59202294474,78.12251183709,533.5364,-76.2000,WGS84,0.3037,0.3152,0.4319,"0",118.000,0.000,55,17,17,0,00,08,00,11*1af5d362
#BESTPOSA,FILE,0,31.0,FINESTEERING,2319,306306.150,02000800,cdba,17139;SOL_COMPUTED,INS_RTKFIXED,17.59202290962,78.12251273533,533.5369,-76.2000,WGS84,0.3037,0.3152,0.4319,"0",118.000,0.000,55,17,17,0,00,08,00,11*b0adadbc
#BESTPOSA,FILE,0,31.0,FINESTEERING,2319,306306.200,02000800,cdba,17139;SOL_COMPUTED,INS_RTKFIXED,17.59202288169,78.12251363754,533.5373,-76.2000,WGS84,0.3037,0.3152,0.4319,"0",118.000,0.000,55,17,17,0,00,08,00,11*3284d3c8
#BESTPOSA,FILE,0,31.0,FINESTEERING,2319,306306.250,02000800,cdba,17139;SOL_COMPUTED,INS_RTKFIXED,17.59202285946,78.12251455572,533.5375,-76.2000,WGS84,0.3037,0.3152,0.4319,"0",118.000,0.000,55,17,17,0,00,08,00,11*f8f2eb8d
#BESTPOSA,FILE,0,31.0,FINESTEERING,2319,306306.300,02000800,cdba,17139;SOL_COMPUTED,INS_RTKFIXED,17.59202285734,78.12251548722,533.5385,-76.2000,WGS84,0.3037,0.3152,0.4319,"0",118.000,0.000,55,17,17,0,00,08,00,11*29a0bb6d
#BESTPOSA,FILE,0,31.0,FINESTEERING,2319,306306.350,02000800,cdba,17139;SOL_COMPUTED,INS_RTKFIXED,17.59202286809,78.12251642768,533.5400,-76.2000,WGS84,0.3037,0.3152,0.4319,"0",118.000,0.000,55,17,17,0,00,08,00,11*ea3c6cdf
#BESTPOSA,FILE,0,31.0,FINESTEERING,2319,306306.400,02000800,cdba,17139;SOL_COMPUTED,INS_RTKFIXED,17.59202289237,78.12251738417,533.5421,-76.2000,WGS84,0.3037,0.3152,0.4319,"0",118.000,0.000,55,17,17,0,00,08,00,11*715e28ca
#BESTPOSA,FILE,0,31.0,FINESTEERING,2319,306306.450,02000800,cdba,17139;SOL_COMPUTED,INS_RTKFIXED,17.59202292457,78.12251835092,533.5444,-76.2000,WGS84,0.3037,0.3152,0.4319,"0",118.000,0.000,55,17,17,0,00,08,00,11*f14b715e
#BESTPOSA,FILE,0,31.0,FINESTEERING,2319,306306.500,02000800,cdba,17139;SOL_COMPUTED,INS_RTKFIXED,17.59202295839,78.12251933519,533.5465,-76.2000,WGS84,0.3037,0.3152,0.4319,"0",118.000,0.000,55,17,17,0,00,08,00,11*da5721c7
#BESTPOSA,FILE,0,31.0,FINESTEERING,2319,306306.550,02000800,cdba,17139;SOL_COMPUTED,INS_RTKFIXED,17.59202299711,78.12252032971,533.5483,-76.2000,WGS84,0.3037,0.3152,0.4319,"0",118.000,0.000,55,17,17,0,00,08,00,11*e6e4d096
#BESTPOSA,FILE,0,31.0,FINESTEERING,2319,306306.600,02000800,cdba,17139;SOL_COMPUTED,INS_RTKFIXED,17.59202303441,78.12252133733,533.5496,-76.2000,WGS84,0.3037,0.3152,0.4319,"0",118.000,0.000,55,17,17,0,00,08,00,11*a1bb21ef
#BESTPOSA,FILE,0,31.0,FINESTEERING,2319,306306.650,02000800,cdba,17139;SOL_COMPUTED,INS_RTKFIXED,17.59202307865,78.12252235780,533.5507,-76.2000,WGS84,0.3037,0.3152,0.4319,"0",118.000,0.000,55,17,17,0,00,08,00,11*6bc53736
#BESTPOSA,FILE,0,31.0,FINESTEERING,2319,306306.700,02000800,cdba,17139;SOL_COMPUTED,INS_RTKFIXED,17.59202312102,78.12252339611,533.5512,-76.2000,WGS84,0.3037,0.3152,0.4319,"0",118.000,0.000,55,17,17,0,00,08,00,11*6e5817e0
#BESTPOSA,FILE,0,31.0,FINESTEERING,2319,306306.750,02000800,cdba,17139;SOL_COMPUTED,INS_RTKFIXED,17.59202316758,78.12252445404,533.5510,-76.2000,WGS84,0.3037,0.3152,0.4319,"0",118.000,0.000,55,17,17,0,00,08,00,11*076c6f49
#BESTPOSA,FILE,0,31.0,FINESTEERING,2319,306306.800,02000800,cdba,17139;SOL_COMPUTED,INS_RTKFIXED,17.59202323555,78.12252552804,533.5514,-76.2000,WGS84,0.3037,0.3152,0.4319,"0",118.000,0.000,55,17,17,0,00,08,00,11*22e958a7
#BESTPOSA,FILE,0,31.0,FINESTEERING,2319,306306.850,02000800,cdba,17139;SOL_COMPUTED,INS_RTKFIXED,17.59202331966,78.12252662957,533.5522,-76.2000,WGS84,0.3037,0.3152,0.4319,"0",118.000,0.000,55,17,17,0,00,08,00,11*88a691d8
#BESTPOSA,FILE,0,31.0,FINESTEERING,2319,306306.900,02000800,cdba,17139;SOL_COMPUTED,INS_RTKFIXED,17.59202342301,78.12252774860,533.5537,-76.2000,WGS84,0.3037,0.3152,0.4319,"0",118.000,0.000,55,17,17,0,00,08,00,11*44154b1d
#BESTPOSA,FILE,0,31.0,FINESTEERING,2319,306306.950,02000800,cdba,17139;SOL_COMPUTED,INS_RTKFIXED,17.59202354145,78.12252889393,533.5552,-76.2000,WGS84,0.3037,0.3152,0.4319,"0",118.000,0.000,55,17,17,0,00,08,00,11*ce98dcbd
#BESTPOSA,FILE,0,31.0,FINESTEERING,2319,306307.000,02000800,cdba,17139;SOL_COMPUTED,INS_RTKFIXED,17.59202367779,78.12253006063,533.5572,-76.2000,WGS84,0.3037,0.3152,0.4319,"0",118.000,0.000,55,17,17,0,00,08,00,11*1640eadf
#BESTPOSA,FILE,0,31.0,FINESTEERING,2319,306307.050,02000800,cdba,17139;SOL_COMPUTED,INS_RTKFIXED,17.59202380116,78.12253125778,533.5588,-76.2000,WGS84,0.3085,0.3199,0.4402,"0",119.000,0.000,54,16,16,0,00,08,00,11*c5728c46
#BESTPOSA,FILE,0,22.5,FINESTEERING,2319,306307.100,02000800,cdba,17139;SOL_COMPUTED,INS_RTKFIXED,17.59202390262,78.12253249672,533.5602,-76.2000,WGS84,0.3085,0.3199,0.4402,"0",119.000,0.000,54,16,16,0,00,08,00,11*28e6449b
#BESTPOSA,FILE,0,22.5,FINESTEERING,2319,306307.150,02000800,cdba,17139;SOL_COMPUTED,INS_RTKFIXED,17.59202401130,78.12253376283,533.5613,-76.2000,WGS84,0.3085,0.3199,0.4402,"0",119.000,0.000,54,16,16,0,00,08,00,11*8ec20068
#BESTPOSA,FILE,0,22.5,FINESTEERING,2319,306307.200,02000800,cdba,17139;SOL_COMPUTED,INS_RTKFIXED,17.59202412664,78.12253506661,533.5620,-76.2000,WGS84,0.3085,0.3199,0.4402,"0",119.000,0.000,54,16,16,0,00,08,00,11*ce097243
#BESTPOSA,FILE,0,22.5,FINESTEERING,2319,306307.250,02000000,cdba,17139;SOL_COMPUTED,INS_RTKFIXED,17.59202425567,78.12253639878,533.5626,-76.2000,WGS84,0.3085,0.3199,0.4402,"0",119.000,0.000,54,16,16,0,00,08,00,11*500fa206
#BESTPOSA,FILE,0,22.5,FINESTEERING,2319,306307.300,02000000,cdba,17139;SOL_COMPUTED,INS_RTKFIXED,17.59202440591,78.12253776486,533.5640,-76.2000,WGS84,0.3085,0.3199,0.4402,"0",119.000,0.000,54,16,16,0,00,08,00,11*fb43d5e0
#BESTPOSA,FILE,0,22.5,FINESTEERING,2319,306307.350,02000000,cdba,17139;SOL_COMPUTED,INS_RTKFIXED,17.59202456286,78.12253915022,533.5653,-76.2000,WGS84,0.3085,0.3199,0.4402,"0",119.000,0.000,54,16,16,0,00,08,00,11*4e85b249
#BESTPOSA,FILE,0,22.5,FINESTEERING,2319,306307.400,02000000,cdba,17139;SOL_COMPUTED,INS_RTKFIXED,17.59202472649,78.12254056990,533.5675,-76.2000,WGS84,0.3085,0.3199,0.4402,"0",119.000,0.000,54,16,16,0,00,08,00,11*25be126d
#BESTPOSA,FILE,0,22.5,FINESTEERING,2319,306307.450,02000000,cdba,17139;SOL_COMPUTED,INS_RTKFIXED,17.59202489857,78.12254202588,533.5701,-76.2000,WGS84,0.3085,0.3199,0.4402,"0",119.000,0.000,54,16,16,0,00,08,00,11*16f5c505
#BESTPOSA,FILE,0,22.5,FINESTEERING,2319,306307.500,02000000,cdba,17139;SOL_COMPUTED,INS_RTKFIXED,17.59202507481,78.12254351512,533.5728,-76.2000,WGS84,0.3085,0.3199,0.4402,"0",119.000,0.000,54,16,16,0,00,08,00,11*c6d66e47
#BESTPOSA,FILE,0,22.5,FINESTEERING,2319,306307.550,02000000,cdba,17139;SOL_COMPUTED,INS_RTKFIXED,17.59202525699,78.12254502939,533.5761,-76.2000,WGS84,0.3085,0.3199,0.4402,"0",119.000,0.000,54,16,16,0,00,08,00,11*c905f26a
#BESTPOSA,FILE,0,22.5,FINESTEERING,2319,306307.600,02000000,cdba,17139;SOL_COMPUTED,INS_RTKFIXED,17.59202542921,78.12254657146,533.5782,-76.2000,WGS84,0.3085,0.3199,0.4402,"0",119.000,0.000,54,16,16,0,00,08,00,11*c2f84626
#BESTPOSA,FILE,0,22.5,FINESTEERING,2319,306307.650,02000000,cdba,17139;SOL_COMPUTED,INS_RTKFIXED,17.59202561163,78.12254813728,533.5808,-76.2000,WGS84,0.3085,0.3199,0.4402,"0",119.000,0.000,54,16,16,0,00,08,00,11*c308ecb0
#BESTPOSA,FILE,0,22.5,FINESTEERING,2319,306307.700,02000000,cdba,17139;SOL_COMPUTED,INS_RTKFIXED,17.59202581551,78.12254973032,533.5835,-76.2000,WGS84,0.3085,0.3199,0.4402,"0",119.000,0.000,54,16,16,0,00,08,00,11*b91f5b3c
#BESTPOSA,FILE,0,22.5,FINESTEERING,2319,306307.750,02000000,cdba,17139;SOL_COMPUTED,INS_RTKFIXED,17.59202602930,78.12255134666,533.5862,-76.2000,WGS84,0.3085,0.3199,0.4402,"0",119.000,0.000,54,16,16,0,00,08,00,11*5e96daad
#BESTPOSA,FILE,0,22.5,FINESTEERING,2319,306307.800,02000000,cdba,17139;SOL_COMPUTED,INS_RTKFIXED,17.59202623846,78.12255297349,533.5882,-76.2000,WGS84,0.3085,0.3199,0.4402,"0",119.000,0.000,54,16,16,0,00,08,00,11*bf672c48
#BESTPOSA,FILE,0,22.5,FINESTEERING,2319,306307.850,02000000,cdba,17139;SOL_COMPUTED,INS_RTKFIXED,17.59202643803,78.12255463622,533.5901,-76.2000,WGS84,0.3085,0.3199,0.4402,"0",119.000,0.000,54,16,16,0,00,08,00,11*6c68efb6
#BESTPOSA,FILE,0,22.5,FINESTEERING,2319,306307.900,02000000,cdba,17139;SOL_COMPUTED,INS_RTKFIXED,17.59202663889,78.12255631797,533.5922,-76.2000,WGS84,0.3085,0.3199,0.4402,"0",119.000,0.000,54,16,16,0,00,08,00,11*9c155da1
#BESTPOSA,FILE,0,22.5,FINESTEERING,2319,306307.950,02000000,cdba,17139;SOL_COMPUTED,INS_RTKFIXED,17.59202682685,78.12255802876,533.5936,-76.2000,WGS84,0.3085,0.3199,0.4402,"0",119.000,0.000,54,16,16,0,00,08,00,11*122d8401
#BESTPOSA,FILE,0,22.5,FINESTEERING,2319,306308.000,02000000,cdba,17139;SOL_COMPUTED,INS_RTKFIXED,17.59202701656,78.12255977204,533.5952,-76.2000,WGS84,0.3085,0.3199,0.4402,"0",119.000,0.000,54,16,16,0,00,08,00,11*43a66ca3
#BESTPOSA,FILE,0,22.5,FINESTEERING,2319,306308.050,02000000,cdba,17139;SOL_COMPUTED,INS_RTKFIXED,17.59202720729,78.12256153286,533.5985,-76.2000,WGS84,0.3142,0.3254,0.4486,"0",120.000,0.000,54,16,16,0,00,08,00,11*493293f7
#BESTPOSA,FILE,0,22.5,FINESTEERING,2319,306308.100,02000000,cdba,17139;SOL_COMPUTED,INS_RTKFIXED,17.59202737896,78.12256333546,533.6034,-76.2000,WGS84,0.3142,0.3254,0.4486,"0",120.000,0.000,54,16,16,0,00,08,00,11*1b1c31b4
#BESTPOSA,FILE,0,30.5,FINESTEERING,2319,306308.150,02000000,cdba,17139;SOL_COMPUTED,INS_RTKFIXED,17.59202754794,78.12256517346,533.6068,-76.2000,WGS84,0.3142,0.3254,0.4486,"0",120.000,0.000,54,16,16,0,00,08,00,11*bf19e640
#BESTPOSA,FILE,0,30.5,FINESTEERING,2319,306308.200,02000000,cdba,17139;SOL_COMPUTED,INS_RTKFIXED,17.59202772712,78.12256702491,533.6105,-76.2000,WGS84,0.3142,0.3254,0.4486,"0",120.000,0.000,54,16,16,0,00,08,00,11*95fe0a10
#BESTPOSA,FILE,0,30.5,FINESTEERING,2319,306308.250,02000000,cdba,17139;SOL_COMPUTED,INS_RTKFIXED,17.59202790911,78.12256890822,533.6142,-76.2000,WGS84,0.3142,0.3254,0.4486,"0",120.000,0.000,54,16,16,0,00,08,00,11*23319be9
#BESTPOSA,FILE,0,30.5,FINESTEERING,2319,306308.300,02000000,cdba,17139;SOL_COMPUTED,INS_RTKFIXED,17.59202809697,78.12257081113,533.6177,-76.2000,WGS84,0.3142,0.3254,0.4486,"0",120.000,0.000,54,16,16,0,00,08,00,11*f64b3f95
#BESTPOSA,FILE,0,30.5,FINESTEERING,2319,306308.350,02000000,cdba,17139;SOL_COMPUTED,INS_RTKFIXED,17.59202827236,78.12257273939,533.6203,-76.2000,WGS84,0.3142,0.3254,0.4486,"0",120.000,0.000,54,16,16,0,00,08,00,11*6cbbdb57
#BESTPOSA,FILE,0,30.5,FINESTEERING,2319,306308.400,02000000,cdba,17139;SOL_COMPUTED,INS_RTKFIXED,17.59202844373,78.12257469875,533.6230,-76.2000,WGS84,0.3142,0.3254,0.4486,"0",120.000,0.000,54,16,16,0,00,08,00,11*97c067b9
#BESTPOSA,FILE,0,30.5,FINESTEERING,2319,306308.450,02000000,cdba,17139;SOL_COMPUTED,INS_RTKFIXED,17.59202860967,78.12257667481,533.6263,-76.2000,WGS84,0.3142,0.3254,0.4486,"0",120.000,0.000,54,16,16,0,00,08,00,11*bef31dd8
#BESTPOSA,FILE,0,30.5,FINESTEERING,2319,306308.500,02000000,cdba,17139;SOL_COMPUTED,INS_RTKFIXED,17.59202876452,78.12257867380,533.6300,-76.2000,WGS84,0.3142,0.3254,0.4486,"0",120.000,0.000,54,16,16,0,00,08,00,11*40d85ec8
#BESTPOSA,FILE,0,30.5,FINESTEERING,2319,306308.550,02000000,cdba,17139;SOL_COMPUTED,INS_RTKFIXED,17.59202891355,78.12258070237,533.6330,-76.2000,WGS84,0.3142,0.3254,0.4486,"0",120.000,0.000,54,16,16,0,00,08,00,11*7c608d20
#BESTPOSA,FILE,0,30.5,FINESTEERING,2319,306308.600,02000000,cdba,17139;SOL_COMPUTED,INS_RTKFIXED,17.59202906409,78.12258274435,533.6366,-76.2000,WGS84,0.3142,0.3254,0.4486,"0",120.000,0.000,54,16,16,0,00,08,00,11*8ad35cd5
#BESTPOSA,FILE,0,30.5,FINESTEERING,2319,306308.650,02000000,cdba,17139;SOL_COMPUTED,INS_RTKFIXED,17.59202923678,78.12258479974,533.6423,-76.2000,WGS84,0.3142,0.3254,0.4486,"0",120.000,0.000,54,16,16,0,00,08,00,11*d3b7a235
#BESTPOSA,FILE,0,30.5,FINESTEERING,2319,306308.700,02000000,cdba,17139;SOL_COMPUTED,INS_RTKFIXED,17.59202941251,78.12258688335,533.6496,-76.2000,WGS84,0.3142,0.3254,0.4486,"0",120.000,0.000,54,16,16,0,00,08,00,11*7f229913
#BESTPOSA,FILE,0,30.5,FINESTEERING,2319,306308.750,02000000,cdba,17139;SOL_COMPUTED,INS_RTKFIXED,17.59202961063,78.12258896375,533.6569,-76.2000,WGS84,0.3142,0.3254,0.4486,"0",120.000,0.000,54,16,16,0,00,08,00,11*ba31e7b6
#BESTPOSA,FILE,0,30.5,FINESTEERING,2319,306308.800,02000000,cdba,17139;SOL_COMPUTED,INS_RTKFIXED,17.59202979490,78.12259105951,533.6621,-76.2000,WGS84,0.3142,0.3254,0.4486,"0",120.000,0.000,54,16,16,0,00,08,00,11*76468716
#BESTPOSA,FILE,0,30.5,FINESTEERING,2319,306308.850,02000000,cdba,17139;SOL_COMPUTED,INS_RTKFIXED,17.59202999898,78.12259318190,533.6668,-76.2000,WGS84,0.3142,0.3254,0.4486,"0",120.000,0.000,54,16,16,0,00,08,00,11*8ab0e31a
#BESTPOSA,FILE,0,30.5,FINESTEERING,2319,306308.900,02000000,cdba,17139;SOL_COMPUTED,INS_RTKFIXED,17.59203021019,78.12259532440,533.6703,-76.2000,WGS84,0.3142,0.3254,0.4486,"0",120.000,0.000,54,16,16,0,00,08,00,11*13809be5
#BESTPOSA,FILE,0,30.5,FINESTEERING,2319,306308.950,02000000,cdba,17139;SOL_COMPUTED,INS_RTKFIXED,17.59203041367,78.12259749170,533.6719,-76.2000,WGS84,0.3142,0.3254,0.4486,"0",120.000,0.000,54,16,16,0,00,08,00,11*b785b4db
#BESTPOSA,FILE,0,30.5,FINESTEERING,2319,306309.000,02000000,cdba,17139;SOL_COMPUTED,INS_RTKFIXED,17.59203059854,78.12259967289,533.6718,-76.2000,WGS84,0.3142,0.3254,0.4486,"0",120.000,0.000,54,16,16,0,00,08,00,11*ba70678f
#BESTPOSA,FILE,0,30.5,FINESTEERING,2319,306309.050,02000000,cdba,17139;SOL_COMPUTED,INS_RTKFIXED,17.59203077247,78.12260187628,533.6716,-76.2000,WGS84,0.5288,0.5476,0.7568,"0",121.000,0.000,54,16,16,0,00,08,00,11*3ac5fa7c
#BESTPOSA,FILE,0,29.5,FINESTEERING,2319,306309.100,02000000,cdba,17139;SOL_COMPUTED,INS_RTKFIXED,17.59203094803,78.12260410680,533.6719,-76.2000,WGS84,0.5288,0.5476,0.7568,"0",121.000,0.000,54,16,16,0,00,08,00,11*370107f8
#BESTPOSA,FILE,0,29.5,FINESTEERING,2319,306309.150,02000000,cdba,17139;SOL_COMPUTED,INS_RTKFIXED,17.59203111125,78.12260635590,533.6731,-76.2000,WGS84,0.5288,0.5476,0.7568,"0",121.000,0.000,54,16,16,0,00,08,00,11*19dfaf3a
#BESTPOSA,FILE,0,29.5,FINESTEERING,2319,306309.200,02000000,cdba,17139;SOL_COMPUTED,INS_RTKFIXED,17.59203128395,78.12260863173,533.6760,-76.2000,WGS84,0.5288,0.5476,0.7568,"0",121.000,0.000,54,16,16,0,00,08,00,11*732353c1
#BESTPOSA,FILE,0,29.5,FINESTEERING,2319,306309.250,02000000,cdba,17139;SOL_COMPUTED,INS_RTKFIXED,17.59203147609,78.12261092296,533.6813,-76.2000,WGS84,0.5288,0.5476,0.7568,"0",121.000,0.000,54,16,16,0,00,08,00,11*7be25474
#BESTPOSA,FILE,0,29.5,FINESTEERING,2319,306309.300,02000000,cdba,17139;SOL_COMPUTED,INS_RTKFIXED,17.59203167680,78.12261323362,533.6907,-76.2000,WGS84,0.5288,0.5476,0.7568,"0",121.000,0.000,54,16,16,0,00,08,00,11*49c0f581
#BESTPOSA,FILE,0,29.5,FINESTEERING,2319,306309.350,02000000,cdba,17139;SOL_COMPUTED,INS_RTKFIXED,17.59203186459,78.12261555999,533.6969,-76.2000,WGS84,0.5288,0.5476,0.7568,"0",121.000,0.000,54,16,16,0,00,08,00,11*0cd0f774
#BESTPOSA,FILE,0,29.5,FINESTEERING,2319,306309.400,02000000,cdba,17139;SOL_COMPUTED,INS_RTKFIXED,17.59203203914,78.12261790914,533.6990,-76.2000,WGS84,0.5288,0.5476,0.7568,"0",121.000,0.000,54,16,16,0,00,08,00,11*76bcdafb
#BESTPOSA,FILE,0,29.5,FINESTEERING,2319,306309.450,02000000,cdba,17139;SOL_COMPUTED,INS_RTKFIXED,17.59203223236,78.12262024778,533.6985,-76.2000,WGS84,0.5288,0.5476,0.7568,"0",121.000,0.000,54,16,16,0,00,08,00,11*d4c2f50a
#BESTPOSA,FILE,0,29.5,FINESTEERING,2319,306309.500,02000000,cdba,17139;SOL_COMPUTED,INS_RTKFIXED,17.59203240712,78.12262260346,533.6964,-76.2000,WGS84,0.5288,0.5476,0.7568,"0",121.000,0.000,54,16,16,0,00,08,00,11*e4f521fc
#BESTPOSA,FILE,0,29.5,FINESTEERING,2319,306309.550,02000000,cdba,17139;SOL_COMPUTED,INS_RTKFIXED,17.59203259310,78.12262496811,533.6944,-76.2000,WGS84,0.5288,0.5476,0.7568,"0",121.000,0.000,54,16,16,0,00,08,00,11*a5d8b01e
#BESTPOSA,FILE,0,29.5,FINESTEERING,2319,306309.600,02000000,cdba,17139;SOL_COMPUTED,INS_RTKFIXED,17.59203277137,78.12262735322,533.6935,-76.2000,WGS84,0.5288,0.5476,0.7568,"0",121.000,0.000,54,16,16,0,00,08,00,11*456d8622
#BESTPOSA,FILE,0,29.5,FINESTEERING,2319,306309.650,02000000,cdba,17139;SOL_COMPUTED,INS_RTKFIXED,17.59203297608,78.12262975982,533.6954,-76.2000,WGS84,0.5288,0.5476,0.7568,"0",121.000,0.000,54,16,16,0,00,08,00,11*249c6a71
#BESTPOSA,FILE,0,29.5,FINESTEERING,2319,306309.700,02000000,cdba,17139;SOL_COMPUTED,INS_RTKFIXED,17.59203317996,78.12263221822,533.6994,-76.2000,WGS84,0.5288,0.5476,0.7568,"0",121.000,0.000,54,16,16,0,00,08,00,11*f684e8f2
#BESTPOSA,FILE,0,29.5,FINESTEERING,2319,306309.750,02000000,cdba,17139;SOL_COMPUTED,INS_RTKFIXED,17.59203339244,78.12263467508,533.7076,-76.2000,WGS84,0.5288,0.5476,0.7568,"0",121.000,0.000,54,16,16,0,00,08,00,11*c375bfe3
#BESTPOSA,FILE,0,29.5,FINESTEERING,2319,306309.800,02000000,cdba,17139;SOL_COMPUTED,INS_RTKFIXED,17.59203357717,78.12263716581,533.7152,-76.2000,WGS84,0.5288,0.5476,0.7568,"0",121.000,0.000,54,16,16,0,00,08,00,11*6213aeab
#BESTPOSA,FILE,0,29.5,FINESTEERING,2319,306309.850,02000000,cdba,17139;SOL_COMPUTED,INS_RTKFIXED,17.59203378083,78.12263965885,533.7225,-76.2000,WGS84,0.5288,0.5476,0.7568,"0",121.000,0.000,54,16,16,0,00,08,00,11*d513c532
#BESTPOSA,FILE,0,29.5,FINESTEERING,2319,306309.900,02000000,cdba,17139;SOL_COMPUTED,INS_RTKFIXED,17.59203395624,78.12264219125,533.7270,-76.2000,WGS84,0.5288,0.5476,0.7568,"0",121.000,0.000,54,16,16,0,00,08,00,11*db05c399
#BESTPOSA,FILE,0,29.5,FINESTEERING,2319,306309.950,02000000,cdba,17139;SOL_COMPUTED,INS_RTKFIXED,17.59203414754,78.12264471597,533.7321,-76.2000,WGS84,0.5288,0.5476,0.7568,"0",121.000,0.000,54,16,16,0,00,08,00,11*3140ade3
#BESTPOSA,FILE,0,29.5,FINESTEERING,2319,306310.000,02000000,cdba,17139;SOL_COMPUTED,INS_RTKFIXED,17.59203432973,78.12264728146,533.7365,-76.2000,WGS84,0.5288,0.5476,0.7568,"0",121.000,0.000,54,16,16,0,00,08,00,11*d760af4a
#BESTPOSA,FILE,0,29.5,FINESTEERING,2319,306310.050,02000800,cdba,17139;SOL_COMPUTED,INS_RTKFIXED,17.59203450893,78.12264984267,533.7418,-76.2000,WGS84,0.5295,0.5481,0.7594,"0",122.000,0.000,55,17,17,0,00,08,00,11*41362c67
#BESTPOSA,FILE,0,29.5,FINESTEERING,2319,306310.100,02000800,cdba,17139;SOL_COMPUTED,INS_RTKFIXED,17.59203469629,78.12265244186,533.7474,-76.2000,WGS84,0.5295,0.5481,0.7594,"0",122.000,0.000,55,17,17,0,00,08,00,11*8b092cd2
#BESTPOSA,FILE,0,29.5,FINESTEERING,2319,306310.150,02000800,cdba,17139;SOL_COMPUTED,INS_RTKFIXED,17.59203490578,78.12265503398,533.7513,-76.2000,WGS84,0.5295,0.5481,0.7594,"0",122.000,0.000,55,17,17,0,00,08,00,11*11c2eefb
#BESTPOSA,FILE,0,29.5,FINESTEERING,2319,306310.200,02000800,cdba,17139;SOL_COMPUTED,INS_RTKFIXED,17.59203511712,78.12265762966,533.7576,-76.2000,WGS84,0.5295,0.5481,0.7594,"0",122.000,0.000,55,17,17,0,00,08,00,11*e8b50dc5
#BESTPOSA,FILE,0,29.5,FINESTEERING,2319,306310.250,02000800,cdba,17139;SOL_COMPUTED,INS_RTKFIXED,17.59203536373,78.12266024087,533.7645,-76.2000,WGS84,0.5295,0.5481,0.7594,"0",122.000,0.000,55,17,17,0,00,08,00,11*253286e0
#BESTPOSA,FILE,0,29.5,FINESTEERING,2319,306310.300,02000800,cdba,17139;SOL_COMPUTED,INS_RTKFIXED,17.59203557081,78.12266283258,533.7667,-76.2000,WGS84,0.5295,0.5481,0.7594,"0",122.000,0.000,55,17,17,0,00,08,00,11*5e2e7013
#BESTPOSA,FILE,0,29.5,FINESTEERING,2319,306310.350,02000800,cdba,17139;SOL_COMPUTED,INS_RTKFIXED,17.59203580199,78.12266538928,533.7688,-76.2000,WGS84,0.5295,0.5481,0.7594,"0",122.000,0.000,55,17,17,0,00,08,00,11*63089720
#BESTPOSA,FILE,0,29.5,FINESTEERING,2319,306310.400,02000800,cdba,17139;SOL_COMPUTED,INS_RTKFIXED,17.59203597909,78.12266798671,533.7677,-76.2000,WGS84,0.5295,0.5481,0.7594,"0",122.000,0.000,55,17,17,0,00,08,00,11*ed1d5990
#BESTPOSA,FILE,0,29.5,FINESTEERING,2319,306310.450,02000800,cdba,17139;SOL_COMPUTED,INS_RTKFIXED,17.59203614817,78.12267061096,533.7659,-76.2000,WGS84,0.5295,0.5481,0.7594,"0",122.000,0.000,55,17,17,0,00,08,00,11*b42395d5
#BESTPOSA,FILE,0,29.5,FINESTEERING,2319,306310.500,02000800,cdba,17139;SOL_COMPUTED,INS_RTKFIXED,17.59203632165,78.12267322391,533.7640,-76.2000,WGS84,0.5295,0.5481,0.7594,"0",122.000,0.000,55,17,17,0,00,08,00,11*605bdf85
#BESTPOSA,FILE,0,29.5,FINESTEERING,2319,306310.550,02000800,cdba,17139;SOL_COMPUTED,INS_RTKFIXED,17.59203652918,78.12267584900,533.7641,-76.2000,WGS84,0.5295,0.5481,0.7594,"0",122.000,0.000,55,17,17,0,00,08,00,11*2c55bb8b
#BESTPOSA,FILE,0,29.5,FINESTEERING,2319,306310.600,02000800,cdba,17139;SOL_COMPUTED,INS_RTKFIXED,17.59203672124,78.12267850298,533.7635,-76.2000,WGS84,0.5295,0.5481,0.7594,"0",122.000,0.000,55,17,17,0,00,08,00,11*6de56962
#BESTPOSA,FILE,0,29.5,FINESTEERING,2319,306310.650,02000800,cdba,17139;SOL_COMPUTED,INS_RTKFIXED,17.59203693268,78.12268116887,533.7660,-76.2000,WGS84,0.5295,0.5481,0.7594,"0",122.000,0.000,55,17,17,0,00,08,00,11*2f107f58
#BESTPOSA,FILE,0,29.5,FINESTEERING,2319,306310.700,02000800,cdba,17139;SOL_COMPUTED,INS_RTKFIXED,17.59203715685,78.12268386291,533.7726,-76.2000,WGS84,0.5295,0.5481,0.7594,"0",122.000,0.000,55,17,17,0,00,08,00,11*e12cf39c
#BESTPOSA,FILE,0,29.5,FINESTEERING,2319,306310.750,02000800,cdba,17139;SOL_COMPUTED,INS_RTKFIXED,17.59203739931,78.12268657939,533.7839,-76.2000,WGS84,0.5295,0.5481,0.7594,"0",122.000,0.000,55,17,17,0,00,08,00,11*e0f2537a
#BESTPOSA,FILE,0,29.5,FINESTEERING,2319,306310.800,02000800,cdba,17139;SOL_COMPUTED,INS_RTKFIXED,17.59203761449,78.12268930700,533.7952,-76.2000,WGS84,0.5295,0.5481,0.7594,"0",122.000,0.000,55,17,17,0,00,08,00,11*48ac284c
#BESTPOSA,FILE,0,29.5,FINESTEERING,2319,306310.850,02000800,cdba,17139;SOL_COMPUTED,INS_RTKFIXED,17.59203782134,78.12269202435,533.8048,-76.2000,WGS84,0.5295,0.5481,0.7594,"0",122.000,0.000,55,17,17,0,00,08,00,11*a756645e
#BESTPOSA,FILE,0,29.5,FINESTEERING,2319,306310.900,02000800,cdba,17139;SOL_COMPUTED,INS_RTKFIXED,17.59203800210,78.12269474151,533.8125,-76.2000,WGS84,0.5295,0.5481,0.7594,"0",122.000,0.000,55,17,17,0,00,08,00,11*8d55e0e4
#BESTPOSA,FILE,0,29.5,FINESTEERING,2319,306310.950,02000800,cdba,17139;SOL_COMPUTED,INS_RTKFIXED,17.59203820031,78.12269747416,533.8205,-76.2000,WGS84,0.5295,0.5481,0.7594,"0",122.000,0.000,55,17,17,0,00,08,00,11*1740ccef
#BESTPOSA,FILE,0,29.5,FINESTEERING,2319,306311.000,02000800,cdba,17139;SOL_COMPUTED,INS_RTKFIXED,17.59203839985,78.12270016815,533.8278,-76.2000,WGS84,0.5295,0.5481,0.7594,"0",122.000,0.000,55,17,17,0,00,08,00,11*2e2ce557
#BESTPOSA,FILE,0,29.5,FINESTEERING,2319,306311.050,02000800,cdba,17139;SOL_COMPUTED,INS_RTKFIXED,17.59203862162,78.12270289534,533.8347,-76.2000,WGS84,0.5299,0.5487,0.7621,"0",123.000,0.000,54,17,17,0,00,08,00,11*f8e6d24b
#BESTPOSA,FILE,0,29.5,FINESTEERING,2319,306311.100,02000800,cdba,17139;SOL_COMPUTED,INS_RTKFIXED,17.59203881818,78.12270561182,533.8402,-76.2000,WGS84,0.5299,0.5487,0.7621,"0",123.000,0.000,54,17,17,0,00,08,00,11*cd51df90
#BESTPOSA,FILE,0,30.5,FINESTEERING,2319,306311.150,02000000,cdba,17139;SOL_COMPUTED,INS_RTKFIXED,17.59203903857,78.12270834799,533.8477,-76.2000,WGS84,0.5299,0.5487,0.7621,"0",123.000,0.000,54,17,17,0,00,08,00,11*038d0b0a
#BESTPOSA,FILE,0,30.5,FINESTEERING,2319,306311.200,02000000,cdba,17139;SOL_COMPUTED,INS_RTKFIXED,17.59203925743,78.12271111446,533.8575,-76.2000,WGS84,0.5299,0.5487,0.7621,"0",123.000,0.000,54,17,17,0,00,08,00,11*b3d47a61
#BESTPOSA,FILE,0,30.5,FINESTEERING,2319,306311.250,02000000,cdba,17139;SOL_COMPUTED,INS_RTKFIXED,17.59203947450,78.12271392501,533.8702,-76.2000,WGS84,0.5299,0.5487,0.7621,"0",123.000,0.000,54,17,17,0,00,08,00,11*bfc25ae4
#BESTPOSA,FILE,0,30.5,FINESTEERING,2319,306311.300,02000000,cdba,17139;SOL_COMPUTED,INS_RTKFIXED,17.59203968015,78.12271675766,533.8836,-76.2000,WGS84,0.5299,0.5487,0.7621,"0",123.000,0.000,54,17,17,0,00,08,00,11*e7427408
#BESTPOSA,FILE,0,30.5,FINESTEERING,2319,306311.350,02000000,cdba,17139;SOL_COMPUTED,INS_RTKFIXED,17.59203990087,78.12271959962,533.9000,-76.2000,WGS84,0.5299,0.5487,0.7621,"0",123.000,0.000,54,17,17,0,00,08,00,11*8271a211
#BESTPOSA,FILE,0,30.5,FINESTEERING,2319,306311.400,02000000,cdba,17139;SOL_COMPUTED,INS_RTKFIXED,17.59204009903,78.12272246803,533.9161,-76.2000,WGS84,0.5299,0.5487,0.7621,"0",123.000,0.000,54,17,17,0,00,08,00,11*bb745d93
#BESTPOSA,FILE,0,30.5,FINESTEERING,2319,306311.450,02000000,cdba,17139;SOL_COMPUTED,INS_RTKFIXED,17.59204031428,78.12272532816,533.9295,-76.2000,WGS84,0.5299,0.5487,0.7621,"0",123.000,0.000,54,17,17,0,00,08,00,11*d303a620
#BESTPOSA,FILE,0,30.5,FINESTEERING,2319,306311.500,02000000,cdba,17139;SOL_COMPUTED,INS_RTKFIXED,17.59204050858,78.12272817138,533.9418,-76.2000,WGS84,0.5299,0.5487,0.7621,"0",123.000,0.000,54,17,17,0,00,08,00,11*8a4e3a26
#BESTPOSA,FILE,0,30.5,FINESTEERING,2319,306311.550,02000000,cdba,17139;SOL_COMPUTED,INS_RTKFIXED,17.59204072126,78.12273102558,533.9516,-76.2000,WGS84,0.5299,0.5487,0.7621,"0",123.000,0.000,54,17,17,0,00,08,00,11*d25b6b9a
#BESTPOSA,FILE,0,30.5,FINESTEERING,2319,306311.600,02000000,cdba,17139;SOL_COMPUTED,INS_RTKFIXED,17.59204089888,78.12273382528,533.9548,-76.2000,WGS84,0.5299,0.5487,0.7621,"0",123.000,0.000,54,17,17,0,00,08,00,11*e002b5e8
#BESTPOSA,FILE,0,30.5,FINESTEERING,2319,306311.650,02000000,cdba,17139;SOL_COMPUTED,INS_RTKFIXED,17.59204111928,78.12273660453,533.9560,-76.2000,WGS84,0.5299,0.5487,0.7621,"0",123.000,0.000,54,17,17,0,00,08,00,11*da32448c
#BESTPOSA,FILE,0,30.5,FINESTEERING,2319,306311.700,02000000,cdba,17139;SOL_COMPUTED,INS_RTKFIXED,17.59204130748,78.12273935978,533.9522,-76.2000,WGS84,0.5299,0.5487,0.7621,"0",123.000,0.000,54,17,17,0,00,08,00,11*28715623
#BESTPOSA,FILE,0,30.5,FINESTEERING,2319,306311.750,02000000,cdba,17139;SOL_COMPUTED,INS_RTKFIXED,17.59204150985,78.12274212400,533.9475,-76.2000,WGS84,0.5299,0.5487,0.7621,"0",123.000,0.000,54,17,17,0,00,08,00,11*e7499e75
#BESTPOSA,FILE,0,30.5,FINESTEERING,2319,306311.800,02000000,cdba,17139;SOL_COMPUTED,INS_RTKFIXED,17.59204169881,78.12274487311,533.9427,-76.2000,WGS84,0.5299,0.5487,0.7621,"0",123.000,0.000,54,17,17,0,00,08,00,11*9ecb0e76
#BESTPOSA,FILE,0,30.5,FINESTEERING,2319,306311.850,02000000,cdba,17139;SOL_COMPUTED,INS_RTKFIXED,17.59204189912,78.12274764946,533.9407,-76.2000,WGS84,0.5299,0.5487,0.7621,"0",123.000,0.000,54,17,17,0,00,08,00,11*12276c6b
#BESTPOSA,FILE,0,30.5,FINESTEERING,2319,306311.900,02000000,cdba,17139;SOL_COMPUTED,INS_RTKFIXED,17.59204210451,78.12275045147,533.9422,-76.2000,WGS84,0.5299,0.5487,0.7621,"0",123.000,0.000,54,17,17,0,00,08,00,11*998038bb
#BESTPOSA,FILE,0,30.5,FINESTEERING,2319,306311.950,02000000,cdba,17139;SOL_COMPUTED,INS_RTKFIXED,17.59204233365,78.12275326221,533.9484,-76.2000,WGS84,0.5299,0.5487,0.7621,"0",123.000,0.000,54,17,17,0,00,08,00,11*0d4379f8
#BESTPOSA,FILE,0,30.5,FINESTEERING,2319,306312.000,02000000,cdba,17139;SOL_COMPUTED,INS_RTKFIXED,17.59204255748,78.12275610219,533.9602,-76.2000,WGS84,0.5299,0.5487,0.7621,"0",123.000,0.000,54,17,17,0,00,08,00,11*90294ddd
#BESTPOSA,FILE,0,30.5,FINESTEERING,2319,306312.050,02000000,cdba,17139;SOL_COMPUTED,INS_RTKFIXED,17.59204277250,78.12275899383,533.9771,-76.2000,WGS84,0.5303,0.5492,0.7646,"0",124.000,0.000,55,18,18,0,00,08,00,11*8c96dcf5
#BESTPOSA,FILE,0,30.5,FINESTEERING,2319,306312.100,02000000,cdba,17139;SOL_COMPUTED,INS_RTKFIXED,17.59204302181,78.12276187899,533.9968,-76.2000,WGS84,0.5303,0.5492,0.7646,"0",124.000,0.000,55,18,18,0,00,08,00,11*1c816d28
#BESTPOSA,FILE,0,30.5,FINESTEERING,2319,306312.150,02000000,cdba,17139;SOL_COMPUTED,INS_RTKFIXED,17.59204323104,78.12276478453,534.0148,-76.2000,WGS84,0.5303,0.5492,0.7646,"0",124.000,0.000,55,18,18,0,00,08,00,11*d707ccdb
#BESTPOSA,FILE,0,30.5,FINESTEERING,2319,306312.200,02000000,cdba,17139;SOL_COMPUTED,INS_RTKFIXED,17.59204344017,78.12276764744,534.0335,-76.2000,WGS84,0.5303,0.5492,0.7646,"0",124.000,0.000,55,18,18,0,00,08,00,11*8db87324
#BESTPOSA,FILE,0,30.5,FINESTEERING,2319,306312.250,02000000,cdba,17139;SOL_COMPUTED,INS_RTKFIXED,17.59204363314,78.12277051781,534.0498,-76.2000,WGS84,0.5303,0.5492,0.7646,"0",124.000,0.000,55,18,18,0,00,08,00,11*fdece800
#BESTPOSA,FILE,0,30.5,FINESTEERING,2319,306312.300,02000000,cdba,17139;SOL_COMPUTED,INS_RTKFIXED,17.59204384146,78.12277335222,534.0635,-76.2000,WGS84,0.5303,0.5492,0.7646,"0",124.000,0.000,55,18,18,0,00,08,00,11*90da2e8f
#BESTPOSA,FILE,0,30.5,FINESTEERING,2319,306312.350,02000000,cdba,17139;SOL_COMPUTED,INS_RTKFIXED,17.59204405443,78.12277614884,534.0760,-76.2000,WGS84,0.5303,0.5492,0.7646,"0",124.000,0.000,55,18,18,0,00,08,00,11*bad9a11f
#BESTPOSA,FILE,0,30.5,FINESTEERING,2319,306312.400,02000000,cdba,17139;SOL_COMPUTED,INS_RTKFIXED,17.59204424566,78.12277897871,534.0837,-76.2000,WGS84,0.5303,0.5492,0.7646,"0",124.000,0.000,55,18,18,0,00,08,00,11*75825130
#BESTPOSA,FILE,0,30.5,FINESTEERING,2319,306312.450,02000000,cdba,17139;SOL_COMPUTED,INS_RTKFIXED,17.59204443232,78.12278179114,534.0906,-76.2000,WGS84,0.5303,0.5492,0.7646,"0",124.000,0.000,55,18,18,0,00,08,00,11*b913641d
#BESTPOSA,FILE,0,30.5,FINESTEERING,2319,306312.500,02000000,cdba,17139;SOL_COMPUTED,INS_RTKFIXED,17.59204463815,78.12278461723,534.1003,-76.2000,WGS84,0.5303,0.5492,0.7646,"0",124.000,0.000,55,18,18,0,00,08,00,11*a980b977
#BESTPOSA,FILE,0,30.5,FINESTEERING,2319,306312.550,02000000,cdba,17139;SOL_COMPUTED,INS_RTKFIXED,17.59204484261,78.12278745891,534.1107,-76.2000,WGS84,0.5303,0.5492,0.7646,"0",124.000,0.000,55,18,18,0,00,08,00,11*4f04319c
#BESTPOSA,FILE,0,30.5,FINESTEERING,2319,306312.600,02000000,cdba,17139;SOL_COMPUTED,INS_RTKFIXED,17.59204503623,78.12279029435,534.1231,-76.2000,WGS84,0.5303,0.5492,0.7646,"0",124.000,0.000,55,18,18,0,00,08,00,11*c53652ff
#BESTPOSA,FILE,0,30.5,FINESTEERING,2319,306312.650,02000000,cdba,17139;SOL_COMPUTED,INS_RTKFIXED,17.59204523018,78.12279314532,534.1365,-76.2000,WGS84,0.5303,0.5492,0.7646,"0",124.000,0.000,55,18,18,0,00,08,00,11*a995e84c
#BESTPOSA,FILE,0,30.5,FINESTEERING,2319,306312.700,02000000,cdba,17139;SOL_COMPUTED,INS_RTKFIXED,17.59204543344,78.12279596823,534.1507,-76.2000,WGS84,0.5303,0.5492,0.7646,"0",124.000,0.000,55,18,18,0,00,08,00,11*808a0cf4
#BESTPOSA,FILE,0,30.5,FINESTEERING,2319,306312.750,02000000,cdba,17139;SOL_COMPUTED,INS_RTKFIXED,17.59204564332,78.12279876894,534.1668,-76.2000,WGS84,0.5303,0.5492,0.7646,"0",124.000,0.000,55,18,18,0,00,08,00,11*5e71028d
#BESTPOSA,FILE,0,30.5,FINESTEERING,2319,306312.800,02000000,cdba,17139;SOL_COMPUTED,INS_RTKFIXED,17.59204586388,78.12280158498,534.1785,-76.2000,WGS84,0.5303,0.5492,0.7646,"0",124.000,0.000,55,18,18,0,00,08,00,11*6f4539ca
#BESTPOSA,FILE,0,30.5,FINESTEERING,2319,306312.850,02000000,cdba,17139;SOL_COMPUTED,INS_RTKFIXED,17.59204605804,78.12280429917,534.1838,-76.2000,WGS84,0.5303,0.5492,0.7646,"0",124.000,0.000,55,18,18,0,00,08,00,11*6cc61cba
#BESTPOSA,FILE,0,30.5,FINESTEERING,2319,306312.900,02000000,cdba,17139;SOL_COMPUTED,INS_RTKFIXED,17.59204627269,78.12280698482,534.1850,-76.2000,WGS84,0.5303,0.5492,0.7646,"0",124.000,0.000,55,18,18,0,00,08,00,11*38c4e38b
#BESTPOSA,FILE,0,30.5,FINESTEERING,2319,306312.950,02000000,cdba,17139;SOL_COMPUTED,INS_RTKFIXED,17.59204646798,78.12280960348,534.1798,-76.2000,WGS84,0.5303,0.5492,0.7646,"0",124.000,0.000,55,18,18,0,00,08,00,11*24f42b6c
#BESTPOSA,FILE,0,30.5,FINESTEERING,2319,306313.000,02000000,cdba,17139;SOL_COMPUTED,INS_RTKFIXED,17.59204667161,78.12281222023,534.1721,-76.2000,WGS84,0.5303,0.5492,0.7646,"0",124.000,0.000,55,18,18,0,00,08,00,11*d2579d4e
#BESTPOSA,FILE,0,30.5,FINESTEERING,2319,306313.050,02000000,cdba,17139;SOL_COMPUTED,INS_RTKFIXED,17.59204686129,78.12281480595,534.1626,-76.2000,WGS84,0.5311,0.5511,0.7667,"0",125.000,0.000,54,17,17,0,00,08,00,11*0e0acbe7
#BESTPOSA,FILE,0,30.5,FINESTEERING,2319,306313.100,02000000,cdba,17139;SOL_COMPUTED,INS_RTKFIXED,17.59204704639,78.12281743128,534.1543,-76.2000,WGS84,0.5311,0.5511,0.7667,"0",125.000,0.000,54,17,17,0,00,08,00,11*13496da9
#BESTPOSA,FILE,0,31.0,FINESTEERING,2319,306313.150,02000000,cdba,17139;SOL_COMPUTED,INS_RTKFIXED,17.59204723819,78.12282005843,534.1495,-76.2000,WGS84,0.5311,0.5511,0.7667,"0",125.000,0.000,54,17,17,0,00,08,00,11*89cc5050
#BESTPOSA,FILE,0,31.0,FINESTEERING,2319,306313.200,02000000,cdba,17139;SOL_COMPUTED,INS_RTKFIXED,17.59204742880,78.12282272079,534.1486,-76.2000,WGS84,0.5311,0.5511,0.7667,"0",125.000,0.000,54,17,17,0,00,08,00,11*721eaff5
#BESTPOSA,FILE,0,31.0,FINESTEERING,2319,306313.250,02000000,cdba,17139;SOL_COMPUTED,INS_RTKFIXED,17.59204760249,78.12282539958,534.1509,-76.2000,WGS84,0.5311,0.5511,0.7667,"0",125.000,0.000,54,17,17,0,00,08,00,11*1c3cca74
#BESTPOSA,FILE,0,31.0,FINESTEERING,2319,306313.300,02000000,cdba,17139;SOL_COMPUTED,INS_RTKFIXED,17.59204781396,78.12282810314,534.1624,-76.2000,WGS84,0.5311,0.5511,0.7667,"0",125.000,0.000,54,17,17,0,00,08,00,11*fab2b3b5
#BESTPOSA,FILE,0,31.0,FINESTEERING,2319,306313.350,02000000,cdba,17139;SOL_COMPUTED,INS_RTKFIXED,17.59204802725,78.12283080874,534.1786,-76.2000,WGS84,0.5311,0.5511,0.7667,"0",125.000,0.000,54,17,17,0,00,08,00,11*1bd71441
#BESTPOSA,FILE,0,31.0,FINESTEERING,2319,306313.400,02000000,cdba,17139;SOL_COMPUTED,INS_RTKFIXED,17.59204826128,78.12283350254,534.1990,-76.2000,WGS84,0.5311,0.5511,0.7667,"0",125.000,0.000,54,17,17,0,00,08,00,11*2374ad3d
#BESTPOSA,FILE,0,31.0,FINESTEERING,2319,306313.450,02000000,cdba,17139;SOL_COMPUTED,INS_RTKFIXED,17.59204847688,78.12283618234,534.2166,-76.2000,WGS84,0.5311,0.5511,0.7667,"0",125.000,0.000,54,17,17,0,00,08,00,11*9e9cb608
#BESTPOSA,FILE,0,31.0,FINESTEERING,2319,306313.500,02000000,cdba,17139;SOL_COMPUTED,INS_RTKFIXED,17.59204869089,78.12283882050,534.2316,-76.2000,WGS84,0.5311,0.5511,0.7667,"0",125.000,0.000,54,17,17,0,00,08,00,11*b06628e4
#BESTPOSA,FILE,0,31.0,FINESTEERING,2319,306313.550,02000000,cdba,17139;SOL_COMPUTED,INS_RTKFIXED,17.59204890115,78.12284142253,534.2421,-76.2000,WGS84,0.5311,0.5511,0.7667,"0",125.000,0.000,54,17,17,0,00,08,00,11*a79a1b4e
#BESTPOSA,FILE,0,31.0,FINESTEERING,2319,306313.600,02000000,cdba,17139;SOL_COMPUTED,INS_RTKFIXED,17.59204909703,78.12284400205,534.2471,-76.2000,WGS84,0.5311,0.5511,0.7667,"0",125.000,0.000,54,17,17,0,00,08,00,11*9c421141
#BESTPOSA,FILE,0,31.0,FINESTEERING,2319,306313.650,02000000,cdba,17139;SOL_COMPUTED,INS_RTKFIXED,17.59204928881,78.12284652736,534.2480,-76.2000,WGS84,0.5311,0.5511,0.7667,"0",125.000,0.000,54,17,17,0,00,08,00,11*399930ef
#BESTPOSA,FILE,0,31.0,FINESTEERING,2319,306313.700,02000000,cdba,17139;SOL_COMPUTED,INS_RTKFIXED,17.59204947731,78.12284906345,534.2470,-76.2000,WGS84,0.5311,0.5511,0.7667,"0",125.000,0.000,54,17,17,0,00,08,00,11*38c2b482
#BESTPOSA,FILE,0,31.0,FINESTEERING,2319,306313.750,02000000,cdba,17139;SOL_COMPUTED,INS_RTKFIXED,17.59204966152,78.12285160476,534.2451,-76.2000,WGS84,0.5311,0.5511,0.7667,"0",125.000,0.000,54,17,17,0,00,08,00,11*23bd0f6b
#BESTPOSA,FILE,0,31.0,FINESTEERING,2319,306313.800,02000000,cdba,17139;SOL_COMPUTED,INS_RTKFIXED,17.59204987128,78.12285415792,534.2469,-76.2000,WGS84,0.5311,0.5511,0.7667,"0",125.000,0.000,54,17,17,0,00,08,00,11*fa4b6a68
#BESTPOSA,FILE,0,31.0,FINESTEERING,2319,306313.850,02000000,cdba,17139;SOL_COMPUTED,INS_RTKFIXED,17.59205008004,78.12285674597,534.2516,-76.2000,WGS84,0.5311,0.5511,0.7667,"0",125.000,0.000,54,17,17,0,00,08,00,11*f97b2120
#BESTPOSA,FILE,0,31.0,FINESTEERING,2319,306313.900,02000000,cdba,17139;SOL_COMPUTED,INS_RTKFIXED,17.59205030047,78.12285934776,534.2613,-76.2000,WGS84,0.5311,0.5511,0.7667,"0",125.000,0.000,54,17,17,0,00,08,00,11*25335f0c
#BESTPOSA,FILE,0,31.0,FINESTEERING,2319,306313.950,02000000,cdba,17139;SOL_COMPUTED,INS_RTKFIXED,17.59205052317,78.12286197148,534.2749,-76.2000,WGS84,0.5311,0.5511,0.7667,"0",125.000,0.000,54,17,17,0,00,08,00,11*d4513ce1
#BESTPOSA,FILE,0,31.0,FINESTEERING,2319,306314.000,02000000,cdba,17139;SOL_COMPUTED,INS_RTKFIXED,17.59205074549,78.12286459250,534.2904,-76.2000,WGS84,0.5311,0.5511,0.7667,"0",125.000,0.000,54,17,17,0,00,08,00,11*ddb958a3
#BESTPOSA,FILE,0,31.0,FINESTEERING,2319,306314.050,02000000,cdba,17139;SOL_COMPUTED,INS_RTKFIXED,17.59205095745,78.12286721103,534.3044,-76.2000,WGS84,0.5318,0.5529,0.7687,"0",126.000,0.000,52,17,17,0,00,08,00,11*705e842d
#BESTPOSA,FILE,0,30.0,FINESTEERING,2319,306314.100,02000000,cdba,17139;SOL_COMPUTED,INS_RTKFIXED,17.59205118114,78.12286980289,534.3205,-76.2000,WGS84,0.5318,0.5529,0.7687,"0",126.000,0.000,52,17,17,0,00,08,00,11*70964141
#BESTPOSA,FILE,0,30.0,FINESTEERING,2319,306314.150,02000000,cdba,17139;SOL_COMPUTED,INS_RTKFIXED,17.59205139822,78.12287238725,534.3326,-76.2000,WGS84,0.5318,0.5529,0.7687,"0",126.000,0.000,52,17,17,0,00,08,00,11*4b029e20
#BESTPOSA,FILE,0,30.0,FINESTEERING,2319,306314.200,02000000,cdba,17139;SOL_COMPUTED,INS_RTKFIXED,17.59205160715,78.12287491030,534.3391,-76.2000,WGS84,0.5318,0.5529,0.7687,"0",126.000,0.000,52,17,17,0,00,08,00,11*b3b72afc
#BESTPOSA,FILE,0,30.0,FINESTEERING,2319,306314.250,02000000,cdba,17139;SOL_COMPUTED,INS_RTKFIXED,17.59205182288,78.12287736114,534.3407,-76.2000,WGS84,0.5318,0.5529,0.7687,"0",126.000,0.000,52,17,17,0,00,08,00,11*e1a2f34e
#BESTPOSA,FILE,0,30.0,FINESTEERING,2319,306314.300,02000000,cdba,17139;SOL_COMPUTED,INS_RTKFIXED,17.59205202926,78.12287976710,534.3366,-76.2000,WGS84,0.5318,0.5529,0.7687,"0",126.000,0.000,52,17,17,0,00,08,00,11*226bb02c
#BESTPOSA,FILE,0,30.0,FINESTEERING,2319,306314.350,02000000,cdba,17139;SOL_COMPUTED,INS_RTKFIXED,17.59205225611,78.12288214733,534.3306,-76.2000,WGS84,0.5318,0.5529,0.7687,"0",126.000,0.000,52,17,17,0,00,08,00,11*0829a07c
#BESTPOSA,FILE,0,30.0,FINESTEERING,2319,306314.400,02000000,cdba,17139;SOL_COMPUTED,INS_RTKFIXED,17.59205247983,78.12288452514,534.3229,-76.2000,WGS84,0.5318,0.5529,0.7687,"0",126.000,0.000,52,17,17,0,00,08,00,11*d25431f6
#BESTPOSA,FILE,0,30.0,FINESTEERING,2319,306314.450,02000000,cdba,17139;SOL_COMPUTED,INS_RTKFIXED,17.59205272652,78.12288692054,534.3171,-76.2000,WGS84,0.5318,0.5529,0.7687,"0",126.000,0.000,52,17,17,0,00,08,00,11*2441c5ac
#BESTPOSA,FILE,0,30.0,FINESTEERING,2319,306314.500,02000000,cdba,17139;SOL_COMPUTED,INS_RTKFIXED,17.59205297672,78.12288933435,534.3136,-76.2000,WGS84,0.5318,0.5529,0.7687,"0",126.000,0.000,52,17,17,0,00,08,00,11*dafffdc4
#BESTPOSA,FILE,0,30.0,FINESTEERING,2319,306314.550,02000000,cdba,17139;SOL_COMPUTED,INS_RTKFIXED,17.59205322435,78.12289177519,534.3128,-76.2000,WGS84,0.5318,0.5529,0.7687,"0",126.000,0.000,52,17,17,0,00,08,00,11*562c23ed
#BESTPOSA,FILE,0,30.0,FINESTEERING,2319,306314.600,02000000,cdba,17139;SOL_COMPUTED,INS_RTKFIXED,17.59205346163,78.12289421971,534.3146,-76.2000,WGS84,0.5318,0.5529,0.7687,"0",126.000,0.000,52,17,17,0,00,08,00,11*204dd3b8
#BESTPOSA,FILE,0,30.0,FINESTEERING,2319,306314.650,02000000,cdba,17139;SOL_COMPUTED,INS_RTKFIXED,17.59205367910,78.12289668536,534.3192,-76.2000,WGS84,0.5318,0.5529,0.7687,"0",126.000,0.000,52,17,17,0,00,08,00,11*5c09e391
#BESTPOSA,FILE,0,30.0,FINESTEERING,2319,306314.700,02000000,cdba,17139;SOL_COMPUTED,INS_RTKFIXED,17.59205389777,78.12289914598,534.3320,-76.2000,WGS84,0.5318,0.5529,0.7687,"0",126.000,0.000,52,17,17,0,00,08,00,11*f66714cb
#BESTPOSA,FILE,0,30.0,FINESTEERING,2319,306314.750,02000000,cdba,17139;SOL_COMPUTED,INS_RTKFIXED,17.59205411115,78.12290160802,534.3490,-76.2000,WGS84,0.5318,0.5529,0.7687,"0",126.000,0.000,52,17,17,0,00,08,00,11*06eb98b3
#BESTPOSA,FILE,0,30.0,FINESTEERING,2319,306314.800,02000000,cdba,17139;SOL_COMPUTED,INS_RTKFIXED,17.59205432540,78.12290405878,534.3674,-76.2000,WGS84,0.5318,0.5529,0.7687,"0",126.000,0.000,52,17,17,0,00,08,00,11*193deed2
#BESTPOSA,FILE,0,30.0,FINESTEERING,2319,306314.850,02000000,cdba,17139;SOL_COMPUTED,INS_RTKFIXED,17.59205455874,78.12290648555,534.3851,-76.2000,WGS84,0.5318,0.5529,0.7687,"0",126.000,0.000,52,17,17,0,00,08,00,11*a93ac7ae
#BESTPOSA,FILE,0,30.0,FINESTEERING,2319,306314.900,02000000,cdba,17139;SOL_COMPUTED,INS_RTKFIXED,17.59205476616,78.12290885410,534.3977,-76.2000,WGS84,0.5318,0.5529,0.7687,"0",126.000,0.000,52,17,17,0,00,08,00,11*67141a9e
#BESTPOSA,FILE,0,30.0,FINESTEERING,2319,306314.950,02000000,cdba,17139;SOL_COMPUTED,INS_RTKFIXED,17.59205499334,78.12291119876,534.4066,-76.2000,WGS84,0.5318,0.5529,0.7687,"0",126.000,0.000,52,17,17,0,00,08,00,11*bb43df23
#BESTPOSA,FILE,0,30.0,FINESTEERING,2319,306315.000,02000000,cdba,17139;SOL_COMPUTED,INS_RTKFIXED,17.59205522845,78.12291351278,534.4119,-76.2000,WGS84,0.5318,0.5529,0.7687,"0",126.000,0.000,52,17,17,0,00,08,00,11*7b1f3811
#BESTPOSA,FILE,0,30.0,FINESTEERING,2319,306315.050,02000000,cdba,17139;SOL_COMPUTED,INS_RTKFIXED,17.59205548537,78.12291581416,534.4161,-76.2000,WGS84,0.5319,0.5526,0.7696,"0",127.000,0.000,52,17,17,0,00,08,00,11*fc5fb48b
#BESTPOSA,FILE,0,30.0,FINESTEERING,2319,306315.100,02000000,cdba,17139;SOL_COMPUTED,INS_RTKFIXED,17.59205573733,78.12291808815,534.4209,-76.2000,WGS84,0.5319,0.5526,0.7696,"0",127.000,0.000,52,17,17,0,00,08,00,11*93b0a15e
#BESTPOSA,FILE,0,31.5,FINESTEERING,2319,306315.150,02000000,cdba,17139;SOL_COMPUTED,INS_RTKFIXED,17.59205598396,78.12292037475,534.4264,-76.2000,WGS84,0.5319,0.5526,0.7696,"0",127.000,0.000,52,17,17,0,00,08,00,11*1e527c6e
#BESTPOSA,FILE,0,31.5,FINESTEERING,2319,306315.200,02000000,cdba,17139;SOL_COMPUTED,INS_RTKFIXED,17.59205621239,78.12292268373,534.4352,-76.2000,WGS84,0.5319,0.5526,0.7696,"0",127.000,0.000,52,17,17,0,00,08,00,11*06c4cdb5
#BESTPOSA,FILE,0,31.5,FINESTEERING,2319,306315.250,02000000,cdba,17139;SOL_COMPUTED,INS_RTKFIXED,17.59205643511,78.12292501157,534.4473,-76.2000,WGS84,0.5319,0.5526,0.7696,"0",127.000,0.000,52,17,17,0,00,08,00,11*ef86a006
#BESTPOSA,FILE,0,31.5,FINESTEERING,2319,306315.300,02000000,cdba,17139;SOL_COMPUTED,INS_RTKFIXED,17.59205664690,78.12292735063,534.4615,-76.2000,WGS84,0.5319,0.5526,0.7696,"0",127.000,0.000,52,17,17,0,00,08,00,11*0d61a1fa
#BESTPOSA,FILE,0,31.5,FINESTEERING,2319,306315.350,02000000,cdba,17139;SOL_COMPUTED,INS_RTKFIXED,17.59205684880,78.12292970317,534.4785,-76.2000,WGS84,0.5319,0.5526,0.7696,"0",127.000,0.000,52,17,17,0,00,08,00,11*1efff796
#BESTPOSA,FILE,0,31.5,FINESTEERING,2319,306315.400,02000000,cdba,17139;SOL_COMPUTED,INS_RTKFIXED,17.59205705297,78.12293205483,534.4985,-76.2000,WGS84,0.5319,0.5526,0.7696,"0",127.000,0.000,52,17,17,0,00,08,00,11*7b55eea0
#BESTPOSA,FILE,0,31.5,FINESTEERING,2319,306315.450,02000000,cdba,17139;SOL_COMPUTED,INS_RTKFIXED,17.59205725712,78.12293439265,534.5183,-76.2000,WGS84,0.5319,0.5526,0.7696,"0",127.000,0.000,52,17,17,0,00,08,00,11*e49cfe28
#BESTPOSA,FILE,0,31.5,FINESTEERING,2319,306315.500,02000000,cdba,17139;SOL_COMPUTED,INS_RTKFIXED,17.59205746281,78.12293670470,534.5349,-76.2000,WGS84,0.5319,0.5526,0.7696,"0",127.000,0.000,52,17,17,0,00,08,00,11*46aab255
#BESTPOSA,FILE,0,31.5,FINESTEERING,2319,306315.550,02000000,cdba,17139;SOL_COMPUTED,INS_RTKFIXED,17.59205767400,78.12293897939,534.5481,-76.2000,WGS84,0.5319,0.5526,0.7696,"0",127.000,0.000,52,17,17,0,00,08,00,11*4d480d4c
#BESTPOSA,FILE,0,31.5,FINESTEERING,2319,306315.600,02000000,cdba,17139;SOL_COMPUTED,INS_RTKFIXED,17.59205790977,78.12294121445,534.5590,-76.2000,WGS84,0.5319,0.5526,0.7696,"0",127.000,0.000,52,17,17,0,00,08,00,11*3444a28c
#BESTPOSA,FILE,0,31.5,FINESTEERING,2319,306315.650,02000000,cdba,17139;SOL_COMPUTED,INS_RTKFIXED,17.59205814828,78.12294341415,534.5664,-76.2000,WGS84,0.5319,0.5526,0.7696,"0",127.000,0.000,52,17,17,0,00,08,00,11*a7ed3e32
#BESTPOSA,FILE,0,31.5,FINESTEERING,2319,306315.700,02000000,cdba,17139;SOL_COMPUTED,INS_RTKFIXED,17.59205837971,78.12294556426,534.5697,-76.2000,WGS84,0.5319,0.5526,0.7696,"0",127.000,0.000,52,17,17,0,00,08,00,11*c0ee5ca6
#BESTPOSA,FILE,0,31.5,FINESTEERING,2319,306315.750,02000000,cdba,17139;SOL_COMPUTED,INS_RTKFIXED,17.59205860200,78.12294769761,534.5704,-76.2000,WGS84,0.5319,0.5526,0.7696,"0",127.000,0.000,52,17,17,0,00,08,00,11*33840d65
#BESTPOSA,FILE,0,31.5,FINESTEERING,2319,306315.800,02000000,cdba,17139;SOL_COMPUTED,INS_RTKFIXED,17.59205883048,78.12294981035,534.5701,-76.2000,WGS84,0.5319,0.5526,0.7696,"0",127.000,0.000,52,17,17,0,00,08,00,11*d36c5af5
#BESTPOSA,FILE,0,31.5,FINESTEERING,2319,306315.850,02000000,cdba,17139;SOL_COMPUTED,INS_RTKFIXED,17.59205904748,78.12295191676,534.5686,-76.2000,WGS84,0.5319,0.5526,0.7696,"0",127.000,0.000,52,17,17,0,00,08,00,11*02722d3d
#BESTPOSA,FILE,0,31.5,FINESTEERING,2319,306315.900,02000000,cdba,17139;SOL_COMPUTED,INS_RTKFIXED,17.59205926553,78.12295403386,534.5675,-76.2000,WGS84,0.5319,0.5526,0.7696,"0",127.000,0.000,52,17,17,0,00,08,00,11*337480b1
#BESTPOSA,FILE,0,31.5,FINESTEERING,2319,306315.950,02000000,cdba,17139;SOL_COMPUTED,INS_RTKFIXED,17.59205947935,78.12295615360,534.5672,-76.2000,WGS84,0.5319,0.5526,0.7696,"0",127.000,0.000,52,17,17,0,00,08,00,11*f723e84d
#BESTPOSA,FILE,0,31.5,FINESTEERING,2319,306316.000,02000000,cdba,17139;SOL_COMPUTED,INS_RTKFIXED,17.59205969201,78.12295829024,534.5687,-76.2000,WGS84,0.5319,0.5526,0.7696,"0",127.000,0.000,52,17,17,0,00,08,00,11*0b8727b2
#BESTPOSA,FILE,0,31.5,FINESTEERING,2319,306316.050,02000000,cdba,17139;SOL_COMPUTED,INS_RTKFIXED,17.59205990601,78.12296043741,534.5721,-76.2000,WGS84,0.5318,0.5527,0.7706,"0",128.000,0.000,51,16,16,0,00,08,00,11*73bbfce7
#BESTPOSA,FILE,0,31.5,FINESTEERING,2319,306316.100,02000000,cdba,17139;SOL_COMPUTED,INS_RTKFIXED,17.59206013535,78.12296259760,534.5775,-76.2000,WGS84,0.5318,0.5527,0.7706,"0",128.000,0.000,51,16,16,0,00,08,00,11*d363ff5a
#BESTPOSA,FILE,0,31.5,FINESTEERING,2319,306316.150,02000000,cdba,17139;SOL_COMPUTED,INS_RTKFIXED,17.59206036251,78.12296475056,534.5847,-76.2000,WGS84,0.5318,0.5527,0.7706,"0",128.000,0.000,51,16,16,0,00,08,00,11*849f92ec
#BESTPOSA,FILE,0,31.5,FINESTEERING,2319,306316.200,02000000,cdba,17139;SOL_COMPUTED,INS_RTKFIXED,17.59206057530,78.12296690496,534.5941,-76.2000,WGS84,0.5318,0.5527,0.7706,"0",128.000,0.000,51,16,16,0,00,08,00,11*8cd58ee3
#BESTPOSA,FILE,0,31.5,FINESTEERING,2319,306316.250,02000000,cdba,17139;SOL_COMPUTED,INS_RTKFIXED,17.59206080010,78.12296905326,534.6072,-76.2000,WGS84,0.5318,0.5527,0.7706,"0",128.000,0.000,51,16,16,0,00,08,00,11*2998a7d6
#BESTPOSA,FILE,0,31.5,FINESTEERING,2319,306316.300,02000000,cdba,17139;SOL_COMPUTED,INS_RTKFIXED,17.59206100455,78.12297119464,534.6216,-76.2000,WGS84,0.5318,0.5527,0.7706,"0",128.000,0.000,51,16,16,0,00,08,00,11*857cf4d8
#BESTPOSA,FILE,0,31.5,FINESTEERING,2319,306316.350,02000000,cdba,17139;SOL_COMPUTED,INS_RTKFIXED,17.59206121617,78.12297331311,534.6353,-76.2000,WGS84,0.5318,0.5527,0.7706,"0",128.000,0.000,51,16,16,0,00,08,00,11*fed0a741
#BESTPOSA,FILE,0,31.5,FINESTEERING,2319,306316.400,02000000,cdba,17139;SOL_COMPUTED,INS_RTKFIXED,17.59206143067,78.12297540337,534.6467,-76.2000,WGS84,0.5318,0.5527,0.7706,"0",128.000,0.000,51,16,16,0,00,08,00,11*ebba096f
#BESTPOSA,FILE,0,31.5,FINESTEERING,2319,306316.450,02000000,cdba,17139;SOL_COMPUTED,INS_RTKFIXED,17.59206165372,78.12297746129,534.6564,-76.2000,WGS84,0.5318,0.5527,0.7706,"0",128.000,0.000,51,16,16,0,00,08,00,11*ae1afb51
#BESTPOSA,FILE,0,31.5,FINESTEERING,2319,306316.500,02000000,cdba,17139;SOL_COMPUTED,INS_RTKFIXED,17.59206185476,78.12297950661,534.6618,-76.2000,WGS84,0.5318,0.5527,0.7706,"0",128.000,0.000,51,16,16,0,00,08,00,11*5d4c0eca
#BESTPOSA,FILE,0,31.5,FINESTEERING,2319,306316.550,02000000,cdba,17139;SOL_COMPUTED,INS_RTKFIXED,17.59206208176,78.12298152912,534.6665,-76.2000,WGS84,0.5318,0.5527,0.7706,"0",128.000,0.000,51,16,16,0,00,08,00,11*90670b5d
#BESTPOSA,FILE,0,31.5,FINESTEERING,2319,306316.600,02000000,cdba,17139;SOL_COMPUTED,INS_RTKFIXED,17.59206231066,78.12298355350,534.6699,-76.2000,WGS84,0.5318,0.5527,0.7706,"0",128.000,0.000,51,16,16,0,00,08,00,11*b1dd8114
#BESTPOSA,FILE,0,31.5,FINESTEERING,2319,306316.650,02000000,cdba,17139;SOL_COMPUTED,INS_RTKFIXED,17.59206253923,78.12298556041,534.6723,-76.2000,WGS84,0.5318,0.5527,0.7706,"0",128.000,0.000,51,16,16,0,00,08,00,11*80f22a41
#BESTPOSA,FILE,0,31.5,FINESTEERING,2319,306316.700,02000000,cdba,17139;SOL_COMPUTED,INS_RTKFIXED,17.59206276715,78.12298757105,534.6762,-76.2000,WGS84,0.5318,0.5527,0.7706,"0",128.000,0.000,51,16,16,0,00,08,00,11*ba7cd2f3
#BESTPOSA,FILE,0,31.5,FINESTEERING,2319,306316.750,02000000,cdba,17139;SOL_COMPUTED,INS_RTKFIXED,17.59206297649,78.12298955830,534.6808,-76.2000,WGS84,0.5318,0.5527,0.7706,"0",128.000,0.000,51,16,16,0,00,08,00,11*01f4699e
#BESTPOSA,FILE,0,31.5,FINESTEERING,2319,306316.800,02000000,cdba,17139;SOL_COMPUTED,INS_RTKFIXED,17.59206314944,78.12299156041,534.6853,-76.2000,WGS84,0.5318,0.5527,0.7706,"0",128.000,0.000,51,16,16,0,00,08,00,11*32d90bb2
#BESTPOSA,FILE,0,31.5,FINESTEERING,2319,306316.850,02000000,cdba,17139;SOL_COMPUTED,INS_RTKFIXED,17.59206331555,78.12299355476,534.6921,-76.2000,WGS84,0.5318,0.5527,0.7706,"0",128.000,0.000,51,16,16,0,00,08,00,11*d9dbcc5c
#BESTPOSA,FILE,0,31.5,FINESTEERING,2319,306316.900,02000000,cdba,17139;SOL_COMPUTED,INS_RTKFIXED,17.59206346310,78.12299555881,534.6996,-76.2000,WGS84,0.5318,0.5527,0.7706,"0",128.000,0.000,51,16,16,0,00,08,00,11*d42f61b5
#BESTPOSA,FILE,0,31.5,FINESTEERING,2319,306316.950,02000000,cdba,17139;SOL_COMPUTED,INS_RTKFIXED,17.59206362351,78.12299755794,534.7100,-76.2000,WGS84,0.5318,0.5527,0.7706,"0",128.000,0.000,51,16,16,0,00,08,00,11*f6952d50
#BESTPOSA,FILE,0,31.5,FINESTEERING,2319,306317.000,02000000,cdba,17139;SOL_COMPUTED,INS_RTKFIXED,17.59206377917,78.12299955892,534.7209,-76.2000,WGS84,0.5318,0.5527,0.7706,"0",128.000,0.000,51,16,16,0,00,08,00,11*da373688
#BESTPOSA,FILE,0,31.5,FINESTEERING,2319,306317.050,02000000,cdba,17139;SOL_COMPUTED,INS_RTKFIXED,17.59206391857,78.12300155445,534.7305,-76.2000,WGS84,0.5320,0.5528,0.7719,"0",129.000,0.000,50,16,16,0,00,08,00,11*e1437dac
#BESTPOSA,FILE,0,31.5,FINESTEERING,2319,306317.100,02000000,cdba,17139;SOL_COMPUTED,INS_RTKFIXED,17.59206404501,78.12300356359,534.7368,-76.2000,WGS84,0.5320,0.5528,0.7719,"0",129.000,0.000,50,16,16,0,00,08,00,11*22ac5272
#BESTPOSA,FILE,0,31.5,FINESTEERING,2319,306317.150,02000000,cdba,17139;SOL_COMPUTED,INS_RTKFIXED,17.59206419175,78.12300555070,534.7421,-76.2000,WGS84,0.5320,0.5528,0.7719,"0",129.000,0.000,50,16,16,0,00,08,00,11*40212a1e
#BESTPOSA,FILE,0,31.5,FINESTEERING,2319,306317.200,02000000,cdba,17139;SOL_COMPUTED,INS_RTKFIXED,17.59206433643,78.12300752428,534.7448,-76.2000,WGS84,0.5320,0.5528,0.7719,"0",129.000,0.000,50,16,16,0,00,08,00,11*fb43bd2f
#BESTPOSA,FILE,0,31.5,FINESTEERING,2319,306317.250,02000000,cdba,17139;SOL_COMPUTED,INS_RTKFIXED,17.59206450018,78.12300948957,534.7489,-76.2000,WGS84,0.5320,0.5528,0.7719,"0",129.000,0.000,50,16,16,0,00,08,00,11*5c89bfd5
#BESTPOSA,FILE,0,31.5,FINESTEERING,2319,306317.300,02000000,cdba,17139;SOL_COMPUTED,INS_RTKFIXED,17.59206465345,78.12301146899,534.7531,-76.2000,WGS84,0.5320,0.5528,0.7719,"0",129.000,0.000,50,16,16,0,00,08,00,11*cfc348af
#BESTPOSA,FILE,0,31.5,FINESTEERING,2319,306317.350,02000000,cdba,17139;SOL_COMPUTED,INS_RTKFIXED,17.59206481903,78.12301344628,534.7599,-76.2000,WGS84,0.5320,0.5528,0.7719,"0",129.000,0.000,50,16,16,0,00,08,00,11*620e4c9a
#BESTPOSA,FILE,0,31.5,FINESTEERING,2319,306317.400,02000000,cdba,17139;SOL_COMPUTED,INS_RTKFIXED,17.59206498334,78.12301542840,534.7683,-76.2000,WGS84,0.5320,0.5528,0.7719,"0",129.000,0.000,50,16,16,0,00,08,00,11*8c1b2d3d
#BESTPOSA,FILE,0,31.5,FINESTEERING,2319,306317.450,02000000,cdba,17139;SOL_COMPUTED,INS_RTKFIXED,17.59206511241,78.12301741572,534.7758,-76.2000,WGS84,0.5320,0.5528,0.7719,"0",129.000,0.000,50,16,16,0,00,08,00,11*ff336407
#BESTPOSA,FILE,0,31.5,FINESTEERING,2319,306317.500,02000000,cdba,17139;SOL_COMPUTED,INS_RTKFIXED,17.59206522400,78.12301939036,534.7817,-76.2000,WGS84,0.5320,0.5528,0.7719,"0",129.000,0.000,50,16,16,0,00,08,00,11*9234f2e6
