#BESTVELA,FILE,0,28.5,FINESTEERING,2319,306304.100,02000000,10a2,17139;SOL_COMPUTED,INS_RTKFIXED,0.000,116.000,1.2642,130.238280,-0.0150,0*66b50c40
#BESTVELA,FILE,0,31.0,FINESTEERING,2319,306304.150,02000000,10a2,17139;SOL_COMPUTED,INS_RTKFIXED,0.000,116.000,1.3173,129.354160,0.0035,0*6dba3902
#BESTVELA,FILE,0,31.0,FINESTEERING,2319,306304.200,02000000,10a2,17139;SOL_COMPUTED,INS_RTKFIXED,0.000,116.000,1.3745,128.596249,0.0070,0*2b4a4f47
#BESTVELA,FILE,0,31.0,FINESTEERING,2319,306304.250,02000000,10a2,17139;SOL_COMPUTED,INS_RTKFIXED,0.000,116.000,1.4356,127.806138,0.0050,0*d6303836
#BESTVELA,FILE,0,31.0,FINESTEERING,2319,306304.300,02000000,10a2,17139;SOL_COMPUTED,INS_RTKFIXED,0.000,116.000,1.4961,126.954754,0.0039,0*4a974984
#BESTVELA,FILE,0,31.0,FINESTEERING,2319,306304.350,02000000,10a2,17139;SOL_COMPUTED,INS_RTKFIXED,0.000,116.000,1.5545,126.071079,-0.0001,0*daf449b1
#BESTVELA,FILE,0,31.0,FINESTEERING,2319,306304.400,02000000,10a2,17139;SOL_COMPUTED,INS_RTKFIXED,0.000,116.000,1.6105,125.215040,-0.0010,0*907a7ce5
#BESTVELA,FILE,0,31.0,FINESTEERING,2319,306304.450,02000000,10a2,17139;SOL_COMPUTED,INS_RTKFIXED,0.000,116.000,1.6734,124.484617,-0.0007,0*634370fb
#BESTVELA,FILE,0,31.0,FINESTEERING,2319,306304.500,02000000,10a2,17139;SOL_COMPUTED,INS_RTKFIXED,0.000,116.000,1.7280,123.401994,0.0095,0*039cc74f
#BESTVELA,FILE,0,31.0,FINESTEERING,2319,306304.550,02000000,10a2,17139;SOL_COMPUTED,INS_RTKFIXED,0.000,116.000,1.7777,122.505677,0.0165,0*52408356
#BESTVELA,FILE,0,31.0,FINESTEERING,2319,306304.600,02000000,10a2,17139;SOL_COMPUTED,INS_RTKFIXED,0.000,116.000,1.8277,121.757082,0.0132,0*4c200c17
#BESTVELA,FILE,0,31.0,FINESTEERING,2319,306304.650,02000000,10a2,17139;SOL_COMPUTED,INS_RTKFIXED,0.000,116.000,1.8706,120.932884,0.0116,0*2b9a6a1a
#BESTVELA,FILE,0,31.0,FINESTEERING,2319,306304.700,02000000,10a2,17139;SOL_COMPUTED,INS_RTKFIXED,0.000,116.000,1.9186,119.951997,0.0094,0*b6f9328b
#BESTVELA,FILE,0,31.0,FINESTEERING,2319,306304.750,02000000,10a2,17139;SOL_COMPUTED,INS_RTKFIXED,0.000,116.000,1.9635,118.884240,0.0071,0*3e9fea24
#BESTVELA,FILE,0,31.0,FINESTEERING,2319,306304.800,02000000,10a2,17139;SOL_COMPUTED,INS_RTKFIXED,0.000,116.000,2.0020,117.784562,0.0133,0*7d6b24c3
#BESTVELA,FILE,0,31.0,FINESTEERING,2319,306304.850,02000000,10a2,17139;SOL_COMPUTED,INS_RTKFIXED,0.000,116.000,2.0394,116.565613,0.0210,0*d1551974
#BESTVELA,FILE,0,31.0,FINESTEERING,2319,306304.900,02000000,10a2,17139;SOL_COMPUTED,INS_RTKFIXED,0.000,116.000,2.0747,115.633889,0.0161,0*ac2cd413
#BESTVELA,FILE,0,31.0,FINESTEERING,2319,306304.950,02000000,10a2,17139;SOL_COMPUTED,INS_RTKFIXED,0.000,116.000,2.1088,114.777386,0.0181,0*5af5b3cb
#BESTVELA,FILE,0,31.0,FINESTEERING,2319,306305.000,02000800,10a2,17139;SOL_COMPUTED,INS_RTKFIXED,0.000,116.000,2.1323,113.784758,0.0202,0*099a9c7c
#BESTVELA,FILE,0,31.0,FINESTEERING,2319,306305.050,02000800,10a2,17139;SOL_COMPUTED,INS_RTKFIXED,0.000,117.000,2.1506,113.005577,0.0192,0*937ff9c0
#BESTVELA,FILE,0,31.0,FINESTEERING,2319,306305.100,02000800,10a2,17139;SOL_COMPUTED,INS_RTKFIXED,0.000,117.000,2.1669,112.128869,0.0200,0*f71e4414
#BESTVELA,FILE,0,32.5,FINESTEERING,2319,306305.150,02000800,10a2,17139;SOL_COMPUTED,INS_RTKFIXED,0.000,117.000,2.1750,111.174118,0.0226,0*bf50e20b
#BESTVELA,FILE,0,32.5,FINESTEERING,2319,306305.200,02000800,10a2,17139;SOL_COMPUTED,INS_RTKFIXED,0.000,117.000,2.1848,110.200386,0.0266,0*1f3cb08e
#BESTVELA,FILE,0,32.5,FINESTEERING,2319,306305.250,02000800,10a2,17139;SOL_COMPUTED,INS_RTKFIXED,0.000,117.000,2.1801,109.300503,0.0265,0*5087ace3
#BESTVELA,FILE,0,32.5,FINESTEERING,2319,306305.300,02000800,10a2,17139;SOL_COMPUTED,INS_RTKFIXED,0.000,117.000,2.1735,108.380372,0.0265,0*5c863a2e
#BESTVELA,FILE,0,32.5,FINESTEERING,2319,306305.350,02000800,10a2,17139;SOL_COMPUTED,INS_RTKFIXED,0.000,117.000,2.1622,107.468380,0.0193,0*d6de6766
#BESTVELA,FILE,0,32.5,FINESTEERING,2319,306305.400,02000800,10a2,17139;SOL_COMPUTED,INS_RTKFIXED,0.000,117.000,2.1492,106.543026,0.0126,0*2156b8e4
#BESTVELA,FILE,0,32.5,FINESTEERING,2319,306305.450,02000800,10a2,17139;SOL_COMPUTED,INS_RTKFIXED,0.000,117.000,2.1328,105.543466,0.0089,0*809ae378
#BESTVELA,FILE,0,32.5,FINESTEERING,2319,306305.500,02000800,10a2,17139;SOL_COMPUTED,INS_RTKFIXED,0.000,117.000,2.1220,104.603154,0.0065,0*91a68b16
#BESTVELA,FILE,0,32.5,FINESTEERING,2319,306305.550,02000800,10a2,17139;SOL_COMPUTED,INS_RTKFIXED,0.000,117.000,2.1087,103.654623,0.0057,0*da746445
#BESTVELA,FILE,0,32.5,FINESTEERING,2319,306305.600,02000800,10a2,17139;SOL_COMPUTED,INS_RTKFIXED,0.000,117.000,2.0990,102.689181,0.0068,0*93cb9aa2
#BESTVELA,FILE,0,32.5,FINESTEERING,2319,306305.650,02000800,10a2,17139;SOL_COMPUTED,INS_RTKFIXED,0.000,117.000,2.0944,101.738543,0.0123,0*9735d8b7
#BESTVELA,FILE,0,32.5,FINESTEERING,2319,306305.700,02000800,10a2,17139;SOL_COMPUTED,INS_RTKFIXED,0.000,117.000,2.0847,100.851339,0.0155,0*5fe47737
#BESTVELA,FILE,0,32.5,FINESTEERING,2319,306305.750,02000800,10a2,17139;SOL_COMPUTED,INS_RTKFIXED,0.000,117.000,2.0781,99.947188,0.0218,0*9dc2614f
#BESTVELA,FILE,0,32.5,FINESTEERING,2319,306305.800,02000800,10a2,17139;SOL_COMPUTED,INS_RTKFIXED,0.000,117.000,2.0660,99.327007,0.0174,0*bb572611
#BESTVELA,FILE,0,32.5,FINESTEERING,2319,306305.850,02000800,10a2,17139;SOL_COMPUTED,INS_RTKFIXED,0.000,117.000,2.0647,98.818521,0.0119,0*8f570089
#BESTVELA,FILE,0,32.5,FINESTEERING,2319,306305.900,02000800,10a2,17139;SOL_COMPUTED,INS_RTKFIXED,0.000,117.000,2.0514,98.096000,0.0087,0*40f5544c
#BESTVELA,FILE,0,32.5,FINESTEERING,2319,306305.950,02000800,10a2,17139;SOL_COMPUTED,INS_RTKFIXED,0.000,117.000,2.0419,97.367617,0.0079,0*f04230c7
#BESTVELA,FILE,0,32.5,FINESTEERING,2319,306306.000,02000800,10a2,17139;SOL_COMPUTED,INS_RTKFIXED,0.000,117.000,2.0362,96.644082,0.0117,0*fd411cd2
#BESTVELA,FILE,0,32.5,FINESTEERING,2319,306306.050,02000800,10a2,17139;SOL_COMPUTED,INS_RTKFIXED,0.000,118.000,2.0315,95.955960,0.0067,0*d5ddfed3
#BESTVELA,FILE,0,31.0,FINESTEERING,2319,306306.100,02000800,10a2,17139;SOL_COMPUTED,INS_RTKFIXED,0.000,118.000,2.0452,95.634487,-0.0117,0*a53dc420
#BESTVELA,FILE,0,31.0,FINESTEERING,2319,306306.150,02000800,10a2,17139;SOL_COMPUTED,INS_RTKFIXED,0.000,118.000,2.0604,95.130581,-0.0125,0*1ae4270e
#BESTVELA,FILE,0,31.0,FINESTEERING,2319,306306.200,02000800,10a2,17139;SOL_COMPUTED,INS_RTKFIXED,0.000,118.000,2.0662,94.524164,-0.0125,0*8c07413e
#BESTVELA,FILE,0,31.0,FINESTEERING,2319,306306.250,02000800,10a2,17139;SOL_COMPUTED,INS_RTKFIXED,0.000,118.000,2.0949,94.240834,-0.0161,0*f4f5e4a5
#BESTVELA,FILE,0,31.0,FINESTEERING,2319,306306.300,02000800,10a2,17139;SOL_COMPUTED,INS_RTKFIXED,0.000,118.000,2.1263,92.838354,0.0009,0*e9895a32
#BESTVELA,FILE,0,31.0,FINESTEERING,2319,306306.350,02000800,10a2,17139;SOL_COMPUTED,INS_RTKFIXED,0.000,118.000,2.1407,91.870332,0.0166,0*16c00cb6
#BESTVELA,FILE,0,31.0,FINESTEERING,2319,306306.400,02000800,10a2,17139;SOL_COMPUTED,INS_RTKFIXED,0.000,118.000,2.1706,91.206323,0.0243,0*19b33e30
#BESTVELA,FILE,0,31.0,FINESTEERING,2319,306306.450,02000800,10a2,17139;SOL_COMPUTED,INS_RTKFIXED,0.000,118.000,2.1947,90.770058,0.0250,0*1b88f61c
#BESTVELA,FILE,0,31.0,FINESTEERING,2319,306306.500,02000800,10a2,17139;SOL_COMPUTED,INS_RTKFIXED,0.000,118.000,2.2258,90.679750,0.0224,0*7a715c74
#BESTVELA,FILE,0,31.0,FINESTEERING,2319,306306.550,02000800,10a2,17139;SOL_COMPUTED,INS_RTKFIXED,0.000,118.000,2.2533,90.483790,0.0122,0*853c6552
#BESTVELA,FILE,0,31.0,FINESTEERING,2319,306306.600,02000800,10a2,17139;SOL_COMPUTED,INS_RTKFIXED,0.000,118.000,2.2730,90.418112,0.0079,0*655fdba4
#BESTVELA,FILE,0,31.0,FINESTEERING,2319,306306.650,02000800,10a2,17139;SOL_COMPUTED,INS_RTKFIXED,0.000,118.000,2.3124,90.068578,-0.0027,0*a3e45d57
#BESTVELA,FILE,0,31.0,FINESTEERING,2319,306306.700,02000800,10a2,17139;SOL_COMPUTED,INS_RTKFIXED,0.000,118.000,2.3372,89.822336,-0.0040,0*ea75a8d1
#BESTVELA,FILE,0,31.0,FINESTEERING,2319,306306.750,02000800,10a2,17139;SOL_COMPUTED,INS_RTKFIXED,0.000,118.000,2.3947,89.814528,-0.0276,0*70ccd6d5
#BESTVELA,FILE,0,31.0,FINESTEERING,2319,306306.800,02000800,10a2,17139;SOL_COMPUTED,INS_RTKFIXED,0.000,118.000,2.4210,88.519071,-0.0094,0*bd9995d2
#BESTVELA,FILE,0,31.0,FINESTEERING,2319,306306.850,02000800,10a2,17139;SOL_COMPUTED,INS_RTKFIXED,0.000,118.000,2.4793,87.747348,0.0005,0*42bff1d2
#BESTVELA,FILE,0,31.0,FINESTEERING,2319,306306.900,02000800,10a2,17139;SOL_COMPUTED,INS_RTKFIXED,0.000,118.000,2.5228,86.757400,0.0098,0*f1a9d38a
#BESTVELA,FILE,0,31.0,FINESTEERING,2319,306306.950,02000800,10a2,17139;SOL_COMPUTED,INS_RTKFIXED,0.000,118.000,2.5790,86.078323,0.0167,0*5e359c45
#BESTVELA,FILE,0,31.0,FINESTEERING,2319,306307.000,02000800,10a2,17139;SOL_COMPUTED,INS_RTKFIXED,0.000,118.000,2.6272,85.452389,0.0159,0*75ecf6ad
#BESTVELA,FILE,0,31.0,FINESTEERING,2319,306307.050,02000800,10a2,17139;SOL_COMPUTED,INS_RTKFIXED,0.000,119.000,2.6882,85.332082,0.0143,0*2a3a9ff6
#BESTVELA,FILE,0,22.5,FINESTEERING,2319,306307.100,02000800,10a2,17139;SOL_COMPUTED,INS_RTKFIXED,0.000,119.000,2.7608,85.006336,0.0098,0*b7cf021d
#BESTVELA,FILE,0,22.5,FINESTEERING,2319,306307.150,02000800,10a2,17139;SOL_COMPUTED,INS_RTKFIXED,0.000,119.000,2.8195,84.573274,0.0046,0*607073b0
#BESTVELA,FILE,0,22.5,FINESTEERING,2319,306307.200,02000800,10a2,17139;SOL_COMPUTED,INS_RTKFIXED,0.000,119.000,2.8920,84.443800,-0.0027,0*ff0f780d
#BESTVELA,FILE,0,22.5,FINESTEERING,2319,306307.250,02000000,10a2,17139;SOL_COMPUTED,INS_RTKFIXED,0.000,119.000,2.9655,83.926101,-0.0006,0*b46d3002
#BESTVELA,FILE,0,22.5,FINESTEERING,2319,306307.300,02000000,10a2,17139;SOL_COMPUTED,INS_RTKFIXED,0.000,119.000,3.0374,82.956491,0.0352,0*1aa8b2f3
#BESTVELA,FILE,0,22.5,FINESTEERING,2319,306307.350,02000000,10a2,17139;SOL_COMPUTED,INS_RTKFIXED,0.000,119.000,3.0819,82.968058,0.0268,0*5892fc75
#BESTVELA,FILE,0,22.5,FINESTEERING,2319,306307.400,02000000,10a2,17139;SOL_COMPUTED,INS_RTKFIXED,0.000,119.000,3.1350,82.845949,0.0433,0*856d074c
#BESTVELA,FILE,0,22.5,FINESTEERING,2319,306307.450,02000000,10a2,17139;SOL_COMPUTED,INS_RTKFIXED,0.000,119.000,3.2294,82.929351,0.0313,0*b5239872
#BESTVELA,FILE,0,22.5,FINESTEERING,2319,306307.500,02000000,10a2,17139;SOL_COMPUTED,INS_RTKFIXED,0.000,119.000,3.2896,82.863588,0.0486,0*d434a243
#BESTVELA,FILE,0,22.5,FINESTEERING,2319,306307.550,02000000,10a2,17139;SOL_COMPUTED,INS_RTKFIXED,0.000,119.000,3.3566,82.749236,0.0566,0*394f19a8
#BESTVELA,FILE,0,22.5,FINESTEERING,2319,306307.600,02000000,10a2,17139;SOL_COMPUTED,INS_RTKFIXED,0.000,119.000,3.4029,83.391182,0.0279,0*a94bde68
#BESTVELA,FILE,0,22.5,FINESTEERING,2319,306307.650,02000000,10a2,17139;SOL_COMPUTED,INS_RTKFIXED,0.000,119.000,3.4506,83.020581,0.0377,0*f5243a1f
#BESTVELA,FILE,0,22.5,FINESTEERING,2319,306307.700,02000000,10a2,17139;SOL_COMPUTED,INS_RTKFIXED,0.000,119.000,3.5037,82.174414,0.0373,0*f7b59838
#BESTVELA,FILE,0,22.5,FINESTEERING,2319,306307.750,02000000,10a2,17139;SOL_COMPUTED,INS_RTKFIXED,0.000,119.000,3.5617,81.917422,0.0487,0*128c6f5e
#BESTVELA,FILE,0,22.5,FINESTEERING,2319,306307.800,02000000,10a2,17139;SOL_COMPUTED,INS_RTKFIXED,0.000,119.000,3.5959,82.434461,0.0282,0*47264ee4
#BESTVELA,FILE,0,22.5,FINESTEERING,2319,306307.850,02000000,10a2,17139;SOL_COMPUTED,INS_RTKFIXED,0.000,119.000,3.6487,82.973923,0.0264,0*f7815f8e
#BESTVELA,FILE,0,22.5,FINESTEERING,2319,306307.900,02000000,10a2,17139;SOL_COMPUTED,INS_RTKFIXED,0.000,119.000,3.7102,83.140631,0.0240,0*0df5264d
#BESTVELA,FILE,0,22.5,FINESTEERING,2319,306307.950,02000000,10a2,17139;SOL_COMPUTED,INS_RTKFIXED,0.000,119.000,3.7370,83.379846,0.0222,0*0466b9d1
#BESTVELA,FILE,0,22.5,FINESTEERING,2319,306308.000,02000000,10a2,17139;SOL_COMPUTED,INS_RTKFIXED,0.000,119.000,3.8123,83.476934,0.0290,0*18dc5941
#BESTVELA,FILE,0,22.5,FINESTEERING,2319,306308.050,02000000,10a2,17139;SOL_COMPUTED,INS_RTKFIXED,0.000,120.000,3.8586,82.876873,0.0611,0*f7a278a4
#BESTVELA,FILE,0,22.5,FINESTEERING,2319,306308.100,02000000,10a2,17139;SOL_COMPUTED,INS_RTKFIXED,0.000,120.000,3.8662,82.288550,0.0690,0*c69ab51d
#BESTVELA,FILE,0,30.5,FINESTEERING,2319,306308.150,02000000,10a2,17139;SOL_COMPUTED,INS_RTKFIXED,0.000,120.000,3.9352,82.538966,0.0217,0*c0049d20
#BESTVELA,FILE,0,30.5,FINESTEERING,2319,306308.200,02000000,10a2,17139;SOL_COMPUTED,INS_RTKFIXED,0.000,120.000,3.9731,82.144028,0.0533,0*e3462d37
#BESTVELA,FILE,0,30.5,FINESTEERING,2319,306308.250,02000000,10a2,17139;SOL_COMPUTED,INS_RTKFIXED,0.000,120.000,4.0334,82.485293,0.0488,0*077c0011
#BESTVELA,FILE,0,30.5,FINESTEERING,2319,306308.300,02000000,10a2,17139;SOL_COMPUTED,INS_RTKFIXED,0.000,120.000,4.0893,82.375132,0.0262,0*c5c67b9e
#BESTVELA,FILE,0,30.5,FINESTEERING,2319,306308.350,02000000,10a2,17139;SOL_COMPUTED,INS_RTKFIXED,0.000,120.000,4.1235,82.661858,0.0315,0*f6e5d7d4
#BESTVELA,FILE,0,30.5,FINESTEERING,2319,306308.400,02000000,10a2,17139;SOL_COMPUTED,INS_RTKFIXED,0.000,120.000,4.1857,83.139578,0.0372,0*4d80abf4
#BESTVELA,FILE,0,30.5,FINESTEERING,2319,306308.450,02000000,10a2,17139;SOL_COMPUTED,INS_RTKFIXED,0.000,120.000,4.2411,83.369991,0.0435,0*24bd1fe8
#BESTVELA,FILE,0,30.5,FINESTEERING,2319,306308.500,02000000,10a2,17139;SOL_COMPUTED,INS_RTKFIXED,0.000,120.000,4.2657,83.782231,0.0604,0*770ea9c1
#BESTVELA,FILE,0,30.5,FINESTEERING,2319,306308.550,02000000,10a2,17139;SOL_COMPUTED,INS_RTKFIXED,0.000,120.000,4.3322,84.121164,0.0288,0*826350ff
#BESTVELA,FILE,0,30.5,FINESTEERING,2319,306308.600,02000000,10a2,17139;SOL_COMPUTED,INS_RTKFIXED,0.000,120.000,4.3664,83.812548,0.0607,0*cda06fe6
#BESTVELA,FILE,0,30.5,FINESTEERING,2319,306308.650,02000000,10a2,17139;SOL_COMPUTED,INS_RTKFIXED,0.000,120.000,4.4005,83.249994,0.0937,0*c931899b
#BESTVELA,FILE,0,30.5,FINESTEERING,2319,306308.700,02000000,10a2,17139;SOL_COMPUTED,INS_RTKFIXED,0.000,120.000,4.4505,83.057542,0.1477,0*8564d13a
#BESTVELA,FILE,0,30.5,FINESTEERING,2319,306308.750,02000000,10a2,17139;SOL_COMPUTED,INS_RTKFIXED,0.000,120.000,4.4633,82.928150,0.1086,0*49b5468a
#BESTVELA,FILE,0,30.5,FINESTEERING,2319,306308.800,02000000,10a2,17139;SOL_COMPUTED,INS_RTKFIXED,0.000,120.000,4.4761,83.060601,0.0775,0*c13bd4f7
#BESTVELA,FILE,0,30.5,FINESTEERING,2319,306308.850,02000000,10a2,17139;SOL_COMPUTED,INS_RTKFIXED,0.000,120.000,4.5486,82.978029,0.0439,0*d19cf17d
#BESTVELA,FILE,0,30.5,FINESTEERING,2319,306308.900,02000000,10a2,17139;SOL_COMPUTED,INS_RTKFIXED,0.000,120.000,4.5991,82.737349,0.0340,0*86f783ca
#BESTVELA,FILE,0,30.5,FINESTEERING,2319,306308.950,02000000,10a2,17139;SOL_COMPUTED,INS_RTKFIXED,0.000,120.000,4.6409,83.046605,-0.0046,0*323a38aa
#BESTVELA,FILE,0,30.5,FINESTEERING,2319,306309.000,02000000,10a2,17139;SOL_COMPUTED,INS_RTKFIXED,0.000,120.000,4.6616,83.624110,-0.0299,0*a9bf38b8
#BESTVELA,FILE,0,30.5,FINESTEERING,2319,306309.050,02000000,10a2,17139;SOL_COMPUTED,INS_RTKFIXED,0.000,121.000,4.6949,83.830113,-0.0433,0*f21817d6
#BESTVELA,FILE,0,29.5,FINESTEERING,2319,306309.100,02000000,10a2,17139;SOL_COMPUTED,INS_RTKFIXED,0.000,121.000,4.7413,83.762390,-0.0017,0*4ce2178f
#BESTVELA,FILE,0,29.5,FINESTEERING,2319,306309.150,02000000,10a2,17139;SOL_COMPUTED,INS_RTKFIXED,0.000,121.000,4.7799,84.098504,0.0301,0*4aee6c3c
#BESTVELA,FILE,0,29.5,FINESTEERING,2319,306309.200,02000000,10a2,17139;SOL_COMPUTED,INS_RTKFIXED,0.000,121.000,4.8237,83.983779,0.0572,0*dc459da1
#BESTVELA,FILE,0,29.5,FINESTEERING,2319,306309.250,02000000,10a2,17139;SOL_COMPUTED,INS_RTKFIXED,0.000,121.000,4.8575,83.437363,0.1250,0*c4defbbb
#BESTVELA,FILE,0,29.5,FINESTEERING,2319,306309.300,02000000,10a2,17139;SOL_COMPUTED,INS_RTKFIXED,0.000,121.000,4.8968,82.884927,0.2054,0*27d34f33
#BESTVELA,FILE,0,29.5,FINESTEERING,2319,306309.350,02000000,10a2,17139;SOL_COMPUTED,INS_RTKFIXED,0.000,121.000,4.9638,83.583520,0.0614,0*925f7ead
#BESTVELA,FILE,0,29.5,FINESTEERING,2319,306309.400,02000000,10a2,17139;SOL_COMPUTED,INS_RTKFIXED,0.000,121.000,4.9835,83.897235,0.0179,0*b6cd783d
#BESTVELA,FILE,0,29.5,FINESTEERING,2319,306309.450,02000000,10a2,17139;SOL_COMPUTED,INS_RTKFIXED,0.000,121.000,4.9767,83.829558,-0.0564,0*daa10272
#BESTVELA,FILE,0,29.5,FINESTEERING,2319,306309.500,02000000,10a2,17139;SOL_COMPUTED,INS_RTKFIXED,0.000,121.000,4.9823,83.948551,-0.0383,0*2e42aa51
#BESTVELA,FILE,0,29.5,FINESTEERING,2319,306309.550,02000000,10a2,17139;SOL_COMPUTED,INS_RTKFIXED,0.000,121.000,5.0162,84.217530,-0.0597,0*2dda5a47
#BESTVELA,FILE,0,29.5,FINESTEERING,2319,306309.600,02000000,10a2,17139;SOL_COMPUTED,INS_RTKFIXED,0.000,121.000,5.0728,84.166048,-0.0018,0*76f930fa
#BESTVELA,FILE,0,29.5,FINESTEERING,2319,306309.650,02000000,10a2,17139;SOL_COMPUTED,INS_RTKFIXED,0.000,121.000,5.1218,83.652069,0.0240,0*ca9df0c0
#BESTVELA,FILE,0,29.5,FINESTEERING,2319,306309.700,02000000,10a2,17139;SOL_COMPUTED,INS_RTKFIXED,0.000,121.000,5.1929,83.412645,0.1168,0*d7e333f2
#BESTVELA,FILE,0,29.5,FINESTEERING,2319,306309.750,02000000,10a2,17139;SOL_COMPUTED,INS_RTKFIXED,0.000,121.000,5.2413,83.550723,0.1860,0*1160b3f4
#BESTVELA,FILE,0,29.5,FINESTEERING,2319,306309.800,02000000,10a2,17139;SOL_COMPUTED,INS_RTKFIXED,0.000,121.000,5.2966,84.480836,0.1570,0*392fc3ad
#BESTVELA,FILE,0,29.5,FINESTEERING,2319,306309.850,02000000,10a2,17139;SOL_COMPUTED,INS_RTKFIXED,0.000,121.000,5.2940,84.520113,0.0736,0*f83a137e
#BESTVELA,FILE,0,29.5,FINESTEERING,2319,306309.900,02000000,10a2,17139;SOL_COMPUTED,INS_RTKFIXED,0.000,121.000,5.3611,84.917103,0.0606,0*4ab68dc4
#BESTVELA,FILE,0,29.5,FINESTEERING,2319,306309.950,02000000,10a2,17139;SOL_COMPUTED,INS_RTKFIXED,0.000,121.000,5.3719,84.368999,0.1084,0*de19515f
#BESTVELA,FILE,0,29.5,FINESTEERING,2319,306310.000,02000000,10a2,17139;SOL_COMPUTED,INS_RTKFIXED,0.000,121.000,5.4307,84.790516,0.0625,0*d4c8a3a7
#BESTVELA,FILE,0,29.5,FINESTEERING,2319,306310.050,02000800,10a2,17139;SOL_COMPUTED,INS_RTKFIXED,0.000,122.000,5.4441,84.665592,0.0720,0*7cbde507
#BESTVELA,FILE,0,29.5,FINESTEERING,2319,306310.100,02000800,10a2,17139;SOL_COMPUTED,INS_RTKFIXED,0.000,122.000,5.4653,84.344669,0.0911,0*0fdadffb
#BESTVELA,FILE,0,29.5,FINESTEERING,2319,306310.150,02000800,10a2,17139;SOL_COMPUTED,INS_RTKFIXED,0.000,122.000,5.4898,84.109599,0.0213,0*7484c64f
#BESTVELA,FILE,0,29.5,FINESTEERING,2319,306310.200,02000800,10a2,17139;SOL_COMPUTED,INS_RTKFIXED,0.000,122.000,5.4649,83.561353,0.1284,0*44547bc9
#BESTVELA,FILE,0,29.5,FINESTEERING,2319,306310.250,02000800,10a2,17139;SOL_COMPUTED,INS_RTKFIXED,0.000,122.000,5.5067,82.692234,0.1124,0*471f9158
#BESTVELA,FILE,0,29.5,FINESTEERING,2319,306310.300,02000800,10a2,17139;SOL_COMPUTED,INS_RTKFIXED,0.000,122.000,5.5484,83.431389,0.0737,0*230433b3
#BESTVELA,FILE,0,29.5,FINESTEERING,2319,306310.350,02000800,10a2,17139;SOL_COMPUTED,INS_RTKFIXED,0.000,122.000,5.4352,83.043376,0.0084,0*a884aa76
#BESTVELA,FILE,0,29.5,FINESTEERING,2319,306310.400,02000800,10a2,17139;SOL_COMPUTED,INS_RTKFIXED,0.000,122.000,5.4712,83.980485,-0.0144,0*a037d04a
#BESTVELA,FILE,0,29.5,FINESTEERING,2319,306310.450,02000800,10a2,17139;SOL_COMPUTED,INS_RTKFIXED,0.000,122.000,5.5378,84.671831,-0.0214,0*30f930bc
#BESTVELA,FILE,0,29.5,FINESTEERING,2319,306310.500,02000800,10a2,17139;SOL_COMPUTED,INS_RTKFIXED,0.000,122.000,5.5469,85.053204,-0.0589,0*0c4417be
#BESTVELA,FILE,0,29.5,FINESTEERING,2319,306310.550,02000800,10a2,17139;SOL_COMPUTED,INS_RTKFIXED,0.000,122.000,5.5448,83.972873,0.0085,0*5ce5d87f
#BESTVELA,FILE,0,29.5,FINESTEERING,2319,306310.600,02000800,10a2,17139;SOL_COMPUTED,INS_RTKFIXED,0.000,122.000,5.6214,84.546631,-0.0102,0*d8a288a7
#BESTVELA,FILE,0,29.5,FINESTEERING,2319,306310.650,02000800,10a2,17139;SOL_COMPUTED,INS_RTKFIXED,0.000,122.000,5.6424,84.167598,0.0422,0*673f0c60
#BESTVELA,FILE,0,29.5,FINESTEERING,2319,306310.700,02000800,10a2,17139;SOL_COMPUTED,INS_RTKFIXED,0.000,122.000,5.6847,83.901770,0.1855,0*e046338a
#BESTVELA,FILE,0,29.5,FINESTEERING,2319,306310.750,02000800,10a2,17139;SOL_COMPUTED,INS_RTKFIXED,0.000,122.000,5.7429,83.677040,0.2257,0*11c9cbac
#BESTVELA,FILE,0,29.5,FINESTEERING,2319,306310.800,02000800,10a2,17139;SOL_COMPUTED,INS_RTKFIXED,0.000,122.000,5.7741,84.340263,0.2028,0*411fec65
#BESTVELA,FILE,0,29.5,FINESTEERING,2319,306310.850,02000800,10a2,17139;SOL_COMPUTED,INS_RTKFIXED,0.000,122.000,5.7489,84.513638,0.1434,0*52860492
#BESTVELA,FILE,0,29.5,FINESTEERING,2319,306310.900,02000800,10a2,17139;SOL_COMPUTED,INS_RTKFIXED,0.000,122.000,5.7183,84.769007,0.1455,0*adee8028
#BESTVELA,FILE,0,29.5,FINESTEERING,2319,306310.950,02000800,10a2,17139;SOL_COMPUTED,INS_RTKFIXED,0.000,122.000,5.7855,84.335591,0.1730,0*e243d392
#BESTVELA,FILE,0,29.5,FINESTEERING,2319,306311.000,02000800,10a2,17139;SOL_COMPUTED,INS_RTKFIXED,0.000,122.000,5.7355,84.425975,0.1190,0*3ad96d6b
#BESTVELA,FILE,0,29.5,FINESTEERING,2319,306311.050,02000800,10a2,17139;SOL_COMPUTED,INS_RTKFIXED,0.000,123.000,5.7564,84.050242,0.0878,0*5ba53a3a
#BESTVELA,FILE,0,29.5,FINESTEERING,2319,306311.100,02000800,10a2,17139;SOL_COMPUTED,INS_RTKFIXED,0.000,123.000,5.7977,84.396942,0.1262,0*e791ebea
#BESTVELA,FILE,0,30.5,FINESTEERING,2319,306311.150,02000000,10a2,17139;SOL_COMPUTED,INS_RTKFIXED,0.000,123.000,5.8385,84.283892,0.1241,0*63517a75
#BESTVELA,FILE,0,30.5,FINESTEERING,2319,306311.200,02000000,10a2,17139;SOL_COMPUTED,INS_RTKFIXED,0.000,123.000,5.8957,84.296306,0.1787,0*ec179160
#BESTVELA,FILE,0,30.5,FINESTEERING,2319,306311.250,02000000,10a2,17139;SOL_COMPUTED,INS_RTKFIXED,0.000,123.000,5.9833,84.557904,0.2653,0*c70acb26
#BESTVELA,FILE,0,30.5,FINESTEERING,2319,306311.300,02000000,10a2,17139;SOL_COMPUTED,INS_RTKFIXED,0.000,123.000,6.0515,85.286063,0.2513,0*6554f1f0
#BESTVELA,FILE,0,30.5,FINESTEERING,2319,306311.350,02000000,10a2,17139;SOL_COMPUTED,INS_RTKFIXED,0.000,123.000,6.0555,85.054559,0.2492,0*34590546
#BESTVELA,FILE,0,30.5,FINESTEERING,2319,306311.400,02000000,10a2,17139;SOL_COMPUTED,INS_RTKFIXED,0.000,123.000,6.0845,85.023746,0.3061,0*cdd552fd
#BESTVELA,FILE,0,30.5,FINESTEERING,2319,306311.450,02000000,10a2,17139;SOL_COMPUTED,INS_RTKFIXED,0.000,123.000,6.1296,85.243102,0.1792,0*b6eaa527
#BESTVELA,FILE,0,30.5,FINESTEERING,2319,306311.500,02000000,10a2,17139;SOL_COMPUTED,INS_RTKFIXED,0.000,123.000,6.0443,85.289772,0.1993,0*03f0dbb5
#BESTVELA,FILE,0,30.5,FINESTEERING,2319,306311.550,02000000,10a2,17139;SOL_COMPUTED,INS_RTKFIXED,0.000,123.000,6.0906,85.201377,0.0970,0*be589742
#BESTVELA,FILE,0,30.5,FINESTEERING,2319,306311.600,02000000,10a2,17139;SOL_COMPUTED,INS_RTKFIXED,0.000,123.000,5.9727,85.657953,-0.0273,0*6b5409b1
#BESTVELA,FILE,0,30.5,FINESTEERING,2319,306311.650,02000000,10a2,17139;SOL_COMPUTED,INS_RTKFIXED,0.000,123.000,5.9188,84.870522,-0.0746,0*838df056
#BESTVELA,FILE,0,30.5,FINESTEERING,2319,306311.700,02000000,10a2,17139;SOL_COMPUTED,INS_RTKFIXED,0.000,123.000,5.8609,85.095392,-0.1255,0*0393e35b
#BESTVELA,FILE,0,30.5,FINESTEERING,2319,306311.750,02000000,10a2,17139;SOL_COMPUTED,INS_RTKFIXED,0.000,123.000,5.8825,85.152508,-0.1476,0*aebb67ac
#BESTVELA,FILE,0,30.5,FINESTEERING,2319,306311.800,02000000,10a2,17139;SOL_COMPUTED,INS_RTKFIXED,0.000,123.000,5.8550,85.276636,-0.1290,0*28c2c662
#BESTVELA,FILE,0,30.5,FINESTEERING,2319,306311.850,02000000,10a2,17139;SOL_COMPUTED,INS_RTKFIXED,0.000,123.000,5.8862,85.110246,-0.0564,0*2093a047
#BESTVELA,FILE,0,30.5,FINESTEERING,2319,306311.900,02000000,10a2,17139;SOL_COMPUTED,INS_RTKFIXED,0.000,123.000,5.9572,85.003698,0.0284,0*060964a7
#BESTVELA,FILE,0,30.5,FINESTEERING,2319,306311.950,02000000,10a2,17139;SOL_COMPUTED,INS_RTKFIXED,0.000,123.000,6.0109,84.667437,0.1309,0*255379b4
#BESTVELA,FILE,0,30.5,FINESTEERING,2319,306312.000,02000000,10a2,17139;SOL_COMPUTED,INS_RTKFIXED,0.000,123.000,6.0099,84.339778,0.2687,0*c9859097
#BESTVELA,FILE,0,30.5,FINESTEERING,2319,306312.050,02000000,10a2,17139;SOL_COMPUTED,INS_RTKFIXED,0.000,124.000,6.1186,85.060250,0.3501,0*56bdaf85
#BESTVELA,FILE,0,30.5,FINESTEERING,2319,306312.100,02000000,10a2,17139;SOL_COMPUTED,INS_RTKFIXED,0.000,124.000,6.1096,84.792136,0.3760,0*8fe180f4
#BESTVELA,FILE,0,30.5,FINESTEERING,2319,306312.150,02000000,10a2,17139;SOL_COMPUTED,INS_RTKFIXED,0.000,124.000,6.1499,85.514902,0.3579,0*9b4a09df
#BESTVELA,FILE,0,30.5,FINESTEERING,2319,306312.200,02000000,10a2,17139;SOL_COMPUTED,INS_RTKFIXED,0.000,124.000,6.0851,85.513976,0.3693,0*c7a56e44
#BESTVELA,FILE,0,30.5,FINESTEERING,2319,306312.250,02000000,10a2,17139;SOL_COMPUTED,INS_RTKFIXED,0.000,124.000,6.0681,85.806255,0.3102,0*076a8da3
#BESTVELA,FILE,0,30.5,FINESTEERING,2319,306312.300,02000000,10a2,17139;SOL_COMPUTED,INS_RTKFIXED,0.000,124.000,6.0227,85.445996,0.2160,0*35dc1725
#BESTVELA,FILE,0,30.5,FINESTEERING,2319,306312.350,02000000,10a2,17139;SOL_COMPUTED,INS_RTKFIXED,0.000,124.000,5.9467,85.027163,0.2211,0*92d8c23f
#BESTVELA,FILE,0,30.5,FINESTEERING,2319,306312.400,02000000,10a2,17139;SOL_COMPUTED,INS_RTKFIXED,0.000,124.000,5.9881,85.652297,0.1651,0*5f5086cb
#BESTVELA,FILE,0,30.5,FINESTEERING,2319,306312.450,02000000,10a2,17139;SOL_COMPUTED,INS_RTKFIXED,0.000,124.000,5.9734,85.948678,0.1268,0*9e4a96a5
#BESTVELA,FILE,0,30.5,FINESTEERING,2319,306312.500,02000000,10a2,17139;SOL_COMPUTED,INS_RTKFIXED,0.000,124.000,5.9499,85.395073,0.2041,0*be40d719
#BESTVELA,FILE,0,30.5,FINESTEERING,2319,306312.550,02000000,10a2,17139;SOL_COMPUTED,INS_RTKFIXED,0.000,124.000,6.0314,85.286239,0.1994,0*9867b672
#BESTVELA,FILE,0,30.5,FINESTEERING,2319,306312.600,02000000,10a2,17139;SOL_COMPUTED,INS_RTKFIXED,0.000,124.000,5.9963,85.351715,0.2703,0*be77a848
#BESTVELA,FILE,0,30.5,FINESTEERING,2319,306312.650,02000000,10a2,17139;SOL_COMPUTED,INS_RTKFIXED,0.000,124.000,6.0314,85.617154,0.2986,0*9ae611ea
#BESTVELA,FILE,0,30.5,FINESTEERING,2319,306312.700,02000000,10a2,17139;SOL_COMPUTED,INS_RTKFIXED,0.000,124.000,5.9937,85.639762,0.2720,0*eb6bf7c4
#BESTVELA,FILE,0,30.5,FINESTEERING,2319,306312.750,02000000,10a2,17139;SOL_COMPUTED,INS_RTKFIXED,0.000,124.000,5.9198,85.507402,0.3092,0*9908c0a9
#BESTVELA,FILE,0,30.5,FINESTEERING,2319,306312.800,02000000,10a2,17139;SOL_COMPUTED,INS_RTKFIXED,0.000,124.000,5.9831,85.888361,0.1676,0*17eec515
#BESTVELA,FILE,0,30.5,FINESTEERING,2319,306312.850,02000000,10a2,17139;SOL_COMPUTED,INS_RTKFIXED,0.000,124.000,5.7762,85.887784,0.0191,0*dbe928d1
#BESTVELA,FILE,0,30.5,FINESTEERING,2319,306312.900,02000000,10a2,17139;SOL_COMPUTED,INS_RTKFIXED,0.000,124.000,5.6792,84.952913,-0.0406,0*4ed8dea2
#BESTVELA,FILE,0,30.5,FINESTEERING,2319,306312.950,02000000,10a2,17139;SOL_COMPUTED,INS_RTKFIXED,0.000,124.000,5.5572,85.042384,-0.1480,0*1024a811
#BESTVELA,FILE,0,30.5,FINESTEERING,2319,306313.000,02000000,10a2,17139;SOL_COMPUTED,INS_RTKFIXED,0.000,124.000,5.5525,85.138146,-0.1872,0*df659ef0
#BESTVELA,FILE,0,30.5,FINESTEERING,2319,306313.050,02000000,10a2,17139;SOL_COMPUTED,INS_RTKFIXED,0.000,125.000,5.5108,85.329074,-0.1901,0*741fa2ea
#BESTVELA,FILE,0,30.5,FINESTEERING,2319,306313.100,02000000,10a2,17139;SOL_COMPUTED,INS_RTKFIXED,0.000,125.000,5.5623,85.545740,-0.1431,0*b52e7289
#BESTVELA,FILE,0,31.0,FINESTEERING,2319,306313.150,02000000,10a2,17139;SOL_COMPUTED,INS_RTKFIXED,0.000,125.000,5.5926,85.423456,-0.0706,0*52bf61f5
#BESTVELA,FILE,0,31.0,FINESTEERING,2319,306313.200,02000000,10a2,17139;SOL_COMPUTED,INS_RTKFIXED,0.000,125.000,5.6434,85.432814,0.0052,0*6cc0caf6
#BESTVELA,FILE,0,31.0,FINESTEERING,2319,306313.250,02000000,10a2,17139;SOL_COMPUTED,INS_RTKFIXED,0.000,125.000,5.6750,86.024701,0.0977,0*2e2404bd
#BESTVELA,FILE,0,31.0,FINESTEERING,2319,306313.300,02000000,10a2,17139;SOL_COMPUTED,INS_RTKFIXED,0.000,125.000,5.7220,85.213896,0.2832,0*c8ae3259
#BESTVELA,FILE,0,31.0,FINESTEERING,2319,306313.350,02000000,10a2,17139;SOL_COMPUTED,INS_RTKFIXED,0.000,125.000,5.7431,85.190530,0.3409,0*6dfff13a
#BESTVELA,FILE,0,31.0,FINESTEERING,2319,306313.400,02000000,10a2,17139;SOL_COMPUTED,INS_RTKFIXED,0.000,125.000,5.7139,84.495838,0.3939,0*419b5413
#BESTVELA,FILE,0,31.0,FINESTEERING,2319,306313.450,02000000,10a2,17139;SOL_COMPUTED,INS_RTKFIXED,0.000,125.000,5.6751,84.910303,0.3370,0*18b50ba7
#BESTVELA,FILE,0,31.0,FINESTEERING,2319,306313.500,02000000,10a2,17139;SOL_COMPUTED,INS_RTKFIXED,0.000,125.000,5.6124,84.916564,0.2512,0*b8f60264
#BESTVELA,FILE,0,31.0,FINESTEERING,2319,306313.550,02000000,10a2,17139;SOL_COMPUTED,INS_RTKFIXED,0.000,125.000,5.5285,85.051108,0.1467,0*c4f72ef9
#BESTVELA,FILE,0,31.0,FINESTEERING,2319,306313.600,02000000,10a2,17139;SOL_COMPUTED,INS_RTKFIXED,0.000,125.000,5.4840,85.115084,0.0536,0*30673d0a
#BESTVELA,FILE,0,31.0,FINESTEERING,2319,306313.650,02000000,10a2,17139;SOL_COMPUTED,INS_RTKFIXED,0.000,125.000,5.3704,85.291222,-0.0234,0*d09dfe2d
#BESTVELA,FILE,0,31.0,FINESTEERING,2319,306313.700,02000000,10a2,17139;SOL_COMPUTED,INS_RTKFIXED,0.000,125.000,5.3690,85.001707,-0.0354,0*525d7dba
#BESTVELA,FILE,0,31.0,FINESTEERING,2319,306313.750,02000000,10a2,17139;SOL_COMPUTED,INS_RTKFIXED,0.000,125.000,5.3995,85.386006,-0.0323,0*212bd9ef
#BESTVELA,FILE,0,31.0,FINESTEERING,2319,306313.800,02000000,10a2,17139;SOL_COMPUTED,INS_RTKFIXED,0.000,125.000,5.4109,84.712400,0.0669,0*73933340
#BESTVELA,FILE,0,31.0,FINESTEERING,2319,306313.850,02000000,10a2,17139;SOL_COMPUTED,INS_RTKFIXED,0.000,125.000,5.4892,84.718867,0.1298,0*d442fbb5
#BESTVELA,FILE,0,31.0,FINESTEERING,2319,306313.900,02000000,10a2,17139;SOL_COMPUTED,INS_RTKFIXED,0.000,125.000,5.5267,84.468205,0.2411,0*b95604ac
#BESTVELA,FILE,0,31.0,FINESTEERING,2319,306313.950,02000000,10a2,17139;SOL_COMPUTED,INS_RTKFIXED,0.000,125.000,5.5691,84.451260,0.3150,0*861464ea
#BESTVELA,FILE,0,31.0,FINESTEERING,2319,306314.000,02000000,10a2,17139;SOL_COMPUTED,INS_RTKFIXED,0.000,125.000,5.5826,84.630845,0.3188,0*db567e3c
#BESTVELA,FILE,0,31.0,FINESTEERING,2319,306314.050,02000000,10a2,17139;SOL_COMPUTED,INS_RTKFIXED,0.000,126.000,5.5637,85.056495,0.2723,0*3ec14ff7
#BESTVELA,FILE,0,30.0,FINESTEERING,2319,306314.100,02000000,10a2,17139;SOL_COMPUTED,INS_RTKFIXED,0.000,126.000,5.5015,84.863172,0.3029,0*92528123
#BESTVELA,FILE,0,30.0,FINESTEERING,2319,306314.150,02000000,10a2,17139;SOL_COMPUTED,INS_RTKFIXED,0.000,126.000,5.4696,85.150937,0.1780,0*dd2de606
#BESTVELA,FILE,0,30.0,FINESTEERING,2319,306314.200,02000000,10a2,17139;SOL_COMPUTED,INS_RTKFIXED,0.000,126.000,5.3304,84.904949,0.0696,0*9ed46a65
#BESTVELA,FILE,0,30.0,FINESTEERING,2319,306314.250,02000000,10a2,17139;SOL_COMPUTED,INS_RTKFIXED,0.000,126.000,5.1777,84.551290,-0.0401,0*1bda8a83
#BESTVELA,FILE,0,30.0,FINESTEERING,2319,306314.300,02000000,10a2,17139;SOL_COMPUTED,INS_RTKFIXED,0.000,126.000,5.0930,84.619233,-0.1348,0*9486c39c
#BESTVELA,FILE,0,30.0,FINESTEERING,2319,306314.350,02000000,10a2,17139;SOL_COMPUTED,INS_RTKFIXED,0.000,126.000,5.0463,84.207490,-0.1607,0*2984af7f
#BESTVELA,FILE,0,30.0,FINESTEERING,2319,306314.400,02000000,10a2,17139;SOL_COMPUTED,INS_RTKFIXED,0.000,126.000,5.0289,84.287080,-0.1695,0*cfe98b43
#BESTVELA,FILE,0,30.0,FINESTEERING,2319,306314.450,02000000,10a2,17139;SOL_COMPUTED,INS_RTKFIXED,0.000,126.000,5.0796,83.869766,-0.1133,0*b6d5547d
#BESTVELA,FILE,0,30.0,FINESTEERING,2319,306314.500,02000000,10a2,17139;SOL_COMPUTED,INS_RTKFIXED,0.000,126.000,5.1138,83.763945,-0.0604,0*ef39b5d7
#BESTVELA,FILE,0,30.0,FINESTEERING,2319,306314.550,02000000,10a2,17139;SOL_COMPUTED,INS_RTKFIXED,0.000,126.000,5.1806,83.852538,0.0153,0*8d33a8e9
#BESTVELA,FILE,0,30.0,FINESTEERING,2319,306314.600,02000000,10a2,17139;SOL_COMPUTED,INS_RTKFIXED,0.000,126.000,5.1840,84.090074,0.0571,0*aff523b0
#BESTVELA,FILE,0,30.0,FINESTEERING,2319,306314.650,02000000,10a2,17139;SOL_COMPUTED,INS_RTKFIXED,0.000,126.000,5.2170,84.929115,0.1418,0*214fe1ac
#BESTVELA,FILE,0,30.0,FINESTEERING,2319,306314.700,02000000,10a2,17139;SOL_COMPUTED,INS_RTKFIXED,0.000,126.000,5.2087,84.929423,0.3161,0*37dae37e
#BESTVELA,FILE,0,30.0,FINESTEERING,2319,306314.750,02000000,10a2,17139;SOL_COMPUTED,INS_RTKFIXED,0.000,126.000,5.2287,85.097462,0.3426,0*93f7b9ad
#BESTVELA,FILE,0,30.0,FINESTEERING,2319,306314.800,02000000,10a2,17139;SOL_COMPUTED,INS_RTKFIXED,0.000,126.000,5.1818,84.716474,0.3726,0*6e8a4b63
#BESTVELA,FILE,0,30.0,FINESTEERING,2319,306314.850,02000000,10a2,17139;SOL_COMPUTED,INS_RTKFIXED,0.000,126.000,5.1459,84.285027,0.3015,0*34f9633e
#BESTVELA,FILE,0,30.0,FINESTEERING,2319,306314.900,02000000,10a2,17139;SOL_COMPUTED,INS_RTKFIXED,0.000,126.000,5.0177,84.317559,0.2161,0*1ae09e37
#BESTVELA,FILE,0,30.0,FINESTEERING,2319,306314.950,02000000,10a2,17139;SOL_COMPUTED,INS_RTKFIXED,0.000,126.000,4.9741,84.172070,0.1108,0*a7533693
#BESTVELA,FILE,0,30.0,FINESTEERING,2319,306315.000,02000000,10a2,17139;SOL_COMPUTED,INS_RTKFIXED,0.000,126.000,4.9136,83.901300,0.0662,0*85fd203a
#BESTVELA,FILE,0,30.0,FINESTEERING,2319,306315.050,02000000,10a2,17139;SOL_COMPUTED,INS_RTKFIXED,0.000,127.000,4.9157,83.319730,0.0493,0*d267a325
#BESTVELA,FILE,0,30.0,FINESTEERING,2319,306315.100,02000000,10a2,17139;SOL_COMPUTED,INS_RTKFIXED,0.000,127.000,4.8948,83.262512,0.0440,0*dffec096
#BESTVELA,FILE,0,31.5,FINESTEERING,2319,306315.150,02000000,10a2,17139;SOL_COMPUTED,INS_RTKFIXED,0.000,127.000,4.9109,83.647538,0.0580,0*22bbb107
#BESTVELA,FILE,0,31.5,FINESTEERING,2319,306315.200,02000000,10a2,17139;SOL_COMPUTED,INS_RTKFIXED,0.000,127.000,4.9360,83.953976,0.1730,0*b9360918
#BESTVELA,FILE,0,31.5,FINESTEERING,2319,306315.250,02000000,10a2,17139;SOL_COMPUTED,INS_RTKFIXED,0.000,127.000,4.9909,84.329584,0.2054,0*6fdb9de9
#BESTVELA,FILE,0,31.5,FINESTEERING,2319,306315.300,02000000,10a2,17139;SOL_COMPUTED,INS_RTKFIXED,0.000,127.000,4.9953,84.487055,0.2557,0*c7f30077
#BESTVELA,FILE,0,31.5,FINESTEERING,2319,306315.350,02000000,10a2,17139;SOL_COMPUTED,INS_RTKFIXED,0.000,127.000,5.0251,84.975523,0.3187,0*da1066a6
#BESTVELA,FILE,0,31.5,FINESTEERING,2319,306315.400,02000000,10a2,17139;SOL_COMPUTED,INS_RTKFIXED,0.000,127.000,5.0300,84.894929,0.3483,0*632e7bc9
#BESTVELA,FILE,0,31.5,FINESTEERING,2319,306315.450,02000000,10a2,17139;SOL_COMPUTED,INS_RTKFIXED,0.000,127.000,5.0066,84.619764,0.3224,0*2b4b6ef6
#BESTVELA,FILE,0,31.5,FINESTEERING,2319,306315.500,02000000,10a2,17139;SOL_COMPUTED,INS_RTKFIXED,0.000,127.000,4.9350,84.460032,0.2363,0*5accb93c
#BESTVELA,FILE,0,31.5,FINESTEERING,2319,306315.550,02000000,10a2,17139;SOL_COMPUTED,INS_RTKFIXED,0.000,127.000,4.8781,84.265952,0.1662,0*86761b1b
#BESTVELA,FILE,0,31.5,FINESTEERING,2319,306315.600,02000000,10a2,17139;SOL_COMPUTED,INS_RTKFIXED,0.000,127.000,4.8009,83.563337,0.1102,0*4cf5e41d
#BESTVELA,FILE,0,31.5,FINESTEERING,2319,306315.650,02000000,10a2,17139;SOL_COMPUTED,INS_RTKFIXED,0.000,127.000,4.7313,83.340410,0.0741,0*61ade7e4
#BESTVELA,FILE,0,31.5,FINESTEERING,2319,306315.700,02000000,10a2,17139;SOL_COMPUTED,INS_RTKFIXED,0.000,127.000,4.6170,83.615450,-0.0264,0*1ecc3a06
#BESTVELA,FILE,0,31.5,FINESTEERING,2319,306315.750,02000000,10a2,17139;SOL_COMPUTED,INS_RTKFIXED,0.000,127.000,4.5675,83.752265,-0.0592,0*9bcf1ee5
#BESTVELA,FILE,0,31.5,FINESTEERING,2319,306315.800,02000000,10a2,17139;SOL_COMPUTED,INS_RTKFIXED,0.000,127.000,4.5550,83.569238,-0.0792,0*208c8556
#BESTVELA,FILE,0,31.5,FINESTEERING,2319,306315.850,02000000,10a2,17139;SOL_COMPUTED,INS_RTKFIXED,0.000,127.000,4.5155,83.665305,-0.0764,0*bc007140
#BESTVELA,FILE,0,31.5,FINESTEERING,2319,306315.900,02000000,10a2,17139;SOL_COMPUTED,INS_RTKFIXED,0.000,127.000,4.5350,83.700590,-0.0757,0*44d7bcad
#BESTVELA,FILE,0,31.5,FINESTEERING,2319,306315.950,02000000,10a2,17139;SOL_COMPUTED,INS_RTKFIXED,0.000,127.000,4.5400,83.736966,-0.0446,0*41a1b4ae
#BESTVELA,FILE,0,31.5,FINESTEERING,2319,306316.000,02000000,10a2,17139;SOL_COMPUTED,INS_RTKFIXED,0.000,127.000,4.5750,83.937793,-0.0000,0*cf623211
#BESTVELA,FILE,0,31.5,FINESTEERING,2319,306316.050,02000000,10a2,17139;SOL_COMPUTED,INS_RTKFIXED,0.000,128.000,4.5898,84.072989,0.0429,0*0497c6d5
#BESTVELA,FILE,0,31.5,FINESTEERING,2319,306316.100,02000000,10a2,17139;SOL_COMPUTED,INS_RTKFIXED,0.000,128.000,4.6098,83.527126,0.1133,0*550a0e73
#BESTVELA,FILE,0,31.5,FINESTEERING,2319,306316.150,02000000,10a2,17139;SOL_COMPUTED,INS_RTKFIXED,0.000,128.000,4.5906,83.611218,0.1642,0*ee8c409e
#BESTVELA,FILE,0,31.5,FINESTEERING,2319,306316.200,02000000,10a2,17139;SOL_COMPUTED,INS_RTKFIXED,0.000,128.000,4.5881,84.209686,0.2438,0*2583d1c4
#BESTVELA,FILE,0,31.5,FINESTEERING,2319,306316.250,02000000,10a2,17139;SOL_COMPUTED,INS_RTKFIXED,0.000,128.000,4.5844,84.124804,0.2572,0*b50e75d7
#BESTVELA,FILE,0,31.5,FINESTEERING,2319,306316.300,02000000,10a2,17139;SOL_COMPUTED,INS_RTKFIXED,0.000,128.000,4.5696,84.255097,0.2928,0*6bd7809d
#BESTVELA,FILE,0,31.5,FINESTEERING,2319,306316.350,02000000,10a2,17139;SOL_COMPUTED,INS_RTKFIXED,0.000,128.000,4.5041,84.068132,0.2461,0*f7d9df13
#BESTVELA,FILE,0,31.5,FINESTEERING,2319,306316.400,02000000,10a2,17139;SOL_COMPUTED,INS_RTKFIXED,0.000,128.000,4.4596,83.639846,0.2007,0*68919795
#BESTVELA,FILE,0,31.5,FINESTEERING,2319,306316.450,02000000,10a2,17139;SOL_COMPUTED,INS_RTKFIXED,0.000,128.000,4.3970,83.142453,0.1593,0*705a1c96
#BESTVELA,FILE,0,31.5,FINESTEERING,2319,306316.500,02000000,10a2,17139;SOL_COMPUTED,INS_RTKFIXED,0.000,128.000,4.3762,83.770645,0.0917,0*8b1c5d5d
#BESTVELA,FILE,0,31.5,FINESTEERING,2319,306316.550,02000000,10a2,17139;SOL_COMPUTED,INS_RTKFIXED,0.000,128.000,4.3230,83.379055,0.0571,0*9395eecc
#BESTVELA,FILE,0,31.5,FINESTEERING,2319,306316.600,02000000,10a2,17139;SOL_COMPUTED,INS_RTKFIXED,0.000,128.000,4.3316,83.282154,0.0458,0*7fc6e358
#BESTVELA,FILE,0,31.5,FINESTEERING,2319,306316.650,02000000,10a2,17139;SOL_COMPUTED,INS_RTKFIXED,0.000,128.000,4.2768,83.275372,0.0426,0*1e4dc98b
#BESTVELA,FILE,0,31.5,FINESTEERING,2319,306316.700,02000000,10a2,17139;SOL_COMPUTED,INS_RTKFIXED,0.000,128.000,4.3004,83.471454,0.0833,0*ca5ff064
#BESTVELA,FILE,0,31.5,FINESTEERING,2319,306316.750,02000000,10a2,17139;SOL_COMPUTED,INS_RTKFIXED,0.000,128.000,4.2569,83.854641,0.0902,0*d557380f
#BESTVELA,FILE,0,31.5,FINESTEERING,2319,306316.800,02000000,10a2,17139;SOL_COMPUTED,INS_RTKFIXED,0.000,128.000,4.2539,84.912812,0.1154,0*601e90f3
#BESTVELA,FILE,0,31.5,FINESTEERING,2319,306316.850,02000000,10a2,17139;SOL_COMPUTED,INS_RTKFIXED,0.000,128.000,4.2546,85.120054,0.1401,0*b0eb5770
#BESTVELA,FILE,0,31.5,FINESTEERING,2319,306316.900,02000000,10a2,17139;SOL_COMPUTED,INS_RTKFIXED,0.000,128.000,4.2561,85.512613,0.1737,0*7817624e
#BESTVELA,FILE,0,31.5,FINESTEERING,2319,306316.950,02000000,10a2,17139;SOL_COMPUTED,INS_RTKFIXED,0.000,128.000,4.2558,85.148258,0.2194,0*33846474
#BESTVELA,FILE,0,31.5,FINESTEERING,2319,306317.000,02000000,10a2,17139;SOL_COMPUTED,INS_RTKFIXED,0.000,128.000,4.2567,85.209980,0.2136,0*c46f3f4a
#BESTVELA,FILE,0,31.5,FINESTEERING,2319,306317.050,02000000,10a2,17139;SOL_COMPUTED,INS_RTKFIXED,0.000,129.000,4.2176,85.346680,0.1823,0*7f753999
#BESTVELA,FILE,0,31.5,FINESTEERING,2319,306317.100,02000000,10a2,17139;SOL_COMPUTED,INS_RTKFIXED,0.000,129.000,4.1934,85.622177,0.1169,0*5edcbe4c
#BESTVELA,FILE,0,31.5,FINESTEERING,2319,306317.150,02000000,10a2,17139;SOL_COMPUTED,INS_RTKFIXED,0.000,129.000,4.1698,84.929748,0.0917,0*9cb15f16
#BESTVELA,FILE,0,31.5,FINESTEERING,2319,306317.200,02000000,10a2,17139;SOL_COMPUTED,INS_RTKFIXED,0.000,129.000,4.1332,84.985059,0.0451,0*5fd8c902
#BESTVELA,FILE,0,31.5,FINESTEERING,2319,306317.250,02000000,10a2,17139;SOL_COMPUTED,INS_RTKFIXED,0.000,129.000,4.1076,84.146511,0.0948,0*c5f308c5
#BESTVELA,FILE,0,31.5,FINESTEERING,2319,306317.300,02000000,10a2,17139;SOL_COMPUTED,INS_RTKFIXED,0.000,129.000,4.1326,84.615299,0.1057,0*cc7df51f
#BESTVELA,FILE,0,31.5,FINESTEERING,2319,306317.350,02000000,10a2,17139;SOL_COMPUTED,INS_RTKFIXED,0.000,129.000,4.1554,84.456216,0.1563,0*547051b9
#BESTVELA,FILE,0,31.5,FINESTEERING,2319,306317.400,02000000,10a2,17139;SOL_COMPUTED,INS_RTKFIXED,0.000,129.000,4.1396,84.611968,0.1582,0*8405bc55
#BESTVELA,FILE,0,31.5,FINESTEERING,2319,306317.450,02000000,10a2,17139;SOL_COMPUTED,INS_RTKFIXED,0.000,129.000,4.1514,85.536278,0.1478,0*18275322
#BESTVELA,FILE,0,31.5,FINESTEERING,2319,306317.500,02000000,10a2,17139;SOL_COMPUTED,INS_RTKFIXED,0.000,129.000,4.1325,86.189360,0.1046,0*d6cb94f3
#BESTVELA,FILE,0,31.5,FINESTEERING,2319,306317.550,02000000,10a2,17139;SOL_COMPUTED,INS_RTKFIXED,0.000,129.000,4.0924,86.246370,0.0779,0*d18ed21a
#BESTVELA,FILE,0,31.5,FINESTEERING,2319,306317.600,02000000,10a2,17139;SOL_COMPUTED,INS_RTKFIXED,0.000,129.000,4.0749,86.265273,0.0507,0*e40a6c89
#BESTVELA,FILE,0,31.5,FINESTEERING,2319,306317.650,02000000,10a2,17139;SOL_COMPUTED,INS_RTKFIXED,0.000,129.000,4.0535,86.498004,0.0345,0*b4125600
#BESTVELA,FILE,0,31.5,FINESTEERING,2319,306317.700,02000000,10a2,17139;SOL_COMPUTED,INS_RTKFIXED,0.000,129.000,4.0138,86.888949,0.0170,0*87b5744d
#BESTVELA,FILE,0,31.5,FINESTEERING,2319,306317.750,02000000,10a2,17139;SOL_COMPUTED,INS_RTKFIXED,0.000,129.000,4.0151,86.834067,-0.0014,0*32529b3f
#BESTVELA,FILE,0,31.5,FINESTEERING,2319,306317.800,02000000,10a2,17139;SOL_COMPUTED,INS_RTKFIXED,0.000,129.000,3.9792,86.108996,0.0110,0*1ce7f596
#BESTVELA,FILE,0,31.5,FINESTEERING,2319,306317.850,02000000,10a2,17139;SOL_COMPUTED,INS_RTKFIXED,0.000,129.000,3.9575,86.012574,-0.0144,0*02b6dcfd
#BESTVELA,FILE,0,31.5,FINESTEERING,2319,306317.900,02000000,10a2,17139;SOL_COMPUTED,INS_RTKFIXED,0.000,129.000,3.9599,86.230139,-0.0233,0*2bef5f7b
#BESTVELA,FILE,0,31.5,FINESTEERING,2319,306317.950,02000000,10a2,17139;SOL_COMPUTED,INS_RTKFIXED,0.000,129.000,3.9309,85.480408,-0.0380,0*63090e9b
#BESTVELA,FILE,0,31.5,FINESTEERING,2319,306318.000,02000000,10a2,17139;SOL_COMPUTED,INS_RTKFIXED,0.000,129.000,3.9448,85.758122,-0.0291,0*ee20b7fc
#BESTVELA,FILE,0,31.5,FINESTEERING,2319,306318.050,02000000,10a2,17139;SOL_COMPUTED,INS_RTKFIXED,0.000,130.000,3.9611,85.608036,-0.0424,0*cc181ce1
#BESTVELA,FILE,0,31.5,FINESTEERING,2319,306318.100,02000000,10a2,17139;SOL_COMPUTED,INS_RTKFIXED,0.000,130.000,3.9546,86.811517,-0.0630,0*7c6edf26
#BESTVELA,FILE,0,33.0,FINESTEERING,2319,306318.150,02000000,10a2,17139;SOL_COMPUTED,INS_RTKFIXED,0.000,130.000,3.9433,86.608296,-0.0345,0*537dc5fa
#BESTVELA,FILE,0,33.0,FINESTEERING,2319,306318.200,02000000,10a2,17139;SOL_COMPUTED,INS_RTKFIXED,0.000,130.000,3.9446,86.972969,-0.0207,0*1abcf290
#BESTVELA,FILE,0,33.0,FINESTEERING,2319,306318.250,02000000,10a2,17139;SOL_COMPUTED,INS_RTKFIXED,0.000,130.000,3.9272,87.196292,-0.0287,0*e81dc541
#BESTVELA,FILE,0,33.0,FINESTEERING,2319,306318.300,02000000,10a2,17139;SOL_COMPUTED,INS_RTKFIXED,0.000,130.000,3.9342,88.306319,-0.0382,0*42103d43
#BESTVELA,FILE,0,33.0,FINESTEERING,2319,306318.350,02000000,10a2,17139;SOL_COMPUTED,INS_RTKFIXED,0.000,130.000,3.9179,88.153878,-0.0096,0*e64590f9
#BESTVELA,FILE,0,33.0,FINESTEERING,2319,306318.400,02000000,10a2,17139;SOL_COMPUTED,INS_RTKFIXED,0.000,130.000,3.9350,87.573634,0.0379,0*591d23c5
#BESTVELA,FILE,0,33.0,FINESTEERING,2319,306318.450,02000000,10a2,17139;SOL_COMPUTED,INS_RTKFIXED,0.000,130.000,3.9554,87.099252,0.0213,0*87d203cc
#BESTVELA,FILE,0,33.0,FINESTEERING,2319,306318.500,02000000,10a2,17139;SOL_COMPUTED,INS_RTKFIXED,0.000,130.000,3.9370,86.979632,0.0353,0*8b6976ab
#BESTVELA,FILE,0,33.0,FINESTEERING,2319,306318.550,02000000,10a2,17139;SOL_COMPUTED,INS_RTKFIXED,0.000,130.000,3.9367,87.519402,0.0048,0*9a571e41
#BESTVELA,FILE,0,33.0,FINESTEERING,2319,306318.600,02000000,10a2,17139;SOL_COMPUTED,INS_RTKFIXED,0.000,130.000,3.9340,87.294593,-0.0310,0*8aec5647
#BESTVELA,FILE,0,33.0,FINESTEERING,2319,306318.650,02000000,10a2,17139;SOL_COMPUTED,INS_RTKFIXED,0.000,130.000,3.9615,87.104893,-0.0405,0*ec140a71
#BESTVELA,FILE,0,33.0,FINESTEERING,2319,306318.700,02000000,10a2,17139;SOL_COMPUTED,INS_RTKFIXED,0.000,130.000,3.9596,86.883138,-0.0147,0*06ff0ac5
#BESTVELA,FILE,0,33.0,FINESTEERING,2319,306318.750,02000000,10a2,17139;SOL_COMPUTED,INS_RTKFIXED,0.000,130.000,3.9676,87.343300,-0.0463,0*ac89cff0
#BESTVELA,FILE,0,33.0,FINESTEERING,2319,306318.800,02000000,10a2,17139;SOL_COMPUTED,INS_RTKFIXED,0.000,130.000,3.9778,87.694192,-0.0155,0*e229b7d2
#BESTVELA,FILE,0,33.0,FINESTEERING,2319,306318.850,02000000,10a2,17139;SOL_COMPUTED,INS_RTKFIXED,0.000,130.000,3.9831,87.718945,-0.0105,0*cc415352
#BESTVELA,FILE,0,33.0,FINESTEERING,2319,306318.900,02000000,10a2,17139;SOL_COMPUTED,INS_RTKFIXED,0.000,130.000,3.9928,88.124008,0.0232,0*e5156d6e
#BESTVELA,FILE,0,33.0,FINESTEERING,2319,306318.950,02000000,10a2,17139;SOL_COMPUTED,INS_RTKFIXED,0.000,130.000,4.0067,88.578750,0.0218,0*86c09ac3
#BESTVELA,FILE,0,33.0,FINESTEERING,2319,306319.000,02000000,10a2,17139;SOL_COMPUTED,INS_RTKFIXED,0.000,130.000,3.9990,88.260714,0.0682,0*50852e6d
#BESTVELA,FILE,0,33.0,FINESTEERING,2319,306319.050,02000000,10a2,17139;SOL_COMPUTED,INS_RTKFIXED,0.000,131.000,4.0301,88.471322,0.0126,0*bf08f664
#BESTVELA,FILE,0,32.5,FINESTEERING,2319,306319.100,02000000,10a2,17139;SOL_COMPUTED,INS_RTKFIXED,0.000,131.000,4.0078,88.608697,0.0424,0*492803d2
#BESTVELA,FILE,0,32.5,FINESTEERING,2319,306319.150,02000000,10a2,17139;SOL_COMPUTED,INS_RTKFIXED,0.000,131.000,4.0300,88.673525,0.0476,0*b1d924f2
#BESTVELA,FILE,0,32.5,FINESTEERING,2319,306319.200,02000000,10a2,17139;SOL_COMPUTED,INS_RTKFIXED,0.000,131.000,4.0407,88.810393,0.0020,0*e50b232b
#BESTVELA,FILE,0,32.5,FINESTEERING,2319,306319.250,02000000,10a2,17139;SOL_COMPUTED,INS_RTKFIXED,0.000,131.000,4.0828,88.230968,-0.0072,0*e4c417c1
#BESTVELA,FILE,0,32.5,FINESTEERING,2319,306319.300,02000000,10a2,17139;SOL_COMPUTED,INS_RTKFIXED,0.000,131.000,4.0981,88.460246,-0.0067,0*19d20a30
#BESTVELA,FILE,0,32.5,FINESTEERING,2319,306319.350,02000000,10a2,17139;SOL_COMPUTED,INS_RTKFIXED,0.000,131.000,4.0547,88.210618,-0.0217,0*00bfbe0d
#BESTVELA,FILE,0,32.5,FINESTEERING,2319,306319.400,02000000,10a2,17139;SOL_COMPUTED,INS_RTKFIXED,0.000,131.000,4.0698,88.227021,-0.0205,0*4001ca93
#BESTVELA,FILE,0,32.5,FINESTEERING,2319,306319.450,02000000,10a2,17139;SOL_COMPUTED,INS_RTKFIXED,0.000,131.000,4.0524,88.054514,-0.0019,0*1e28a7a8
#BESTVELA,FILE,0,32.5,FINESTEERING,2319,306319.500,02000000,10a2,17139;SOL_COMPUTED,INS_RTKFIXED,0.000,131.000,4.0622,88.105321,0.0360,0*fa95c2c4
#BESTVELA,FILE,0,32.5,FINESTEERING,2319,306319.550,02000000,10a2,17139;SOL_COMPUTED,INS_RTKFIXED,0.000,131.000,4.0714,88.001239,0.0473,0*f945b007
#BESTVELA,FILE,0,32.5,FINESTEERING,2319,306319.600,02000000,10a2,17139;SOL_COMPUTED,INS_RTKFIXED,0.000,131.000,4.0963,87.930724,0.0631,0*8e43df35
#BESTVELA,FILE,0,32.5,FINESTEERING,2319,306319.650,02000000,10a2,17139;SOL_COMPUTED,INS_RTKFIXED,0.000,131.000,4.1003,88.118971,0.0502,0*05bd2b36
#BESTVELA,FILE,0,32.5,FINESTEERING,2319,306319.700,02000000,10a2,17139;SOL_COMPUTED,INS_RTKFIXED,0.000,131.000,4.0913,88.412456,0.0300,0*b9e1593d
#BESTVELA,FILE,0,32.5,FINESTEERING,2319,306319.750,02000000,10a2,17139;SOL_COMPUTED,INS_RTKFIXED,0.000,131.000,4.1107,88.868383,0.0034,0*8819e43e
#BESTVELA,FILE,0,32.5,FINESTEERING,2319,306319.800,02000000,10a2,17139;SOL_COMPUTED,INS_RTKFIXED,0.000,131.000,4.1209,89.465355,-0.0448,0*196ac557
#BESTVELA,FILE,0,32.5,FINESTEERING,2319,306319.850,02000000,10a2,17139;SOL_COMPUTED,INS_RTKFIXED,0.000,131.000,4.1233,90.866329,-0.2108,0*4ef21137
#BESTVELA,FILE,0,32.5,FINESTEERING,2319,306319.900,02000000,10a2,17139;SOL_COMPUTED,INS_RTKFIXED,0.000,131.000,4.0878,90.060434,-0.1587,0*f7617ea9
#BESTVELA,FILE,0,32.5,FINESTEERING,2319,306319.950,02000000,10a2,17139;SOL_COMPUTED,INS_RTKFIXED,0.000,131.000,4.1315,90.600958,-0.1075,0*b5e3c9a8
#BESTVELA,FILE,0,32.5,FINESTEERING,2319,306320.000,02000000,10a2,17139;SOL_COMPUTED,INS_RTKFIXED,0.000,131.000,4.1587,90.163915,-0.0549,0*babad1ec
#BESTVELA,FILE,0,32.5,FINESTEERING,2319,306320.050,02000000,10a2,17139;SOL_COMPUTED,INS_RTKFIXED,0.000,132.000,4.1933,90.273375,-0.0321,0*2f573eec
#BESTVELA,FILE,0,32.5,FINESTEERING,2319,306320.100,02000000,10a2,17139;SOL_COMPUTED,INS_RTKFIXED,0.000,132.000,4.1834,88.990687,0.0553,0*395db585
#BESTVELA,FILE,0,34.5,FINESTEERING,2319,306320.150,02000000,10a2,17139;SOL_COMPUTED,INS_RTKFIXED,0.000,132.000,4.1945,89.108493,0.0785,0*4860b7c2
#BESTVELA,FILE,0,34.5,FINESTEERING,2319,306320.200,02000000,10a2,17139;SOL_COMPUTED,INS_RTKFIXED,0.000,132.000,4.1580,88.178363,0.0964,0*95c0d81b
#BESTVELA,FILE,0,34.5,FINESTEERING,2319,306320.250,02000000,10a2,17139;SOL_COMPUTED,INS_RTKFIXED,0.000,132.000,4.1990,88.154944,0.0729,0*2f800d53
#BESTVELA,FILE,0,34.5,FINESTEERING,2319,306320.300,02000000,10a2,17139;SOL_COMPUTED,INS_RTKFIXED,0.000,132.000,4.1580,87.790991,0.0503,0*1cf2bc9b
#BESTVELA,FILE,0,34.5,FINESTEERING,2319,306320.350,02000000,10a2,17139;SOL_COMPUTED,INS_RTKFIXED,0.000,132.000,4.1782,88.941345,0.0028,0*2ca442d3
#BESTVELA,FILE,0,34.5,FINESTEERING,2319,306320.400,02000000,10a2,17139;SOL_COMPUTED,INS_RTKFIXED,0.000,132.000,4.1360,89.959253,-0.0728,0*6f13ec66
#BESTVELA,FILE,0,34.5,FINESTEERING,2319,306320.450,02000000,10a2,17139;SOL_COMPUTED,INS_RTKFIXED,0.000,132.000,4.1260,90.782473,-0.1250,0*bb2f8832
#BESTVELA,FILE,0,34.5,FINESTEERING,2319,306320.500,02000000,10a2,17139;SOL_COMPUTED,INS_RTKFIXED,0.000,132.000,4.1459,90.932170,-0.1047,0*a48690b1
#BESTVELA,FILE,0,34.5,FINESTEERING,2319,306320.550,02000000,10a2,17139;SOL_COMPUTED,INS_RTKFIXED,0.000,132.000,4.1486,91.374876,-0.1231,0*d000e66e
#BESTVELA,FILE,0,34.5,FINESTEERING,2319,306320.600,02000000,10a2,17139;SOL_COMPUTED,INS_RTKFIXED,0.000,132.000,4.1685,91.494066,-0.0939,0*f4fff943
#BESTVELA,FILE,0,34.5,FINESTEERING,2319,306320.650,02000000,10a2,17139;SOL_COMPUTED,INS_RTKFIXED,0.000,132.000,4.1785,90.853257,-0.0255,0*a59587a1
#BESTVELA,FILE,0,34.5,FINESTEERING,2319,306320.700,02000000,10a2,17139;SOL_COMPUTED,INS_RTKFIXED,0.000,132.000,4.1935,90.607216,0.0468,0*5f3bcd95
#BESTVELA,FILE,0,34.5,FINESTEERING,2319,306320.750,02000000,10a2,17139;SOL_COMPUTED,INS_RTKFIXED,0.000,132.000,4.2107,89.474003,0.1035,0*c6cf9147
#BESTVELA,FILE,0,34.5,FINESTEERING,2319,306320.800,02000000,10a2,17139;SOL_COMPUTED,INS_RTKFIXED,0.000,132.000,4.2005,89.139944,0.1449,0*7babef95
#BESTVELA,FILE,0,34.5,FINESTEERING,2319,306320.850,02000000,10a2,17139;SOL_COMPUTED,INS_RTKFIXED,0.000,132.000,4.1895,88.732045,0.0974,0*c4dbce68
#BESTVELA,FILE,0,34.5,FINESTEERING,2319,306320.900,02000000,10a2,17139;SOL_COMPUTED,INS_RTKFIXED,0.000,132.000,4.1512,88.895039,0.0715,0*1668d220
#BESTVELA,FILE,0,34.5,FINESTEERING,2319,306320.950,02000000,10a2,17139;SOL_COMPUTED,INS_RTKFIXED,0.000,132.000,4.1427,89.725059,0.0210,0*38fd3ecb
#BESTVELA,FILE,0,34.5,FINESTEERING,2319,306321.000,02000000,10a2,17139;SOL_COMPUTED,INS_RTKFIXED,0.000,132.000,4.1213,89.990004,-0.0175,0*4a625fe3
#BESTVELA,FILE,0,34.5,FINESTEERING,2319,306321.050,02000000,10a2,17139;SOL_COMPUTED,INS_RTKFIXED,0.000,133.000,4.1016,89.866675,-0.0158,0*41b1789c
#BESTVELA,FILE,0,33.0,FINESTEERING,2319,306321.100,02000000,10a2,17139;SOL_COMPUTED,INS_RTKFIXED,0.000,133.000,4.1025,90.388178,-0.0655,0*265fd2bc
#BESTVELA,FILE,0,33.0,FINESTEERING,2319,306321.150,02000000,10a2,17139;SOL_COMPUTED,INS_RTKFIXED,0.000,133.000,4.0981,91.052138,-0.0944,0*466d23c3
#BESTVELA,FILE,0,33.0,FINESTEERING,2319,306321.200,02000000,10a2,17139;SOL_COMPUTED,INS_RTKFIXED,0.000,133.000,4.0812,91.390985,-0.0940,0*b3f0c01e
#BESTVELA,FILE,0,33.0,FINESTEERING,2319,306321.250,02000000,10a2,17139;SOL_COMPUTED,INS_RTKFIXED,0.000,133.000,4.1014,91.126755,-0.0662,0*05ef7071
#BESTVELA,FILE,0,33.0,FINESTEERING,2319,306321.300,02000000,10a2,17139;SOL_COMPUTED,INS_RTKFIXED,0.000,133.000,4.0900,91.130306,-0.0594,0*4de5cba4
#BESTVELA,FILE,0,33.0,FINESTEERING,2319,306321.350,02000000,10a2,17139;SOL_COMPUTED,INS_RTKFIXED,0.000,133.000,4.1049,90.861904,-0.0392,0*eb607247
#BESTVELA,FILE,0,33.0,FINESTEERING,2319,306321.400,02000000,10a2,17139;SOL_COMPUTED,INS_RTKFIXED,0.000,133.000,4.0624,89.963386,-0.0046,0*008e8cdf
#BESTVELA,FILE,0,33.0,FINESTEERING,2319,306321.450,02000000,10a2,17139;SOL_COMPUTED,INS_RTKFIXED,0.000,133.000,4.0623,89.670505,0.0066,0*1dad2bb8
#BESTVELA,FILE,0,33.0,FINESTEERING,2319,306321.500,02000000,10a2,17139;SOL_COMPUTED,INS_RTKFIXED,0.000,133.000,4.0525,89.487810,0.0093,0*73aadc71
#BESTVELA,FILE,0,33.0,FINESTEERING,2319,306321.550,02000000,10a2,17139;SOL_COMPUTED,INS_RTKFIXED,0.000,133.000,4.0641,89.176073,0.0108,0*d095ac0f
#BESTVELA,FILE,0,33.0,FINESTEERING,2319,306321.600,02000000,10a2,17139;SOL_COMPUTED,INS_RTKFIXED,0.000,133.000,4.0530,88.857857,0.0129,0*abe46808
#BESTVELA,FILE,0,33.0,FINESTEERING,2319,306321.650,02000000,10a2,17139;SOL_COMPUTED,INS_RTKFIXED,0.000,133.000,4.0560,88.553875,0.0142,0*bc76404a
#BESTVELA,FILE,0,33.0,FINESTEERING,2319,306321.700,02000000,10a2,17139;SOL_COMPUTED,INS_RTKFIXED,0.000,133.000,4.0510,88.574712,-0.0308,0*1841b4d0
#BESTVELA,FILE,0,33.0,FINESTEERING,2319,306321.750,02000000,10a2,17139;SOL_COMPUTED,INS_RTKFIXED,0.000,133.000,4.0230,89.223308,-0.0412,0*954d2216
#BESTVELA,FILE,0,33.0,FINESTEERING,2319,306321.800,02000000,10a2,17139;SOL_COMPUTED,INS_RTKFIXED,0.000,133.000,4.0455,89.654754,-0.0489,0*1032ba15
#BESTVELA,FILE,0,33.0,FINESTEERING,2319,306321.850,02000000,10a2,17139;SOL_COMPUTED,INS_RTKFIXED,0.000,133.000,4.0233,89.443941,-0.0325,0*c98d3706
#BESTVELA,FILE,0,33.0,FINESTEERING,2319,306321.900,02000000,10a2,17139;SOL_COMPUTED,INS_RTKFIXED,0.000,133.000,4.0289,90.142918,-0.0245,0*7769c5f7
#BESTVELA,FILE,0,33.0,FINESTEERING,2319,306321.950,02000000,10a2,17139;SOL_COMPUTED,INS_RTKFIXED,0.000,133.000,4.0225,89.819827,0.0055,0*3d73b8c8
#BESTVELA,FILE,0,33.0,FINESTEERING,2319,306322.000,02000000,10a2,17139;SOL_COMPUTED,INS_RTKFIXED,0.000,133.000,4.0118,90.108362,0.0193,0*9e14a38d
#BESTVELA,FILE,0,33.0,FINESTEERING,2319,306322.050,02000000,10a2,17139;SOL_COMPUTED,INS_RTKFIXED,0.000,134.000,4.0020,89.733498,0.0508,0*d7c6908a
#BESTVELA,FILE,0,33.0,FINESTEERING,2319,306322.100,02000000,10a2,17139;SOL_COMPUTED,INS_RTKFIXED,0.000,134.000,4.0169,89.657433,0.0578,0*9b2e7fb3
#BESTVELA,FILE,0,33.0,FINESTEERING,2319,306322.150,02000000,10a2,17139;SOL_COMPUTED,INS_RTKFIXED,0.000,134.000,3.9921,89.433024,0.0437,0*22832671
#BESTVELA,FILE,0,33.0,FINESTEERING,2319,306322.200,02000000,10a2,17139;SOL_COMPUTED,INS_RTKFIXED,0.000,134.000,3.9294,89.946886,-0.0306,0*a716c76c
#BESTVELA,FILE,0,33.5,FINESTEERING,2319,306322.250,02000000,10a2,17139;SOL_COMPUTED,INS_RTKFIXED,0.000,134.000,3.9432,89.807176,-0.0596,0*c21c88d1
#BESTVELA,FILE,0,33.5,FINESTEERING,2319,306322.300,02000000,10a2,17139;SOL_COMPUTED,INS_RTKFIXED,0.000,134.000,3.8856,88.975677,-0.0372,0*0051a4fe
#BESTVELA,FILE,0,33.5,FINESTEERING,2319,306322.350,02000000,10a2,17139;SOL_COMPUTED,INS_RTKFIXED,0.000,134.000,3.8835,88.846911,-0.0532,0*c5aca726
#BESTVELA,FILE,0,33.5,FINESTEERING,2319,306322.400,02000000,10a2,17139;SOL_COMPUTED,INS_RTKFIXED,0.000,134.000,3.9055,88.605555,-0.0709,0*4621dc8a
#BESTVELA,FILE,0,33.5,FINESTEERING,2319,306322.450,02000000,10a2,17139;SOL_COMPUTED,INS_RTKFIXED,0.000,134.000,3.8969,88.645164,-0.0398,0*089eec83
#BESTVELA,FILE,0,33.5,FINESTEERING,2319,306322.500,02000000,10a2,17139;SOL_COMPUTED,INS_RTKFIXED,0.000,134.000,3.9039,88.579944,-0.0416,0*4c31e6a1
#BESTVELA,FILE,0,33.5,FINESTEERING,2319,306322.550,02000000,10a2,17139;SOL_COMPUTED,INS_RTKFIXED,0.000,134.000,3.8930,88.785199,-0.0005,0*7ad5eade
#BESTVELA,FILE,0,33.5,FINESTEERING,2319,306322.600,02000000,10a2,17139;SOL_COMPUTED,INS_RTKFIXED,0.000,134.000,3.9046,89.151940,0.0308,0*d42a7674
#BESTVELA,FILE,0,33.5,FINESTEERING,2319,306322.650,02000000,10a2,17139;SOL_COMPUTED,INS_RTKFIXED,0.000,134.000,3.9039,89.489680,0.0204,0*80792eee
#BESTVELA,FILE,0,33.5,FINESTEERING,2319,306322.700,02000000,10a2,17139;SOL_COMPUTED,INS_RTKFIXED,0.000,134.000,3.9004,89.618859,0.0293,0*871ad29c
#BESTVELA,FILE,0,33.5,FINESTEERING,2319,306322.750,02000000,10a2,17139;SOL_COMPUTED,INS_RTKFIXED,0.000,134.000,3.8787,89.897080,0.0059,0*d51c86c3
#BESTVELA,FILE,0,33.5,FINESTEERING,2319,306322.800,02000000,10a2,17139;SOL_COMPUTED,INS_RTKFIXED,0.000,134.000,3.8603,90.550031,-0.0003,0*7b5a3ca4
#BESTVELA,FILE,0,33.5,FINESTEERING,2319,306322.850,02000000,10a2,17139;SOL_COMPUTED,INS_RTKFIXED,0.000,134.000,3.8588,89.844532,0.0444,0*07b53753
#BESTVELA,FILE,0,33.5,FINESTEERING,2319,306322.900,02000000,10a2,17139;SOL_COMPUTED,INS_RTKFIXED,0.000,134.000,3.8670,89.829046,0.0337,0*72b273ea
#BESTVELA,FILE,0,33.5,FINESTEERING,2319,306322.950,02000000,10a2,17139;SOL_COMPUTED,INS_RTKFIXED,0.000,134.000,3.8588,89.298863,0.0203,0*2c915c8d
#BESTVELA,FILE,0,33.5,FINESTEERING,2319,306323.000,02000000,10a2,17139;SOL_COMPUTED,INS_RTKFIXED,0.000,134.000,3.8446,89.079262,0.0162,0*2df887fb
#BESTVELA,FILE,0,33.5,FINESTEERING,2319,306323.050,02000000,10a2,17139;SOL_COMPUTED,INS_RTKFIXED,0.000,135.000,3.8344,88.421333,0.0108,0*a11f0be3
#BESTVELA,FILE,0,32.0,FINESTEERING,2319,306323.100,02000000,10a2,17139;SOL_COMPUTED,INS_RTKFIXED,0.000,135.000,3.8025,88.343795,0.0004,0*527de841
#BESTVELA,FILE,0,32.0,FINESTEERING,2319,306323.150,02000000,10a2,17139;SOL_COMPUTED,INS_RTKFIXED,0.000,135.000,3.7888,88.288096,-0.0184,0*141df367
#BESTVELA,FILE,0,32.0,FINESTEERING,2319,306323.200,02000000,10a2,17139;SOL_COMPUTED,INS_RTKFIXED,0.000,135.000,3.7774,88.767326,-0.0076,0*3329eb96
#BESTVELA,FILE,0,32.0,FINESTEERING,2319,306323.250,02000000,10a2,17139;SOL_COMPUTED,INS_RTKFIXED,0.000,135.000,3.7788,89.140800,0.0047,0*b9188e29
#BESTVELA,FILE,0,32.0,FINESTEERING,2319,306323.300,02000000,10a2,17139;SOL_COMPUTED,INS_RTKFIXED,0.000,135.000,3.7739,89.603152,0.0047,0*e262976f
#BESTVELA,FILE,0,32.0,FINESTEERING,2319,306323.350,02000000,10a2,17139;SOL_COMPUTED,INS_RTKFIXED,0.000,135.000,3.7672,90.145741,0.0080,0*20d107ae
#BESTVELA,FILE,0,32.0,FINESTEERING,2319,306323.400,02000000,10a2,17139;SOL_COMPUTED,INS_RTKFIXED,0.000,135.000,3.7600,90.110583,0.0242,0*ff57a612
#BESTVELA,FILE,0,32.0,FINESTEERING,2319,306323.450,02000000,10a2,17139;SOL_COMPUTED,INS_RTKFIXED,0.000,135.000,3.7532,90.158481,0.0239,0*e923867d
#BESTVELA,FILE,0,32.0,FINESTEERING,2319,306323.500,02000000,10a2,17139;SOL_COMPUTED,INS_RTKFIXED,0.000,135.000,3.7495,90.168226,0.0008,0*937c1aee
#BESTVELA,FILE,0,32.0,FINESTEERING,2319,306323.550,02000000,10a2,17139;SOL_COMPUTED,INS_RTKFIXED,0.000,135.000,3.7393,90.079347,-0.0358,0*fcb45eb2
#BESTVELA,FILE,0,32.0,FINESTEERING,2319,306323.600,02000000,10a2,17139;SOL_COMPUTED,INS_RTKFIXED,0.000,135.000,3.7086,90.319829,-0.0637,0*76f9c097
#BESTVELA,FILE,0,32.0,FINESTEERING,2319,306323.650,02000000,10a2,17139;SOL_COMPUTED,INS_RTKFIXED,0.000,135.000,3.7066,89.505817,-0.0398,0*f4600bb5
#BESTVELA,FILE,0,32.0,FINESTEERING,2319,306323.700,02000000,10a2,17139;SOL_COMPUTED,INS_RTKFIXED,0.000,135.000,3.6867,89.522050,-0.0582,0*a183b56f
#BESTVELA,FILE,0,32.0,FINESTEERING,2319,306323.750,02000000,10a2,17139;SOL_COMPUTED,INS_RTKFIXED,0.000,135.000,3.6625,89.005130,-0.0215,0*94f7f49a
#BESTVELA,FILE,0,32.0,FINESTEERING,2319,306323.800,02000000,10a2,17139;SOL_COMPUTED,INS_RTKFIXED,0.000,135.000,3.6922,89.522843,-0.0127,0*9ebb1a90
#BESTVELA,FILE,0,32.0,FINESTEERING,2319,306323.850,02000000,10a2,17139;SOL_COMPUTED,INS_RTKFIXED,0.000,135.000,3.6571,89.618736,-0.0028,0*7f74aa8a
#BESTVELA,FILE,0,32.0,FINESTEERING,2319,306323.900,02000000,10a2,17139;SOL_COMPUTED,INS_RTKFIXED,0.000,135.000,3.6566,89.438846,0.0004,0*1242bf21
#BESTVELA,FILE,0,32.0,FINESTEERING,2319,306323.950,02000000,10a2,17139;SOL_COMPUTED,INS_RTKFIXED,0.000,135.000,3.6198,89.493604,0.0004,0*a04c93cd
#BESTVELA,FILE,0,32.0,FINESTEERING,2319,306324.000,02000000,10a2,17139;SOL_COMPUTED,INS_RTKFIXED,0.000,135.000,3.6101,89.316568,0.0156,0*d703d84c
#BESTVELA,FILE,0,32.0,FINESTEERING,2319,306324.050,02000000,10a2,17139;SOL_COMPUTED,INS_RTKFIXED,0.000,136.000,3.6158,89.502415,-0.0005,0*0f3271ac
#BESTVELA,FILE,0,32.0,FINESTEERING,2319,306324.100,02000000,10a2,17139;SOL_COMPUTED,INS_RTKFIXED,0.000,136.000,3.6078,88.779950,0.0305,0*346bc507
#BESTVELA,FILE,0,32.0,FINESTEERING,2319,306324.150,02000000,10a2,17139;SOL_COMPUTED,INS_RTKFIXED,0.000,136.000,3.6415,89.015083,0.0044,0*f1d24661
#BESTVELA,FILE,0,32.0,FINESTEERING,2319,306324.200,02000000,10a2,17139;SOL_COMPUTED,INS_RTKFIXED,0.000,136.000,3.5758,89.482201,-0.0472,0*0f452a72
#BESTVELA,FILE,0,32.0,FINESTEERING,2319,306324.250,02000000,10a2,17139;SOL_COMPUTED,INS_RTKFIXED,0.000,136.000,3.5845,90.477953,-0.0405,0*a954ac8b
#BESTVELA,FILE,0,32.0,FINESTEERING,2319,306324.300,02000000,10a2,17139;SOL_COMPUTED,INS_RTKFIXED,0.000,136.000,3.5879,90.122638,-0.0398,0*8a7d1c38
#BESTVELA,FILE,0,32.0,FINESTEERING,2319,306324.350,02000000,10a2,17139;SOL_COMPUTED,INS_RTKFIXED,0.000,136.000,3.5439,90.846622,-0.0524,0*37f97a7d
#BESTVELA,FILE,0,32.0,FINESTEERING,2319,306324.400,02000000,10a2,17139;SOL_COMPUTED,INS_RTKFIXED,0.000,136.000,3.5487,90.752694,-0.0555,0*a4b8a1d0
