#CORRIMUDATAA,FILE,0,28.5,FINESTEERING,2319,306304.100,02000000,e5fc,17139;2319,306304.100000000,0.0008769299423913,0.0001616252979008,0.0123409624983618,-0.0093138713541750,0.0472491154234012,0.0073300834629000*3311411e
#CORRIMUDATAA,FILE,0,31.0,FINESTEERING,2319,306304.150,02000000,e5fc,17139;2319,306304.150000000,0.0004954190918995,0.0000330206807640,0.0127194524785190,-0.0117181813194413,0.0435024748953833,0.0142400745459757*2cbeb662
#CORRIMUDATAA,FILE,0,31.0,FINESTEERING,2319,306304.200,02000000,e5fc,17139;2319,306304.200000000,0.0002337801705475,0.0000130019203006,0.0130890032330586,-0.0145636542883322,0.0464902675688962,0.0075278234315297*1aa43143
#CORRIMUDATAA,FILE,0,31.0,FINESTEERING,2319,306304.250,02000000,e5fc,17139;2319,306304.250000000,0.0000113798829134,0.0001924976175165,0.0134330287176993,-0.0151314511415970,0.0523029616577127,0.0012718432261954*0a682334
#CORRIMUDATAA,FILE,0,31.0,FINESTEERING,2319,306304.300,02000000,e5fc,17139;2319,306304.300000000,-0.0000216051172546,0.0001605058535150,0.0137697699858427,-0.0138535328399573,0.0558082138131885,-0.0039341733764120*fccc8be4
#CORRIMUDATAA,FILE,0,31.0,FINESTEERING,2319,306304.350,02000000,e5fc,17139;2319,306304.350000000,0.0000194587610423,0.0000025293632767,0.0140677111456962,-0.0144316270187849,0.0570252505827100,-0.0045651704154567*8c450dc6
#CORRIMUDATAA,FILE,0,31.0,FINESTEERING,2319,306304.400,02000000,e5fc,17139;2319,306304.400000000,-0.0000361783222472,0.0000864029892214,0.0143503539585785,-0.0180163200135433,0.0560074901013028,-0.0028644130449870*2aa8074f
#CORRIMUDATAA,FILE,0,31.0,FINESTEERING,2319,306304.450,02000000,e5fc,17139;2319,306304.450000000,-0.0001379216365338,0.0002018647519576,0.0145682963201401,-0.0207393172743703,0.0547491454521178,-0.0003838915459098*797a04f8
#CORRIMUDATAA,FILE,0,31.0,FINESTEERING,2319,306304.500,02000000,e5fc,17139;2319,306304.500000000,-0.0003450630339697,0.0001753266222149,0.0147646881533517,-0.0195714440488676,0.0511883330436479,0.0043555138912084*8e3243e5
#CORRIMUDATAA,FILE,0,31.0,FINESTEERING,2319,306304.550,02000000,e5fc,17139;2319,306304.550000000,-0.0006414327845103,0.0000832834730215,0.0149883428786286,-0.0210664390276880,0.0461993219268142,0.0055896342122277*10c64d08
#CORRIMUDATAA,FILE,0,31.0,FINESTEERING,2319,306304.600,02000000,e5fc,17139;2319,306304.600000000,-0.0006018168061312,0.0001023191901081,0.0152409069151693,-0.0219985245813750,0.0471763024486759,0.0014658449808420*1f8988d1
#CORRIMUDATAA,FILE,0,31.0,FINESTEERING,2319,306304.650,02000000,e5fc,17139;2319,306304.650000000,-0.0005106371308502,0.0002900857273080,0.0154950081873272,-0.0208506332108203,0.0471358894836637,-0.0019637193809262*80485799
#CORRIMUDATAA,FILE,0,31.0,FINESTEERING,2319,306304.700,02000000,e5fc,17139;2319,306304.700000000,-0.0004137078644260,0.0001411711480754,0.0157610207042365,-0.0210396870561933,0.0475893833013701,-0.0047701608225802*ebb492f8
#CORRIMUDATAA,FILE,0,31.0,FINESTEERING,2319,306304.750,02000000,e5fc,17139;2319,306304.750000000,-0.0003158236068852,0.0000013625121312,0.0159151963170081,-0.0257648750940841,0.0463802522410730,-0.0045754827441258*b09beb47
#CORRIMUDATAA,FILE,0,31.0,FINESTEERING,2319,306304.800,02000000,e5fc,17139;2319,306304.800000000,-0.0004878593527967,-0.0000530815647107,0.0160130582699532,-0.0277767354205492,0.0411097730395149,-0.0005389600435717*fd707af4
#CORRIMUDATAA,FILE,0,31.0,FINESTEERING,2319,306304.850,02000000,e5fc,17139;2319,306304.850000000,-0.0005037165176345,-0.0002001483267346,0.0159853306413083,-0.0316200579791405,0.0376354267406181,0.0054042702518796*45c4c6a9
#CORRIMUDATAA,FILE,0,31.0,FINESTEERING,2319,306304.900,02000000,e5fc,17139;2319,306304.900000000,-0.0006512519463147,-0.0001851020418870,0.0158943963916743,-0.0313137925718920,0.0374037536866954,-0.0011352979194499*3577490b
#CORRIMUDATAA,FILE,0,31.0,FINESTEERING,2319,306304.950,02000000,e5fc,17139;2319,306304.950000000,-0.0006648606382119,-0.0001283500741312,0.0158321358452552,-0.0295078990516199,0.0323090459493995,-0.0009370925172730*234dd598
#CORRIMUDATAA,FILE,0,31.0,FINESTEERING,2319,306305.000,02000000,e5fc,17139;2319,306305.000000000,-0.0007516189865156,-0.0001973844740829,0.0158010168053144,-0.0282352298357030,0.0280776903888857,0.0011396667057497*7ac9c2d2
#CORRIMUDATAA,FILE,0,31.0,FINESTEERING,2319,306305.050,02000800,e5fc,17139;2319,306305.050000000,-0.0008294509935546,-0.0001055879426335,0.0157435446511879,-0.0284796310650239,0.0231443643476893,-0.0008259404342985*bfe2342b
#CORRIMUDATAA,FILE,0,31.0,FINESTEERING,2319,306305.100,02000800,e5fc,17139;2319,306305.100000000,-0.0009202523608222,-0.0000417694802888,0.0157017641286616,-0.0271864801674800,0.0179477959151351,-0.0006655282525450*a1cebb15
#CORRIMUDATAA,FILE,0,32.5,FINESTEERING,2319,306305.150,02000800,e5fc,17139;2319,306305.150000000,-0.0010733345843083,-0.0000800754818410,0.0155835836515198,-0.0306207240759980,0.0115059649048643,0.0032871895816680*1d2c2a13
#CORRIMUDATAA,FILE,0,32.5,FINESTEERING,2319,306305.200,02000800,e5fc,17139;2319,306305.200000000,-0.0012181971325135,-0.0000137895845403,0.0154010107188682,-0.0324429899348306,0.0088002810049167,0.0033424195513156*7fc05b85
#CORRIMUDATAA,FILE,0,32.5,FINESTEERING,2319,306305.250,02000800,e5fc,17139;2319,306305.250000000,-0.0012595362802282,0.0000950144441428,0.0150967454479320,-0.0331059164242894,0.0036287099024402,0.0013844981311742*af62477d
#CORRIMUDATAA,FILE,0,32.5,FINESTEERING,2319,306305.300,02000800,e5fc,17139;2319,306305.300000000,-0.0012379332125987,0.0001553886657881,0.0147839094202272,-0.0321151169764493,0.0015473738719868,-0.0005294214106927*ade6ed82
#CORRIMUDATAA,FILE,0,32.5,FINESTEERING,2319,306305.350,02000800,e5fc,17139;2319,306305.350000000,-0.0010729028212170,0.0001086436408303,0.0144903425860436,-0.0311813719496641,-0.0001395223918182,-0.0049410155861537*d62d0f54
#CORRIMUDATAA,FILE,0,32.5,FINESTEERING,2319,306305.400,02000800,e5fc,17139;2319,306305.400000000,-0.0008596539803622,0.0001392505782073,0.0142632674488441,-0.0300246011146073,-0.0010320928023024,-0.0070772593762966*a656acfb
#CORRIMUDATAA,FILE,0,32.5,FINESTEERING,2319,306305.450,02000800,e5fc,17139;2319,306305.450000000,-0.0006005994457855,-0.0000114182286157,0.0140497552575762,-0.0282908814259345,-0.0035226523993641,-0.0069431481179870*d85813dd
#CORRIMUDATAA,FILE,0,32.5,FINESTEERING,2319,306305.500,02000800,e5fc,17139;2319,306305.500000000,-0.0003457402681676,-0.0002016437875707,0.0138552770014866,-0.0290600681979484,-0.0030279806688966,-0.0054437107450307*306cf31a
#CORRIMUDATAA,FILE,0,32.5,FINESTEERING,2319,306305.550,02000800,e5fc,17139;2319,306305.550000000,-0.0002266840711936,-0.0002859863171396,0.0135879236827933,-0.0294051098782020,-0.0032254929713693,-0.0019623445477429*42406d68
#CORRIMUDATAA,FILE,0,32.5,FINESTEERING,2319,306305.600,02000800,e5fc,17139;2319,306305.600000000,-0.0001373199812119,-0.0002767657237300,0.0132702448377625,-0.0296972204154297,-0.0028086866646498,-0.0003786001586706*82675113
#CORRIMUDATAA,FILE,0,32.5,FINESTEERING,2319,306305.650,02000800,e5fc,17139;2319,306305.650000000,-0.0001505631625939,-0.0003177256986107,0.0128622009319578,-0.0294573903637818,-0.0015579428342546,0.0015389780098739*40ab8d3d
#CORRIMUDATAA,FILE,0,32.5,FINESTEERING,2319,306305.700,02000800,e5fc,17139;2319,306305.700000000,-0.0002248980790483,-0.0003996194962924,0.0124414561560616,-0.0281840476216550,-0.0039869984557483,0.0006458085196868*5458f1b7
#CORRIMUDATAA,FILE,0,32.5,FINESTEERING,2319,306305.750,02000800,e5fc,17139;2319,306305.750000000,-0.0002803497468752,-0.0005798670403039,0.0120527772651270,-0.0257584867443122,-0.0034334888131722,0.0041044756518641*6831e076
#CORRIMUDATAA,FILE,0,32.5,FINESTEERING,2319,306305.800,02000800,e5fc,17139;2319,306305.800000000,-0.0003580456834747,-0.0005943013787740,0.0117671065337230,-0.0238343437859698,-0.0042936656873232,-0.0006788216658885*ff509d3f
#CORRIMUDATAA,FILE,0,32.5,FINESTEERING,2319,306305.850,02000800,e5fc,17139;2319,306305.850000000,-0.0003322455540522,-0.0004452691657710,0.0115698976053587,-0.0205469047615525,-0.0030999157531599,-0.0035227981548339*7d0c8680
#CORRIMUDATAA,FILE,0,32.5,FINESTEERING,2319,306305.900,02000800,e5fc,17139;2319,306305.900000000,-0.0002338647420678,-0.0003809635154999,0.0113746413331149,-0.0203782954800288,-0.0043446622329557,-0.0038033986163787*2dff31d1
#CORRIMUDATAA,FILE,0,32.5,FINESTEERING,2319,306305.950,02000800,e5fc,17139;2319,306305.950000000,-0.0001189053804387,-0.0003806597108248,0.0110880939343289,-0.0216957420768524,-0.0028338804860939,-0.0032451039522718*b841ce8d
#CORRIMUDATAA,FILE,0,32.5,FINESTEERING,2319,306306.000,02000800,e5fc,17139;2319,306306.000000000,-0.0001120208877148,-0.0003951065053248,0.0107286582827777,-0.0241429450707362,-0.0024344305306133,0.0005558889796853*7b93a253
#CORRIMUDATAA,FILE,0,32.5,FINESTEERING,2319,306306.050,02000800,e5fc,17139;2319,306306.050000000,-0.0000497029873024,-0.0003119128846915,0.0103307308681194,-0.0249327795031021,0.0039205522792895,0.0014351195459339*3eef0f59
#CORRIMUDATAA,FILE,0,31.0,FINESTEERING,2319,306306.100,02000800,e5fc,17139;2319,306306.100000000,0.0000093716316912,0.0000061717224296,0.0100962461425178,-0.0220930784124655,0.0155367061522443,-0.0114264392662453*82170cb2
#CORRIMUDATAA,FILE,0,31.0,FINESTEERING,2319,306306.150,02000800,e5fc,17139;2319,306306.150000000,0.0003080647368827,0.0001222111680386,0.0099967715265694,-0.0160330532295504,0.0192433666137781,-0.0051327550357880*487c736f
#CORRIMUDATAA,FILE,0,31.0,FINESTEERING,2319,306306.200,02000800,e5fc,17139;2319,306306.200000000,0.0005237042014139,0.0001110987513647,0.0099491345900368,-0.0157963941753128,0.0193636378628273,-0.0015944198571102*5ebd562a
#CORRIMUDATAA,FILE,0,31.0,FINESTEERING,2319,306306.250,02000800,e5fc,17139;2319,306306.250000000,0.0005535320123124,0.0001819960852474,0.0098291026333705,-0.0200652529928497,0.0264691551215891,-0.0013862919712586*82c13fa1
#CORRIMUDATAA,FILE,0,31.0,FINESTEERING,2319,306306.300,02000800,e5fc,17139;2319,306306.300000000,0.0005657375800684,-0.0002323968630345,0.0097246157722619,-0.0180991930706117,0.0260440530166350,0.0033196037497470*5a3337b9
#CORRIMUDATAA,FILE,0,31.0,FINESTEERING,2319,306306.350,02000800,e5fc,17139;2319,306306.350000000,0.0004208346363961,-0.0007187166558559,0.0095320969088198,-0.0233052950140846,0.0228460263241859,0.0073511809634227*93d0e9f9
#CORRIMUDATAA,FILE,0,31.0,FINESTEERING,2319,306306.400,02000800,e5fc,17139;2319,306306.400000000,0.0002274168853028,-0.0009992324463503,0.0092739827552624,-0.0280740991363500,0.0242918360796697,0.0105913712794499*c4c630e5
#CORRIMUDATAA,FILE,0,31.0,FINESTEERING,2319,306306.450,02000800,e5fc,17139;2319,306306.450000000,0.0001039824043639,-0.0007586596198423,0.0090172579732835,-0.0270097095604549,0.0269677351928064,0.0081308414901741*a72a19a4
#CORRIMUDATAA,FILE,0,31.0,FINESTEERING,2319,306306.500,02000800,e5fc,17139;2319,306306.500000000,-0.0001391896021206,-0.0002628129093915,0.0088079257673103,-0.0144480532557186,0.0287782567015532,0.0001843730943193*6967f7c8
#CORRIMUDATAA,FILE,0,31.0,FINESTEERING,2319,306306.550,02000800,e5fc,17139;2319,306306.550000000,0.0000375204135626,-0.0001852889544720,0.0087111340279683,-0.0102532787570600,0.0315449240892051,-0.0064913443651634*6f94fc48
#CORRIMUDATAA,FILE,0,31.0,FINESTEERING,2319,306306.600,02000800,e5fc,17139;2319,306306.600000000,0.0000138943015547,0.0002506449917644,0.0085778762684455,-0.0079445652708544,0.0287996260585228,-0.0044735471946736*5be9a91c
#CORRIMUDATAA,FILE,0,31.0,FINESTEERING,2319,306306.650,02000800,e5fc,17139;2319,306306.650000000,0.0003598367411206,0.0002354064695276,0.0084885457968840,-0.0163070534449162,0.0369574865606324,-0.0043861749864375*27f95085
#CORRIMUDATAA,FILE,0,31.0,FINESTEERING,2319,306306.700,02000800,e5fc,17139;2319,306306.700000000,0.0001040212815673,0.0010933484592205,0.0082953345659560,-0.0175005587752895,0.0364033879086311,0.0010357230606193*30767341
#CORRIMUDATAA,FILE,0,31.0,FINESTEERING,2319,306306.750,02000800,e5fc,17139;2319,306306.750000000,0.0005573569057276,0.0013205834942556,0.0081916514225827,-0.0173890135882048,0.0467467937010855,-0.0142179124847618*c8e8dbed
#CORRIMUDATAA,FILE,0,31.0,FINESTEERING,2319,306306.800,02000800,e5fc,17139;2319,306306.800000000,0.0004222825695133,0.0010431315214832,0.0081083597108190,-0.0148423351161893,0.0452903467867762,-0.0000064152295437*db2da4a0
#CORRIMUDATAA,FILE,0,31.0,FINESTEERING,2319,306306.850,02000800,e5fc,17139;2319,306306.850000000,0.0004556548642286,0.0000649841190648,0.0080824298778788,-0.0186339752807881,0.0489460208459179,0.0002985332665016*c94d94c5
#CORRIMUDATAA,FILE,0,31.0,FINESTEERING,2319,306306.900,02000800,e5fc,17139;2319,306306.900000000,0.0005074401267792,-0.0002796463381638,0.0078983427468288,-0.0325099590494692,0.0511363176906479,0.0083332238363033*c14458fc
#CORRIMUDATAA,FILE,0,31.0,FINESTEERING,2319,306306.950,02000800,e5fc,17139;2319,306306.950000000,0.0004912293143247,-0.0003836045575796,0.0075423354931925,-0.0261901554015733,0.0579105306128547,-0.0004383699206731*9358ff63
#CORRIMUDATAA,FILE,0,31.0,FINESTEERING,2319,306307.000,02000800,e5fc,17139;2319,306307.000000000,0.0005610919474988,-0.0008123765912053,0.0071955740283732,-0.0245045899821778,0.0600075202677426,0.0026394499610675*c2f99d99
#CORRIMUDATAA,FILE,0,31.0,FINESTEERING,2319,306307.050,02000800,e5fc,17139;2319,306307.050000000,0.0004903083269941,-0.0004542812049459,0.0069527933326854,-0.0166085456683044,0.0618398965215766,-0.0023628089455055*02983cf9
#CORRIMUDATAA,FILE,0,22.5,FINESTEERING,2319,306307.100,02000800,e5fc,17139;2319,306307.100000000,0.0007153006450659,-0.0007836808190116,0.0068472282366473,-0.0093256801455583,0.0667506200427125,-0.0055537642927550*3d3e79e0
#CORRIMUDATAA,FILE,0,22.5,FINESTEERING,2319,306307.150,02000800,e5fc,17139;2319,306307.150000000,0.0007270266082528,-0.0006790324949221,0.0066294231456239,-0.0137738468848816,0.0715266407675330,-0.0063608153015750*9793ad4b
#CORRIMUDATAA,FILE,0,22.5,FINESTEERING,2319,306307.200,02000800,e5fc,17139;2319,306307.200000000,0.0005022502856945,-0.0005437177306044,0.0062190897998980,-0.0174721941665342,0.0722132108545402,-0.0067144054606428*935fce82
#CORRIMUDATAA,FILE,0,22.5,FINESTEERING,2319,306307.250,02000000,e5fc,17139;2319,306307.250000000,0.0006786887997920,-0.0004000472176457,0.0056620616430534,-0.0203411760286883,0.0746630205219703,-0.0035519025439280*212d8d55
#CORRIMUDATAA,FILE,0,22.5,FINESTEERING,2319,306307.300,02000000,e5fc,17139;2319,306307.300000000,0.0002419182205836,-0.0009321285315218,0.0051078895587013,-0.0134735171464495,0.0682637119073788,0.0047453345005400*8759b233
#CORRIMUDATAA,FILE,0,22.5,FINESTEERING,2319,306307.350,02000000,e5fc,17139;2319,306307.350000000,0.0004335395064964,-0.0011296083480976,0.0044562074566164,-0.0247903485347617,0.0681407495722191,0.0060218231830623*3b1366ea
#CORRIMUDATAA,FILE,0,22.5,FINESTEERING,2319,306307.400,02000000,e5fc,17139;2319,306307.400000000,0.0000800737063981,-0.0006432854051890,0.0041019027778067,-0.0142684546454922,0.0646624759428871,0.0178092260747424*f629bbc4
#CORRIMUDATAA,FILE,0,22.5,FINESTEERING,2319,306307.450,02000000,e5fc,17139;2319,306307.450000000,0.0001552034899220,-0.0006860568428532,0.0037567787292752,-0.0067479689166875,0.0710771999203326,0.0049486304671156*8a8d36eb
#CORRIMUDATAA,FILE,0,22.5,FINESTEERING,2319,306307.500,02000000,e5fc,17139;2319,306307.500000000,-0.0005373654655238,-0.0006503218248022,0.0034661357202143,-0.0016428887725186,0.0625701663003502,0.0006381662023743*7367c533
#CORRIMUDATAA,FILE,0,22.5,FINESTEERING,2319,306307.550,02000000,e5fc,17139;2319,306307.550000000,-0.0004465756869519,-0.0004305664428536,0.0029186979417021,-0.0114484720926755,0.0638762664045091,0.0151652088396312*ac8365c6
#CORRIMUDATAA,FILE,0,22.5,FINESTEERING,2319,306307.600,02000000,e5fc,17139;2319,306307.600000000,-0.0006682695467053,0.0002052884211342,0.0024170738937565,-0.0037370287615821,0.0626435829821366,-0.0110635913112357*069989c3
#CORRIMUDATAA,FILE,0,22.5,FINESTEERING,2319,306307.650,02000000,e5fc,17139;2319,306307.650000000,-0.0005906498390900,0.0008678317615599,0.0017537974876656,-0.0102509279403234,0.0646426125344539,0.0056673209193680*16168fd2
#CORRIMUDATAA,FILE,0,22.5,FINESTEERING,2319,306307.700,02000000,e5fc,17139;2319,306307.700000000,-0.0007874507078588,0.0000163552744328,0.0010577846086445,-0.0044092947450302,0.0636669575424025,-0.0124484672886739*129d5378
#CORRIMUDATAA,FILE,0,22.5,FINESTEERING,2319,306307.750,02000000,e5fc,17139;2319,306307.750000000,-0.0006237413017876,-0.0006099661762656,0.0003059905050091,-0.0204474204577658,0.0588027586648188,0.0011154056642424*0b5de830
#CORRIMUDATAA,FILE,0,22.5,FINESTEERING,2319,306307.800,02000000,e5fc,17139;2319,306307.800000000,0.0001165725490332,0.0000411006791517,-0.0003099462792485,-0.0114498452642701,0.0586810834088458,-0.0006460211252576*22532581
#CORRIMUDATAA,FILE,0,22.5,FINESTEERING,2319,306307.850,02000000,e5fc,17139;2319,306307.850000000,-0.0001822267799861,0.0009502480871439,-0.0003765688029620,0.0151371002748852,0.0552099492090162,0.0016935947817104*423f41ea
#CORRIMUDATAA,FILE,0,22.5,FINESTEERING,2319,306307.900,02000000,e5fc,17139;2319,306307.900000000,0.0004676674154863,0.0005672816079543,-0.0003395066883833,0.0217461200591255,0.0567659059698569,-0.0046202747207499*20734dc9
#CORRIMUDATAA,FILE,0,22.5,FINESTEERING,2319,306307.950,02000000,e5fc,17139;2319,306307.950000000,-0.0001328822673674,0.0012441442961314,-0.0002669056617575,0.0113799597333863,0.0518421152384996,-0.0028588768106429*88acdab5
#CORRIMUDATAA,FILE,0,22.5,FINESTEERING,2319,306308.000,02000000,e5fc,17139;2319,306308.000000000,-0.0001162232610720,0.0013711115535027,-0.0002876134964536,0.0012774202703390,0.0457768427250590,0.0045986966002503*e7b6465a
#CORRIMUDATAA,FILE,0,22.5,FINESTEERING,2319,306308.050,02000000,e5fc,17139;2319,306308.050000000,0.0002554455570192,-0.0001373195945226,-0.0002046533878911,0.0027310424465704,0.0429413694226283,0.0063234262624423*eb758e8c
#CORRIMUDATAA,FILE,0,22.5,FINESTEERING,2319,306308.100,02000000,e5fc,17139;2319,306308.100000000,0.0002443343966223,-0.0007719471477197,-0.0001454074203807,-0.0175635280562646,0.0465643857396322,0.0120161011221462*b247e37e
#CORRIMUDATAA,FILE,0,30.5,FINESTEERING,2319,306308.150,02000000,e5fc,17139;2319,306308.150000000,0.0004181069418926,-0.0002629494603051,-0.0002389238824479,-0.0096185162891600,0.0541055997295718,-0.0236832526127010*f44e78c7
#CORRIMUDATAA,FILE,0,30.5,FINESTEERING,2319,306308.200,02000000,e5fc,17139;2319,306308.200000000,0.0005957925915948,-0.0004165607673329,-0.0002353625344601,0.0024259388437489,0.0483511285314406,-0.0014505506079863*453c6c58
#CORRIMUDATAA,FILE,0,30.5,FINESTEERING,2319,306308.250,02000000,e5fc,17139;2319,306308.250000000,0.0001965508094854,-0.0012124612758759,-0.0002613260589238,0.0097378170199738,0.0424280329090984,-0.0042604815837308*5c79b858
#CORRIMUDATAA,FILE,0,30.5,FINESTEERING,2319,306308.300,02000000,e5fc,17139;2319,306308.300000000,0.0002187379807190,-0.0014537408310843,-0.0001370662712848,0.0049729221779035,0.0486784779770355,-0.0127974806151445*75258f28
#CORRIMUDATAA,FILE,0,30.5,FINESTEERING,2319,306308.350,02000000,e5fc,17139;2319,306308.350000000,-0.0002803342619560,-0.0006755903289818,-0.0001202433974282,0.0032763356198335,0.0438343075200407,-0.0039975236887413*3f176e7f
#CORRIMUDATAA,FILE,0,30.5,FINESTEERING,2319,306308.400,02000000,e5fc,17139;2319,306308.400000000,-0.0005511154553651,-0.0003652976273403,-0.0001397226274515,0.0035158836006212,0.0406250127711614,0.0080060610236493*33b284b7
#CORRIMUDATAA,FILE,0,30.5,FINESTEERING,2319,306308.450,02000000,e5fc,17139;2319,306308.450000000,-0.0004032218259819,0.0002914865655690,-0.0000827973204131,0.0064941070618072,0.0463301493469561,0.0178327128242710*4e4840a7
#CORRIMUDATAA,FILE,0,30.5,FINESTEERING,2319,306308.500,02000000,e5fc,17139;2319,306308.500000000,-0.0008858117618977,0.0008226275011925,-0.0000421641773187,0.0110312487619242,0.0418934794361469,0.0170805053383593*2f250651
#CORRIMUDATAA,FILE,0,30.5,FINESTEERING,2319,306308.550,02000000,e5fc,17139;2319,306308.550000000,-0.0007551775370094,0.0011678510337128,0.0000400807572935,0.0104029933278678,0.0457053897783811,-0.0137321963551090*211e2d4f
#CORRIMUDATAA,FILE,0,30.5,FINESTEERING,2319,306308.600,02000000,e5fc,17139;2319,306308.600000000,-0.0007619942153996,0.0016367097981715,0.0000212787975137,0.0011130526931881,0.0372632848881735,0.0111164779208945*f809dbe8
#CORRIMUDATAA,FILE,0,30.5,FINESTEERING,2319,306308.650,02000000,e5fc,17139;2319,306308.650000000,-0.0007948600337566,0.0006351772435250,-0.0002615942592806,-0.0129632109666142,0.0391274130761418,0.0283054184597303*e840c5dc
#CORRIMUDATAA,FILE,0,30.5,FINESTEERING,2319,306308.700,02000000,e5fc,17139;2319,306308.700000000,-0.0015708003352470,0.0007182642790417,-0.0004214701294179,-0.0084747193505925,0.0335624180154030,0.0365774538957590*22bdae01
#CORRIMUDATAA,FILE,0,30.5,FINESTEERING,2319,306308.750,02000000,e5fc,17139;2319,306308.750000000,-0.0006481161725273,-0.0012867878357265,-0.0001629075334031,0.0069060117038078,0.0378063757715580,-0.0282056990520884*34e2745d
#CORRIMUDATAA,FILE,0,30.5,FINESTEERING,2319,306308.800,02000000,e5fc,17139;2319,306308.800000000,-0.0000600823788752,-0.0002165233928881,0.0000727792226370,-0.0009314988206231,0.0479644480867543,-0.0261942866001354*9094ecc8
#CORRIMUDATAA,FILE,0,30.5,FINESTEERING,2319,306308.850,02000000,e5fc,17139;2319,306308.850000000,0.0004458504903835,-0.0015539376054248,0.0001553971084360,0.0046407900315931,0.0471206490049224,-0.0319377849292817*73e2ce04
#CORRIMUDATAA,FILE,0,30.5,FINESTEERING,2319,306308.900,02000000,e5fc,17139;2319,306308.900000000,0.0002091123307032,-0.0018532282630245,0.0001400043312277,-0.0077200300900827,0.0437848808794972,-0.0228727065158003*0ff2ba81
#CORRIMUDATAA,FILE,0,30.5,FINESTEERING,2319,306308.950,02000000,e5fc,17139;2319,306308.950000000,-0.0003927570122936,-0.0012077842608210,-0.0000514008760451,-0.0021068781363980,0.0377929105550413,-0.0280693081750603*b0b3f840
#CORRIMUDATAA,FILE,0,30.5,FINESTEERING,2319,306309.000,02000000,e5fc,17139;2319,306309.000000000,-0.0002771650546287,0.0001246337748377,-0.0000968327899903,-0.0025937345362739,0.0402798862260276,-0.0119842889735090*0fd9cecd
#CORRIMUDATAA,FILE,0,30.5,FINESTEERING,2319,306309.050,02000000,e5fc,17139;2319,306309.050000000,-0.0001496587796121,0.0007306521685337,-0.0002092633242426,0.0103479915747343,0.0391009689288727,-0.0022627063176057*17834095
#CORRIMUDATAA,FILE,0,29.5,FINESTEERING,2319,306309.100,02000000,e5fc,17139;2319,306309.100000000,0.0005647587262351,0.0004800101795510,-0.0001484053909277,0.0129497470269431,0.0425321879773158,0.0163607498744168*10c4c3c4
#CORRIMUDATAA,FILE,0,29.5,FINESTEERING,2319,306309.150,02000000,e5fc,17139;2319,306309.150000000,0.0006161842853279,0.0009279544936768,-0.0001095418489236,0.0007244116361258,0.0412948536420247,0.0325406643436747*a0698536
#CORRIMUDATAA,FILE,0,29.5,FINESTEERING,2319,306309.200,02000000,e5fc,17139;2319,306309.200000000,0.0000819833292257,0.0007912855294024,-0.0001105305021383,0.0088993736301977,0.0386892434430660,0.0233695862210309*92338387
#CORRIMUDATAA,FILE,0,29.5,FINESTEERING,2319,306309.250,02000000,e5fc,17139;2319,306309.250000000,-0.0001866034316119,-0.0004180017653424,-0.0000032782724098,0.0010219172563516,0.0298311649329536,0.0316006571951877*3d48d15e
#CORRIMUDATAA,FILE,0,29.5,FINESTEERING,2319,306309.300,02000000,e5fc,17139;2319,306309.300000000,-0.0008182957293667,-0.0007223006397484,0.0000203818049759,-0.0165234802491521,0.0317417908744822,0.0825557755628389*ae2e2eff
#CORRIMUDATAA,FILE,0,29.5,FINESTEERING,2319,306309.350,02000000,e5fc,17139;2319,306309.350000000,0.0001158094320341,-0.0004086796245271,-0.0002936943612469,-0.0019209799028721,0.0508068795222088,-0.0569206359409518*72c1aa5c
#CORRIMUDATAA,FILE,0,29.5,FINESTEERING,2319,306309.400,02000000,e5fc,17139;2319,306309.400000000,-0.0004187987280012,0.0011657934973961,-0.0002623572695031,0.0026847831752158,0.0456963678533939,-0.0677393159252075*d610085f
#CORRIMUDATAA,FILE,0,29.5,FINESTEERING,2319,306309.450,02000000,e5fc,17139;2319,306309.450000000,0.0014438996915304,-0.0001215541671466,-0.0003610977349313,0.0163488553839683,0.0425616793641380,-0.0761233038259407*a2db11a7
#CORRIMUDATAA,FILE,0,29.5,FINESTEERING,2319,306309.500,02000000,e5fc,17139;2319,306309.500000000,0.0018579540642697,0.0007552582186558,-0.0000912343070756,0.0101558007025021,0.0307926117404876,-0.0136160703134034*b679429d
#CORRIMUDATAA,FILE,0,29.5,FINESTEERING,2319,306309.550,02000000,e5fc,17139;2319,306309.550000000,0.0027029820639581,-0.0004915441147621,0.0000042071536365,-0.0056045725836399,0.0302693018650022,-0.0041382232202953*bf4a3ae9
#CORRIMUDATAA,FILE,0,29.5,FINESTEERING,2319,306309.600,02000000,e5fc,17139;2319,306309.600000000,0.0027275505737895,0.0009749065266098,-0.0000340518259271,0.0014858342855873,0.0341469153552024,0.0316742771062138*4414edaf
#CORRIMUDATAA,FILE,0,29.5,FINESTEERING,2319,306309.650,02000000,e5fc,17139;2319,306309.650000000,0.0020244758120167,-0.0006475149383289,-0.0000529254624444,0.0139872151251879,0.0396008898510721,0.0233723315398303*4c3dea7b
#CORRIMUDATAA,FILE,0,29.5,FINESTEERING,2319,306309.700,02000000,e5fc,17139;2319,306309.700000000,-0.0004719769424422,-0.0008520066380995,-0.0000083268463879,-0.0141409617336129,0.0209916545442002,0.0560351508227886*f4904661
#CORRIMUDATAA,FILE,0,29.5,FINESTEERING,2319,306309.750,02000000,e5fc,17139;2319,306309.750000000,-0.0004019914749468,-0.0009406785506859,-0.0004188123504855,-0.0216414818349670,0.0206390170493766,0.0858980527527515*9ed1106b
#CORRIMUDATAA,FILE,0,29.5,FINESTEERING,2319,306309.800,02000000,e5fc,17139;2319,306309.800000000,-0.0016430857334146,0.0008921630520568,-0.0005062457015867,0.0124709672439207,0.0293880474067873,0.0043147582755818*092bd16a
#CORRIMUDATAA,FILE,0,29.5,FINESTEERING,2319,306309.850,02000000,e5fc,17139;2319,306309.850000000,-0.0015471419546990,-0.0002461770895958,-0.0001651317611120,0.0280141414401125,0.0381955569711391,-0.0446803394620951*55c793e6
#CORRIMUDATAA,FILE,0,29.5,FINESTEERING,2319,306309.900,02000000,e5fc,17139;2319,306309.900000000,-0.0016026274205572,0.0008921498209053,0.0002458180128445,0.0060913108112890,0.0360381370139255,-0.0237225922104581*12974e90
#CORRIMUDATAA,FILE,0,29.5,FINESTEERING,2319,306309.950,02000000,e5fc,17139;2319,306309.950000000,-0.0010319486559410,0.0006757754816491,0.0001354908477632,-0.0003625753318341,0.0278647299735862,0.0032922987734278*7b00a092
#CORRIMUDATAA,FILE,0,29.5,FINESTEERING,2319,306310.000,02000000,e5fc,17139;2319,306310.000000000,-0.0022911190808235,0.0009293613367454,-0.0000365125610665,-0.0136240416382652,0.0253411966750753,-0.0016344251752738*fa5385a9
#CORRIMUDATAA,FILE,0,29.5,FINESTEERING,2319,306310.050,02000800,e5fc,17139;2319,306310.050000000,-0.0017672567448832,0.0015115740298826,-0.0000775046209815,-0.0013163885705053,0.0269888400410006,0.0126061771884045*5c941080
#CORRIMUDATAA,FILE,0,29.5,FINESTEERING,2319,306310.100,02000800,e5fc,17139;2319,306310.100000000,-0.0028921070733874,0.0009753236694432,0.0001123626755865,0.0129037149592080,0.0257362709359497,-0.0054636890120203*27f83275
#CORRIMUDATAA,FILE,0,29.5,FINESTEERING,2319,306310.150,02000800,e5fc,17139;2319,306310.150000000,-0.0013816906781870,-0.0012364132738295,0.0000942349104084,-0.0101014937341594,0.0323171015036411,-0.0583513601308965*2f6f2021
#CORRIMUDATAA,FILE,0,29.5,FINESTEERING,2319,306310.200,02000800,e5fc,17139;2319,306310.200000000,-0.0016243996736015,-0.0002773369140269,0.0000603423970912,-0.0154336394346360,0.0246409321619374,0.0649791518375371*0fa99d29
#CORRIMUDATAA,FILE,0,29.5,FINESTEERING,2319,306310.250,02000800,e5fc,17139;2319,306310.250000000,-0.0012398802048148,-0.0021314383236505,-0.0000092912962136,-0.0076141686615625,0.0275939967784701,-0.0212351642975899*fd1ef979
#CORRIMUDATAA,FILE,0,29.5,FINESTEERING,2319,306310.300,02000800,e5fc,17139;2319,306310.300000000,0.0015569642260085,-0.0017579396054475,-0.0000442511721251,-0.0028894600795212,0.0228415674627781,-0.0520875028064229*77b1c69c
#CORRIMUDATAA,FILE,0,29.5,FINESTEERING,2319,306310.350,02000800,e5fc,17139;2319,306310.350000000,0.0027501345875479,-0.0017405735254378,-0.0004003871468655,0.0065102284236299,0.0301654087053459,-0.0409145687458644*344adc06
#CORRIMUDATAA,FILE,0,29.5,FINESTEERING,2319,306310.400,02000800,e5fc,17139;2319,306310.400000000,0.0034754267267398,0.0005832886694337,-0.0002418989739336,0.0182059188068223,0.0313065383104327,-0.0080630172584958*2983df86
#CORRIMUDATAA,FILE,0,29.5,FINESTEERING,2319,306310.450,02000800,e5fc,17139;2319,306310.450000000,0.0031058041985791,0.0012853041059497,-0.0000909792620794,0.0113950525656166,0.0254856518224023,-0.0050377752133977*2eff9a7f
#CORRIMUDATAA,FILE,0,29.5,FINESTEERING,2319,306310.500,02000800,e5fc,17139;2319,306310.500000000,0.0038894889635978,0.0008355026137200,-0.0001602246165848,0.0182399231512871,0.0229208653908978,-0.0133936387797296*1bcb09d9
#CORRIMUDATAA,FILE,0,29.5,FINESTEERING,2319,306310.550,02000800,e5fc,17139;2319,306310.550000000,0.0035067774941464,-0.0002803638926215,0.0000694068213649,0.0071920029206311,0.0244999355105166,0.0065904112616177*97605a6e
#CORRIMUDATAA,FILE,0,29.5,FINESTEERING,2319,306310.600,02000800,e5fc,17139;2319,306310.600000000,0.0034723158231561,-0.0008710371648029,0.0000239964347907,-0.0194039568731806,0.0251100648750936,0.0083224026931075*93e9a81b
#CORRIMUDATAA,FILE,0,29.5,FINESTEERING,2319,306310.650,02000800,e5fc,17139;2319,306310.650000000,0.0022936387958836,-0.0003257606689737,-0.0000358069079097,-0.0112840176227796,0.0204733063492042,0.0477893804125002*72cc28f8
#CORRIMUDATAA,FILE,0,29.5,FINESTEERING,2319,306310.700,02000800,e5fc,17139;2319,306310.700000000,0.0006145314003396,-0.0012052393647998,-0.0002787439430562,0.0032554131648166,0.0065506373953995,0.0772133639174490*8ee7feee
#CORRIMUDATAA,FILE,0,29.5,FINESTEERING,2319,306310.750,02000800,e5fc,17139;2319,306310.750000000,-0.0008451465169663,-0.0023089471413688,-0.0002905918113890,-0.0120516381682169,0.0138234315643963,0.0748170301752528*fdbb1a47
#CORRIMUDATAA,FILE,0,29.5,FINESTEERING,2319,306310.800,02000800,e5fc,17139;2319,306310.800000000,-0.0014067681846459,-0.0011396772835277,-0.0003261448471412,0.0006326198310605,0.0154521718014790,0.0236016051358611*816cb179
#CORRIMUDATAA,FILE,0,29.5,FINESTEERING,2319,306310.850,02000800,e5fc,17139;2319,306310.850000000,-0.0004603025780170,-0.0000931525639479,-0.0000974455317700,0.0140434962995933,0.0251842512734700,-0.0337852362927490*00a18735
#CORRIMUDATAA,FILE,0,29.5,FINESTEERING,2319,306310.900,02000800,e5fc,17139;2319,306310.900000000,0.0004422083669347,0.0009226509898856,0.0001807829591510,0.0219387373726510,0.0159666269722995,-0.0151220768216346*b715a06b
#CORRIMUDATAA,FILE,0,29.5,FINESTEERING,2319,306310.950,02000800,e5fc,17139;2319,306310.950000000,0.0012822074032751,0.0002764613664974,0.0000018097816786,-0.0001509562562474,0.0099572887515578,-0.0105765333316598*2481fbf2
#CORRIMUDATAA,FILE,0,29.5,FINESTEERING,2319,306311.000,02000800,e5fc,17139;2319,306311.000000000,0.0025623781791373,-0.0003706677311963,-0.0004820701954004,-0.0142774269982160,0.0177120348807987,-0.0126777477798798*dd8a9a73
#CORRIMUDATAA,FILE,0,29.5,FINESTEERING,2319,306311.050,02000800,e5fc,17139;2319,306311.050000000,0.0010889347972132,-0.0008104663470735,-0.0005362470133262,-0.0047411639019691,0.0189805778294450,-0.0420094345809911*1b1a7615
#CORRIMUDATAA,FILE,0,29.5,FINESTEERING,2319,306311.100,02000800,e5fc,17139;2319,306311.100000000,0.0022483264514395,0.0010921251255365,-0.0003789042154624,-0.0015891878241525,0.0121579777135989,0.0010297346224724*289aab4c
#CORRIMUDATAA,FILE,0,30.5,FINESTEERING,2319,306311.150,02000000,e5fc,17139;2319,306311.150000000,0.0010177900909066,-0.0001077318183270,-0.0004262162766077,0.0117131330875042,0.0134570377167142,0.0059140716586970*5c3ffaae
#CORRIMUDATAA,FILE,0,30.5,FINESTEERING,2319,306311.200,02000000,e5fc,17139;2319,306311.200000000,-0.0007551069905798,-0.0001414489810121,-0.0004286436757826,-0.0021473473613695,0.0120961576232748,0.0501322127379435*5b57c101
#CORRIMUDATAA,FILE,0,30.5,FINESTEERING,2319,306311.250,02000000,e5fc,17139;2319,306311.250000000,-0.0032553371154545,0.0000003655768970,-0.0004532714403852,0.0081583484078289,0.0091110031541042,0.0615367989183561*8a24ea4b
#CORRIMUDATAA,FILE,0,30.5,FINESTEERING,2319,306311.300,02000000,e5fc,17139;2319,306311.300000000,-0.0048260450312634,0.0000475753365078,-0.0003418965724499,0.0015489671966637,0.0093694914996676,0.0209399602801370*1e001019
#CORRIMUDATAA,FILE,0,30.5,FINESTEERING,2319,306311.350,02000000,e5fc,17139;2319,306311.350000000,-0.0060751622393428,0.0005469401348642,-0.0003814084605176,0.0068786533002651,0.0230989695693718,0.0353092777205447*ef8cbec7
#CORRIMUDATAA,FILE,0,30.5,FINESTEERING,2319,306311.400,02000000,e5fc,17139;2319,306311.400000000,-0.0070037281859278,0.0015867287157011,-0.0002551251144675,0.0104960392652914,0.0198804761488935,0.0251844210140536*a0f51d87
#CORRIMUDATAA,FILE,0,30.5,FINESTEERING,2319,306311.450,02000000,e5fc,17139;2319,306311.450000000,-0.0050389047609784,-0.0002964668930107,-0.0004327081321056,-0.0004796530806801,0.0307921870386479,-0.0807509614510011*ff3503ed
#CORRIMUDATAA,FILE,0,30.5,FINESTEERING,2319,306311.500,02000000,e5fc,17139;2319,306311.500000000,-0.0048261362833666,0.0016099433982523,-0.0003624245872288,0.0038244646637842,0.0190573953744608,0.0012874910552672*144d76cd
#CORRIMUDATAA,FILE,0,30.5,FINESTEERING,2319,306311.550,02000000,e5fc,17139;2319,306311.550000000,-0.0026531216455801,0.0000161076248564,-0.0002972361189312,0.0158636440268389,0.0315159162084936,-0.0778721746758122*d1b821a4
#CORRIMUDATAA,FILE,0,30.5,FINESTEERING,2319,306311.600,02000000,e5fc,17139;2319,306311.600000000,0.0003420269404932,0.0010427216603740,0.0000298721833587,0.0074791722348790,0.0262287106580808,-0.1020490437924493*4ced76bf
#CORRIMUDATAA,FILE,0,30.5,FINESTEERING,2319,306311.650,02000000,e5fc,17139;2319,306311.650000000,0.0037047354620849,-0.0008420645323997,-0.0000484872241522,-0.0000815711005029,0.0309352318717435,-0.0805772854955130*badd40b2
#CORRIMUDATAA,FILE,0,30.5,FINESTEERING,2319,306311.700,02000000,e5fc,17139;2319,306311.700000000,0.0065232412498162,0.0005177986465584,-0.0002926441313533,-0.0157383097363156,0.0225076240501053,-0.0572831668259433*517d9d0f
#CORRIMUDATAA,FILE,0,30.5,FINESTEERING,2319,306311.750,02000000,e5fc,17139;2319,306311.750000000,0.0077782644632929,0.0000838065870131,-0.0005008511966037,-0.0079916941646351,0.0193127202778492,-0.0221310795708674*137215c0
#CORRIMUDATAA,FILE,0,30.5,FINESTEERING,2319,306311.800,02000000,e5fc,17139;2319,306311.800000000,0.0086449181019567,0.0010651275274510,-0.0005878523117149,0.0095573687202193,0.0069190565681281,0.0104587427189012*006c017d
#CORRIMUDATAA,FILE,0,30.5,FINESTEERING,2319,306311.850,02000000,e5fc,17139;2319,306311.850000000,0.0076094429726619,0.0000737951310456,-0.0003053091625646,0.0185067938591120,0.0036404104816937,0.0434311343410242*acc60fa9
#CORRIMUDATAA,FILE,0,30.5,FINESTEERING,2319,306311.900,02000000,e5fc,17139;2319,306311.900000000,0.0061807730150231,-0.0007265410379467,-0.0002220488610968,0.0037721491144705,-0.0049443390630470,0.0660770034830652*b120b886
#CORRIMUDATAA,FILE,0,30.5,FINESTEERING,2319,306311.950,02000000,e5fc,17139;2319,306311.950000000,0.0047515745353308,-0.0022250182945380,-0.0002667175591626,-0.0099568570288646,-0.0038673492036127,0.0722317989118351*5778cc04
#CORRIMUDATAA,FILE,0,30.5,FINESTEERING,2319,306312.000,02000000,e5fc,17139;2319,306312.000000000,0.0011070796940584,-0.0007169176208764,-0.0004556975982827,-0.0200337485874478,-0.0129174368950966,0.1255683027855558*d2fda47f
#CORRIMUDATAA,FILE,0,30.5,FINESTEERING,2319,306312.050,02000000,e5fc,17139;2319,306312.050000000,-0.0017698125737626,-0.0003638197532034,-0.0008142338763702,-0.0021872756864404,-0.0132083401488712,0.1184889543427644*2d67d487
#CORRIMUDATAA,FILE,0,30.5,FINESTEERING,2319,306312.100,02000000,e5fc,17139;2319,306312.100000000,-0.0035210887072711,-0.0012967264291349,-0.0005840660902999,0.0144162843364434,-0.0114533981494580,0.0434476886484912*0b36a96e
#CORRIMUDATAA,FILE,0,30.5,FINESTEERING,2319,306312.150,02000000,e5fc,17139;2319,306312.150000000,-0.0040631548635486,0.0000368346928396,-0.0004576285740153,0.0136380477809985,-0.0088399461434596,-0.0022786303893699*627ed1c2
#CORRIMUDATAA,FILE,0,30.5,FINESTEERING,2319,306312.200,02000000,e5fc,17139;2319,306312.200000000,-0.0027121734377247,0.0000467234348886,-0.0000445464013612,0.0169040568499845,-0.0103867217700587,0.0116700866383034*e0b44003
#CORRIMUDATAA,FILE,0,30.5,FINESTEERING,2319,306312.250,02000000,e5fc,17139;2319,306312.250000000,-0.0028255594006875,0.0007643780502162,-0.0001628509475565,0.0011441692427560,-0.0148117109111352,-0.0372625804017571*f1d35386
#CORRIMUDATAA,FILE,0,30.5,FINESTEERING,2319,306312.300,02000000,e5fc,17139;2319,306312.300000000,-0.0011023190547214,0.0003978372819783,-0.0003336690240686,-0.0062774521634201,-0.0200605751292330,-0.0726405286654302*52287600
#CORRIMUDATAA,FILE,0,30.5,FINESTEERING,2319,306312.350,02000000,e5fc,17139;2319,306312.350000000,0.0005096131505239,-0.0001645349691056,-0.0004437743278058,-0.0039236705207161,-0.0083090507154599,-0.0188793328516754*22b20936
#CORRIMUDATAA,FILE,0,30.5,FINESTEERING,2319,306312.400,02000000,e5fc,17139;2319,306312.400000000,-0.0003325101810626,0.0005971312468753,-0.0003264437400242,-0.0007256845307367,-0.0168517856748808,-0.0712416420217838*24f3b267
#CORRIMUDATAA,FILE,0,30.5,FINESTEERING,2319,306312.450,02000000,e5fc,17139;2319,306312.450000000,-0.0004968373250425,0.0012178850758883,-0.0000906677395302,0.0187486150304736,-0.0305295310973541,-0.0217602910134462*6918d002
#CORRIMUDATAA,FILE,0,30.5,FINESTEERING,2319,306312.500,02000000,e5fc,17139;2319,306312.500000000,-0.0031297294856495,0.0002798820092158,0.0003743991513097,0.0022871148792875,-0.0476817457330261,0.0344379526204176*319d32e7
#CORRIMUDATAA,FILE,0,30.5,FINESTEERING,2319,306312.550,02000000,e5fc,17139;2319,306312.550000000,-0.0040211064192235,0.0001441351689716,0.0003436439947743,-0.0126059331400195,-0.0224098340019808,0.0171023846560205*e2ca1d07
#CORRIMUDATAA,FILE,0,30.5,FINESTEERING,2319,306312.600,02000000,e5fc,17139;2319,306312.600000000,-0.0062327551192613,0.0011284499047517,0.0003765394136935,-0.0090048932814835,-0.0276935990965634,0.0578512183728164*961c8b1a
#CORRIMUDATAA,FILE,0,30.5,FINESTEERING,2319,306312.650,02000000,e5fc,17139;2319,306312.650000000,-0.0071888762598922,0.0011375732730222,0.0003507663839821,0.0003525035627105,-0.0180553222797919,0.0266471776203506*92133c7e
#CORRIMUDATAA,FILE,0,30.5,FINESTEERING,2319,306312.700,02000000,e5fc,17139;2319,306312.700000000,-0.0068403486038005,0.0004645508377323,0.0003325402118896,0.0033593623685107,-0.0157520475809270,-0.0017842058717448*d735fb46
#CORRIMUDATAA,FILE,0,30.5,FINESTEERING,2319,306312.750,02000000,e5fc,17139;2319,306312.750000000,-0.0064681159628612,0.0002398241480153,0.0002170331928645,-0.0128461446159355,-0.0074467929557517,0.0432012756462071*3d0bf72d
#CORRIMUDATAA,FILE,0,30.5,FINESTEERING,2319,306312.800,02000000,e5fc,17139;2319,306312.800000000,-0.0053441566323811,-0.0012944464712448,0.0002716640210672,0.0077519387387936,-0.0048298720406956,-0.1065203114788646*c22e3930
#CORRIMUDATAA,FILE,0,30.5,FINESTEERING,2319,306312.850,02000000,e5fc,17139;2319,306312.850000000,-0.0018087520173355,0.0003919173466338,0.0006260044386981,0.0022544827165957,-0.0041388890930192,-0.1157025823644263*49cc2386
#CORRIMUDATAA,FILE,0,30.5,FINESTEERING,2319,306312.900,02000000,e5fc,17139;2319,306312.900000000,0.0020189892744325,-0.0002987963360909,0.0006659435204838,0.0030946128481250,0.0002383957792661,-0.1069856498224165*90f7ca94
#CORRIMUDATAA,FILE,0,30.5,FINESTEERING,2319,306312.950,02000000,e5fc,17139;2319,306312.950000000,0.0067215808963431,-0.0005773296607478,0.0006247496223863,-0.0127704753894846,0.0001826524026772,-0.1017184292955487*1867bc4e
#CORRIMUDATAA,FILE,0,30.5,FINESTEERING,2319,306313.000,02000000,e5fc,17139;2319,306313.000000000,0.0086087898091486,-0.0006867750178265,0.0003306710904654,-0.0195327901575016,-0.0044852312149851,-0.0441513144073425*a7927dc1
#CORRIMUDATAA,FILE,0,30.5,FINESTEERING,2319,306313.050,02000000,e5fc,17139;2319,306313.050000000,0.0099857180785868,0.0003952064690794,0.0002664688918427,0.0014214022555285,-0.0090929592384774,-0.0187931929824764*1d50d11a
#CORRIMUDATAA,FILE,0,30.5,FINESTEERING,2319,306313.100,02000000,e5fc,17139;2319,306313.100000000,0.0078998187170030,0.0007890088451379,0.0003413187300107,0.0088723356936118,-0.0183342821510771,0.0265261721836379*861397d8
#CORRIMUDATAA,FILE,0,31.0,FINESTEERING,2319,306313.150,02000000,e5fc,17139;2319,306313.150000000,0.0064348353005148,0.0003909238271037,0.0004737167575687,0.0089044181145237,-0.0251830162038072,0.0627864173200863*8b0c4a9d
#CORRIMUDATAA,FILE,0,31.0,FINESTEERING,2319,306313.200,02000000,e5fc,17139;2319,306313.200000000,0.0031154192245765,0.0004552231504030,0.0005583308215808,-0.0083801092847256,-0.0211037738916203,0.0801699990777259*6e341dad
#CORRIMUDATAA,FILE,0,31.0,FINESTEERING,2319,306313.250,02000000,e5fc,17139;2319,306313.250000000,0.0006297349886550,0.0015589538490309,0.0004372603663364,-0.0100090658982480,-0.0330324551173483,0.0863957542601716*badc6491
#CORRIMUDATAA,FILE,0,31.0,FINESTEERING,2319,306313.300,02000000,e5fc,17139;2319,306313.300000000,-0.0027852540242676,0.0011616782086298,0.0002595771848550,-0.0090492864815680,-0.0321036305213855,0.1498016387953415*0ea864a1
#CORRIMUDATAA,FILE,0,31.0,FINESTEERING,2319,306313.350,02000000,e5fc,17139;2319,306313.350000000,-0.0047312128317227,0.0000124807562564,0.0001358371383558,-0.0026747763272000,-0.0295353846861331,0.0873929818421096*9d910d3d
#CORRIMUDATAA,FILE,0,31.0,FINESTEERING,2319,306313.400,02000000,e5fc,17139;2319,306313.400000000,-0.0058124554281663,-0.0008575507485344,0.0002072032571146,0.0002983356017855,-0.0183444680058353,0.0596632141807322*47415608
#CORRIMUDATAA,FILE,0,31.0,FINESTEERING,2319,306313.450,02000000,e5fc,17139;2319,306313.450000000,-0.0052650642696196,-0.0011618605578315,0.0003974776397061,-0.0004279067489222,-0.0210832411948325,-0.0401094462379956*c6c027ba
#CORRIMUDATAA,FILE,0,31.0,FINESTEERING,2319,306313.500,02000000,e5fc,17139;2319,306313.500000000,-0.0029052129990158,-0.0004762583708629,0.0003919578739183,-0.0028132193727756,-0.0091867014697149,-0.0558119647934886*15fecc02
#CORRIMUDATAA,FILE,0,31.0,FINESTEERING,2319,306313.550,02000000,e5fc,17139;2319,306313.550000000,-0.0006200070249289,-0.0008470714237257,0.0004982788740830,-0.0029326778667434,-0.0088759457578247,-0.0867874788312023*b850caae
#CORRIMUDATAA,FILE,0,31.0,FINESTEERING,2319,306313.600,02000000,e5fc,17139;2319,306313.600000000,0.0016559209749402,0.0005701378620919,0.0004033236287929,-0.0088333765539125,-0.0087367931843111,-0.0913244167340653*cdde3576
#CORRIMUDATAA,FILE,0,31.0,FINESTEERING,2319,306313.650,02000000,e5fc,17139;2319,306313.650000000,0.0042650619040459,0.0004831140854184,0.0003648077932065,0.0045502516341966,-0.0155627865087778,-0.0790735320044819*599e34cb
#CORRIMUDATAA,FILE,0,31.0,FINESTEERING,2319,306313.700,02000000,e5fc,17139;2319,306313.700000000,0.0047397685623337,0.0013482803382141,0.0004020182904160,0.0037571340084376,-0.0084940606807715,-0.0337137471803218*dae0d23a
#CORRIMUDATAA,FILE,0,31.0,FINESTEERING,2319,306313.750,02000000,e5fc,17139;2319,306313.750000000,0.0044480769295054,0.0005597651850375,0.0004265777275164,0.0000434381201578,-0.0195329348794358,-0.0095017152688366*c483a9be
#CORRIMUDATAA,FILE,0,31.0,FINESTEERING,2319,306313.800,02000000,e5fc,17139;2319,306313.800000000,0.0021002692297076,0.0002290688275975,0.0004657911262824,-0.0077158513590060,-0.0267066980159954,0.0560772797005114*3c200bf4
#CORRIMUDATAA,FILE,0,31.0,FINESTEERING,2319,306313.850,02000000,e5fc,17139;2319,306313.850000000,-0.0006506097482488,-0.0000996593617422,0.0004383130190269,-0.0096294266019782,-0.0287356732977863,0.0593309556897287*989a6704
#CORRIMUDATAA,FILE,0,31.0,FINESTEERING,2319,306313.900,02000000,e5fc,17139;2319,306313.900000000,-0.0036330247879373,-0.0001384625076781,0.0003995793707656,-0.0077313073467705,-0.0284226380143305,0.0928422343548225*3e9d9ab4
#CORRIMUDATAA,FILE,0,31.0,FINESTEERING,2319,306313.950,02000000,e5fc,17139;2319,306313.950000000,-0.0063000249100042,-0.0002716527853517,0.0004016316899097,-0.0077143610503122,-0.0247068337809069,0.0784111696227186*f8d736bb
#CORRIMUDATAA,FILE,0,31.0,FINESTEERING,2319,306314.000,02000000,e5fc,17139;2319,306314.000000000,-0.0073164669619840,-0.0002314417596783,0.0003268682730686,-0.0001036804920125,-0.0145411833629376,0.0352856231137691*9ffb8fc4
#CORRIMUDATAA,FILE,0,31.0,FINESTEERING,2319,306314.050,02000000,e5fc,17139;2319,306314.050000000,-0.0074946627152390,0.0002688017243267,0.0004298157356703,0.0070303131721187,-0.0140743507818539,-0.0245611788429394*4d67d991
#CORRIMUDATAA,FILE,0,30.0,FINESTEERING,2319,306314.100,02000000,e5fc,17139;2319,306314.100000000,-0.0065794867978259,0.0004473700033963,0.0003832888684213,0.0008481052691764,-0.0135628650404834,0.0363793472116304*00c2db81
#CORRIMUDATAA,FILE,0,30.0,FINESTEERING,2319,306314.150,02000000,e5fc,17139;2319,306314.150000000,-0.0055576814838733,-0.0000149890276962,0.0004561899423075,0.0057321322553108,-0.0013773304445564,-0.0843299878419521*a2ec38db
#CORRIMUDATAA,FILE,0,30.0,FINESTEERING,2319,306314.200,02000000,e5fc,17139;2319,306314.200000000,-0.0025773883300449,0.0006201368913248,0.0006085447312160,0.0000666744757344,-0.0060637057015822,-0.1091663264091796*5d3b7903
#CORRIMUDATAA,FILE,0,30.0,FINESTEERING,2319,306314.250,02000000,e5fc,17139;2319,306314.250000000,0.0023620463629076,-0.0001030754779938,0.0004838401148768,-0.0118287720738052,-0.0041164592673385,-0.1066757034460640*ef746998
#CORRIMUDATAA,FILE,0,30.0,FINESTEERING,2319,306314.300,02000000,e5fc,17139;2319,306314.300000000,0.0068167621208888,0.0000021397503614,0.0004549515679849,-0.0098644332103073,0.0004780240121894,-0.0961059390732795*9aa4b1be
#CORRIMUDATAA,FILE,0,30.0,FINESTEERING,2319,306314.350,02000000,e5fc,17139;2319,306314.350000000,0.0091773792180309,-0.0008741546775552,0.0003448966809294,-0.0078640910793596,-0.0023097068724792,-0.0524552787402321*7ab7837a
#CORRIMUDATAA,FILE,0,30.0,FINESTEERING,2319,306314.400,02000000,e5fc,17139;2319,306314.400000000,0.0095609160032502,-0.0010895885115225,0.0005263376639545,0.0004945819500061,-0.0147036058549365,-0.0224436708573324*dd020b63
#CORRIMUDATAA,FILE,0,30.0,FINESTEERING,2319,306314.450,02000000,e5fc,17139;2319,306314.450000000,0.0085864293454927,-0.0023252101668853,0.0006946912015689,0.0019744356102961,-0.0159329446289788,0.0205116095059264*08d0c912
#CORRIMUDATAA,FILE,0,30.0,FINESTEERING,2319,306314.500,02000000,e5fc,17139;2319,306314.500000000,0.0061308126551298,-0.0027459625926129,0.0008388612510732,-0.0099640813492493,-0.0248831111897001,0.0449518363565850*4eb8cbad
#CORRIMUDATAA,FILE,0,30.0,FINESTEERING,2319,306314.550,02000000,e5fc,17139;2319,306314.550000000,0.0036188198711956,-0.0021371133417912,0.0007245713827749,-0.0133924744512826,-0.0231608346673419,0.0652377945220114*1a73f38c
#CORRIMUDATAA,FILE,0,30.0,FINESTEERING,2319,306314.600,02000000,e5fc,17139;2319,306314.600000000,0.0014242869462998,-0.0008994636141655,0.0005957559678716,-0.0007163111877551,-0.0253774264943629,0.0591026063191252*88546b59
#CORRIMUDATAA,FILE,0,30.0,FINESTEERING,2319,306314.650,02000000,e5fc,17139;2319,306314.650000000,-0.0005733026164429,-0.0001192594658090,0.0006383933235950,0.0016834302251183,-0.0324368116672846,0.0738492817173382*baeb1146
#CORRIMUDATAA,FILE,0,30.0,FINESTEERING,2319,306314.700,02000000,e5fc,17139;2319,306314.700000000,-0.0024350161944460,0.0010477807503848,0.0005368581494129,-0.0022525986004607,-0.0395997365918919,0.1674646016093096*c7518cd0
#CORRIMUDATAA,FILE,0,30.0,FINESTEERING,2319,306314.750,02000000,e5fc,17139;2319,306314.750000000,-0.0033955025420707,0.0009372213664704,0.0004928261166708,0.0116050523550586,-0.0219228737877332,0.0784105304330015*faee283c
#CORRIMUDATAA,FILE,0,30.0,FINESTEERING,2319,306314.800,02000000,e5fc,17139;2319,306314.800000000,-0.0043735545603605,0.0010536898135881,0.0005860556684348,0.0078887368857025,-0.0225172030664220,0.0194027919328926*941791cd
#CORRIMUDATAA,FILE,0,30.0,FINESTEERING,2319,306314.850,02000000,e5fc,17139;2319,306314.850000000,-0.0032214751589709,-0.0008691865425479,0.0006532191469724,-0.0077907847530198,-0.0208132205646038,-0.0368810528077607*a9a32965
#CORRIMUDATAA,FILE,0,30.0,FINESTEERING,2319,306314.900,02000000,e5fc,17139;2319,306314.900000000,-0.0007361613011174,0.0011413107942021,0.0003716166341753,-0.0287570428892901,-0.0161321150387961,-0.0655336382241827*cb7f2617
#CORRIMUDATAA,FILE,0,30.0,FINESTEERING,2319,306314.950,02000000,e5fc,17139;2319,306314.950000000,0.0018274005538390,0.0001421807462844,0.0002678386436364,-0.0089976657101329,-0.0077102931669491,-0.0912894206047621*1e2a23d7
#CORRIMUDATAA,FILE,0,30.0,FINESTEERING,2319,306315.000,02000000,e5fc,17139;2319,306315.000000000,0.0035292364601500,-0.0005931787490585,0.0003236275764031,0.0050308733597071,-0.0143266345133723,-0.0784923192575831*52ed0f82
#CORRIMUDATAA,FILE,0,30.0,FINESTEERING,2319,306315.050,02000000,e5fc,17139;2319,306315.050000000,0.0040573066598512,-0.0024189823512108,0.0005013645039292,-0.0007847686325643,-0.0198241904095358,-0.0591211946123262*8d972301
#CORRIMUDATAA,FILE,0,30.0,FINESTEERING,2319,306315.100,02000000,e5fc,17139;2319,306315.100000000,0.0037360745353372,-0.0025666407014425,0.0004731455257876,-0.0168960231295231,-0.0264948763306903,-0.0111463817598747*361046d4
#CORRIMUDATAA,FILE,0,31.5,FINESTEERING,2319,306315.150,02000000,e5fc,17139;2319,306315.150000000,0.0024976254084875,-0.0019790741904263,0.0004967088305948,-0.0077619408014651,-0.0254171135543391,0.0237331646735274*8a302778
#CORRIMUDATAA,FILE,0,31.5,FINESTEERING,2319,306315.200,02000000,e5fc,17139;2319,306315.200000000,-0.0001612356254336,-0.0002525877494158,0.0005329024809638,0.0070634618821355,-0.0353639198451677,0.0845406373785298*6e9e6f34
#CORRIMUDATAA,FILE,0,31.5,FINESTEERING,2319,306315.250,02000000,e5fc,17139;2319,306315.250000000,-0.0022932041783604,-0.0001765467847315,0.0006016871450730,0.0105232821804676,-0.0234418479592796,0.0662434442318480*759e785f
#CORRIMUDATAA,FILE,0,31.5,FINESTEERING,2319,306315.300,02000000,e5fc,17139;2319,306315.300000000,-0.0048735042352252,0.0008581767211950,0.0004659714929060,0.0003861856654798,-0.0279721287752804,0.0499485150284231*9ece033d
#CORRIMUDATAA,FILE,0,31.5,FINESTEERING,2319,306315.350,02000000,e5fc,17139;2319,306315.350000000,-0.0064717532834009,0.0015234563294487,0.0003119598385376,0.0035648638125478,-0.0286247309635188,0.0657545513753552*f8384f01
#CORRIMUDATAA,FILE,0,31.5,FINESTEERING,2319,306315.400,02000000,e5fc,17139;2319,306315.400000000,-0.0077303041590748,0.0017227022912930,0.0005225057231058,0.0095931220788358,-0.0241736838747150,0.0500061795217329*cabc524c
#CORRIMUDATAA,FILE,0,31.5,FINESTEERING,2319,306315.450,02000000,e5fc,17139;2319,306315.450000000,-0.0077776808420398,0.0017784894189770,0.0006190138606110,-0.0059820936095272,-0.0111178007244823,-0.0057134125870855*940653d1
#CORRIMUDATAA,FILE,0,31.5,FINESTEERING,2319,306315.500,02000000,e5fc,17139;2319,306315.500000000,-0.0069590011988712,0.0013674525827974,0.0005024175078954,-0.0043283777227786,-0.0088162660010279,-0.0691861906125769*dba54ccd
#CORRIMUDATAA,FILE,0,31.5,FINESTEERING,2319,306315.550,02000000,e5fc,17139;2319,306315.550000000,-0.0042563303229369,0.0007702971011242,0.0003427967083477,-0.0090202550848547,-0.0069381468987479,-0.0711201060220185*8c036de4
#CORRIMUDATAA,FILE,0,31.5,FINESTEERING,2319,306315.600,02000000,e5fc,17139;2319,306315.600000000,-0.0020132539965721,-0.0003380465874567,0.0001966223100751,-0.0153470559609415,-0.0079158688266488,-0.0658767682024758*5b01e47f
#CORRIMUDATAA,FILE,0,31.5,FINESTEERING,2319,306315.650,02000000,e5fc,17139;2319,306315.650000000,0.0004511834340330,-0.0012670790047047,0.0003028853574515,-0.0056852575963535,-0.0126391576537922,-0.0683521605100241*164663b6
#CORRIMUDATAA,FILE,0,31.5,FINESTEERING,2319,306315.700,02000000,e5fc,17139;2319,306315.700000000,0.0031772428346822,-0.0013113348186801,0.0003950105205940,-0.0113540499930322,-0.0103352473143643,-0.0752493380059287*768accac
#CORRIMUDATAA,FILE,0,31.5,FINESTEERING,2319,306315.750,02000000,e5fc,17139;2319,306315.750000000,0.0050783140513368,-0.0004656336565974,0.0003990461863196,0.0035756311120890,-0.0149031593486374,-0.0429787828682828*650eca29
#CORRIMUDATAA,FILE,0,31.5,FINESTEERING,2319,306315.800,02000000,e5fc,17139;2319,306315.800000000,0.0068208143576888,-0.0010403268080420,0.0004050447814551,0.0027850007269280,-0.0066462397681490,-0.0249991510119753*b8811a10
#CORRIMUDATAA,FILE,0,31.5,FINESTEERING,2319,306315.850,02000000,e5fc,17139;2319,306315.850000000,0.0065283009850457,-0.0006422725924322,0.0003397203508040,0.0046512231920333,-0.0165714497337134,-0.0112407301570520*1760ab11
#CORRIMUDATAA,FILE,0,31.5,FINESTEERING,2319,306315.900,02000000,e5fc,17139;2319,306315.900000000,0.0060411144327676,-0.0005327450898015,0.0002951291336874,-0.0050803202198429,-0.0141714641869988,0.0087246003846890*31f88831
#CORRIMUDATAA,FILE,0,31.5,FINESTEERING,2319,306315.950,02000000,e5fc,17139;2319,306315.950000000,0.0048921200450805,-0.0000930119097732,0.0002371525885553,0.0041764229233388,-0.0229430111735123,0.0210873205367506*41e6626e
#CORRIMUDATAA,FILE,0,31.5,FINESTEERING,2319,306316.000,02000000,e5fc,17139;2319,306316.000000000,0.0033162414336957,-0.0001293631016290,0.0003685073231034,0.0034135642724547,-0.0219891052892747,0.0360395492501352*5790ed0f
#CORRIMUDATAA,FILE,0,31.5,FINESTEERING,2319,306316.050,02000000,e5fc,17139;2319,306316.050000000,0.0013596240440640,-0.0002129639882521,0.0004915943808837,-0.0024110302265803,-0.0260918892052034,0.0498994273940595*1248d198
#CORRIMUDATAA,FILE,0,31.5,FINESTEERING,2319,306316.100,02000000,e5fc,17139;2319,306316.100000000,-0.0003495211638760,-0.0001425580732831,0.0003443625412531,-0.0076611612714958,-0.0207836492213922,0.0624175454464056*b77f4d3e
#CORRIMUDATAA,FILE,0,31.5,FINESTEERING,2319,306316.150,02000000,e5fc,17139;2319,306316.150000000,-0.0014186842616559,-0.0002754093524863,0.0000125611793028,-0.0165218479409928,-0.0242940334123470,0.0494034466854238*47d02bdc
#CORRIMUDATAA,FILE,0,31.5,FINESTEERING,2319,306316.200,02000000,e5fc,17139;2319,306316.200000000,-0.0021538506414578,0.0008015022002883,-0.0002394030120621,-0.0025943207495488,-0.0286461565334788,0.0619767621601002*66a33315
#CORRIMUDATAA,FILE,0,31.5,FINESTEERING,2319,306316.250,02000000,e5fc,17139;2319,306316.250000000,-0.0028527501316133,0.0003706314190380,-0.0002801619221084,0.0128208691606332,-0.0248358835840848,0.0501943960965815*356a05a6
#CORRIMUDATAA,FILE,0,31.5,FINESTEERING,2319,306316.300,02000000,e5fc,17139;2319,306316.300000000,-0.0032642971869055,0.0010525772186299,-0.0000197989515446,0.0107678747086911,-0.0228130745242895,0.0399042369336676*56738ec1
#CORRIMUDATAA,FILE,0,31.5,FINESTEERING,2319,306316.350,02000000,e5fc,17139;2319,306316.350000000,-0.0030127482275080,0.0003802540244715,-0.0000427302600000,0.0096304483179315,-0.0213548864364147,-0.0308063990215715*eb4c507b
#CORRIMUDATAA,FILE,0,31.5,FINESTEERING,2319,306316.400,02000000,e5fc,17139;2319,306316.400000000,-0.0013750289703146,-0.0001340380123982,-0.0001611320836518,-0.0059097029800256,-0.0193268573468836,-0.0494262068117524*1f8aabd9
#CORRIMUDATAA,FILE,0,31.5,FINESTEERING,2319,306316.450,02000000,e5fc,17139;2319,306316.450000000,0.0000251295149664,-0.0007692232249152,-0.0004321434102120,-0.0153625828595341,-0.0157412788810931,-0.0386088965544772*dfb700c5
#CORRIMUDATAA,FILE,0,31.5,FINESTEERING,2319,306316.500,02000000,e5fc,17139;2319,306316.500000000,0.0011943838884631,0.0003703403198361,-0.0010543111076465,-0.0165066037877180,-0.0148413323128686,-0.0567605807372306*93d079d5
#CORRIMUDATAA,FILE,0,31.5,FINESTEERING,2319,306316.550,02000000,e5fc,17139;2319,306316.550000000,0.0014568980576531,-0.0004688151206638,-0.0013236171573302,0.0029293020414640,-0.0181200489511247,-0.0419838780909829*1ca8ec81
#CORRIMUDATAA,FILE,0,31.5,FINESTEERING,2319,306316.600,02000000,e5fc,17139;2319,306316.600000000,0.0014121841749132,-0.0010943398725745,-0.0016370860568188,0.0077368601014952,-0.0160518730274927,-0.0290659924728686*82897991
#CORRIMUDATAA,FILE,0,31.5,FINESTEERING,2319,306316.650,02000000,e5fc,17139;2319,306316.650000000,0.0010229389615956,-0.0016725020740446,-0.0015759496754597,0.0066902331820020,-0.0283917235940923,-0.0210043702105922*04b22557
#CORRIMUDATAA,FILE,0,31.5,FINESTEERING,2319,306316.700,02000000,e5fc,17139;2319,306316.700000000,0.0009109051460049,-0.0020555467470178,-0.0016616924424459,0.0070998044406842,-0.0271242384295024,0.0279285894857779*5ea284de
#CORRIMUDATAA,FILE,0,31.5,FINESTEERING,2319,306316.750,02000000,e5fc,17139;2319,306316.750000000,0.0009147461004688,-0.0013068408959104,-0.0015954795761133,0.0113413293451109,-0.0227655464533468,0.0283015312420792*c46ca35e
#CORRIMUDATAA,FILE,0,31.5,FINESTEERING,2319,306316.800,02000000,e5fc,17139;2319,306316.800000000,-0.0000195234507791,0.0004265740378274,-0.0016243266881015,0.0202099876362878,-0.0227359932806767,0.0269960442360718*396ce466
#CORRIMUDATAA,FILE,0,31.5,FINESTEERING,2319,306316.850,02000000,e5fc,17139;2319,306316.850000000,-0.0002541637773699,0.0011211915679847,-0.0015697408229570,0.0088988748513302,-0.0208145727911319,0.0460998078574923*eefa9e8e
#CORRIMUDATAA,FILE,0,31.5,FINESTEERING,2319,306316.900,02000000,e5fc,17139;2319,306316.900000000,-0.0016251307113777,0.0022895127942524,-0.0018068449536672,0.0026984088288077,-0.0236006945561324,0.0310734389053168*f2f9e0c2
#CORRIMUDATAA,FILE,0,31.5,FINESTEERING,2319,306316.950,02000000,e5fc,17139;2319,306316.950000000,-0.0024313829264216,0.0019600529300695,-0.0019279399420856,0.0100324512106022,-0.0249998387997094,0.0410505711843301*937d9eaa
#CORRIMUDATAA,FILE,0,31.5,FINESTEERING,2319,306317.000,02000000,e5fc,17139;2319,306317.000000000,-0.0033201783141199,0.0013604381946768,-0.0018490842578804,0.0144016617531611,-0.0198748677017762,0.0027464536910996*f9919eca
#CORRIMUDATAA,FILE,0,31.5,FINESTEERING,2319,306317.050,02000000,e5fc,17139;2319,306317.050000000,-0.0027536856343063,0.0014548235596797,-0.0014704614267446,0.0142598893258131,-0.0136678778408608,-0.0200023964823819*1dba6244
#CORRIMUDATAA,FILE,0,31.5,FINESTEERING,2319,306317.100,02000000,e5fc,17139;2319,306317.100000000,-0.0020764272995082,0.0011500210516072,-0.0012996281442549,0.0059441408100367,-0.0146380376088954,-0.0653077084658686*402c9ff0
#CORRIMUDATAA,FILE,0,31.5,FINESTEERING,2319,306317.150,02000000,e5fc,17139;2319,306317.150000000,-0.0010034151119895,0.0005111152033650,-0.0014175934384489,-0.0010961448462636,-0.0097175280049603,-0.0441986550211890*30f42092
#CORRIMUDATAA,FILE,0,31.5,FINESTEERING,2319,306317.200,02000000,e5fc,17139;2319,306317.200000000,-0.0005355898015187,-0.0001840266784509,-0.0016382844925188,-0.0048794324575244,-0.0147253703046982,-0.0497453775375079*a60e36d5
#CORRIMUDATAA,FILE,0,31.5,FINESTEERING,2319,306317.250,02000000,e5fc,17139;2319,306317.250000000,-0.0007500428628720,-0.0005750620328192,-0.0017979964951142,-0.0100127804024618,-0.0164675577425666,0.0171515857545408*07003c3e
#CORRIMUDATAA,FILE,0,31.5,FINESTEERING,2319,306317.300,02000000,e5fc,17139;2319,306317.300000000,-0.0016205653735509,-0.0009154786857300,-0.0018551946118297,0.0023455053693222,-0.0216958479283202,0.0140206753108289*0696ff2f
#CORRIMUDATAA,FILE,0,31.5,FINESTEERING,2319,306317.350,02000000,e5fc,17139;2319,306317.350000000,-0.0022966464388184,-0.0014399281534811,-0.0018002576083506,0.0116637311156813,-0.0169242186285114,0.0325835011237188*fab9e7e2
#CORRIMUDATAA,FILE,0,31.5,FINESTEERING,2319,306317.400,02000000,e5fc,17139;2319,306317.400000000,-0.0037484838224085,-0.0022714108030612,-0.0014095320802095,0.0087345163933242,-0.0155118479239043,0.0275708199722746*a61c3b7b
