#INSPVAXA,FILE,0,28.5,FINESTEERING,2319,306304.100,02000000,46eb,17139;INS_SOLUTION_GOOD,INS_RTKFIXED,17.59203696367,78.12248310758,532.1354,-76.2000,-0.7234,0.8700,-0.0137,1.377277148,0.491859511,127.046049677,0.3035,0.3166,0.4295,0.0236,0.0239,0.0206,0.0192,0.0193,0.4788,ab000342,0*b739f5be
#INSPVAXA,FILE,0,31.0,FINESTEERING,2319,306304.150,02000000,46eb,17139;INS_SOLUTION_GOOD,INS_RTKFIXED,17.59203669393,78.12248351481,532.1355,-76.2000,-0.7378,0.9109,0.0029,1.369774390,0.531190572,126.308148662,0.3035,0.3166,0.4295,0.0236,0.0239,0.0206,0.0192,0.0193,0.4788,ab000342,0*38c2fdbf
#INSPVAXA,FILE,0,31.0,FINESTEERING,2319,306304.200,02000000,46eb,17139;INS_SOLUTION_GOOD,INS_RTKFIXED,17.59203641699,78.12248394357,532.1360,-76.2000,-0.7520,0.9596,0.0078,1.366309202,0.558113529,125.548716465,0.3035,0.3166,0.4295,0.0236,0.0239,0.0206,0.0192,0.0193,0.4788,ab000342,0*b7d7f16d
#INSPVAXA,FILE,0,31.0,FINESTEERING,2319,306304.250,02000000,46eb,17139;INS_SOLUTION_GOOD,INS_RTKFIXED,17.59203613197,78.12248439629,532.1366,-76.2000,-0.7715,1.0127,0.0057,1.369571751,0.575036772,124.769630396,0.3035,0.3166,0.4295,0.0236,0.0239,0.0206,0.0192,0.0193,0.4788,ab000342,0*6573ea78
#INSPVAXA,FILE,0,31.0,FINESTEERING,2319,306304.300,02000000,46eb,17139;INS_SOLUTION_GOOD,INS_RTKFIXED,17.59203583786,78.12248487421,532.1371,-76.2000,-0.7899,1.0674,0.0040,1.369419049,0.591370333,123.972401005,0.3035,0.3166,0.4295,0.0236,0.0239,0.0206,0.0192,0.0193,0.4788,ab000342,0*58715062
#INSPVAXA,FILE,0,31.0,FINESTEERING,2319,306304.350,02000000,46eb,17139;INS_SOLUTION_GOOD,INS_RTKFIXED,17.59203553487,78.12248537823,532.1374,-76.2000,-0.8081,1.1226,-0.0016,1.357929064,0.612465613,123.158107632,0.3035,0.3166,0.4295,0.0236,0.0239,0.0206,0.0192,0.0193,0.4788,ab000342,0*c7d40cf2
#INSPVAXA,FILE,0,31.0,FINESTEERING,2319,306304.400,02000000,46eb,17139;INS_SOLUTION_GOOD,INS_RTKFIXED,17.59203522474,78.12248590891,532.1376,-76.2000,-0.8207,1.1808,-0.0014,1.355536042,0.632051250,122.328740602,0.3035,0.3166,0.4295,0.0236,0.0239,0.0206,0.0192,0.0193,0.4788,ab000342,0*fe336098
#INSPVAXA,FILE,0,31.0,FINESTEERING,2319,306304.450,02000000,46eb,17139;INS_SOLUTION_GOOD,INS_RTKFIXED,17.59203490924,78.12248646669,532.1379,-76.2000,-0.8297,1.2365,0.0014,1.363107188,0.636239411,121.488138112,0.3035,0.3166,0.4295,0.0236,0.0239,0.0206,0.0192,0.0193,0.4788,ab000342,0*67445cd8
#INSPVAXA,FILE,0,31.0,FINESTEERING,2319,306304.500,02000000,46eb,17139;INS_SOLUTION_GOOD,INS_RTKFIXED,17.59203458912,78.12248704989,532.1384,-76.2000,-0.8380,1.2888,0.0081,1.357116642,0.633483695,120.635367214,0.3035,0.3166,0.4295,0.0236,0.0239,0.0206,0.0192,0.0193,0.4788,ab000342,0*8340ad75
#INSPVAXA,FILE,0,31.0,FINESTEERING,2319,306304.550,02000000,46eb,17139;INS_SOLUTION_GOOD,INS_RTKFIXED,17.59203426646,78.12248765696,532.1392,-76.2000,-0.8410,1.3379,0.0148,1.351918758,0.614036957,119.769169892,0.3035,0.3166,0.4295,0.0236,0.0239,0.0206,0.0192,0.0193,0.4788,ab000342,0*6ce5e07c
#INSPVAXA,FILE,0,31.0,FINESTEERING,2319,306304.600,02000000,46eb,17139;INS_SOLUTION_GOOD,INS_RTKFIXED,17.59203394183,78.12248828840,532.1402,-76.2000,-0.8436,1.3903,0.0138,1.352493965,0.599959375,118.887816119,0.3035,0.3166,0.4295,0.0236,0.0239,0.0206,0.0192,0.0193,0.4788,ab000342,0*a01a5b56
#INSPVAXA,FILE,0,31.0,FINESTEERING,2319,306304.650,02000000,46eb,17139;INS_SOLUTION_GOOD,INS_RTKFIXED,17.59203361526,78.12248894404,532.1411,-76.2000,-0.8480,1.4416,0.0121,1.358514085,0.597881161,117.992189295,0.3035,0.3166,0.4295,0.0236,0.0239,0.0206,0.0192,0.0193,0.4788,ab000342,0*99799bd2
#INSPVAXA,FILE,0,31.0,FINESTEERING,2319,306304.700,02000000,46eb,17139;INS_SOLUTION_GOOD,INS_RTKFIXED,17.59203328695,78.12248962418,532.1418,-76.2000,-0.8475,1.4935,0.0085,1.354358432,0.595411134,117.082140479,0.3035,0.3166,0.4295,0.0236,0.0239,0.0206,0.0192,0.0193,0.4788,ab000342,0*b6d383f4
#INSPVAXA,FILE,0,31.0,FINESTEERING,2319,306304.750,02000000,46eb,17139;INS_SOLUTION_GOOD,INS_RTKFIXED,17.59203295946,78.12249032926,532.1424,-76.2000,-0.8436,1.5465,0.0046,1.341261297,0.599930174,116.165625813,0.3035,0.3166,0.4295,0.0236,0.0239,0.0206,0.0192,0.0193,0.4788,ab000342,0*cffa8d01
#INSPVAXA,FILE,0,31.0,FINESTEERING,2319,306304.800,02000000,46eb,17139;INS_SOLUTION_GOOD,INS_RTKFIXED,17.59203263485,78.12249105770,532.1430,-76.2000,-0.8322,1.5927,0.0094,1.325938761,0.591207872,115.245577253,0.3035,0.3166,0.4295,0.0236,0.0239,0.0206,0.0192,0.0193,0.4788,ab000342,0*d8f4cfd3
#INSPVAXA,FILE,0,31.0,FINESTEERING,2319,306304.850,02000000,46eb,17139;INS_SOLUTION_GOOD,INS_RTKFIXED,17.59203231575,78.12249180847,532.1439,-76.2000,-0.8181,1.6410,0.0147,1.300311175,0.582056289,114.329383073,0.3035,0.3166,0.4295,0.0236,0.0239,0.0206,0.0192,0.0193,0.4788,ab000342,0*b95d440f
#INSPVAXA,FILE,0,31.0,FINESTEERING,2319,306304.900,02000000,46eb,17139;INS_SOLUTION_GOOD,INS_RTKFIXED,17.59203200253,78.12249258137,532.1448,-76.2000,-0.8037,1.6853,0.0109,1.282339513,0.563036906,113.419011534,0.3035,0.3166,0.4295,0.0236,0.0239,0.0206,0.0192,0.0193,0.4788,ab000342,0*bf97a094
#INSPVAXA,FILE,0,31.0,FINESTEERING,2319,306304.950,02000000,46eb,17139;INS_SOLUTION_GOOD,INS_RTKFIXED,17.59203169576,78.12249337399,532.1457,-76.2000,-0.7878,1.7250,0.0143,1.268917246,0.540795875,112.511031646,0.3035,0.3166,0.4295,0.0236,0.0239,0.0206,0.0192,0.0193,0.4788,ab000342,0*964df7c6
#INSPVAXA,FILE,0,31.0,FINESTEERING,2319,306305.000,02000000,46eb,17139;INS_SOLUTION_GOOD,INS_RTKFIXED,17.59203139573,78.12249418400,532.1467,-76.2000,-0.7697,1.7597,0.0153,1.246466367,0.517943413,111.604711946,0.3035,0.3166,0.4295,0.0236,0.0239,0.0206,0.0192,0.0193,0.4788,ab000342,0*abbbd463
#INSPVAXA,FILE,0,31.0,FINESTEERING,2319,306305.050,02000800,46eb,17139;INS_SOLUTION_GOOD,INS_RTKFIXED,17.59203111545,78.12249500248,532.1479,-76.2000,-0.7506,1.7892,0.0161,1.235207862,0.491166141,110.701521212,0.3039,0.3159,0.4308,0.0254,0.0250,0.0214,0.0194,0.0194,0.4791,ab000342,0*14bd196b
#INSPVAXA,FILE,0,31.0,FINESTEERING,2319,306305.100,02000800,46eb,17139;INS_SOLUTION_GOOD,INS_RTKFIXED,17.59203086552,78.12249581831,532.1497,-76.2000,-0.7286,1.8118,0.0165,1.224502738,0.454144031,109.800406384,0.3039,0.3159,0.4308,0.0254,0.0250,0.0214,0.0194,0.0194,0.4791,ab000342,0*7a9c7fc2
#INSPVAXA,FILE,0,32.5,FINESTEERING,2319,306305.150,02000800,46eb,17139;INS_SOLUTION_GOOD,INS_RTKFIXED,17.59203062664,78.12249664419,532.1517,-76.2000,-0.7014,1.8308,0.0191,1.212514262,0.410189443,108.907868123,0.3039,0.3159,0.4308,0.0254,0.0250,0.0214,0.0194,0.0194,0.4791,ab000342,0*15150224
#INSPVAXA,FILE,0,32.5,FINESTEERING,2319,306305.200,02000800,46eb,17139;INS_SOLUTION_GOOD,INS_RTKFIXED,17.59203040017,78.12249747910,532.1539,-76.2000,-0.6695,1.8476,0.0240,1.207593730,0.352350261,108.028167546,0.3039,0.3159,0.4308,0.0254,0.0250,0.0214,0.0194,0.0194,0.4791,ab000342,0*262dc475
#INSPVAXA,FILE,0,32.5,FINESTEERING,2319,306305.250,02000800,46eb,17139;INS_SOLUTION_GOOD,INS_RTKFIXED,17.59203018728,78.12249832053,532.1562,-76.2000,-0.6379,1.8590,0.0255,1.210121780,0.299870531,107.167387136,0.3039,0.3159,0.4308,0.0254,0.0250,0.0214,0.0194,0.0194,0.4791,ab000342,0*b559f85f
#INSPVAXA,FILE,0,32.5,FINESTEERING,2319,306305.300,02000800,46eb,17139;INS_SOLUTION_GOOD,INS_RTKFIXED,17.59202998807,78.12249916727,532.1585,-76.2000,-0.6068,1.8681,0.0261,1.215204355,0.248386501,106.324898118,0.3039,0.3159,0.4308,0.0254,0.0250,0.0214,0.0194,0.0194,0.4791,ab000342,0*5103229f
#INSPVAXA,FILE,0,32.5,FINESTEERING,2319,306305.350,02000800,46eb,17139;INS_SOLUTION_GOOD,INS_RTKFIXED,17.59202980243,78.12250001815,532.1606,-76.2000,-0.5753,1.8757,0.0197,1.218294218,0.210036541,105.497951804,0.3039,0.3159,0.4308,0.0254,0.0250,0.0214,0.0194,0.0194,0.4791,ab000342,0*98b3c309
#INSPVAXA,FILE,0,32.5,FINESTEERING,2319,306305.400,02000800,46eb,17139;INS_SOLUTION_GOOD,INS_RTKFIXED,17.59202963013,78.12250087240,532.1624,-76.2000,-0.5452,1.8815,0.0127,1.221606121,0.184876792,104.683350076,0.3039,0.3159,0.4308,0.0254,0.0250,0.0214,0.0194,0.0194,0.4791,ab000342,0*b3889212
#INSPVAXA,FILE,0,32.5,FINESTEERING,2319,306305.450,02000800,46eb,17139;INS_SOLUTION_GOOD,INS_RTKFIXED,17.59202947066,78.12250172847,532.1639,-76.2000,-0.5155,1.8832,0.0067,1.212883398,0.174351430,103.880723719,0.3039,0.3159,0.4308,0.0254,0.0250,0.0214,0.0194,0.0194,0.4791,ab000342,0*4375ac87
#INSPVAXA,FILE,0,32.5,FINESTEERING,2319,306305.500,02000800,46eb,17139;INS_SOLUTION_GOOD,INS_RTKFIXED,17.59202932427,78.12250258648,532.1651,-76.2000,-0.4851,1.8865,0.0036,1.196591441,0.174421712,103.090262636,0.3039,0.3159,0.4308,0.0254,0.0250,0.0214,0.0194,0.0194,0.4791,ab000342,0*2718851c
#INSPVAXA,FILE,0,32.5,FINESTEERING,2319,306305.550,02000800,46eb,17139;INS_SOLUTION_GOOD,INS_RTKFIXED,17.59202919116,78.12250344617,532.1663,-76.2000,-0.4545,1.8892,0.0019,1.175337352,0.182143619,102.316704374,0.3039,0.3159,0.4308,0.0254,0.0250,0.0214,0.0194,0.0194,0.4791,ab000342,0*66cd321a
#INSPVAXA,FILE,0,32.5,FINESTEERING,2319,306305.600,02000800,46eb,17139;INS_SOLUTION_GOOD,INS_RTKFIXED,17.59202907140,78.12250430747,532.1674,-76.2000,-0.4236,1.8929,0.0021,1.154702227,0.191763521,101.563047706,0.3039,0.3159,0.4308,0.0254,0.0250,0.0214,0.0194,0.0194,0.4791,ab000342,0*1e4e568b
#INSPVAXA,FILE,0,32.5,FINESTEERING,2319,306305.650,02000800,46eb,17139;INS_SOLUTION_GOOD,INS_RTKFIXED,17.59202896486,78.12250517077,532.1687,-76.2000,-0.3930,1.8961,0.0067,1.132059568,0.194528981,100.834482439,0.3039,0.3159,0.4308,0.0254,0.0250,0.0214,0.0194,0.0194,0.4791,ab000342,0*8e11c0fa
#INSPVAXA,FILE,0,32.5,FINESTEERING,2319,306305.700,02000800,46eb,17139;INS_SOLUTION_GOOD,INS_RTKFIXED,17.59202887116,78.12250603483,532.1700,-76.2000,-0.3634,1.8956,0.0093,1.105249410,0.194376640,100.129415352,0.3039,0.3159,0.4308,0.0254,0.0250,0.0214,0.0194,0.0194,0.4791,ab000342,0*959e36d5
#INSPVAXA,FILE,0,32.5,FINESTEERING,2319,306305.750,02000800,46eb,17139;INS_SOLUTION_GOOD,INS_RTKFIXED,17.59202878924,78.12250689942,532.1716,-76.2000,-0.3379,1.8964,0.0130,1.064456402,0.190488338,99.444916098,0.3039,0.3159,0.4308,0.0254,0.0250,0.0214,0.0194,0.0194,0.4791,ab000342,0*1f0ddf47
#INSPVAXA,FILE,0,32.5,FINESTEERING,2319,306305.800,02000800,46eb,17139;INS_SOLUTION_GOOD,INS_RTKFIXED,17.59202871838,78.12250776386,532.1731,-76.2000,-0.3132,1.8949,0.0105,1.030941003,0.185507933,98.774580385,0.3039,0.3159,0.4308,0.0254,0.0250,0.0214,0.0194,0.0194,0.4791,ab000342,0*ae7db77c
#INSPVAXA,FILE,0,32.5,FINESTEERING,2319,306305.850,02000800,46eb,17139;INS_SOLUTION_GOOD,INS_RTKFIXED,17.59202865702,78.12250862838,532.1745,-76.2000,-0.2923,1.8940,0.0067,1.006460430,0.174243300,98.113560877,0.3039,0.3159,0.4308,0.0254,0.0250,0.0214,0.0194,0.0194,0.4791,ab000342,0*9193d89f
#INSPVAXA,FILE,0,32.5,FINESTEERING,2319,306305.900,02000800,46eb,17139;INS_SOLUTION_GOOD,INS_RTKFIXED,17.59202860505,78.12250949219,532.1757,-76.2000,-0.2692,1.8924,0.0030,0.980801096,0.177118977,97.465665026,0.3039,0.3159,0.4308,0.0254,0.0250,0.0214,0.0194,0.0194,0.4791,ab000342,0*376d9d55
#INSPVAXA,FILE,0,32.5,FINESTEERING,2319,306305.950,02000800,46eb,17139;INS_SOLUTION_GOOD,INS_RTKFIXED,17.59202856299,78.12251035593,532.1768,-76.2000,-0.2451,1.8919,0.0021,0.956099532,0.183044572,96.835975333,0.3039,0.3159,0.4308,0.0254,0.0250,0.0214,0.0194,0.0194,0.4791,ab000342,0*56864831
#INSPVAXA,FILE,0,32.5,FINESTEERING,2319,306306.000,02000800,46eb,17139;INS_SOLUTION_GOOD,INS_RTKFIXED,17.59202853174,78.12251121992,532.1778,-76.2000,-0.2180,1.8913,0.0072,0.933573048,0.184369523,96.228989155,0.3039,0.3159,0.4308,0.0254,0.0250,0.0214,0.0194,0.0194,0.4791,ab000342,0*930a864c
#INSPVAXA,FILE,0,32.5,FINESTEERING,2319,306306.050,02000800,46eb,17139;INS_SOLUTION_GOOD,INS_RTKFIXED,17.59202851009,78.12251207442,532.1791,-76.2000,-0.1941,1.9040,0.0037,0.915375283,0.200705098,95.643256218,0.3037,0.3152,0.4319,0.0265,0.0263,0.0226,0.0196,0.0195,0.4794,ab000342,0*7fb38526
#INSPVAXA,FILE,0,31.0,FINESTEERING,2319,306306.100,02000800,46eb,17139;INS_SOLUTION_GOOD,INS_RTKFIXED,17.59202847826,78.12251291185,532.1798,-76.2000,-0.1747,1.9218,-0.0096,0.923192888,0.210896138,95.068230966,0.3037,0.3152,0.4319,0.0265,0.0263,0.0226,0.0196,0.0195,0.4794,ab000342,0*c8306e83
#INSPVAXA,FILE,0,31.0,FINESTEERING,2319,306306.150,02000800,46eb,17139;INS_SOLUTION_GOOD,INS_RTKFIXED,17.59202845313,78.12251375885,532.1804,-76.2000,-0.1623,1.9405,-0.0117,0.925187629,0.240063718,94.495063052,0.3037,0.3152,0.4319,0.0265,0.0263,0.0226,0.0196,0.0195,0.4794,ab000342,0*3c30d6cb
#INSPVAXA,FILE,0,31.0,FINESTEERING,2319,306306.200,02000800,46eb,17139;INS_SOLUTION_GOOD,INS_RTKFIXED,17.59202843446,78.12251461552,532.1808,-76.2000,-0.1445,1.9642,-0.0115,0.927813388,0.292983418,93.926960045,0.3037,0.3152,0.4319,0.0265,0.0263,0.0226,0.0196,0.0195,0.4794,ab000342,0*a5f17693
#INSPVAXA,FILE,0,31.0,FINESTEERING,2319,306306.250,02000800,46eb,17139;INS_SOLUTION_GOOD,INS_RTKFIXED,17.59202842405,78.12251548525,532.1812,-76.2000,-0.1276,1.9896,-0.0111,0.943388579,0.329348263,93.365699256,0.3037,0.3152,0.4319,0.0265,0.0263,0.0226,0.0196,0.0195,0.4794,ab000342,0*c1261e7d
#INSPVAXA,FILE,0,31.0,FINESTEERING,2319,306306.300,02000800,46eb,17139;INS_SOLUTION_GOOD,INS_RTKFIXED,17.59202842103,78.12251636763,532.1818,-76.2000,-0.1071,2.0149,-0.0077,0.901574639,0.362762308,92.811910697,0.3037,0.3152,0.4319,0.0265,0.0263,0.0226,0.0196,0.0195,0.4794,ab000342,0*8f24ccd7
#INSPVAXA,FILE,0,31.0,FINESTEERING,2319,306306.350,02000800,46eb,17139;INS_SOLUTION_GOOD,INS_RTKFIXED,17.59202842784,78.12251726114,532.1828,-76.2000,-0.0827,2.0383,0.0040,0.848257915,0.400946835,92.268653532,0.3037,0.3152,0.4319,0.0265,0.0263,0.0226,0.0196,0.0195,0.4794,ab000342,0*f5e829c0
#INSPVAXA,FILE,0,31.0,FINESTEERING,2319,306306.400,02000800,46eb,17139;INS_SOLUTION_GOOD,INS_RTKFIXED,17.59202844672,78.12251816653,532.1843,-76.2000,-0.0561,2.0611,0.0127,0.790088650,0.411693901,91.743563826,0.3037,0.3152,0.4319,0.0265,0.0263,0.0226,0.0196,0.0195,0.4794,ab000342,0*d45ad80e
#INSPVAXA,FILE,0,31.0,FINESTEERING,2319,306306.450,02000800,46eb,17139;INS_SOLUTION_GOOD,INS_RTKFIXED,17.59202847725,78.12251908485,532.1862,-76.2000,-0.0302,2.0913,0.0186,0.752321943,0.427181750,91.231803182,0.3037,0.3152,0.4319,0.0265,0.0263,0.0226,0.0196,0.0195,0.4794,ab000342,0*d5e82a6b
#INSPVAXA,FILE,0,31.0,FINESTEERING,2319,306306.500,02000800,46eb,17139;INS_SOLUTION_GOOD,INS_RTKFIXED,17.59202851450,78.12252001681,532.1881,-76.2000,-0.0202,2.1178,0.0193,0.740265620,0.420666683,90.728957285,0.3037,0.3152,0.4319,0.0265,0.0263,0.0226,0.0196,0.0195,0.4794,ab000342,0*c2dfa0e0
#INSPVAXA,FILE,0,31.0,FINESTEERING,2319,306306.550,02000800,46eb,17139;INS_SOLUTION_GOOD,INS_RTKFIXED,17.59202855648,78.12252096364,532.1898,-76.2000,-0.0091,2.1499,0.0114,0.729846376,0.432422150,90.231392764,0.3037,0.3152,0.4319,0.0265,0.0263,0.0226,0.0196,0.0195,0.4794,ab000342,0*2b322021
#INSPVAXA,FILE,0,31.0,FINESTEERING,2319,306306.600,02000800,46eb,17139;INS_SOLUTION_GOOD,INS_RTKFIXED,17.59202860217,78.12252192427,532.1913,-76.2000,-0.0017,2.1755,0.0100,0.745456581,0.444269818,89.741150894,0.3037,0.3152,0.4319,0.0265,0.0263,0.0226,0.0196,0.0195,0.4794,ab000342,0*de3e9a57
#INSPVAXA,FILE,0,31.0,FINESTEERING,2319,306306.650,02000800,46eb,17139;INS_SOLUTION_GOOD,INS_RTKFIXED,17.59202865499,78.12252290191,532.1926,-76.2000,0.0214,2.2172,0.0041,0.763731012,0.472179808,89.257693053,0.3037,0.3152,0.4319,0.0265,0.0263,0.0226,0.0196,0.0195,0.4794,ab000342,0*3b6d7e08
#INSPVAXA,FILE,0,31.0,FINESTEERING,2319,306306.700,02000800,46eb,17139;INS_SOLUTION_GOOD,INS_RTKFIXED,17.59202871588,78.12252389639,532.1940,-76.2000,0.0400,2.2517,0.0075,0.830433092,0.492435325,88.784948649,0.3037,0.3152,0.4319,0.0265,0.0263,0.0226,0.0196,0.0195,0.4794,ab000342,0*892e9321
#INSPVAXA,FILE,0,31.0,FINESTEERING,2319,306306.750,02000800,46eb,17139;INS_SOLUTION_GOOD,INS_RTKFIXED,17.59202878520,78.12252491257,532.1947,-76.2000,0.0586,2.2978,-0.0079,0.918356798,0.521821327,88.316855998,0.3037,0.3152,0.4319,0.0265,0.0263,0.0226,0.0196,0.0195,0.4794,ab000342,0*a3825c2b
#INSPVAXA,FILE,0,31.0,FINESTEERING,2319,306306.800,02000800,46eb,17139;INS_SOLUTION_GOOD,INS_RTKFIXED,17.59202886165,78.12252594972,532.1955,-76.2000,0.0752,2.3436,-0.0062,0.940247873,0.570056994,87.853498134,0.3037,0.3152,0.4319,0.0265,0.0263,0.0226,0.0196,0.0195,0.4794,ab000342,0*0845345f
#INSPVAXA,FILE,0,31.0,FINESTEERING,2319,306306.850,02000800,46eb,17139;INS_SOLUTION_GOOD,INS_RTKFIXED,17.59202894736,78.12252700939,532.1962,-76.2000,0.1009,2.3905,-0.0006,0.931889786,0.594711168,87.389963696,0.3037,0.3152,0.4319,0.0265,0.0263,0.0226,0.0196,0.0195,0.4794,ab000342,0*983eed26
#INSPVAXA,FILE,0,31.0,FINESTEERING,2319,306306.900,02000800,46eb,17139;INS_SOLUTION_GOOD,INS_RTKFIXED,17.59202904825,78.12252809235,532.1974,-76.2000,0.1395,2.4415,0.0061,0.905500982,0.636014033,86.944596970,0.3037,0.3152,0.4319,0.0265,0.0263,0.0226,0.0196,0.0195,0.4794,ab000342,0*16d79599
#INSPVAXA,FILE,0,31.0,FINESTEERING,2319,306306.950,02000800,46eb,17139;INS_SOLUTION_GOOD,INS_RTKFIXED,17.59202916245,78.12252920174,532.1986,-76.2000,0.1658,2.4963,0.0099,0.872757687,0.667822127,86.519647590,0.3037,0.3152,0.4319,0.0265,0.0263,0.0226,0.0196,0.0195,0.4794,ab000342,0*625cb85c
#INSPVAXA,FILE,0,31.0,FINESTEERING,2319,306307.000,02000800,46eb,17139;INS_SOLUTION_GOOD,INS_RTKFIXED,17.59202928960,78.12253033835,532.2001,-76.2000,0.1933,2.5562,0.0076,0.817212073,0.714728421,86.114450899,0.3037,0.3152,0.4319,0.0265,0.0263,0.0226,0.0196,0.0195,0.4794,ab000342,0*1f7a1070
#INSPVAXA,FILE,0,31.0,FINESTEERING,2319,306307.050,02000800,46eb,17139;INS_SOLUTION_GOOD,INS_RTKFIXED,17.59202941017,78.12253150436,532.2014,-76.2000,0.2095,2.6171,0.0088,0.791491525,0.747802548,85.719712380,0.3085,0.3199,0.4402,0.0272,0.0269,0.0235,0.0198,0.0197,0.4798,ab000342,0*46c64cd1
#INSPVAXA,FILE,0,22.5,FINESTEERING,2319,306307.100,02000800,46eb,17139;INS_SOLUTION_GOOD,INS_RTKFIXED,17.59202950219,78.12253271359,532.2023,-76.2000,0.2252,2.6832,0.0017,0.737162411,0.788100679,85.331060562,0.3085,0.3199,0.4402,0.0272,0.0269,0.0235,0.0198,0.0197,0.4798,ab000342,0*bde481f6
#INSPVAXA,FILE,0,22.5,FINESTEERING,2319,306307.150,02000800,46eb,17139;INS_SOLUTION_GOOD,INS_RTKFIXED,17.59202960293,78.12253395543,532.2030,-76.2000,0.2478,2.7558,-0.0048,0.689299095,0.845397033,84.958635898,0.3085,0.3199,0.4402,0.0272,0.0269,0.0235,0.0198,0.0197,0.4798,ab000342,0*9a1e5662
#INSPVAXA,FILE,0,22.5,FINESTEERING,2319,306307.200,02000800,46eb,17139;INS_SOLUTION_GOOD,INS_RTKFIXED,17.59202971431,78.12253523058,532.2034,-76.2000,0.2722,2.8247,-0.0069,0.663623867,0.872302282,84.613469940,0.3085,0.3199,0.4402,0.0272,0.0269,0.0235,0.0198,0.0197,0.4798,ab000342,0*beb960a1
#INSPVAXA,FILE,0,22.5,FINESTEERING,2319,306307.250,02000000,46eb,17139;INS_SOLUTION_GOOD,INS_RTKFIXED,17.59202983810,78.12253654006,532.2037,-76.2000,0.3005,2.8959,-0.0072,0.632046803,0.907640982,84.306385623,0.3085,0.3199,0.4402,0.0272,0.0269,0.0235,0.0198,0.0197,0.4798,ab000342,0*9b31eaae
#INSPVAXA,FILE,0,22.5,FINESTEERING,2319,306307.300,02000000,46eb,17139;INS_SOLUTION_GOOD,INS_RTKFIXED,17.59202997109,78.12253788102,532.2042,-76.2000,0.3275,2.9584,0.0142,0.547700104,0.914545692,84.024132684,0.3085,0.3199,0.4402,0.0272,0.0269,0.0235,0.0198,0.0197,0.4798,ab000342,0*55cd7e20
#INSPVAXA,FILE,0,22.5,FINESTEERING,2319,306307.350,02000000,46eb,17139;INS_SOLUTION_GOOD,INS_RTKFIXED,17.59203011818,78.12253925227,532.2051,-76.2000,0.3522,3.0228,0.0151,0.495306720,0.954572824,83.784156754,0.3085,0.3199,0.4402,0.0272,0.0269,0.0235,0.0198,0.0197,0.4798,ab000342,0*67cfd16b
#INSPVAXA,FILE,0,22.5,FINESTEERING,2319,306307.400,02000000,46eb,17139;INS_SOLUTION_GOOD,INS_RTKFIXED,17.59203027467,78.12254065301,532.2069,-76.2000,0.3706,3.0865,0.0342,0.458631631,0.968896032,83.556241853,0.3085,0.3199,0.4402,0.0272,0.0269,0.0235,0.0198,0.0197,0.4798,ab000342,0*c94a2932
#INSPVAXA,FILE,0,22.5,FINESTEERING,2319,306307.450,02000000,46eb,17139;INS_SOLUTION_GOOD,INS_RTKFIXED,17.59203043818,78.12254208633,532.2091,-76.2000,0.3780,3.1579,0.0222,0.418796711,0.956718294,83.348415392,0.3085,0.3199,0.4402,0.0272,0.0269,0.0235,0.0198,0.0197,0.4798,ab000342,0*1668d575
#INSPVAXA,FILE,0,22.5,FINESTEERING,2319,306307.500,02000000,46eb,17139;INS_SOLUTION_GOOD,INS_RTKFIXED,17.59203060588,78.12254354913,532.2113,-76.2000,0.3926,3.2122,0.0411,0.382491847,0.919940065,83.157773384,0.3085,0.3199,0.4402,0.0272,0.0269,0.0235,0.0198,0.0197,0.4798,ab000342,0*dd15a2fa
#INSPVAXA,FILE,0,22.5,FINESTEERING,2319,306307.550,02000000,46eb,17139;INS_SOLUTION_GOOD,INS_RTKFIXED,17.59203078201,78.12254504127,532.2143,-76.2000,0.4093,3.2746,0.0500,0.357997711,0.886615972,83.005052330,0.3085,0.3199,0.4402,0.0272,0.0269,0.0235,0.0198,0.0197,0.4798,ab000342,0*f52ccedd
#INSPVAXA,FILE,0,22.5,FINESTEERING,2319,306307.600,02000000,46eb,17139;INS_SOLUTION_GOOD,INS_RTKFIXED,17.59203096338,78.12254656272,532.2169,-76.2000,0.4204,3.3350,0.0408,0.404669062,0.857707766,82.878086066,0.3085,0.3199,0.4402,0.0272,0.0269,0.0235,0.0198,0.0197,0.4798,ab000342,0*92a35be8
#INSPVAXA,FILE,0,22.5,FINESTEERING,2319,306307.650,02000000,46eb,17139;INS_SOLUTION_GOOD,INS_RTKFIXED,17.59203115320,78.12254811356,532.2198,-76.2000,0.4374,3.4000,0.0459,0.442696346,0.832872175,82.795965302,0.3085,0.3199,0.4402,0.0272,0.0269,0.0235,0.0198,0.0197,0.4798,ab000342,0*835bb50d
#INSPVAXA,FILE,0,22.5,FINESTEERING,2319,306307.700,02000000,46eb,17139;INS_SOLUTION_GOOD,INS_RTKFIXED,17.59203134830,78.12254969362,532.2221,-76.2000,0.4547,3.4618,0.0273,0.407120025,0.789892764,82.752109784,0.3085,0.3199,0.4402,0.0272,0.0269,0.0235,0.0198,0.0197,0.4798,ab000342,0*a5a73de9
#INSPVAXA,FILE,0,22.5,FINESTEERING,2319,306307.750,02000000,46eb,17139;INS_SOLUTION_GOOD,INS_RTKFIXED,17.59203155519,78.12255130020,532.2244,-76.2000,0.4869,3.5114,0.0425,0.380774350,0.743427599,82.750552564,0.3085,0.3199,0.4402,0.0272,0.0269,0.0235,0.0198,0.0197,0.4798,ab000342,0*3b623d68
#INSPVAXA,FILE,0,22.5,FINESTEERING,2319,306307.800,02000000,46eb,17139;INS_SOLUTION_GOOD,INS_RTKFIXED,17.59203177093,78.12255293373,532.2268,-76.2000,0.4907,3.5677,0.0360,0.408922649,0.764839189,82.778837955,0.3085,0.3199,0.4402,0.0272,0.0269,0.0235,0.0198,0.0197,0.4798,ab000342,0*4a3641d8
#INSPVAXA,FILE,0,22.5,FINESTEERING,2319,306307.850,02000000,46eb,17139;INS_SOLUTION_GOOD,INS_RTKFIXED,17.59203198414,78.12255459457,532.2293,-76.2000,0.4757,3.6240,0.0397,0.474139194,0.755977761,82.799292437,0.3085,0.3199,0.4402,0.0272,0.0269,0.0235,0.0198,0.0197,0.4798,ab000342,0*7be5408a
#INSPVAXA,FILE,0,22.5,FINESTEERING,2319,306307.900,02000000,46eb,17139;INS_SOLUTION_GOOD,INS_RTKFIXED,17.59203219117,78.12255628276,532.2317,-76.2000,0.4643,3.6837,0.0335,0.500070836,0.780890038,82.816580316,0.3085,0.3199,0.4402,0.0272,0.0269,0.0235,0.0198,0.0197,0.4798,ab000342,0*08ad0d4d
#INSPVAXA,FILE,0,22.5,FINESTEERING,2319,306307.950,02000000,46eb,17139;INS_SOLUTION_GOOD,INS_RTKFIXED,17.59203239601,78.12255799584,532.2340,-76.2000,0.4620,3.7356,0.0362,0.577663874,0.795232710,82.830892350,0.3085,0.3199,0.4402,0.0272,0.0269,0.0235,0.0198,0.0197,0.4798,ab000342,0*0ac43ad5
#INSPVAXA,FILE,0,22.5,FINESTEERING,2319,306308.000,02000000,46eb,17139;INS_SOLUTION_GOOD,INS_RTKFIXED,17.59203260257,78.12255973058,532.2365,-76.2000,0.4657,3.7784,0.0438,0.661409772,0.759837682,82.848929671,0.3085,0.3199,0.4402,0.0272,0.0269,0.0235,0.0198,0.0197,0.4798,ab000342,0*e7350f0e
#INSPVAXA,FILE,0,22.5,FINESTEERING,2319,306308.050,02000000,46eb,17139;INS_SOLUTION_GOOD,INS_RTKFIXED,17.59203278730,78.12256149871,532.2395,-76.2000,0.4749,3.8149,0.0595,0.622813543,0.768557196,82.856568654,0.3142,0.3254,0.4486,0.0275,0.0264,0.0236,0.0200,0.0200,0.4802,ab000342,0*4ffa8f47
#INSPVAXA,FILE,0,22.5,FINESTEERING,2319,306308.100,02000000,46eb,17139;INS_SOLUTION_GOOD,INS_RTKFIXED,17.59203294776,78.12256331554,532.2438,-76.2000,0.5035,3.8635,0.0620,0.564150644,0.820189884,82.868813421,0.3142,0.3254,0.4486,0.0275,0.0264,0.0236,0.0200,0.0200,0.4802,ab000342,0*004a07b7
#INSPVAXA,FILE,0,30.5,FINESTEERING,2319,306308.150,02000000,46eb,17139;INS_SOLUTION_GOOD,INS_RTKFIXED,17.59203311581,78.12256515692,532.2471,-76.2000,0.5042,3.9149,0.0186,0.559254600,0.827638658,82.886278155,0.3142,0.3254,0.4486,0.0275,0.0264,0.0236,0.0200,0.0200,0.4802,ab000342,0*5c314496
#INSPVAXA,FILE,0,30.5,FINESTEERING,2319,306308.200,02000000,46eb,17139;INS_SOLUTION_GOOD,INS_RTKFIXED,17.59203328615,78.12256702105,532.2504,-76.2000,0.5111,3.9645,0.0388,0.512722914,0.871780803,82.903169828,0.3142,0.3254,0.4486,0.0275,0.0264,0.0236,0.0200,0.0200,0.4802,ab000342,0*9f60dd25
#INSPVAXA,FILE,0,30.5,FINESTEERING,2319,306308.250,02000000,46eb,17139;INS_SOLUTION_GOOD,INS_RTKFIXED,17.59203345448,78.12256890577,532.2534,-76.2000,0.4997,4.0038,0.0362,0.449932564,0.864407912,82.917059985,0.3142,0.3254,0.4486,0.0275,0.0264,0.0236,0.0200,0.0200,0.4802,ab000342,0*35fc668d
#INSPVAXA,FILE,0,30.5,FINESTEERING,2319,306308.300,02000000,46eb,17139;INS_SOLUTION_GOOD,INS_RTKFIXED,17.59203362328,78.12257081379,532.2560,-76.2000,0.5059,4.0538,0.0097,0.359989225,0.872078614,82.926748178,0.3142,0.3254,0.4486,0.0275,0.0264,0.0236,0.0200,0.0200,0.4802,ab000342,0*f83ce2fb
#INSPVAXA,FILE,0,30.5,FINESTEERING,2319,306308.350,02000000,46eb,17139;INS_SOLUTION_GOOD,INS_RTKFIXED,17.59203379286,78.12257274233,532.2582,-76.2000,0.5051,4.1009,0.0219,0.333743397,0.867486311,82.933923500,0.3142,0.3254,0.4486,0.0275,0.0264,0.0236,0.0200,0.0200,0.4802,ab000342,0*7f826e12
#INSPVAXA,FILE,0,30.5,FINESTEERING,2319,306308.400,02000000,46eb,17139;INS_SOLUTION_GOOD,INS_RTKFIXED,17.59203396333,78.12257469046,532.2609,-76.2000,0.5018,4.1383,0.0381,0.336618788,0.813878184,82.943304330,0.3142,0.3254,0.4486,0.0275,0.0264,0.0236,0.0200,0.0200,0.4802,ab000342,0*d11ff2ac
#INSPVAXA,FILE,0,30.5,FINESTEERING,2319,306308.450,02000000,46eb,17139;INS_SOLUTION_GOOD,INS_RTKFIXED,17.59203413363,78.12257666020,532.2644,-76.2000,0.4989,4.1894,0.0477,0.360826686,0.786883379,82.948860611,0.3142,0.3254,0.4486,0.0275,0.0264,0.0236,0.0200,0.0200,0.4802,ab000342,0*4caed257
#INSPVAXA,FILE,0,30.5,FINESTEERING,2319,306308.500,02000000,46eb,17139;INS_SOLUTION_GOOD,INS_RTKFIXED,17.59203430074,78.12257864967,532.2688,-76.2000,0.4902,4.2321,0.0731,0.423238412,0.751161091,82.952670438,0.3142,0.3254,0.4486,0.0275,0.0264,0.0236,0.0200,0.0200,0.4802,ab000342,0*d96942f7
#INSPVAXA,FILE,0,30.5,FINESTEERING,2319,306308.550,02000000,46eb,17139;INS_SOLUTION_GOOD,INS_RTKFIXED,17.59203446554,78.12258066129,532.2725,-76.2000,0.4862,4.2745,0.0480,0.505679355,0.687568319,82.949823904,0.3142,0.3254,0.4486,0.0275,0.0264,0.0236,0.0200,0.0200,0.4802,ab000342,0*43b6b1bc
#INSPVAXA,FILE,0,30.5,FINESTEERING,2319,306308.600,02000000,46eb,17139;INS_SOLUTION_GOOD,INS_RTKFIXED,17.59203463186,78.12258269120,532.2769,-76.2000,0.4969,4.3083,0.0727,0.585752418,0.643081098,82.952389968,0.3142,0.3254,0.4486,0.0275,0.0264,0.0236,0.0200,0.0200,0.4802,ab000342,0*b23257f1
#INSPVAXA,FILE,0,30.5,FINESTEERING,2319,306308.650,02000000,46eb,17139;INS_SOLUTION_GOOD,INS_RTKFIXED,17.59203480564,78.12258473851,532.2827,-76.2000,0.5140,4.3457,0.0924,0.596761432,0.598132249,82.975946909,0.3142,0.3254,0.4486,0.0275,0.0264,0.0236,0.0200,0.0200,0.4802,ab000342,0*40a94e7c
#INSPVAXA,FILE,0,30.5,FINESTEERING,2319,306308.700,02000000,46eb,17139;INS_SOLUTION_GOOD,INS_RTKFIXED,17.59203498525,78.12258680053,532.2902,-76.2000,0.5209,4.3794,0.1401,0.628121659,0.493608162,83.002163613,0.3142,0.3254,0.4486,0.0275,0.0264,0.0236,0.0200,0.0200,0.4802,ab000342,0*bd40a1ec
#INSPVAXA,FILE,0,30.5,FINESTEERING,2319,306308.750,02000000,46eb,17139;INS_SOLUTION_GOOD,INS_RTKFIXED,17.59203516485,78.12258888093,532.2966,-76.2000,0.5224,4.4181,0.0964,0.542726714,0.484584493,83.000087169,0.3142,0.3254,0.4486,0.0275,0.0264,0.0236,0.0200,0.0200,0.4802,ab000342,0*a790354d
#INSPVAXA,FILE,0,30.5,FINESTEERING,2319,306308.800,02000000,46eb,17139;INS_SOLUTION_GOOD,INS_RTKFIXED,17.59203534696,78.12259098356,532.3017,-76.2000,0.5168,4.4716,0.0665,0.529377667,0.514714496,82.999957856,0.3142,0.3254,0.4486,0.0275,0.0264,0.0236,0.0200,0.0200,0.4802,ab000342,0*19bfdd93
#INSPVAXA,FILE,0,30.5,FINESTEERING,2319,306308.850,02000000,46eb,17139;INS_SOLUTION_GOOD,INS_RTKFIXED,17.59203552989,78.12259310858,532.3053,-76.2000,0.5169,4.5187,0.0262,0.430025975,0.519307876,82.989933759,0.3142,0.3254,0.4486,0.0275,0.0264,0.0236,0.0200,0.0200,0.4802,ab000342,0*a67ea04a
#INSPVAXA,FILE,0,30.5,FINESTEERING,2319,306308.900,02000000,46eb,17139;INS_SOLUTION_GOOD,INS_RTKFIXED,17.59203571783,78.12259525353,532.3076,-76.2000,0.5372,4.5540,0.0142,0.321494263,0.518128278,82.988221441,0.3142,0.3254,0.4486,0.0275,0.0264,0.0236,0.0200,0.0200,0.4802,ab000342,0*46d86401
#INSPVAXA,FILE,0,30.5,FINESTEERING,2319,306308.950,02000000,46eb,17139;INS_SOLUTION_GOOD,INS_RTKFIXED,17.59203590918,78.12259741660,532.3086,-76.2000,0.5348,4.5910,-0.0166,0.268390985,0.491094856,82.992824240,0.3142,0.3254,0.4486,0.0275,0.0264,0.0236,0.0200,0.0200,0.4802,ab000342,0*28d0ff33
#INSPVAXA,FILE,0,30.5,FINESTEERING,2319,306309.000,02000000,46eb,17139;INS_SOLUTION_GOOD,INS_RTKFIXED,17.59203610426,78.12259959810,532.3091,-76.2000,0.5392,4.6350,-0.0202,0.316331635,0.493795146,83.005147116,0.3142,0.3254,0.4486,0.0275,0.0264,0.0236,0.0200,0.0200,0.4802,ab000342,0*93f8521a
#INSPVAXA,FILE,0,30.5,FINESTEERING,2319,306309.050,02000000,46eb,17139;INS_SOLUTION_GOOD,INS_RTKFIXED,17.59203628885,78.12260180485,532.3093,-76.2000,0.5266,4.6761,-0.0335,0.358464838,0.490644221,83.018952939,0.5288,0.5476,0.7568,0.0266,0.0255,0.0234,0.0204,0.0202,0.4805,ab000342,0*0f487de0
#INSPVAXA,FILE,0,29.5,FINESTEERING,2319,306309.100,02000000,46eb,17139;INS_SOLUTION_GOOD,INS_RTKFIXED,17.59203646822,78.12260404230,532.3099,-76.2000,0.5215,4.7199,0.0011,0.373076983,0.520527407,83.027932054,0.5288,0.5476,0.7568,0.0266,0.0255,0.0234,0.0204,0.0202,0.4805,ab000342,0*2c057dcc
#INSPVAXA,FILE,0,29.5,FINESTEERING,2319,306309.150,02000000,46eb,17139;INS_SOLUTION_GOOD,INS_RTKFIXED,17.59203664896,78.12260629878,532.3119,-76.2000,0.5259,4.7631,0.0455,0.450842627,0.559961507,83.037749263,0.5288,0.5476,0.7568,0.0266,0.0255,0.0234,0.0204,0.0202,0.4805,ab000342,0*fbaadb45
#INSPVAXA,FILE,0,29.5,FINESTEERING,2319,306309.200,02000000,46eb,17139;INS_SOLUTION_GOOD,INS_RTKFIXED,17.59203682766,78.12260857395,532.3151,-76.2000,0.5197,4.8003,0.0636,0.479633259,0.558272571,83.044930634,0.5288,0.5476,0.7568,0.0266,0.0255,0.0234,0.0204,0.0202,0.4805,ab000342,0*5ff89ef2
#INSPVAXA,FILE,0,29.5,FINESTEERING,2319,306309.250,02000000,46eb,17139;INS_SOLUTION_GOOD,INS_RTKFIXED,17.59203700700,78.12261086307,532.3199,-76.2000,0.5296,4.8266,0.1134,0.421909977,0.542235452,83.045317377,0.5288,0.5476,0.7568,0.0266,0.0255,0.0234,0.0204,0.0202,0.4805,ab000342,0*2c5c9c85
#INSPVAXA,FILE,0,29.5,FINESTEERING,2319,306309.300,02000000,46eb,17139;INS_SOLUTION_GOOD,INS_RTKFIXED,17.59203719299,78.12261316500,532.3285,-76.2000,0.5560,4.8636,0.1827,0.359064158,0.494856343,83.047903127,0.5288,0.5476,0.7568,0.0266,0.0255,0.0234,0.0204,0.0202,0.4805,ab000342,0*0387a3a2
#INSPVAXA,FILE,0,29.5,FINESTEERING,2319,306309.350,02000000,46eb,17139;INS_SOLUTION_GOOD,INS_RTKFIXED,17.59203738414,78.12261549007,532.3348,-76.2000,0.5476,4.9111,0.0583,0.376750635,0.481055976,83.072431012,0.5288,0.5476,0.7568,0.0266,0.0255,0.0234,0.0204,0.0202,0.4805,ab000342,0*28bebc0f
#INSPVAXA,FILE,0,29.5,FINESTEERING,2319,306309.400,02000000,46eb,17139;INS_SOLUTION_GOOD,INS_RTKFIXED,17.59203757827,78.12261783843,532.3379,-76.2000,0.5544,4.9589,0.0290,0.468972497,0.480970347,83.092140438,0.5288,0.5476,0.7568,0.0266,0.0255,0.0234,0.0204,0.0202,0.4805,ab000342,0*c0f86876
#INSPVAXA,FILE,0,29.5,FINESTEERING,2319,306309.450,02000000,46eb,17139;INS_SOLUTION_GOOD,INS_RTKFIXED,17.59203776779,78.12262020716,532.3372,-76.2000,0.5359,4.9997,-0.0561,0.437152014,0.603527145,83.113805234,0.5288,0.5476,0.7568,0.0266,0.0255,0.0234,0.0204,0.0202,0.4805,ab000342,0*cc407505
#INSPVAXA,FILE,0,29.5,FINESTEERING,2319,306309.500,02000000,46eb,17139;INS_SOLUTION_GOOD,INS_RTKFIXED,17.59203795461,78.12262259100,532.3357,-76.2000,0.5268,5.0326,-0.0378,0.478197894,0.736360309,83.113676824,0.5288,0.5476,0.7568,0.0266,0.0255,0.0234,0.0204,0.0202,0.4805,ab000342,0*14bd1836
#INSPVAXA,FILE,0,29.5,FINESTEERING,2319,306309.550,02000000,46eb,17139;INS_SOLUTION_GOOD,INS_RTKFIXED,17.59203814529,78.12262498981,532.3340,-76.2000,0.5429,5.0630,-0.0428,0.482378353,0.888736236,83.120085884,0.5288,0.5476,0.7568,0.0266,0.0255,0.0234,0.0204,0.0202,0.4805,ab000342,0*e921411b
#INSPVAXA,FILE,0,29.5,FINESTEERING,2319,306309.600,02000000,46eb,17139;INS_SOLUTION_GOOD,INS_RTKFIXED,17.59203833714,78.12262740455,532.3338,-76.2000,0.5408,5.0992,0.0098,0.530014121,1.026832619,83.125205301,0.5288,0.5476,0.7568,0.0266,0.0255,0.0234,0.0204,0.0202,0.4805,ab000342,0*0ca4f499
#INSPVAXA,FILE,0,29.5,FINESTEERING,2319,306309.650,02000000,46eb,17139;INS_SOLUTION_GOOD,INS_RTKFIXED,17.59203852439,78.12262983750,532.3348,-76.2000,0.5244,5.1387,0.0053,0.435852730,1.131911424,83.130474430,0.5288,0.5476,0.7568,0.0266,0.0255,0.0234,0.0204,0.0202,0.4805,ab000342,0*069a0994
#INSPVAXA,FILE,0,29.5,FINESTEERING,2319,306309.700,02000000,46eb,17139;INS_SOLUTION_GOOD,INS_RTKFIXED,17.59203871721,78.12263227919,532.3383,-76.2000,0.5539,5.1446,0.0979,0.394262266,1.049347653,83.136927036,0.5288,0.5476,0.7568,0.0266,0.0255,0.0234,0.0204,0.0202,0.4805,ab000342,0*f803c1a8
#INSPVAXA,FILE,0,29.5,FINESTEERING,2319,306309.750,02000000,46eb,17139;INS_SOLUTION_GOOD,INS_RTKFIXED,17.59203892177,78.12263472938,532.3460,-76.2000,0.5687,5.1662,0.1768,0.363353457,1.001420758,83.169763724,0.5288,0.5476,0.7568,0.0266,0.0255,0.0234,0.0204,0.0202,0.4805,ab000342,0*c1bd6869
#INSPVAXA,FILE,0,29.5,FINESTEERING,2319,306309.800,02000000,46eb,17139;INS_SOLUTION_GOOD,INS_RTKFIXED,17.59203912516,78.12263719539,532.3546,-76.2000,0.5434,5.2036,0.1721,0.464492715,0.892394201,83.195002432,0.5288,0.5476,0.7568,0.0266,0.0255,0.0234,0.0204,0.0202,0.4805,ab000342,0*bfec776b
#INSPVAXA,FILE,0,29.5,FINESTEERING,2319,306309.850,02000000,46eb,17139;INS_SOLUTION_GOOD,INS_RTKFIXED,17.59203931906,78.12263968138,532.3614,-76.2000,0.5154,5.2599,0.0780,0.423578281,0.854768881,83.198749044,0.5288,0.5476,0.7568,0.0266,0.0255,0.0234,0.0204,0.0202,0.4805,ab000342,0*f92e084c
#INSPVAXA,FILE,0,29.5,FINESTEERING,2319,306309.900,02000000,46eb,17139;INS_SOLUTION_GOOD,INS_RTKFIXED,17.59203950976,78.12264218233,532.3666,-76.2000,0.5210,5.2883,0.0813,0.510473115,0.731188944,83.185143121,0.5288,0.5476,0.7568,0.0266,0.0255,0.0234,0.0204,0.0202,0.4805,ab000342,0*9066a4aa
#INSPVAXA,FILE,0,29.5,FINESTEERING,2319,306309.950,02000000,46eb,17139;INS_SOLUTION_GOOD,INS_RTKFIXED,17.59203970076,78.12264469600,532.3717,-76.2000,0.5355,5.3145,0.1122,0.514938722,0.685372261,83.179686760,0.5288,0.5476,0.7568,0.0266,0.0255,0.0234,0.0204,0.0202,0.4805,ab000342,0*bc4a8714
#INSPVAXA,FILE,0,29.5,FINESTEERING,2319,306310.000,02000000,46eb,17139;INS_SOLUTION_GOOD,INS_RTKFIXED,17.59203989923,78.12264722150,532.3769,-76.2000,0.5458,5.3284,0.0866,0.612212353,0.514813392,83.187253156,0.5288,0.5476,0.7568,0.0266,0.0255,0.0234,0.0204,0.0202,0.4805,ab000342,0*fccf3879
#INSPVAXA,FILE,0,29.5,FINESTEERING,2319,306310.050,02000800,46eb,17139;INS_SOLUTION_GOOD,INS_RTKFIXED,17.59204009201,78.12264976475,532.3829,-76.2000,0.5378,5.3550,0.0867,0.679580082,0.423490179,83.193217461,0.5295,0.5481,0.7594,0.0258,0.0248,0.0229,0.0208,0.0206,0.4808,ab000342,0*eaa708c7
#INSPVAXA,FILE,0,29.5,FINESTEERING,2319,306310.100,02000800,46eb,17139;INS_SOLUTION_GOOD,INS_RTKFIXED,17.59204027851,78.12265232712,532.3886,-76.2000,0.5246,5.3850,0.0852,0.694702067,0.265862296,83.180911871,0.5295,0.5481,0.7594,0.0258,0.0248,0.0229,0.0208,0.0206,0.4808,ab000342,0*8e4d1125
#INSPVAXA,FILE,0,29.5,FINESTEERING,2319,306310.150,02000800,46eb,17139;INS_SOLUTION_GOOD,INS_RTKFIXED,17.59204047128,78.12265490403,532.3916,-76.2000,0.5514,5.4126,0.0163,0.625614890,0.189839524,83.180804496,0.5295,0.5481,0.7594,0.0258,0.0248,0.0229,0.0208,0.0206,0.4808,ab000342,0*d8f3e31d
#INSPVAXA,FILE,0,29.5,FINESTEERING,2319,306310.200,02000800,46eb,17139;INS_SOLUTION_GOOD,INS_RTKFIXED,17.59204067079,78.12265749009,532.3973,-76.2000,0.5683,5.4390,0.1081,0.576228770,0.141110492,83.181609560,0.5295,0.5481,0.7594,0.0258,0.0248,0.0229,0.0208,0.0206,0.4808,ab000342,0*7cc3fe40
#INSPVAXA,FILE,0,29.5,FINESTEERING,2319,306310.250,02000800,46eb,17139;INS_SOLUTION_GOOD,INS_RTKFIXED,17.59204087425,78.12266008845,532.4020,-76.2000,0.5740,5.4690,0.0554,0.383977171,0.058735219,83.186916188,0.5295,0.5481,0.7594,0.0258,0.0248,0.0229,0.0208,0.0206,0.4808,ab000342,0*f528abcd
#INSPVAXA,FILE,0,29.5,FINESTEERING,2319,306310.300,02000800,46eb,17139;INS_SOLUTION_GOOD,INS_RTKFIXED,17.59204108044,78.12266269914,532.4042,-76.2000,0.6061,5.4992,0.0610,0.370380932,0.140187948,83.193695871,0.5295,0.5481,0.7594,0.0258,0.0248,0.0229,0.0208,0.0206,0.4808,ab000342,0*58d13f03
#INSPVAXA,FILE,0,29.5,FINESTEERING,2319,306310.350,02000800,46eb,17139;INS_SOLUTION_GOOD,INS_RTKFIXED,17.59204128757,78.12266532487,532.4051,-76.2000,0.5933,5.5309,-0.0216,0.224484780,0.422643555,83.217790709,0.5295,0.5481,0.7594,0.0258,0.0248,0.0229,0.0208,0.0206,0.4808,ab000342,0*f54e15e1
#INSPVAXA,FILE,0,29.5,FINESTEERING,2319,306310.400,02000800,46eb,17139;INS_SOLUTION_GOOD,INS_RTKFIXED,17.59204148846,78.12266796475,532.4051,-76.2000,0.5708,5.5642,-0.0162,0.313076849,0.618531330,83.232293035,0.5295,0.5481,0.7594,0.0258,0.0248,0.0229,0.0208,0.0206,0.4808,ab000342,0*33ce27a5
#INSPVAXA,FILE,0,29.5,FINESTEERING,2319,306310.450,02000800,46eb,17139;INS_SOLUTION_GOOD,INS_RTKFIXED,17.59204168575,78.12267061760,532.4047,-76.2000,0.5540,5.5878,-0.0036,0.429326463,0.757179365,83.243778499,0.5295,0.5481,0.7594,0.0258,0.0248,0.0229,0.0208,0.0206,0.4808,ab000342,0*4be5ce48
#INSPVAXA,FILE,0,29.5,FINESTEERING,2319,306310.500,02000800,46eb,17139;INS_SOLUTION_GOOD,INS_RTKFIXED,17.59204187773,78.12267328261,532.4037,-76.2000,0.5324,5.6145,-0.0342,0.488479883,0.995337261,83.253390778,0.5295,0.5481,0.7594,0.0258,0.0248,0.0229,0.0208,0.0206,0.4808,ab000342,0*9836b296
#INSPVAXA,FILE,0,29.5,FINESTEERING,2319,306310.550,02000800,46eb,17139;INS_SOLUTION_GOOD,INS_RTKFIXED,17.59204206774,78.12267595925,532.4030,-76.2000,0.5340,5.6367,-0.0124,0.380579254,1.216273651,83.249392507,0.5295,0.5481,0.7594,0.0258,0.0248,0.0229,0.0208,0.0206,0.4808,ab000342,0*ca01596f
#INSPVAXA,FILE,0,29.5,FINESTEERING,2319,306310.600,02000800,46eb,17139;INS_SOLUTION_GOOD,INS_RTKFIXED,17.59204226699,78.12267864641,532.4028,-76.2000,0.5546,5.6547,-0.0005,0.396964425,1.366413778,83.254186745,0.5295,0.5481,0.7594,0.0258,0.0248,0.0229,0.0208,0.0206,0.4808,ab000342,0*821ad864
#INSPVAXA,FILE,0,29.5,FINESTEERING,2319,306310.650,02000800,46eb,17139;INS_SOLUTION_GOOD,INS_RTKFIXED,17.59204247193,78.12268134209,532.4050,-76.2000,0.5625,5.6707,0.0380,0.352257648,1.490998193,83.264204064,0.5295,0.5481,0.7594,0.0258,0.0248,0.0229,0.0208,0.0206,0.4808,ab000342,0*893ba07d
#INSPVAXA,FILE,0,29.5,FINESTEERING,2319,306310.700,02000800,46eb,17139;INS_SOLUTION_GOOD,INS_RTKFIXED,17.59204267531,78.12268404035,532.4106,-76.2000,0.5557,5.6732,0.1641,0.255685922,1.488541922,83.285800002,0.5295,0.5481,0.7594,0.0258,0.0248,0.0229,0.0208,0.0206,0.4808,ab000342,0*f10f7d70
#INSPVAXA,FILE,0,29.5,FINESTEERING,2319,306310.750,02000800,46eb,17139;INS_SOLUTION_GOOD,INS_RTKFIXED,17.59204288484,78.12268674322,532.4202,-76.2000,0.5653,5.6862,0.1954,0.112191131,1.401465701,83.304242003,0.5295,0.5481,0.7594,0.0258,0.0248,0.0229,0.0208,0.0206,0.4808,ab000342,0*00f815cc
#INSPVAXA,FILE,0,29.5,FINESTEERING,2319,306310.800,02000800,46eb,17139;INS_SOLUTION_GOOD,INS_RTKFIXED,17.59204309563,78.12268945322,532.4313,-76.2000,0.5639,5.7070,0.1999,0.102448639,1.313757192,83.322514168,0.5295,0.5481,0.7594,0.0258,0.0248,0.0229,0.0208,0.0206,0.4808,ab000342,0*22f957f7
#INSPVAXA,FILE,0,29.5,FINESTEERING,2319,306310.850,02000800,46eb,17139;INS_SOLUTION_GOOD,INS_RTKFIXED,17.59204330162,78.12269217563,532.4409,-76.2000,0.5490,5.7362,0.1433,0.096398738,1.334251654,83.327620434,0.5295,0.5481,0.7594,0.0258,0.0248,0.0229,0.0208,0.0206,0.4808,ab000342,0*553315fe
#INSPVAXA,FILE,0,29.5,FINESTEERING,2319,306310.900,02000800,46eb,17139;INS_SOLUTION_GOOD,INS_RTKFIXED,17.59204349764,78.12269490576,532.4494,-76.2000,0.5388,5.7585,0.1540,0.159689015,1.406305946,83.316703127,0.5295,0.5481,0.7594,0.0258,0.0248,0.0229,0.0208,0.0206,0.4808,ab000342,0*b08cd8b4
#INSPVAXA,FILE,0,29.5,FINESTEERING,2319,306310.950,02000800,46eb,17139;INS_SOLUTION_GOOD,INS_RTKFIXED,17.59204369326,78.12269764161,532.4572,-76.2000,0.5467,5.7561,0.1621,0.146827675,1.416334031,83.324521393,0.5295,0.5481,0.7594,0.0258,0.0248,0.0229,0.0208,0.0206,0.4808,ab000342,0*40e781ba
#INSPVAXA,FILE,0,29.5,FINESTEERING,2319,306311.000,02000800,46eb,17139;INS_SOLUTION_GOOD,INS_RTKFIXED,17.59204389720,78.12270038595,532.4649,-76.2000,0.5606,5.7807,0.1217,0.144086922,1.624580671,83.365588583,0.5295,0.5481,0.7594,0.0258,0.0248,0.0229,0.0208,0.0206,0.4808,ab000342,0*71141bc3
#INSPVAXA,FILE,0,29.5,FINESTEERING,2319,306311.050,02000800,46eb,17139;INS_SOLUTION_GOOD,INS_RTKFIXED,17.59204410553,78.12270313438,532.4711,-76.2000,0.5675,5.7997,0.0761,0.070324844,1.686154471,83.395721676,0.5299,0.5487,0.7621,0.0249,0.0243,0.0226,0.0211,0.0210,0.4810,ab000342,0*ca861bc4
#INSPVAXA,FILE,0,29.5,FINESTEERING,2319,306311.100,02000800,46eb,17139;INS_SOLUTION_GOOD,INS_RTKFIXED,17.59204432478,78.12270587320,532.4778,-76.2000,0.5695,5.8098,0.1285,0.165378317,1.789394164,83.417912557,0.5299,0.5487,0.7621,0.0249,0.0243,0.0226,0.0211,0.0210,0.4810,ab000342,0*f9e49ef0
#INSPVAXA,FILE,0,30.5,FINESTEERING,2319,306311.150,02000000,46eb,17139;INS_SOLUTION_GOOD,INS_RTKFIXED,17.59204453954,78.12270861935,532.4850,-76.2000,0.5540,5.8205,0.1120,0.136074163,1.820903015,83.440366839,0.5299,0.5487,0.7621,0.0249,0.0243,0.0226,0.0211,0.0210,0.4810,ab000342,0*8769d2bd
#INSPVAXA,FILE,0,30.5,FINESTEERING,2319,306311.200,02000000,46eb,17139;INS_SOLUTION_GOOD,INS_RTKFIXED,17.59204475539,78.12271137022,532.4946,-76.2000,0.5569,5.8334,0.1651,0.132562627,1.736286244,83.473076993,0.5299,0.5487,0.7621,0.0249,0.0243,0.0226,0.0211,0.0210,0.4810,ab000342,0*dd8bd9bb
#INSPVAXA,FILE,0,30.5,FINESTEERING,2319,306311.250,02000000,46eb,17139;INS_SOLUTION_GOOD,INS_RTKFIXED,17.59204496825,78.12271412586,532.5070,-76.2000,0.5399,5.8416,0.2510,0.142346061,1.482384289,83.493221436,0.5299,0.5487,0.7621,0.0249,0.0243,0.0226,0.0211,0.0210,0.4810,ab000342,0*e0987d14
#INSPVAXA,FILE,0,30.5,FINESTEERING,2319,306311.300,02000000,46eb,17139;INS_SOLUTION_GOOD,INS_RTKFIXED,17.59204518070,78.12271688572,532.5207,-76.2000,0.5387,5.8496,0.2674,0.211945387,1.154439252,83.515831909,0.5299,0.5487,0.7621,0.0249,0.0243,0.0226,0.0211,0.0210,0.4810,ab000342,0*9e0c83ab
#INSPVAXA,FILE,0,30.5,FINESTEERING,2319,306311.350,02000000,46eb,17139;INS_SOLUTION_GOOD,INS_RTKFIXED,17.59204539185,78.12271965609,532.5365,-76.2000,0.5212,5.8760,0.2478,0.204967870,0.823493887,83.536641880,0.5299,0.5487,0.7621,0.0249,0.0243,0.0226,0.0211,0.0210,0.4810,ab000342,0*63be08c4
#INSPVAXA,FILE,0,30.5,FINESTEERING,2319,306311.400,02000000,46eb,17139;INS_SOLUTION_GOOD,INS_RTKFIXED,17.59204559968,78.12272243512,532.5531,-76.2000,0.5265,5.9103,0.3056,0.295136081,0.427691632,83.549234160,0.5299,0.5487,0.7621,0.0249,0.0243,0.0226,0.0211,0.0210,0.4810,ab000342,0*ac13b799
#INSPVAXA,FILE,0,30.5,FINESTEERING,2319,306311.450,02000000,46eb,17139;INS_SOLUTION_GOOD,INS_RTKFIXED,17.59204580830,78.12272522831,532.5662,-76.2000,0.5279,5.9296,0.1889,0.299382722,0.115408090,83.577669434,0.5299,0.5487,0.7621,0.0249,0.0243,0.0226,0.0211,0.0210,0.4810,ab000342,0*3644e8a0
#INSPVAXA,FILE,0,30.5,FINESTEERING,2319,306311.500,02000000,46eb,17139;INS_SOLUTION_GOOD,INS_RTKFIXED,17.59204601658,78.12272803087,532.5793,-76.2000,0.5205,5.9545,0.2108,0.385155101,-0.065414342,83.596738558,0.5299,0.5487,0.7621,0.0249,0.0243,0.0226,0.0211,0.0210,0.4810,ab000342,0*d5ee8154
#INSPVAXA,FILE,0,30.5,FINESTEERING,2319,306311.550,02000000,46eb,17139;INS_SOLUTION_GOOD,INS_RTKFIXED,17.59204622023,78.12273084956,532.5886,-76.2000,0.5036,5.9834,0.0955,0.361669526,-0.232405043,83.608977396,0.5299,0.5487,0.7621,0.0249,0.0243,0.0226,0.0211,0.0210,0.4810,ab000342,0*db797b82
#INSPVAXA,FILE,0,30.5,FINESTEERING,2319,306311.600,02000000,46eb,17139;INS_SOLUTION_GOOD,INS_RTKFIXED,17.59204642208,78.12273368019,532.5930,-76.2000,0.5052,6.0143,-0.0043,0.458497976,-0.080895131,83.606161443,0.5299,0.5487,0.7621,0.0249,0.0243,0.0226,0.0211,0.0210,0.4810,ab000342,0*e3dc8ead
#INSPVAXA,FILE,0,30.5,FINESTEERING,2319,306311.650,02000000,46eb,17139;INS_SOLUTION_GOOD,INS_RTKFIXED,17.59204662517,78.12273652491,532.5932,-76.2000,0.5176,6.0390,-0.0810,0.346520204,0.197558358,83.614156483,0.5299,0.5487,0.7621,0.0249,0.0243,0.0226,0.0211,0.0210,0.4810,ab000342,0*0cf2e448
#INSPVAXA,FILE,0,30.5,FINESTEERING,2319,306311.700,02000000,46eb,17139;INS_SOLUTION_GOOD,INS_RTKFIXED,17.59204683688,78.12273938030,532.5906,-76.2000,0.5335,6.0643,-0.1114,0.407236471,0.641580307,83.643590958,0.5299,0.5487,0.7621,0.0249,0.0243,0.0226,0.0211,0.0210,0.4810,ab000342,0*7576dcbd
#INSPVAXA,FILE,0,30.5,FINESTEERING,2319,306311.750,02000000,46eb,17139;INS_SOLUTION_GOOD,INS_RTKFIXED,17.59204705339,78.12274224484,532.5867,-76.2000,0.5428,6.0769,-0.1257,0.425448914,1.079091882,83.679416842,0.5299,0.5487,0.7621,0.0249,0.0243,0.0226,0.0211,0.0210,0.4810,ab000342,0*efa25a4c
#INSPVAXA,FILE,0,30.5,FINESTEERING,2319,306311.800,02000000,46eb,17139;INS_SOLUTION_GOOD,INS_RTKFIXED,17.59204726626,78.12274511250,532.5832,-76.2000,0.5233,6.0830,-0.1067,0.480686108,1.602052541,83.717967496,0.5299,0.5487,0.7621,0.0249,0.0243,0.0226,0.0211,0.0210,0.4810,ab000342,0*5842865e
#INSPVAXA,FILE,0,30.5,FINESTEERING,2319,306311.850,02000000,46eb,17139;INS_SOLUTION_GOOD,INS_RTKFIXED,17.59204747053,78.12274798253,532.5817,-76.2000,0.5044,6.0860,-0.0502,0.454638213,2.014324954,83.732933008,0.5299,0.5487,0.7621,0.0249,0.0243,0.0226,0.0211,0.0210,0.4810,ab000342,0*da33b0be
#INSPVAXA,FILE,0,30.5,FINESTEERING,2319,306311.900,02000000,46eb,17139;INS_SOLUTION_GOOD,INS_RTKFIXED,17.59204767198,78.12275084978,532.5831,-76.2000,0.5034,6.0732,0.0254,0.406276561,2.293993772,83.751945648,0.5299,0.5487,0.7621,0.0249,0.0243,0.0226,0.0211,0.0210,0.4810,ab000342,0*35e7f200
#INSPVAXA,FILE,0,30.5,FINESTEERING,2319,306311.950,02000000,46eb,17139;INS_SOLUTION_GOOD,INS_RTKFIXED,17.59204787702,78.12275371380,532.5883,-76.2000,0.5256,6.0594,0.1185,0.270424530,2.509588556,83.768134951,0.5299,0.5487,0.7621,0.0249,0.0243,0.0226,0.0211,0.0210,0.4810,ab000342,0*8cd9315c
#INSPVAXA,FILE,0,30.5,FINESTEERING,2319,306312.000,02000000,46eb,17139;INS_SOLUTION_GOOD,INS_RTKFIXED,17.59204808959,78.12275656809,532.5997,-76.2000,0.5382,6.0368,0.2461,0.214624691,2.551208473,83.803763958,0.5299,0.5487,0.7621,0.0249,0.0243,0.0226,0.0211,0.0210,0.4810,ab000342,0*334c47a6
#INSPVAXA,FILE,0,30.5,FINESTEERING,2319,306312.050,02000000,46eb,17139;INS_SOLUTION_GOOD,INS_RTKFIXED,17.59204830649,78.12275941698,532.6165,-76.2000,0.5171,6.0203,0.3431,0.247056403,2.339999801,83.852762108,0.5303,0.5492,0.7646,0.0241,0.0240,0.0222,0.0215,0.0214,0.4813,ab000342,0*30ade72e
#INSPVAXA,FILE,0,30.5,FINESTEERING,2319,306312.100,02000000,46eb,17139;INS_SOLUTION_GOOD,INS_RTKFIXED,17.59204852828,78.12276226460,532.6347,-76.2000,0.5069,6.0192,0.3526,0.140350686,2.143286276,83.885451456,0.5303,0.5492,0.7646,0.0241,0.0240,0.0222,0.0215,0.0214,0.4813,ab000342,0*560de822
#INSPVAXA,FILE,0,30.5,FINESTEERING,2319,306312.150,02000000,46eb,17139;INS_SOLUTION_GOOD,INS_RTKFIXED,17.59204874277,78.12276510944,532.6527,-76.2000,0.4873,6.0079,0.3574,0.194750148,1.869882745,83.902212429,0.5303,0.5492,0.7646,0.0241,0.0240,0.0222,0.0215,0.0214,0.4813,ab000342,0*91045a02
#INSPVAXA,FILE,0,30.5,FINESTEERING,2319,306312.200,02000000,46eb,17139;INS_SOLUTION_GOOD,INS_RTKFIXED,17.59204894849,78.12276794920,532.6712,-76.2000,0.4800,6.0013,0.3695,0.189860773,1.766087165,83.900698476,0.5303,0.5492,0.7646,0.0241,0.0240,0.0222,0.0215,0.0214,0.4813,ab000342,0*4396a271
#INSPVAXA,FILE,0,30.5,FINESTEERING,2319,306312.250,02000000,46eb,17139;INS_SOLUTION_GOOD,INS_RTKFIXED,17.59204915297,78.12277078250,532.6880,-76.2000,0.4790,5.9831,0.3245,0.261436279,1.603174303,83.912065544,0.5303,0.5492,0.7646,0.0241,0.0240,0.0222,0.0215,0.0214,0.4813,ab000342,0*4c1798d1
#INSPVAXA,FILE,0,30.5,FINESTEERING,2319,306312.300,02000000,46eb,17139;INS_SOLUTION_GOOD,INS_RTKFIXED,17.59204935976,78.12277360816,532.7016,-76.2000,0.4867,5.9557,0.2188,0.260302494,1.551795285,83.938605952,0.5303,0.5492,0.7646,0.0241,0.0240,0.0222,0.0215,0.0214,0.4813,ab000342,0*3c7427d7
#INSPVAXA,FILE,0,30.5,FINESTEERING,2319,306312.350,02000000,46eb,17139;INS_SOLUTION_GOOD,INS_RTKFIXED,17.59204956684,78.12277642942,532.7139,-76.2000,0.4996,5.9551,0.2146,0.223311259,1.646703197,83.964020944,0.5303,0.5492,0.7646,0.0241,0.0240,0.0222,0.0215,0.0214,0.4813,ab000342,0*e420961e
#INSPVAXA,FILE,0,30.5,FINESTEERING,2319,306312.400,02000000,46eb,17139;INS_SOLUTION_GOOD,INS_RTKFIXED,17.59204977430,78.12277924356,532.7224,-76.2000,0.4879,5.9380,0.1797,0.306764681,1.579256359,83.979009993,0.5303,0.5492,0.7646,0.0241,0.0240,0.0222,0.0215,0.0214,0.4813,ab000342,0*69fb9851
#INSPVAXA,FILE,0,30.5,FINESTEERING,2319,306312.450,02000000,46eb,17139;INS_SOLUTION_GOOD,INS_RTKFIXED,17.59204997448,78.12278204459,532.7299,-76.2000,0.4520,5.9065,0.1392,0.374105553,1.540283827,83.969534110,0.5303,0.5492,0.7646,0.0241,0.0240,0.0222,0.0215,0.0214,0.4813,ab000342,0*ded67056
#INSPVAXA,FILE,0,30.5,FINESTEERING,2319,306312.500,02000000,46eb,17139;INS_SOLUTION_GOOD,INS_RTKFIXED,17.59205017114,78.12278482437,532.7391,-76.2000,0.4621,5.8594,0.1958,0.351863744,1.340599782,83.945313610,0.5303,0.5492,0.7646,0.0241,0.0240,0.0222,0.0215,0.0214,0.4813,ab000342,0*4a67ef26
#INSPVAXA,FILE,0,30.5,FINESTEERING,2319,306312.550,02000000,46eb,17139;INS_SOLUTION_GOOD,INS_RTKFIXED,17.59205037069,78.12278759208,532.7492,-76.2000,0.4723,5.8350,0.1867,0.362745579,1.018762462,83.924759948,0.5303,0.5492,0.7646,0.0241,0.0240,0.0222,0.0215,0.0214,0.4813,ab000342,0*bca74b56
#INSPVAXA,FILE,0,30.5,FINESTEERING,2319,306312.600,02000000,46eb,17139;INS_SOLUTION_GOOD,INS_RTKFIXED,17.59205057278,78.12279034614,532.7618,-76.2000,0.4777,5.8114,0.2656,0.439238307,0.672695668,83.900818222,0.5303,0.5492,0.7646,0.0241,0.0240,0.0222,0.0215,0.0214,0.4813,ab000342,0*862e9b19
#INSPVAXA,FILE,0,30.5,FINESTEERING,2319,306312.650,02000000,46eb,17139;INS_SOLUTION_GOOD,INS_RTKFIXED,17.59205077408,78.12279309126,532.7757,-76.2000,0.4680,5.7960,0.3020,0.522603518,0.216124384,83.878962239,0.5303,0.5492,0.7646,0.0241,0.0240,0.0222,0.0215,0.0214,0.4813,ab000342,0*99e18557
#INSPVAXA,FILE,0,30.5,FINESTEERING,2319,306312.700,02000000,46eb,17139;INS_SOLUTION_GOOD,INS_RTKFIXED,17.59205097335,78.12279582858,532.7897,-76.2000,0.4593,5.7815,0.2752,0.544036993,-0.154814567,83.853825617,0.5303,0.5492,0.7646,0.0241,0.0240,0.0222,0.0215,0.0214,0.4813,ab000342,0*bc85dee4
#INSPVAXA,FILE,0,30.5,FINESTEERING,2319,306312.750,02000000,46eb,17139;INS_SOLUTION_GOOD,INS_RTKFIXED,17.59205117782,78.12279856049,532.8056,-76.2000,0.4682,5.7867,0.3129,0.551723915,-0.460573232,83.848401595,0.5303,0.5492,0.7646,0.0241,0.0240,0.0222,0.0215,0.0214,0.4813,ab000342,0*2a5b302c
#INSPVAXA,FILE,0,30.5,FINESTEERING,2319,306312.800,02000000,46eb,17139;INS_SOLUTION_GOOD,INS_RTKFIXED,17.59205137837,78.12280129009,532.8165,-76.2000,0.4491,5.7593,0.1807,0.499790910,-0.841325786,83.819540134,0.5303,0.5492,0.7646,0.0241,0.0240,0.0222,0.0215,0.0214,0.4813,ab000342,0*0396f8ff
#INSPVAXA,FILE,0,30.5,FINESTEERING,2319,306312.850,02000000,46eb,17139;INS_SOLUTION_GOOD,INS_RTKFIXED,17.59205157840,78.12280401870,532.8221,-76.2000,0.4532,5.7666,0.0364,0.519051835,-0.756804173,83.780788412,0.5303,0.5492,0.7646,0.0241,0.0240,0.0222,0.0215,0.0214,0.4813,ab000342,0*ffa57be3
#INSPVAXA,FILE,0,30.5,FINESTEERING,2319,306312.900,02000000,46eb,17139;INS_SOLUTION_GOOD,INS_RTKFIXED,17.59205177783,78.12280674655,532.8224,-76.2000,0.4626,5.7636,-0.0593,0.427098573,-0.559799248,83.743050737,0.5303,0.5492,0.7646,0.0241,0.0240,0.0222,0.0215,0.0214,0.4813,ab000342,0*e7e0d2ad
#INSPVAXA,FILE,0,30.5,FINESTEERING,2319,306312.950,02000000,46eb,17139;INS_SOLUTION_GOOD,INS_RTKFIXED,17.59205198181,78.12280947324,532.8175,-76.2000,0.4796,5.7698,-0.1515,0.413890656,-0.065189450,83.718721579,0.5303,0.5492,0.7646,0.0241,0.0240,0.0222,0.0215,0.0214,0.4813,ab000342,0*4f91b18e
#INSPVAXA,FILE,0,30.5,FINESTEERING,2319,306313.000,02000000,46eb,17139;INS_SOLUTION_GOOD,INS_RTKFIXED,17.59205219395,78.12281219715,532.8102,-76.2000,0.4985,5.7551,-0.1758,0.400456499,0.419022029,83.709205631,0.5303,0.5492,0.7646,0.0241,0.0240,0.0222,0.0215,0.0214,0.4813,ab000342,0*5290ee92
#INSPVAXA,FILE,0,30.5,FINESTEERING,2319,306313.050,02000000,46eb,17139;INS_SOLUTION_GOOD,INS_RTKFIXED,17.59205240466,78.12281491577,532.8017,-76.2000,0.4898,5.7501,-0.1704,0.430874383,1.024322476,83.695519313,0.5311,0.5511,0.7667,0.0234,0.0242,0.0218,0.0218,0.0215,0.4815,ab000342,0*c19f28c6
#INSPVAXA,FILE,0,30.5,FINESTEERING,2319,306313.100,02000000,46eb,17139;INS_SOLUTION_GOOD,INS_RTKFIXED,17.59205261030,78.12281762319,532.7945,-76.2000,0.4745,5.7222,-0.1217,0.484596270,1.408704348,83.677043032,0.5311,0.5511,0.7667,0.0234,0.0242,0.0218,0.0218,0.0215,0.4815,ab000342,0*68444a66
#INSPVAXA,FILE,0,31.0,FINESTEERING,2319,306313.150,02000000,46eb,17139;INS_SOLUTION_GOOD,INS_RTKFIXED,17.59205281080,78.12282031882,532.7904,-76.2000,0.4634,5.6978,-0.0606,0.489294224,1.730673131,83.648597696,0.5311,0.5511,0.7667,0.0234,0.0242,0.0218,0.0218,0.0215,0.4815,ab000342,0*92688ef4
#INSPVAXA,FILE,0,31.0,FINESTEERING,2319,306313.200,02000000,46eb,17139;INS_SOLUTION_GOOD,INS_RTKFIXED,17.59205301260,78.12282300296,532.7901,-76.2000,0.4743,5.6759,0.0176,0.528273016,1.846976090,83.619727840,0.5311,0.5511,0.7667,0.0234,0.0242,0.0218,0.0218,0.0215,0.4815,ab000342,0*437decf0
#INSPVAXA,FILE,0,31.0,FINESTEERING,2319,306313.250,02000000,46eb,17139;INS_SOLUTION_GOOD,INS_RTKFIXED,17.59205321643,78.12282566960,532.7939,-76.2000,0.4736,5.6338,0.1337,0.672487336,1.820645336,83.597820386,0.5311,0.5511,0.7667,0.0234,0.0242,0.0218,0.0218,0.0215,0.4815,ab000342,0*e414e30f
#INSPVAXA,FILE,0,31.0,FINESTEERING,2319,306313.300,02000000,46eb,17139;INS_SOLUTION_GOOD,INS_RTKFIXED,17.59205342252,78.12282831929,532.8050,-76.2000,0.4736,5.5978,0.2795,0.673584356,1.583504754,83.585724980,0.5311,0.5511,0.7667,0.0234,0.0242,0.0218,0.0218,0.0215,0.4815,ab000342,0*b8b2ff92
#INSPVAXA,FILE,0,31.0,FINESTEERING,2319,306313.350,02000000,46eb,17139;INS_SOLUTION_GOOD,INS_RTKFIXED,17.59205362769,78.12283095336,532.8207,-76.2000,0.4683,5.5657,0.3327,0.671106058,1.265797037,83.574690623,0.5311,0.5511,0.7667,0.0234,0.0242,0.0218,0.0218,0.0215,0.4815,ab000342,0*c95c1558
#INSPVAXA,FILE,0,31.0,FINESTEERING,2319,306313.400,02000000,46eb,17139;INS_SOLUTION_GOOD,INS_RTKFIXED,17.59205383155,78.12283357741,532.8395,-76.2000,0.4722,5.5529,0.3583,0.565213365,0.946910299,83.557243765,0.5311,0.5511,0.7667,0.0234,0.0242,0.0218,0.0218,0.0215,0.4815,ab000342,0*98f22ec2
#INSPVAXA,FILE,0,31.0,FINESTEERING,2319,306313.450,02000000,46eb,17139;INS_SOLUTION_GOOD,INS_RTKFIXED,17.59205403480,78.12283619238,532.8564,-76.2000,0.4765,5.5330,0.3245,0.539096547,0.665085081,83.528657384,0.5311,0.5511,0.7667,0.0234,0.0242,0.0218,0.0218,0.0215,0.4815,ab000342,0*5b744507
#INSPVAXA,FILE,0,31.0,FINESTEERING,2319,306313.500,02000000,46eb,17139;INS_SOLUTION_GOOD,INS_RTKFIXED,17.59205423872,78.12283880303,532.8709,-76.2000,0.4692,5.5278,0.2386,0.505077182,0.548712426,83.503742566,0.5311,0.5511,0.7667,0.0234,0.0242,0.0218,0.0218,0.0215,0.4815,ab000342,0*2a4c1667
#INSPVAXA,FILE,0,31.0,FINESTEERING,2319,306313.550,02000000,46eb,17139;INS_SOLUTION_GOOD,INS_RTKFIXED,17.59205444374,78.12284140992,532.8811,-76.2000,0.4811,5.5188,0.1486,0.477035347,0.580138624,83.475589906,0.5311,0.5511,0.7667,0.0234,0.0242,0.0218,0.0218,0.0215,0.4815,ab000342,0*a521d3eb
#INSPVAXA,FILE,0,31.0,FINESTEERING,2319,306313.600,02000000,46eb,17139;INS_SOLUTION_GOOD,INS_RTKFIXED,17.59205465248,78.12284401270,532.8868,-76.2000,0.4906,5.5019,0.0642,0.523781775,0.699239923,83.456273872,0.5311,0.5511,0.7667,0.0234,0.0242,0.0218,0.0218,0.0215,0.4815,ab000342,0*2ab65783
#INSPVAXA,FILE,0,31.0,FINESTEERING,2319,306313.650,02000000,46eb,17139;INS_SOLUTION_GOOD,INS_RTKFIXED,17.59205485917,78.12284660906,532.8885,-76.2000,0.4809,5.4894,-0.0047,0.555569042,1.031937995,83.436664229,0.5311,0.5511,0.7667,0.0234,0.0242,0.0218,0.0218,0.0215,0.4815,ab000342,0*e24b1051
#INSPVAXA,FILE,0,31.0,FINESTEERING,2319,306313.700,02000000,46eb,17139;INS_SOLUTION_GOOD,INS_RTKFIXED,17.59205506445,78.12284920157,532.8884,-76.2000,0.4743,5.4868,-0.0312,0.603245961,1.301301893,83.416523718,0.5311,0.5511,0.7667,0.0234,0.0242,0.0218,0.0218,0.0215,0.4815,ab000342,0*5f462965
#INSPVAXA,FILE,0,31.0,FINESTEERING,2319,306313.750,02000000,46eb,17139;INS_SOLUTION_GOOD,INS_RTKFIXED,17.59205526814,78.12285178519,532.8875,-76.2000,0.4754,5.4627,-0.0125,0.670395491,1.510983073,83.394193834,0.5311,0.5511,0.7667,0.0234,0.0242,0.0218,0.0218,0.0215,0.4815,ab000342,0*fa02de65
#INSPVAXA,FILE,0,31.0,FINESTEERING,2319,306313.800,02000000,46eb,17139;INS_SOLUTION_GOOD,INS_RTKFIXED,17.59205547298,78.12285435540,532.8891,-76.2000,0.4828,5.4339,0.0604,0.637167083,1.595146658,83.369330621,0.5311,0.5511,0.7667,0.0234,0.0242,0.0218,0.0218,0.0215,0.4815,ab000342,0*b9990843
#INSPVAXA,FILE,0,31.0,FINESTEERING,2319,306313.850,02000000,46eb,17139;INS_SOLUTION_GOOD,INS_RTKFIXED,17.59205567981,78.12285691104,532.8936,-76.2000,0.4909,5.4002,0.1223,0.643306855,1.461914081,83.343137213,0.5311,0.5511,0.7667,0.0234,0.0242,0.0218,0.0218,0.0215,0.4815,ab000342,0*d0853c8c
#INSPVAXA,FILE,0,31.0,FINESTEERING,2319,306313.900,02000000,46eb,17139;INS_SOLUTION_GOOD,INS_RTKFIXED,17.59205588864,78.12285945186,532.9027,-76.2000,0.4933,5.3709,0.2218,0.619640081,1.196042837,83.317091418,0.5311,0.5511,0.7667,0.0234,0.0242,0.0218,0.0218,0.0215,0.4815,ab000342,0*af55ce98
#INSPVAXA,FILE,0,31.0,FINESTEERING,2319,306313.950,02000000,46eb,17139;INS_SOLUTION_GOOD,INS_RTKFIXED,17.59205609936,78.12286198060,532.9156,-76.2000,0.5012,5.3480,0.2973,0.612331679,0.778093269,83.292993023,0.5311,0.5511,0.7667,0.0234,0.0242,0.0218,0.0218,0.0215,0.4815,ab000342,0*2af4c68b
#INSPVAXA,FILE,0,31.0,FINESTEERING,2319,306314.000,02000000,46eb,17139;INS_SOLUTION_GOOD,INS_RTKFIXED,17.59205630901,78.12286450164,532.9305,-76.2000,0.4888,5.3374,0.3044,0.604712983,0.338953285,83.266462655,0.5311,0.5511,0.7667,0.0234,0.0242,0.0218,0.0218,0.0215,0.4815,ab000342,0*a4aab176
#INSPVAXA,FILE,0,31.0,FINESTEERING,2319,306314.050,02000000,46eb,17139;INS_SOLUTION_GOOD,INS_RTKFIXED,17.59205651875,78.12286701970,532.9445,-76.2000,0.4757,5.3152,0.2732,0.646699610,-0.092979100,83.236888112,0.5318,0.5529,0.7687,0.0234,0.0248,0.0217,0.0220,0.0216,0.4818,ab000342,0*2a9ade29
#INSPVAXA,FILE,0,30.0,FINESTEERING,2319,306314.100,02000000,46eb,17139;INS_SOLUTION_GOOD,INS_RTKFIXED,17.59205673412,78.12286953606,532.9604,-76.2000,0.4663,5.3104,0.2941,0.647026550,-0.421399505,83.211534855,0.5318,0.5529,0.7687,0.0234,0.0248,0.0217,0.0220,0.0216,0.4818,ab000342,0*660c0b1f
#INSPVAXA,FILE,0,30.0,FINESTEERING,2319,306314.150,02000000,46eb,17139;INS_SOLUTION_GOOD,INS_RTKFIXED,17.59205694775,78.12287205213,532.9724,-76.2000,0.4623,5.3084,0.1814,0.666378162,-0.713796443,83.183009752,0.5318,0.5529,0.7687,0.0234,0.0248,0.0217,0.0220,0.0216,0.4818,ab000342,0*66acb3d3
#INSPVAXA,FILE,0,30.0,FINESTEERING,2319,306314.200,02000000,46eb,17139;INS_SOLUTION_GOOD,INS_RTKFIXED,17.59205716009,78.12287456348,532.9792,-76.2000,0.4718,5.2991,0.0691,0.687260741,-0.744927785,83.140804934,0.5318,0.5529,0.7687,0.0234,0.0248,0.0217,0.0220,0.0216,0.4818,ab000342,0*30077995
#INSPVAXA,FILE,0,30.0,FINESTEERING,2319,306314.250,02000000,46eb,17139;INS_SOLUTION_GOOD,INS_RTKFIXED,17.59205737662,78.12287707112,532.9807,-76.2000,0.4828,5.2938,-0.0475,0.659992661,-0.484234012,83.122819113,0.5318,0.5529,0.7687,0.0234,0.0248,0.0217,0.0220,0.0216,0.4818,ab000342,0*f364d9c5
