#BESTPOSA,FILE,0,31.5,FINESTEERING,2319,307546.450,02000800,cdba,17139;SOL_COMPUTED,NARROW_INT,17.59981809453,78.12225651990,524.6921,-76.2000,WGS84,0.0066,0.0061,0.0143,"0",0.450,0.000,51,51,51,49,00,21,3f,37*8c33c08d
#BESTPOSA,FILE,0,31.5,FINESTEERING,2319,307546.550,02000800,cdba,17139;SOL_COMPUTED,NARROW_INT,17.59981809279,78.12225651098,524.6910,-76.2000,WGS84,0.0066,0.0061,0.0144,"0",0.550,0.000,51,51,51,49,00,21,3f,37*d923f396
#BESTPOSA,FILE,0,31.5,FINESTEERING,2319,307546.650,02000800,cdba,17139;SOL_COMPUTED,NARROW_INT,17.59981808945,78.12225650132,524.6907,-76.2000,WGS84,0.0067,0.0061,0.0144,"0",0.650,0.000,51,51,51,49,00,21,3f,37*0bb151f5
#BESTPOSA,FILE,0,31.5,FINESTEERING,2319,307546.750,02000800,cdba,17139;SOL_COMPUTED,NARROW_INT,17.59981809308,78.12225650463,524.6936,-76.2000,WGS84,0.0067,0.0062,0.0145,"0",0.750,0.000,51,51,51,49,00,21,3f,37*c6e81df0
#BESTPOSA,FILE,0,31.5,FINESTEERING,2319,307546.800,02000800,cdba,17139;SOL_COMPUTED,NARROW_INT,17.59981808468,78.12225650407,524.6916,-76.2000,WGS84,0.0067,0.0062,0.0145,"0",0.800,0.000,51,51,51,49,00,21,3f,37*5858fb65
#BESTPOSA,FILE,0,31.5,FINESTEERING,2319,307546.900,02000800,cdba,17139;SOL_COMPUTED,NARROW_INT,17.59981808768,78.12225651321,524.6906,-76.2000,WGS84,0.0068,0.0062,0.0146,"0",0.900,0.000,51,51,51,49,00,21,3f,37*d2f986b0
#BESTPOSA,FILE,0,31.5,FINESTEERING,2319,307547.000,02000800,cdba,17139;SOL_COMPUTED,NARROW_INT,17.59981808780,78.12225651002,524.6920,-76.2000,WGS84,0.0068,0.0062,0.0147,"0",1.000,0.000,51,51,51,49,00,21,3f,37*90bfa444
#BESTPOSA,FILE,0,31.5,FINESTEERING,2319,307547.100,02000800,cdba,17139;SOL_COMPUTED,NARROW_INT,17.59981808850,78.12225650369,524.6922,-76.2000,WGS84,0.0069,0.0063,0.0149,"0",1.100,0.000,51,51,51,49,00,21,3f,37*491fea97
#BESTPOSA,FILE,0,34.5,FINESTEERING,2319,307547.200,02000800,cdba,17139;SOL_COMPUTED,NARROW_INT,17.59981808999,78.12225650434,524.6921,-76.2000,WGS84,0.0070,0.0064,0.0149,"0",1.200,0.000,51,51,51,49,00,21,3f,37*80540678
#BESTPOSA,FILE,0,34.5,FINESTEERING,2319,307547.300,02000800,cdba,17139;SOL_COMPUTED,NARROW_INT,17.59981809034,78.12225651012,524.6923,-76.2000,WGS84,0.0070,0.0064,0.0150,"0",1.300,0.000,51,51,51,49,00,21,3f,37*daa0b5af
#BESTPOSA,FILE,0,34.5,FINESTEERING,2319,307547.400,02000800,cdba,17139;SOL_COMPUTED,NARROW_INT,17.59981808732,78.12225650278,524.6937,-76.2000,WGS84,0.0064,0.0058,0.0141,"0",0.400,0.000,51,51,51,49,00,21,3f,37*b9f0e6c4
#BESTPOSA,FILE,0,34.5,FINESTEERING,2319,307547.500,02000800,cdba,17139;SOL_COMPUTED,NARROW_INT,17.59981809563,78.12225650367,524.6938,-76.2000,WGS84,0.0064,0.0058,0.0142,"0",0.500,0.000,51,51,51,49,00,21,3f,37*06a547c8
#BESTPOSA,FILE,0,34.5,FINESTEERING,2319,307547.600,02000800,cdba,17139;SOL_COMPUTED,NARROW_INT,17.59981809911,78.12225650279,524.6947,-76.2000,WGS84,0.0065,0.0059,0.0142,"0",0.600,0.000,51,51,51,49,00,21,3f,37*ac0e4eb3
#BESTPOSA,FILE,0,34.5,FINESTEERING,2319,307547.700,02000800,cdba,17139;SOL_COMPUTED,NARROW_INT,17.59981809658,78.12225650629,524.6943,-76.2000,WGS84,0.0065,0.0059,0.0143,"0",0.700,0.000,51,51,51,49,00,21,3f,37*3664d64a
#BESTPOSA,FILE,0,34.5,FINESTEERING,2319,307547.800,02000800,cdba,17139;SOL_COMPUTED,NARROW_INT,17.59981809392,78.12225651062,524.6943,-76.2000,WGS84,0.0065,0.0059,0.0144,"0",0.800,0.000,51,51,51,49,00,21,3f,37*7689db46
#BESTPOSA,FILE,0,34.5,FINESTEERING,2319,307547.900,02000800,cdba,17139;SOL_COMPUTED,NARROW_INT,17.59981809653,78.12225650420,524.6947,-76.2000,WGS84,0.0066,0.0060,0.0144,"0",0.900,0.000,51,51,51,49,00,21,3f,37*49fa7e51
#BESTPOSA,FILE,0,34.5,FINESTEERING,2319,307548.000,02000800,cdba,17139;SOL_COMPUTED,NARROW_INT,17.59981809794,78.12225649772,524.6950,-76.2000,WGS84,0.0066,0.0060,0.0145,"0",1.000,0.000,51,51,51,49,00,21,3f,37*fe181d53
#BESTPOSA,FILE,0,32.0,FINESTEERING,2319,307548.100,02000800,cdba,17139;SOL_COMPUTED,NARROW_INT,17.59981809206,78.12225650463,524.6954,-76.2000,WGS84,0.0067,0.0061,0.0147,"0",1.100,0.000,51,51,51,49,00,21,3f,37*62877899
#BESTPOSA,FILE,0,32.0,FINESTEERING,2319,307548.150,02000800,cdba,17139;SOL_COMPUTED,NARROW_INT,17.59981809632,78.12225650962,524.6951,-76.2000,WGS84,0.0068,0.0061,0.0147,"0",1.150,0.000,51,51,51,49,00,21,3f,37*16e80d0c
#BESTPOSA,FILE,0,32.0,FINESTEERING,2319,307548.250,02000800,cdba,17139;SOL_COMPUTED,NARROW_INT,17.59981810161,78.12225651622,524.6959,-76.2000,WGS84,0.0068,0.0062,0.0148,"0",1.250,0.000,51,51,51,49,00,21,3f,37*54410870
#BESTPOSA,FILE,0,32.0,FINESTEERING,2319,307548.350,02000800,cdba,17139;SOL_COMPUTED,NARROW_INT,17.59981809095,78.12225651702,524.6956,-76.2000,WGS84,0.0068,0.0062,0.0149,"0",1.350,0.000,51,51,51,49,00,21,3f,37*cbbdd1a4
#BESTPOSA,FILE,0,32.0,FINESTEERING,2319,307548.450,02000800,cdba,17139;SOL_COMPUTED,NARROW_INT,17.59981807184,78.12225652193,524.6948,-76.2000,WGS84,0.0064,0.0058,0.0141,"0",0.450,0.000,51,51,51,49,00,21,3f,37*0073d324
#BESTPOSA,FILE,0,32.0,FINESTEERING,2319,307548.550,02000800,cdba,17139;SOL_COMPUTED,NARROW_INT,17.59981807827,78.12225651508,524.6930,-76.2000,WGS84,0.0064,0.0059,0.0142,"0",0.550,0.000,51,51,51,49,00,21,3f,37*b4e9e2f8
#BESTPOSA,FILE,0,32.0,FINESTEERING,2319,307548.650,02000800,cdba,17139;SOL_COMPUTED,NARROW_INT,17.59981808459,78.12225651565,524.6936,-76.2000,WGS84,0.0065,0.0059,0.0143,"0",0.650,0.000,51,51,51,49,00,21,3f,37*434afdcb
#BESTPOSA,FILE,0,32.0,FINESTEERING,2319,307548.750,02000800,cdba,17139;SOL_COMPUTED,NARROW_INT,17.59981807838,78.12225652624,524.6916,-76.2000,WGS84,0.0065,0.0059,0.0143,"0",0.750,0.000,51,51,51,49,00,21,3f,37*07068ce9
#BESTPOSA,FILE,0,32.0,FINESTEERING,2319,307548.850,02000800,cdba,17139;SOL_COMPUTED,NARROW_INT,17.59981803992,78.12225653667,524.6900,-76.2000,WGS84,0.0066,0.0060,0.0144,"0",0.850,0.000,51,51,51,49,00,21,3f,37*40074c13
#BESTPOSA,FILE,0,32.0,FINESTEERING,2319,307548.900,02000800,cdba,17139;SOL_COMPUTED,NARROW_INT,17.59981800713,78.12225653821,524.6893,-76.2000,WGS84,0.0066,0.0060,0.0144,"0",0.900,0.000,51,51,51,49,00,21,3f,37*6bbe95f3
#BESTPOSA,FILE,0,32.0,FINESTEERING,2319,307549.000,02000800,cdba,17139;SOL_COMPUTED,NARROW_INT,17.59981792038,78.12225653596,524.6899,-76.2000,WGS84,0.0066,0.0060,0.0145,"0",1.000,0.000,51,51,51,49,00,21,3f,37*70fd977a
#BESTPOSA,FILE,0,32.0,FINESTEERING,2319,307549.100,02000800,cdba,17139;SOL_COMPUTED,NARROW_INT,17.59981780742,78.12225653298,524.6905,-76.2000,WGS84,0.0067,0.0061,0.0147,"0",1.100,0.000,51,51,51,49,00,21,3f,37*385d4455
#BESTPOSA,FILE,0,32.0,FINESTEERING,2319,307549.250,02000800,cdba,17139;SOL_COMPUTED,NARROW_INT,17.59981760192,78.12225656113,524.6918,-76.2000,WGS84,0.0068,0.0062,0.0148,"0",1.250,0.000,51,51,51,49,00,21,3f,37*6696d407
#BESTPOSA,FILE,0,32.0,FINESTEERING,2319,307549.300,02000800,cdba,17139;SOL_COMPUTED,NARROW_INT,17.59981752087,78.12225655861,524.6908,-76.2000,WGS84,0.0068,0.0062,0.0148,"0",1.300,0.000,51,51,51,49,00,21,3f,37*7a9dd082
#BESTPOSA,FILE,0,32.0,FINESTEERING,2319,307549.400,02000800,cdba,17139;SOL_COMPUTED,NARROW_INT,17.59981732305,78.12225656251,524.6910,-76.2000,WGS84,0.0064,0.0058,0.0141,"0",0.400,0.000,51,51,51,49,00,21,3f,37*2edaef19
#BESTPOSA,FILE,0,32.0,FINESTEERING,2319,307549.500,02000800,cdba,17139;SOL_COMPUTED,NARROW_INT,17.59981706011,78.12225657634,524.6894,-76.2000,WGS84,0.0064,0.0058,0.0142,"0",0.500,0.000,51,51,51,49,00,21,3f,37*3a449680
#BESTPOSA,FILE,0,32.0,FINESTEERING,2319,307549.600,02000800,cdba,17139;SOL_COMPUTED,NARROW_INT,17.59981674685,78.12225658396,524.6889,-76.2000,WGS84,0.0065,0.0059,0.0142,"0",0.600,0.000,51,51,51,49,00,21,3f,37*7a5b976a
#BESTPOSA,FILE,0,32.0,FINESTEERING,2319,307549.700,02000800,cdba,17139;SOL_COMPUTED,NARROW_INT,17.59981637949,78.12225661375,524.6865,-76.2000,WGS84,0.0065,0.0059,0.0143,"0",0.700,0.000,51,51,51,49,00,21,3f,37*b0a7fed3
#BESTPOSA,FILE,0,32.0,FINESTEERING,2319,307549.800,02000800,cdba,17139;SOL_COMPUTED,NARROW_INT,17.59981593461,78.12225664459,524.6864,-76.2000,WGS84,0.0066,0.0060,0.0144,"0",0.800,0.000,51,51,51,49,00,21,3f,37*92bdc22d
#BESTPOSA,FILE,0,32.0,FINESTEERING,2319,307549.900,02000800,cdba,17139;SOL_COMPUTED,NARROW_INT,17.59981540359,78.12225666605,524.6854,-76.2000,WGS84,0.0066,0.0060,0.0144,"0",0.900,0.000,51,51,51,49,00,21,3f,37*5c723dc4
#BESTPOSA,FILE,0,32.0,FINESTEERING,2319,307549.950,02000800,cdba,17139;SOL_COMPUTED,NARROW_INT,17.59981510893,78.12225668528,524.6870,-76.2000,WGS84,0.0066,0.0060,0.0145,"0",0.950,0.000,51,51,51,49,00,21,3f,37*334debe1
#BESTPOSA,FILE,0,32.0,FINESTEERING,2319,307550.000,02000800,cdba,17139;SOL_COMPUTED,NARROW_INT,17.59981480362,78.12225669204,524.6870,-76.2000,WGS84,0.0066,0.0060,0.0145,"0",1.000,0.000,51,51,51,49,00,21,3f,37*f936a9e9
#BESTPOSA,FILE,0,32.0,FINESTEERING,2319,307550.050,02000800,cdba,17139;SOL_COMPUTED,NARROW_INT,17.59981445240,78.12225670770,524.6843,-76.2000,WGS84,0.0067,0.0061,0.0146,"0",1.050,0.000,51,51,51,49,00,21,3f,37*75b767eb
#BESTPOSA,FILE,0,32.0,FINESTEERING,2319,307550.100,02000800,cdba,17139;SOL_COMPUTED,NARROW_INT,17.59981408750,78.12225672251,524.6861,-76.2000,WGS84,0.0067,0.0061,0.0147,"0",1.100,0.000,51,51,51,49,00,21,3f,37*f904a3b5
#BESTPOSA,FILE,0,33.0,FINESTEERING,2319,307550.150,02000800,cdba,17139;SOL_COMPUTED,NARROW_INT,17.59981371843,78.12225672773,524.6838,-76.2000,WGS84,0.0068,0.0061,0.0147,"0",1.150,0.000,51,51,51,49,00,21,3f,37*a23b56fd
#BESTPOSA,FILE,0,33.0,FINESTEERING,2319,307550.200,02000800,cdba,17139;SOL_COMPUTED,NARROW_INT,17.59981332152,78.12225673904,524.6825,-76.2000,WGS84,0.0068,0.0062,0.0148,"0",1.200,0.000,51,51,51,49,00,21,3f,37*c0838403
#BESTPOSA,FILE,0,33.0,FINESTEERING,2319,307550.250,02000800,cdba,17139;SOL_COMPUTED,NARROW_INT,17.59981290235,78.12225676910,524.6842,-76.2000,WGS84,0.0068,0.0062,0.0148,"0",1.250,0.000,51,51,51,49,00,21,3f,37*88ffd57c
#BESTPOSA,FILE,0,33.0,FINESTEERING,2319,307550.300,02000800,cdba,17139;SOL_COMPUTED,NARROW_INT,17.59981246394,78.12225679407,524.6831,-76.2000,WGS84,0.0068,0.0062,0.0148,"0",1.300,0.000,51,51,51,49,00,21,3f,37*c823dbb4
#BESTPOSA,FILE,0,33.0,FINESTEERING,2319,307550.350,02000800,cdba,17139;SOL_COMPUTED,NARROW_INT,17.59981198787,78.12225680599,524.6821,-76.2000,WGS84,0.0069,0.0062,0.0149,"0",1.350,0.000,51,51,51,49,00,21,3f,37*5287c36e
#BESTPOSA,FILE,0,33.0,FINESTEERING,2319,307550.400,02000800,cdba,17139;SOL_COMPUTED,NARROW_INT,17.59981149685,78.12225682083,524.6824,-76.2000,WGS84,0.0069,0.0062,0.0149,"0",1.400,0.000,51,51,51,49,00,21,3f,37*4801afa0
#BESTPOSA,FILE,0,33.0,FINESTEERING,2319,307550.450,02000800,cdba,17139;SOL_COMPUTED,NARROW_INT,17.59981100122,78.12225683837,524.6838,-76.2000,WGS84,0.0069,0.0062,0.0149,"0",1.450,0.000,51,51,51,49,00,21,3f,37*01e7d78d
#BESTPOSA,FILE,0,33.0,FINESTEERING,2319,307550.500,02000000,cdba,17139;SOL_COMPUTED,NARROW_INT,17.59981048138,78.12225684258,524.6815,-76.2000,WGS84,0.0069,0.0063,0.0150,"0",1.500,0.000,51,51,51,49,00,21,3f,37*f9dd6fc5
#BESTPOSA,FILE,0,33.0,FINESTEERING,2319,307550.550,02000000,cdba,17139;SOL_COMPUTED,NARROW_INT,17.59980993870,78.12225686256,524.6821,-76.2000,WGS84,0.0070,0.0063,0.0150,"0",1.550,0.000,51,51,51,49,00,21,3f,37*f1d04ae7
#BESTPOSA,FILE,0,33.0,FINESTEERING,2319,307550.600,02000000,cdba,17139;SOL_COMPUTED,NARROW_INT,17.59980937463,78.12225688712,524.6798,-76.2000,WGS84,0.0070,0.0063,0.0151,"0",1.600,0.000,51,51,51,49,00,21,3f,37*cffd4dd6
#BESTPOSA,FILE,0,33.0,FINESTEERING,2319,307550.650,02000000,cdba,17139;SOL_COMPUTED,NARROW_INT,17.59980878951,78.12225688452,524.6774,-76.2000,WGS84,0.0070,0.0063,0.0151,"0",1.650,0.000,51,51,51,49,00,21,3f,37*9ecd3968
#BESTPOSA,FILE,0,33.0,FINESTEERING,2319,307550.700,02000000,cdba,17139;SOL_COMPUTED,NARROW_INT,17.59980817044,78.12225690062,524.6784,-76.2000,WGS84,0.0070,0.0063,0.0151,"0",1.700,0.000,51,51,51,49,00,21,3f,37*818371b2
#BESTPOSA,FILE,0,33.0,FINESTEERING,2319,307550.750,02000000,cdba,17139;SOL_COMPUTED,NARROW_INT,17.59980753691,78.12225692955,524.6781,-76.2000,WGS84,0.0071,0.0063,0.0152,"0",1.750,0.000,51,51,51,49,00,21,3f,37*f4f568cc
#BESTPOSA,FILE,0,33.0,FINESTEERING,2319,307550.800,02000000,cdba,17139;SOL_COMPUTED,NARROW_INT,17.59980688456,78.12225695706,524.6806,-76.2000,WGS84,0.0071,0.0064,0.0152,"0",1.800,0.000,51,51,51,49,00,21,3f,37*604487b1
#BESTPOSA,FILE,0,33.0,FINESTEERING,2319,307550.850,02000000,cdba,17139;SOL_COMPUTED,NARROW_INT,17.59980620380,78.12225699474,524.6822,-76.2000,WGS84,0.0071,0.0064,0.0152,"0",1.850,0.000,51,51,51,49,00,21,3f,37*5f117ba5
#BESTPOSA,FILE,0,33.0,FINESTEERING,2319,307550.900,02000000,cdba,17139;SOL_COMPUTED,NARROW_INT,17.59980549781,78.12225703583,524.6794,-76.2000,WGS84,0.0071,0.0064,0.0153,"0",1.900,0.000,51,51,51,49,00,21,3f,37*443d6f12
#BESTPOSA,FILE,0,33.0,FINESTEERING,2319,307550.950,02000000,cdba,17139;SOL_COMPUTED,NARROW_INT,17.59980474946,78.12225706513,524.6727,-76.2000,WGS84,0.0071,0.0064,0.0153,"0",1.950,0.000,51,51,51,49,00,21,3f,37*5b5d2adc
#BESTPOSA,FILE,0,33.0,FINESTEERING,2319,307551.000,02000000,cdba,17139;SOL_COMPUTED,NARROW_INT,17.59980399493,78.12225709523,524.6750,-76.2000,WGS84,0.0072,0.0064,0.0154,"0",2.000,0.000,51,51,51,49,00,21,3f,37*e70cdba8
#BESTPOSA,FILE,0,33.0,FINESTEERING,2319,307551.050,02000000,cdba,17139;SOL_COMPUTED,NARROW_INT,17.59980322370,78.12225712440,524.6704,-76.2000,WGS84,0.0072,0.0065,0.0155,"0",2.050,0.000,51,51,51,49,00,21,3f,37*1f4c6bf7
#BESTPOSA,FILE,0,28.0,FINESTEERING,2319,307551.100,02000000,cdba,17139;SOL_COMPUTED,NARROW_INT,17.59980242593,78.12225717115,524.6715,-76.2000,WGS84,0.0073,0.0066,0.0156,"0",2.100,0.000,51,51,51,49,00,21,3f,37*1bff8364
#BESTPOSA,FILE,0,28.0,FINESTEERING,2319,307551.150,02000000,cdba,17139;SOL_COMPUTED,NARROW_INT,17.59980160924,78.12225719546,524.6702,-76.2000,WGS84,0.0073,0.0066,0.0156,"0",2.150,0.000,51,51,51,49,00,21,3f,37*b1a069d4
#BESTPOSA,FILE,0,28.0,FINESTEERING,2319,307551.200,02000000,cdba,17139;SOL_COMPUTED,NARROW_INT,17.59980077121,78.12225720872,524.6681,-76.2000,WGS84,0.0073,0.0066,0.0157,"0",2.200,0.000,51,51,51,49,00,21,3f,37*445ec4e1
#BESTPOSA,FILE,0,28.0,FINESTEERING,2319,307551.250,02000000,cdba,17139;SOL_COMPUTED,NARROW_INT,17.59979993123,78.12225721260,524.6663,-76.2000,WGS84,0.0073,0.0066,0.0157,"0",2.250,0.000,51,51,51,49,00,21,3f,37*961059d0
#BESTPOSA,FILE,0,28.0,FINESTEERING,2319,307551.300,02000000,cdba,17139;SOL_COMPUTED,NARROW_INT,17.59979906694,78.12225723055,524.6685,-76.2000,WGS84,0.0074,0.0066,0.0157,"0",2.300,0.000,51,51,51,49,00,21,3f,37*812031d5
#BESTPOSA,FILE,0,28.0,FINESTEERING,2319,307551.350,02000000,cdba,17139;SOL_COMPUTED,NARROW_INT,17.59979816586,78.12225726677,524.6605,-76.2000,WGS84,0.0064,0.0059,0.0150,"0",0.350,0.000,51,51,51,49,00,21,3f,37*028fdbd1
#BESTPOSA,FILE,0,28.0,FINESTEERING,2319,307551.400,02000000,cdba,17139;SOL_COMPUTED,NARROW_INT,17.59979727127,78.12225727053,524.6589,-76.2000,WGS84,0.0065,0.0059,0.0150,"0",0.400,0.000,51,51,51,49,00,21,3f,37*b06471cc
#BESTPOSA,FILE,0,28.0,FINESTEERING,2319,307551.450,02000000,cdba,17139;SOL_COMPUTED,NARROW_INT,17.59979638122,78.12225729560,524.6601,-76.2000,WGS84,0.0065,0.0059,0.0150,"0",0.450,0.000,51,51,51,49,00,21,3f,37*31cb3666
#BESTPOSA,FILE,0,28.0,FINESTEERING,2319,307551.500,02000000,cdba,17139;SOL_COMPUTED,NARROW_INT,17.59979548224,78.12225729996,524.6609,-76.2000,WGS84,0.0065,0.0059,0.0151,"0",0.500,0.000,51,51,51,49,00,21,3f,37*3d4faa3c
#BESTPOSA,FILE,0,28.0,FINESTEERING,2319,307551.550,02000000,cdba,17139;SOL_COMPUTED,NARROW_INT,17.59979454529,78.12225733282,524.6585,-76.2000,WGS84,0.0065,0.0060,0.0151,"0",0.550,0.000,51,51,51,49,00,21,3f,37*6d610c72
#BESTPOSA,FILE,0,28.0,FINESTEERING,2319,307551.600,02000000,cdba,17139;SOL_COMPUTED,NARROW_INT,17.59979363125,78.12225737849,524.6584,-76.2000,WGS84,0.0066,0.0060,0.0152,"0",0.600,0.000,51,51,51,49,00,21,3f,37*61b7a0af
#BESTPOSA,FILE,0,28.0,FINESTEERING,2319,307551.650,02000000,cdba,17139;SOL_COMPUTED,NARROW_INT,17.59979269597,78.12225742602,524.6578,-76.2000,WGS84,0.0066,0.0060,0.0152,"0",0.650,0.000,51,51,51,49,00,21,3f,37*5742768e
#BESTPOSA,FILE,0,28.0,FINESTEERING,2319,307551.700,02000000,cdba,17139;SOL_COMPUTED,NARROW_INT,17.59979175199,78.12225746889,524.6605,-76.2000,WGS84,0.0066,0.0060,0.0152,"0",0.700,0.000,51,51,51,49,00,21,3f,37*68a9390a
#BESTPOSA,FILE,0,28.0,FINESTEERING,2319,307551.750,02000000,cdba,17139;SOL_COMPUTED,NARROW_INT,17.59979080716,78.12225750708,524.6611,-76.2000,WGS84,0.0066,0.0060,0.0153,"0",0.750,0.000,51,51,51,49,00,21,3f,37*77e5ff79
#BESTPOSA,FILE,0,28.0,FINESTEERING,2319,307551.800,02000000,cdba,17139;SOL_COMPUTED,NARROW_INT,17.59978986082,78.12225755076,524.6623,-76.2000,WGS84,0.0067,0.0061,0.0153,"0",0.800,0.000,51,51,51,49,00,21,3f,37*381c5dbd
#BESTPOSA,FILE,0,28.0,FINESTEERING,2319,307551.850,02000000,cdba,17139;SOL_COMPUTED,NARROW_INT,17.59978890924,78.12225760193,524.6621,-76.2000,WGS84,0.0067,0.0061,0.0153,"0",0.850,0.000,51,51,51,49,00,21,3f,37*daf28c0b
#BESTPOSA,FILE,0,28.0,FINESTEERING,2319,307551.900,02000000,cdba,17139;SOL_COMPUTED,NARROW_INT,17.59978796682,78.12225766691,524.6649,-76.2000,WGS84,0.0067,0.0061,0.0154,"0",0.900,0.000,51,51,51,49,00,21,3f,37*8dde176b
#BESTPOSA,FILE,0,28.0,FINESTEERING,2319,307551.950,02000000,cdba,17139;SOL_COMPUTED,NARROW_INT,17.59978703968,78.12225769030,524.6664,-76.2000,WGS84,0.0067,0.0061,0.0154,"0",0.950,0.000,51,51,51,49,00,21,3f,37*8789925b
#BESTPOSA,FILE,0,28.0,FINESTEERING,2319,307552.000,02000000,cdba,17139;SOL_COMPUTED,NARROW_INT,17.59978610251,78.12225774282,524.6680,-76.2000,WGS84,0.0067,0.0061,0.0154,"0",1.000,0.000,51,51,51,49,00,21,3f,37*c19a357d
#BESTPOSA,FILE,0,28.0,FINESTEERING,2319,307552.050,02000000,cdba,17139;SOL_COMPUTED,NARROW_INT,17.59978516624,78.12225778179,524.6693,-76.2000,WGS84,0.0068,0.0062,0.0156,"0",1.050,0.000,51,51,51,49,00,21,3f,37*326ca837
#BESTPOSA,FILE,0,28.0,FINESTEERING,2319,307552.100,02000000,cdba,17139;SOL_COMPUTED,NARROW_INT,17.59978425207,78.12225782565,524.6669,-76.2000,WGS84,0.0069,0.0063,0.0157,"0",1.100,0.000,51,51,51,49,00,21,3f,37*e0e74c90
#BESTPOSA,FILE,0,28.0,FINESTEERING,2319,307552.150,02000000,cdba,17139;SOL_COMPUTED,NARROW_INT,17.59978331532,78.12225788895,524.6668,-76.2000,WGS84,0.0069,0.0063,0.0157,"0",1.150,0.000,51,51,51,49,00,21,3f,37*ae44ef90
#BESTPOSA,FILE,0,28.5,FINESTEERING,2319,307552.200,02000000,cdba,17139;SOL_COMPUTED,NARROW_INT,17.59978241658,78.12225796038,524.6623,-76.2000,WGS84,0.0069,0.0063,0.0158,"0",1.200,0.000,51,51,51,49,00,21,3f,37*38165ec0
#BESTPOSA,FILE,0,28.5,FINESTEERING,2319,307552.250,02000000,cdba,17139;SOL_COMPUTED,NARROW_INT,17.59978151718,78.12225806158,524.6632,-76.2000,WGS84,0.0069,0.0063,0.0158,"0",1.250,0.000,51,51,51,49,00,21,3f,37*38e6cc8b
#BESTPOSA,FILE,0,28.5,FINESTEERING,2319,307552.300,02000000,cdba,17139;SOL_COMPUTED,NARROW_INT,17.59978060352,78.12225815922,524.6598,-76.2000,WGS84,0.0070,0.0063,0.0158,"0",1.300,0.000,51,51,51,49,00,21,3f,37*f785602d
#BESTPOSA,FILE,0,28.5,FINESTEERING,2319,307552.350,02000000,cdba,17139;SOL_COMPUTED,NARROW_INT,17.59977971099,78.12225824270,524.6602,-76.2000,WGS84,0.0064,0.0059,0.0149,"0",0.350,0.000,51,51,51,49,00,21,3f,37*7d8662ee
#BESTPOSA,FILE,0,28.5,FINESTEERING,2319,307552.400,02000000,cdba,17139;SOL_COMPUTED,NARROW_INT,17.59977878243,78.12225833715,524.6582,-76.2000,WGS84,0.0065,0.0059,0.0150,"0",0.400,0.000,51,51,51,49,00,21,3f,37*0cef2449
#BESTPOSA,FILE,0,28.5,FINESTEERING,2319,307552.450,02000000,cdba,17139;SOL_COMPUTED,NARROW_INT,17.59977785801,78.12225844843,524.6618,-76.2000,WGS84,0.0065,0.0059,0.0150,"0",0.450,0.000,51,51,51,49,00,21,3f,37*60cce0f0
#BESTPOSA,FILE,0,28.5,FINESTEERING,2319,307552.500,02000000,cdba,17139;SOL_COMPUTED,NARROW_INT,17.59977694258,78.12225854494,524.6619,-76.2000,WGS84,0.0065,0.0059,0.0151,"0",0.500,0.000,51,51,51,49,00,21,3f,37*5795f49f
#BESTPOSA,FILE,0,28.5,FINESTEERING,2319,307552.550,02000000,cdba,17139;SOL_COMPUTED,NARROW_INT,17.59977601695,78.12225862457,524.6602,-76.2000,WGS84,0.0065,0.0060,0.0151,"0",0.550,0.000,51,51,51,49,00,21,3f,37*4dae3b44
#BESTPOSA,FILE,0,28.5,FINESTEERING,2319,307552.600,02000000,cdba,17139;SOL_COMPUTED,NARROW_INT,17.59977509356,78.12225870453,524.6626,-76.2000,WGS84,0.0066,0.0060,0.0151,"0",0.600,0.000,51,51,51,49,00,21,3f,37*7f18394b
#BESTPOSA,FILE,0,28.5,FINESTEERING,2319,307552.650,02000000,cdba,17139;SOL_COMPUTED,NARROW_INT,17.59977417864,78.12225879116,524.6637,-76.2000,WGS84,0.0066,0.0060,0.0152,"0",0.650,0.000,51,51,51,49,00,21,3f,37*70f328be
#BESTPOSA,FILE,0,28.5,FINESTEERING,2319,307552.700,02000000,cdba,17139;SOL_COMPUTED,NARROW_INT,17.59977324845,78.12225887508,524.6630,-76.2000,WGS84,0.0066,0.0060,0.0152,"0",0.700,0.000,51,51,51,49,00,21,3f,37*395de741
#BESTPOSA,FILE,0,28.5,FINESTEERING,2319,307552.750,02000000,cdba,17139;SOL_COMPUTED,NARROW_INT,17.59977233295,78.12225896401,524.6656,-76.2000,WGS84,0.0066,0.0060,0.0153,"0",0.750,0.000,51,51,51,49,00,21,3f,37*bb386dce
#BESTPOSA,FILE,0,28.5,FINESTEERING,2319,307552.800,02000000,cdba,17139;SOL_COMPUTED,NARROW_INT,17.59977143854,78.12225905258,524.6651,-76.2000,WGS84,0.0067,0.0061,0.0153,"0",0.800,0.000,51,51,51,49,00,21,3f,37*56f8fbb5
#BESTPOSA,FILE,0,28.5,FINESTEERING,2319,307552.850,02000000,cdba,17139;SOL_COMPUTED,NARROW_INT,17.59977056348,78.12225914380,524.6626,-76.2000,WGS84,0.0067,0.0061,0.0154,"0",0.850,0.000,51,51,51,49,00,21,3f,37*9ce6ec62
#BESTPOSA,FILE,0,28.5,FINESTEERING,2319,307552.900,02000000,cdba,17139;SOL_COMPUTED,NARROW_INT,17.59976967752,78.12225927701,524.6621,-76.2000,WGS84,0.0067,0.0061,0.0154,"0",0.900,0.000,51,51,51,49,00,21,3f,37*cf465818
#BESTPOSA,FILE,0,28.5,FINESTEERING,2319,307552.950,02000000,cdba,17139;SOL_COMPUTED,NARROW_INT,17.59976879413,78.12225942761,524.6653,-76.2000,WGS84,0.0068,0.0061,0.0154,"0",0.950,0.000,51,51,51,49,00,21,3f,37*72ccef43
#BESTPOSA,FILE,0,28.5,FINESTEERING,2319,307553.000,02000000,cdba,17139;SOL_COMPUTED,NARROW_INT,17.59976793093,78.12225957966,524.6650,-76.2000,WGS84,0.0068,0.0062,0.0155,"0",1.000,0.000,51,51,51,49,00,21,3f,37*0320e0cd
#BESTPOSA,FILE,0,28.5,FINESTEERING,2319,307553.050,02000000,cdba,17139;SOL_COMPUTED,NARROW_INT,17.59976707185,78.12225973675,524.6654,-76.2000,WGS84,0.0069,0.0063,0.0157,"0",1.050,0.000,51,51,51,49,00,21,3f,37*c908b1ee
#BESTPOSA,FILE,0,28.5,FINESTEERING,2319,307553.100,02000000,cdba,17139;SOL_COMPUTED,NARROW_INT,17.59976620536,78.12225990172,524.6630,-76.2000,WGS84,0.0069,0.0063,0.0157,"0",1.100,0.000,51,51,51,49,00,21,3f,37*1370e737
#BESTPOSA,FILE,0,29.0,FINESTEERING,2319,307553.150,02000000,cdba,17139;SOL_COMPUTED,NARROW_INT,17.59976534296,78.12226010019,524.6679,-76.2000,WGS84,0.0069,0.0063,0.0157,"0",1.150,0.000,50,50,50,48,00,21,3f,37*f6eeae4c
#BESTPOSA,FILE,0,29.0,FINESTEERING,2319,307553.200,02000000,cdba,17139;SOL_COMPUTED,NARROW_INT,17.59976449495,78.12226028168,524.6645,-76.2000,WGS84,0.0070,0.0063,0.0158,"0",1.200,0.000,50,50,50,48,00,21,3f,37*0695620c
#BESTPOSA,FILE,0,29.0,FINESTEERING,2319,307553.250,02000000,cdba,17139;SOL_COMPUTED,NARROW_INT,17.59976364119,78.12226046872,524.6685,-76.2000,WGS84,0.0070,0.0064,0.0158,"0",1.250,0.000,50,50,50,48,00,21,3f,37*906eb906
#BESTPOSA,FILE,0,29.0,FINESTEERING,2319,307553.300,02000000,cdba,17139;SOL_COMPUTED,NARROW_INT,17.59976279302,78.12226066653,524.6683,-76.2000,WGS84,0.0070,0.0064,0.0158,"0",1.300,0.000,51,50,50,48,00,21,3f,37*31143664
#BESTPOSA,FILE,0,29.0,FINESTEERING,2319,307553.350,02000000,cdba,17139;SOL_COMPUTED,NARROW_INT,17.59976192132,78.12226089175,524.6672,-76.2000,WGS84,0.0065,0.0060,0.0151,"0",0.350,0.000,51,50,50,48,00,21,3f,37*46879bb5
#BESTPOSA,FILE,0,29.0,FINESTEERING,2319,307553.400,02000000,cdba,17139;SOL_COMPUTED,NARROW_INT,17.59976108771,78.12226109894,524.6690,-76.2000,WGS84,0.0065,0.0060,0.0151,"0",0.400,0.000,51,50,50,48,00,21,3f,37*e2ec5767
#BESTPOSA,FILE,0,29.0,FINESTEERING,2319,307553.450,02000000,cdba,17139;SOL_COMPUTED,NARROW_INT,17.59976025141,78.12226132773,524.6709,-76.2000,WGS84,0.0065,0.0060,0.0151,"0",0.450,0.000,51,50,50,48,00,21,3f,37*315d9693
#BESTPOSA,FILE,0,29.0,FINESTEERING,2319,307553.500,02000000,cdba,17139;SOL_COMPUTED,NARROW_INT,17.59975944701,78.12226156089,524.6711,-76.2000,WGS84,0.0065,0.0060,0.0152,"0",0.500,0.000,51,50,50,48,00,21,3f,37*42c0b0c0
#BESTPOSA,FILE,0,29.0,FINESTEERING,2319,307553.550,02000000,cdba,17139;SOL_COMPUTED,NARROW_INT,17.59975863299,78.12226177980,524.6689,-76.2000,WGS84,0.0066,0.0061,0.0152,"0",0.550,0.000,51,50,50,48,00,21,3f,37*871ef868
#BESTPOSA,FILE,0,29.0,FINESTEERING,2319,307553.600,02000000,cdba,17139;SOL_COMPUTED,NARROW_INT,17.59975782169,78.12226200042,524.6699,-76.2000,WGS84,0.0066,0.0061,0.0153,"0",0.600,0.000,51,50,50,48,00,21,3f,37*cc11c873
#BESTPOSA,FILE,0,29.0,FINESTEERING,2319,307553.650,02000000,cdba,17139;SOL_COMPUTED,NARROW_INT,17.59975701012,78.12226223496,524.6688,-76.2000,WGS84,0.0066,0.0061,0.0153,"0",0.650,0.000,51,50,50,48,00,21,3f,37*19d4c1a7
#BESTPOSA,FILE,0,29.0,FINESTEERING,2319,307553.700,02000000,cdba,17139;SOL_COMPUTED,NARROW_INT,17.59975620466,78.12226248774,524.6665,-76.2000,WGS84,0.0066,0.0061,0.0153,"0",0.700,0.000,50,49,49,47,00,21,3f,37*10f859e0
#BESTPOSA,FILE,0,29.0,FINESTEERING,2319,307553.750,02000000,cdba,17139;SOL_COMPUTED,NARROW_INT,17.59975540696,78.12226275061,524.6677,-76.2000,WGS84,0.0067,0.0061,0.0154,"0",0.750,0.000,50,49,49,47,00,21,3f,37*8d482dec
#BESTPOSA,FILE,0,29.0,FINESTEERING,2319,307553.800,02000000,cdba,17139;SOL_COMPUTED,NARROW_INT,17.59975462171,78.12226301382,524.6651,-76.2000,WGS84,0.0067,0.0062,0.0154,"0",0.800,0.000,50,49,49,47,00,21,3f,37*bd70e15c
#BESTPOSA,FILE,0,29.0,FINESTEERING,2319,307553.850,02000000,cdba,17139;SOL_COMPUTED,NARROW_INT,17.59975384341,78.12226326737,524.6602,-76.2000,WGS84,0.0067,0.0062,0.0154,"0",0.850,0.000,50,49,49,47,00,21,3f,37*adb92906
#BESTPOSA,FILE,0,29.0,FINESTEERING,2319,307553.900,02000000,cdba,17139;SOL_COMPUTED,NARROW_INT,17.59975306779,78.12226353471,524.6561,-76.2000,WGS84,0.0067,0.0062,0.0155,"0",0.900,0.000,50,49,49,47,00,21,3f,37*83d40aa7
#BESTPOSA,FILE,0,29.0,FINESTEERING,2319,307553.950,02000000,cdba,17139;SOL_COMPUTED,NARROW_INT,17.59975228677,78.12226380817,524.6538,-76.2000,WGS84,0.0068,0.0062,0.0155,"0",0.950,0.000,50,49,49,47,00,21,3f,37*24dc5afe
#BESTPOSA,FILE,0,29.0,FINESTEERING,2319,307554.000,02000000,cdba,17139;SOL_COMPUTED,NARROW_INT,17.59975150985,78.12226409652,524.6518,-76.2000,WGS84,0.0068,0.0062,0.0155,"0",1.000,0.000,50,49,49,47,00,21,3f,37*c4ee9546
#BESTPOSA,FILE,0,29.0,FINESTEERING,2319,307554.050,02000000,cdba,17139;SOL_COMPUTED,NARROW_INT,17.59975072513,78.12226441917,524.6498,-76.2000,WGS84,0.0069,0.0063,0.0157,"0",1.050,0.000,50,50,50,48,00,21,3f,37*ad1967c8
#BESTPOSA,FILE,0,28.5,FINESTEERING,2319,307554.100,02000000,cdba,17139;SOL_COMPUTED,NARROW_INT,17.59974994782,78.12226476393,524.6491,-76.2000,WGS84,0.0069,0.0064,0.0158,"0",1.100,0.000,50,50,50,48,00,21,3f,37*5ea62e63
#BESTPOSA,FILE,0,28.5,FINESTEERING,2319,307554.150,02000000,cdba,17139;SOL_COMPUTED,NARROW_INT,17.59974918001,78.12226512823,524.6491,-76.2000,WGS84,0.0069,0.0064,0.0158,"0",1.150,0.000,50,50,50,48,00,21,3f,37*847293a0
#BESTPOSA,FILE,0,28.5,FINESTEERING,2319,307554.200,02000000,cdba,17139;SOL_COMPUTED,NARROW_INT,17.59974841316,78.12226547549,524.6474,-76.2000,WGS84,0.0070,0.0064,0.0158,"0",1.200,0.000,50,50,50,47,00,21,3f,37*4ef5d41e
#BESTPOSA,FILE,0,28.5,FINESTEERING,2319,307554.250,02000000,cdba,17139;SOL_COMPUTED,NARROW_INT,17.59974764573,78.12226585976,524.6454,-76.2000,WGS84,0.0070,0.0064,0.0159,"0",1.250,0.000,50,50,50,47,00,21,3f,37*c1bbc0e9
#BESTPOSA,FILE,0,28.5,FINESTEERING,2319,307554.300,02000000,cdba,17139;SOL_COMPUTED,NARROW_INT,17.59974689518,78.12226624307,524.6451,-76.2000,WGS84,0.0070,0.0064,0.0159,"0",1.300,0.000,50,50,50,47,00,21,3f,37*0759b9bf
#BESTPOSA,FILE,0,28.5,FINESTEERING,2319,307554.350,02000000,cdba,17139;SOL_COMPUTED,NARROW_INT,17.59974615300,78.12226665441,524.6425,-76.2000,WGS84,0.0070,0.0065,0.0160,"0",1.350,0.000,50,50,50,47,00,21,3f,37*d7ba1d4b
#BESTPOSA,FILE,0,28.5,FINESTEERING,2319,307554.400,02000000,cdba,17139;SOL_COMPUTED,NARROW_INT,17.59974542299,78.12226711050,524.6389,-76.2000,WGS84,0.0065,0.0060,0.0149,"0",0.400,0.000,50,50,50,47,00,21,3f,37*6542a203
#BESTPOSA,FILE,0,28.5,FINESTEERING,2319,307554.450,02000000,cdba,17139;SOL_COMPUTED,NARROW_INT,17.59974470985,78.12226753218,524.6389,-76.2000,WGS84,0.0065,0.0060,0.0149,"0",0.450,0.000,50,50,50,47,00,21,3f,37*e1daf3a4
#BESTPOSA,FILE,0,28.5,FINESTEERING,2319,307554.500,02000000,cdba,17139;SOL_COMPUTED,NARROW_INT,17.59974396903,78.12226793504,524.6354,-76.2000,WGS84,0.0065,0.0060,0.0150,"0",0.500,0.000,50,50,50,47,00,21,3f,37*9c6628c6
#BESTPOSA,FILE,0,28.5,FINESTEERING,2319,307554.550,02000000,cdba,17139;SOL_COMPUTED,NARROW_INT,17.59974321949,78.12226832663,524.6328,-76.2000,WGS84,0.0066,0.0061,0.0150,"0",0.550,0.000,50,50,50,47,00,21,3f,37*d8937c29
#BESTPOSA,FILE,0,28.5,FINESTEERING,2319,307554.600,02000000,cdba,17139;SOL_COMPUTED,NARROW_INT,17.59974246155,78.12226875009,524.6323,-76.2000,WGS84,0.0066,0.0061,0.0150,"0",0.600,0.000,50,50,50,47,00,21,3f,37*3d9666e3
#BESTPOSA,FILE,0,28.5,FINESTEERING,2319,307554.650,02000000,cdba,17139;SOL_COMPUTED,NARROW_INT,17.59974170372,78.12226920094,524.6306,-76.2000,WGS84,0.0066,0.0061,0.0151,"0",0.650,0.000,50,50,50,47,00,21,3f,37*97d27fa0
#BESTPOSA,FILE,0,28.5,FINESTEERING,2319,307554.700,02000000,cdba,17139;SOL_COMPUTED,NARROW_INT,17.59974094803,78.12226967247,524.6301,-76.2000,WGS84,0.0066,0.0061,0.0151,"0",0.700,0.000,50,50,50,47,00,21,3f,37*7a9c51fc
#BESTPOSA,FILE,0,28.5,FINESTEERING,2319,307554.750,02000000,cdba,17139;SOL_COMPUTED,NARROW_INT,17.59974016634,78.12227015335,524.6298,-76.2000,WGS84,0.0067,0.0061,0.0151,"0",0.750,0.000,50,50,50,47,00,21,3f,37*ce169819
#BESTPOSA,FILE,0,28.5,FINESTEERING,2319,307554.800,02000000,cdba,17139;SOL_COMPUTED,NARROW_INT,17.59973937799,78.12227067460,524.6271,-76.2000,WGS84,0.0067,0.0062,0.0152,"0",0.800,0.000,50,50,50,47,00,21,3f,37*e09d278d
#BESTPOSA,FILE,0,28.5,FINESTEERING,2319,307554.850,02000000,cdba,17139;SOL_COMPUTED,NARROW_INT,17.59973859147,78.12227122270,524.6284,-76.2000,WGS84,0.0067,0.0062,0.0152,"0",0.850,0.000,50,50,50,47,00,21,3f,37*3c5e43ae
#BESTPOSA,FILE,0,28.5,FINESTEERING,2319,307554.900,02000000,cdba,17139;SOL_COMPUTED,NARROW_INT,17.59973779535,78.12227180520,524.6280,-76.2000,WGS84,0.0067,0.0062,0.0152,"0",0.900,0.000,50,50,50,47,00,21,3f,37*bf929dd2
#BESTPOSA,FILE,0,28.5,FINESTEERING,2319,307554.950,02000000,cdba,17139;SOL_COMPUTED,NARROW_INT,17.59973700233,78.12227241872,524.6282,-76.2000,WGS84,0.0067,0.0062,0.0153,"0",0.950,0.000,50,50,50,47,00,21,3f,37*5f1cc206
#BESTPOSA,FILE,0,28.5,FINESTEERING,2319,307555.000,02000000,cdba,17139;SOL_COMPUTED,NARROW_INT,17.59973620418,78.12227304860,524.6243,-76.2000,WGS84,0.0068,0.0062,0.0153,"0",1.000,0.000,50,50,50,47,00,21,3f,37*21d4decd
#BESTPOSA,FILE,0,28.5,FINESTEERING,2319,307555.050,02000000,cdba,17139;SOL_COMPUTED,NARROW_INT,17.59973540861,78.12227371752,524.6242,-76.2000,WGS84,0.0069,0.0063,0.0155,"0",1.050,0.000,50,50,50,47,00,21,3f,37*60a2a670
#BESTPOSA,FILE,0,28.5,FINESTEERING,2319,307555.100,02000000,cdba,17139;SOL_COMPUTED,NARROW_INT,17.59973460487,78.12227441354,524.6205,-76.2000,WGS84,0.0069,0.0064,0.0155,"0",1.100,0.000,50,50,50,47,00,21,3f,37*44559899
#BESTPOSA,FILE,0,29.5,FINESTEERING,2319,307555.150,02000000,cdba,17139;SOL_COMPUTED,NARROW_INT,17.59973378391,78.12227512657,524.6176,-76.2000,WGS84,0.0069,0.0064,0.0156,"0",1.150,0.000,50,50,50,47,00,21,3f,37*53f6d872
#BESTPOSA,FILE,0,29.5,FINESTEERING,2319,307555.200,02000000,cdba,17139;SOL_COMPUTED,NARROW_INT,17.59973296030,78.12227587650,524.6158,-76.2000,WGS84,0.0070,0.0064,0.0156,"0",1.200,0.000,50,50,50,47,00,21,3f,37*23260978
#BESTPOSA,FILE,0,29.5,FINESTEERING,2319,307555.250,02000000,cdba,17139;SOL_COMPUTED,NARROW_INT,17.59973212703,78.12227665387,524.6150,-76.2000,WGS84,0.0070,0.0064,0.0157,"0",1.250,0.000,50,50,50,47,00,21,3f,37*06173b14
#BESTPOSA,FILE,0,29.5,FINESTEERING,2319,307555.300,02000000,cdba,17139;SOL_COMPUTED,NARROW_INT,17.59973130189,78.12227747742,524.6167,-76.2000,WGS84,0.0070,0.0064,0.0157,"0",1.300,0.000,50,49,49,46,00,21,3f,37*6100910e
#BESTPOSA,FILE,0,29.5,FINESTEERING,2319,307555.350,02000000,cdba,17139;SOL_COMPUTED,NARROW_INT,17.59973052302,78.12227831020,524.6184,-76.2000,WGS84,0.0064,0.0060,0.0148,"0",0.350,0.000,49,49,49,46,00,21,3f,37*a1facfb0
#BESTPOSA,FILE,0,29.5,FINESTEERING,2319,307555.400,02000000,cdba,17139;SOL_COMPUTED,NARROW_INT,17.59972974077,78.12227919826,524.6178,-76.2000,WGS84,0.0065,0.0060,0.0149,"0",0.400,0.000,49,49,49,46,00,21,3f,37*9e02bacc
#BESTPOSA,FILE,0,29.5,FINESTEERING,2319,307555.450,02000000,cdba,17139;SOL_COMPUTED,NARROW_INT,17.59972895464,78.12228013119,524.6176,-76.2000,WGS84,0.0065,0.0060,0.0149,"0",0.450,0.000,49,49,49,46,00,21,3f,37*4797a816
#BESTPOSA,FILE,0,29.5,FINESTEERING,2319,307555.500,02000000,cdba,17139;SOL_COMPUTED,NARROW_INT,17.59972817335,78.12228110109,524.6159,-76.2000,WGS84,0.0065,0.0060,0.0149,"0",0.500,0.000,49,49,49,46,00,21,3f,37*cefab25b
#BESTPOSA,FILE,0,29.5,FINESTEERING,2319,307555.550,02000000,cdba,17139;SOL_COMPUTED,NARROW_INT,17.59972738203,78.12228209198,524.6133,-76.2000,WGS84,0.0065,0.0060,0.0150,"0",0.550,0.000,49,49,49,46,00,21,3f,37*31691441
#BESTPOSA,FILE,0,29.5,FINESTEERING,2319,307555.600,02000000,cdba,17139;SOL_COMPUTED,NARROW_INT,17.59972658644,78.12228309660,524.6127,-76.2000,WGS84,0.0066,0.0061,0.0150,"0",0.600,0.000,49,49,49,46,00,21,3f,37*2256c7e3
#BESTPOSA,FILE,0,29.5,FINESTEERING,2319,307555.650,02000000,cdba,17139;SOL_COMPUTED,NARROW_INT,17.59972578015,78.12228413345,524.6085,-76.2000,WGS84,0.0066,0.0061,0.0150,"0",0.650,0.000,49,49,49,46,00,21,3f,37*4ad1fe55
#BESTPOSA,FILE,0,29.5,FINESTEERING,2319,307555.700,02000000,cdba,17139;SOL_COMPUTED,NARROW_INT,17.59972497274,78.12228519757,524.6047,-76.2000,WGS84,0.0066,0.0061,0.0151,"0",0.700,0.000,49,49,49,45,00,21,3f,37*8c01aceb
#BESTPOSA,FILE,0,29.5,FINESTEERING,2319,307555.750,02000000,cdba,17139;SOL_COMPUTED,NARROW_INT,17.59972418962,78.12228631406,524.6013,-76.2000,WGS84,0.0066,0.0061,0.0151,"0",0.750,0.000,49,48,48,45,00,21,3f,37*4bd12a8d
#BESTPOSA,FILE,0,29.5,FINESTEERING,2319,307555.800,02000000,cdba,17139;SOL_COMPUTED,NARROW_INT,17.59972340991,78.12228749092,524.6013,-76.2000,WGS84,0.0067,0.0061,0.0152,"0",0.800,0.000,49,48,48,45,00,21,3f,37*3b63d742
#BESTPOSA,FILE,0,29.5,FINESTEERING,2319,307555.850,02000000,cdba,17139;SOL_COMPUTED,NARROW_INT,17.59972266846,78.12228871259,524.6037,-76.2000,WGS84,0.0067,0.0062,0.0152,"0",0.850,0.000,49,48,48,45,00,21,3f,37*2f9ab15d
#BESTPOSA,FILE,0,29.5,FINESTEERING,2319,307555.900,02000000,cdba,17139;SOL_COMPUTED,NARROW_INT,17.59972194552,78.12228997319,524.6039,-76.2000,WGS84,0.0067,0.0062,0.0152,"0",0.900,0.000,49,48,48,45,00,21,3f,37*c6d695bb
#BESTPOSA,FILE,0,29.5,FINESTEERING,2319,307555.950,02000000,cdba,17139;SOL_COMPUTED,NARROW_INT,17.59972123233,78.12229124230,524.6061,-76.2000,WGS84,0.0067,0.0062,0.0153,"0",0.950,0.000,49,48,48,45,00,21,3f,37*4c53487e
#BESTPOSA,FILE,0,29.5,FINESTEERING,2319,307556.000,02000000,cdba,17139;SOL_COMPUTED,NARROW_INT,17.59972057052,78.12229256415,524.6088,-76.2000,WGS84,0.0068,0.0062,0.0153,"0",1.000,0.000,49,48,48,45,00,21,3f,37*71f7ae32
#BESTPOSA,FILE,0,29.5,FINESTEERING,2319,307556.050,02000000,cdba,17139;SOL_COMPUTED,NARROW_INT,17.59971993477,78.12229394276,524.6124,-76.2000,WGS84,0.0069,0.0063,0.0155,"0",1.050,0.000,49,49,49,47,00,21,3f,37*7c5e7f85
#BESTPOSA,FILE,0,29.5,FINESTEERING,2319,307556.100,02000000,cdba,17139;SOL_COMPUTED,NARROW_INT,17.59971931284,78.12229535303,524.6181,-76.2000,WGS84,0.0069,0.0063,0.0156,"0",1.100,0.000,49,49,49,47,00,21,3f,37*c26c8e99
#BESTPOSA,FILE,0,29.5,FINESTEERING,2319,307556.150,02000000,cdba,17139;SOL_COMPUTED,NARROW_INT,17.59971869376,78.12229678142,524.6190,-76.2000,WGS84,0.0069,0.0064,0.0156,"0",1.150,0.000,49,49,49,47,00,21,3f,37*bea6f121
#BESTPOSA,FILE,0,29.5,FINESTEERING,2319,307556.200,02000000,cdba,17139;SOL_COMPUTED,NARROW_INT,17.59971808852,78.12229822697,524.6207,-76.2000,WGS84,0.0070,0.0064,0.0157,"0",1.200,0.000,49,49,49,46,00,21,3f,37*b7b37e87
#BESTPOSA,FILE,0,29.5,FINESTEERING,2319,307556.250,02000000,cdba,17139;SOL_COMPUTED,NARROW_INT,17.59971747816,78.12229969551,524.6218,-76.2000,WGS84,0.0070,0.0064,0.0157,"0",1.250,0.000,49,49,49,46,00,21,3f,37*a52031e2
#BESTPOSA,FILE,0,29.5,FINESTEERING,2319,307556.300,02000000,cdba,17139;SOL_COMPUTED,NARROW_INT,17.59971691068,78.12230118104,524.6214,-76.2000,WGS84,0.0070,0.0064,0.0157,"0",1.300,0.000,49,49,49,46,00,21,3f,37*c646fec6
#BESTPOSA,FILE,0,29.5,FINESTEERING,2319,307556.350,02000000,cdba,17139;SOL_COMPUTED,NARROW_INT,17.59971644242,78.12230264715,524.6439,-76.2000,WGS84,0.0065,0.0060,0.0150,"0",0.350,0.000,49,49,49,46,00,21,3f,37*c5a75dc8
#BESTPOSA,FILE,0,29.5,FINESTEERING,2319,307556.400,02000000,cdba,17139;SOL_COMPUTED,NARROW_INT,17.59971589924,78.12230418181,524.6435,-76.2000,WGS84,0.0065,0.0060,0.0151,"0",0.400,0.000,49,49,49,46,00,21,3f,37*1a20962b
#BESTPOSA,FILE,0,29.5,FINESTEERING,2319,307556.450,02000000,cdba,17139;SOL_COMPUTED,NARROW_INT,17.59971541902,78.12230572850,524.6532,-76.2000,WGS84,0.0065,0.0060,0.0151,"0",0.450,0.000,49,49,49,46,00,21,3f,37*c53a104a
#BESTPOSA,FILE,0,29.5,FINESTEERING,2319,307556.500,02000000,cdba,17139;SOL_COMPUTED,NARROW_INT,17.59971489320,78.12230730982,524.6505,-76.2000,WGS84,0.0065,0.0060,0.0151,"0",0.500,0.000,49,49,49,46,00,21,3f,37*92599003
#BESTPOSA,FILE,0,29.5,FINESTEERING,2319,307556.550,02000000,cdba,17139;SOL_COMPUTED,NARROW_INT,17.59971442013,78.12230891885,524.6529,-76.2000,WGS84,0.0066,0.0061,0.0152,"0",0.550,0.000,49,49,49,46,00,21,3f,37*d277ef8c
#BESTPOSA,FILE,0,29.5,FINESTEERING,2319,307556.600,02000000,cdba,17139;SOL_COMPUTED,NARROW_INT,17.59971394347,78.12231052543,524.6586,-76.2000,WGS84,0.0066,0.0061,0.0152,"0",0.600,0.000,49,49,49,46,00,21,3f,37*3af5cd00
#BESTPOSA,FILE,0,29.5,FINESTEERING,2319,307556.650,02000000,cdba,17139;SOL_COMPUTED,NARROW_INT,17.59971348934,78.12231215803,524.6605,-76.2000,WGS84,0.0066,0.0061,0.0153,"0",0.650,0.000,48,48,48,46,00,21,3f,37*4468c64f
#BESTPOSA,FILE,0,29.5,FINESTEERING,2319,307556.700,02000000,cdba,17139;SOL_COMPUTED,NARROW_INT,17.59971307114,78.12231381608,524.6607,-76.2000,WGS84,0.0067,0.0061,0.0153,"0",0.700,0.000,48,48,48,46,00,21,3f,37*c81f17fa
#BESTPOSA,FILE,0,29.5,FINESTEERING,2319,307556.750,02000000,cdba,17139;SOL_COMPUTED,NARROW_INT,17.59971266018,78.12231547499,524.6635,-76.2000,WGS84,0.0067,0.0061,0.0153,"0",0.750,0.000,48,48,48,46,00,21,3f,37*71592e9f
#BESTPOSA,FILE,0,29.5,FINESTEERING,2319,307556.800,02000000,cdba,17139;SOL_COMPUTED,NARROW_INT,17.59971224498,78.12231712757,524.6645,-76.2000,WGS84,0.0067,0.0061,0.0154,"0",0.800,0.000,48,48,48,46,00,21,3f,37*8aa2e0d9
#BESTPOSA,FILE,0,29.5,FINESTEERING,2319,307556.850,02000000,cdba,17139;SOL_COMPUTED,NARROW_INT,17.59971183260,78.12231879226,524.6683,-76.2000,WGS84,0.0067,0.0062,0.0154,"0",0.850,0.000,48,48,48,46,00,21,3f,37*1c2763d9
#BESTPOSA,FILE,0,29.5,FINESTEERING,2319,307556.900,02000000,cdba,17139;SOL_COMPUTED,NARROW_INT,17.59971142988,78.12232047935,524.6698,-76.2000,WGS84,0.0068,0.0062,0.0154,"0",0.900,0.000,48,48,48,46,00,21,3f,37*a9d20224
#BESTPOSA,FILE,0,29.5,FINESTEERING,2319,307556.950,02000000,cdba,17139;SOL_COMPUTED,NARROW_INT,17.59971105243,78.12232218557,524.6723,-76.2000,WGS84,0.0068,0.0062,0.0155,"0",0.950,0.000,48,48,48,46,00,21,3f,37*f8657f58
#BESTPOSA,FILE,0,29.5,FINESTEERING,2319,307557.000,02000000,cdba,17139;SOL_COMPUTED,NARROW_INT,17.59971068349,78.12232389201,524.6704,-76.2000,WGS84,0.0068,0.0062,0.0155,"0",1.000,0.000,48,48,48,46,00,21,3f,37*79d01354
#BESTPOSA,FILE,0,29.5,FINESTEERING,2319,307557.050,02000000,cdba,17139;SOL_COMPUTED,NARROW_INT,17.59971032336,78.12232560823,524.6707,-76.2000,WGS84,0.0070,0.0063,0.0157,"0",1.050,0.000,48,48,48,46,00,21,3f,37*fa3b3612
#BESTPOSA,FILE,0,29.5,FINESTEERING,2319,307557.100,02000000,cdba,17139;SOL_COMPUTED,NARROW_INT,17.59970997958,78.12232734117,524.6720,-76.2000,WGS84,0.0070,0.0063,0.0158,"0",1.100,0.000,48,48,48,46,00,21,3f,37*2e00df6a
#BESTPOSA,FILE,0,31.0,FINESTEERING,2319,307557.150,02000000,cdba,17139;SOL_COMPUTED,NARROW_INT,17.59970963623,78.12232911265,524.6728,-76.2000,WGS84,0.0070,0.0064,0.0158,"0",1.150,0.000,47,47,47,45,00,21,3f,37*89091ed3
#BESTPOSA,FILE,0,31.0,FINESTEERING,2319,307557.200,02000000,cdba,17139;SOL_COMPUTED,NARROW_INT,17.59970931060,78.12233091130,524.6758,-76.2000,WGS84,0.0070,0.0064,0.0159,"0",1.200,0.000,47,47,47,45,00,21,3f,37*4742b23d
#BESTPOSA,FILE,0,31.0,FINESTEERING,2319,307557.250,02000000,cdba,17139;SOL_COMPUTED,NARROW_INT,17.59970898791,78.12233271751,524.6806,-76.2000,WGS84,0.0071,0.0064,0.0159,"0",1.250,0.000,47,47,47,45,00,21,3f,37*37be35a6
#BESTPOSA,FILE,0,31.0,FINESTEERING,2319,307557.300,02000000,cdba,17139;SOL_COMPUTED,NARROW_INT,17.59970868517,78.12233452220,524.6802,-76.2000,WGS84,0.0071,0.0064,0.0159,"0",1.300,0.000,47,47,47,45,00,21,3f,37*73f54d83
#BESTPOSA,FILE,0,31.0,FINESTEERING,2319,307557.350,02000000,cdba,17139;SOL_COMPUTED,NARROW_INT,17.59970840979,78.12233631940,524.6811,-76.2000,WGS84,0.0071,0.0064,0.0160,"0",1.350,0.000,47,47,47,45,00,21,3f,37*de3ed1a8
#BESTPOSA,FILE,0,31.0,FINESTEERING,2319,307557.400,02000000,cdba,17139;SOL_COMPUTED,NARROW_INT,17.59970815071,78.12233811910,524.6825,-76.2000,WGS84,0.0071,0.0064,0.0160,"0",1.400,0.000,47,47,47,45,00,21,3f,37*e015ec5b
#BESTPOSA,FILE,0,31.0,FINESTEERING,2319,307557.450,02000000,cdba,17139;SOL_COMPUTED,NARROW_INT,17.59970788036,78.12233992972,524.6834,-76.2000,WGS84,0.0072,0.0065,0.0160,"0",1.450,0.000,47,47,47,45,00,21,3f,37*31e39732
#BESTPOSA,FILE,0,31.0,FINESTEERING,2319,307557.500,02000000,cdba,17139;SOL_COMPUTED,NARROW_INT,17.59970763054,78.12234175461,524.6851,-76.2000,WGS84,0.0072,0.0065,0.0161,"0",1.500,0.000,47,47,47,45,00,21,3f,37*29b1969b
#BESTPOSA,FILE,0,31.0,FINESTEERING,2319,307557.550,02000000,cdba,17139;SOL_COMPUTED,NARROW_INT,17.59970737606,78.12234359552,524.6875,-76.2000,WGS84,0.0072,0.0065,0.0161,"0",1.550,0.000,47,47,47,45,00,21,3f,37*36e3453c
#BESTPOSA,FILE,0,31.0,FINESTEERING,2319,307557.600,02000000,cdba,17139;SOL_COMPUTED,NARROW_INT,17.59970713134,78.12234547433,524.6897,-76.2000,WGS84,0.0073,0.0065,0.0161,"0",1.600,0.000,47,47,47,45,00,21,3f,37*f7d14929
#BESTPOSA,FILE,0,31.0,FINESTEERING,2319,307557.650,02000000,cdba,17139;SOL_COMPUTED,NARROW_INT,17.59970688496,78.12234737965,524.6894,-76.2000,WGS84,0.0073,0.0065,0.0162,"0",1.650,0.000,47,47,47,45,00,21,3f,37*3310cbb9
#BESTPOSA,FILE,0,31.0,FINESTEERING,2319,307557.700,02000000,cdba,17139;SOL_COMPUTED,NARROW_INT,17.59970661947,78.12234930847,524.6938,-76.2000,WGS84,0.0073,0.0065,0.0162,"0",1.700,0.000,47,47,47,45,00,21,3f,37*953cc2a5
#BESTPOSA,FILE,0,31.0,FINESTEERING,2319,307557.750,02000000,cdba,17139;SOL_COMPUTED,NARROW_INT,17.59970636013,78.12235124466,524.6961,-76.2000,WGS84,0.0073,0.0066,0.0163,"0",1.750,0.000,47,47,47,45,00,21,3f,37*5c4b0a81
#BESTPOSA,FILE,0,31.0,FINESTEERING,2319,307557.800,02000000,cdba,17139;SOL_COMPUTED,NARROW_INT,17.59970608714,78.12235315831,524.6953,-76.2000,WGS84,0.0074,0.0066,0.0163,"0",1.800,0.000,47,47,47,45,00,21,3f,37*a218e0b3
#BESTPOSA,FILE,0,31.0,FINESTEERING,2319,307557.850,02000000,cdba,17139;SOL_COMPUTED,NARROW_INT,17.59970583739,78.12235508414,524.6947,-76.2000,WGS84,0.0074,0.0066,0.0163,"0",1.850,0.000,47,47,47,45,00,21,3f,37*bc7a9f5b
#BESTPOSA,FILE,0,31.0,FINESTEERING,2319,307557.900,02000000,cdba,17139;SOL_COMPUTED,NARROW_INT,17.59970559638,78.12235703800,524.6921,-76.2000,WGS84,0.0074,0.0066,0.0164,"0",1.900,0.000,47,47,47,45,00,21,3f,37*e1d6c7b8
#BESTPOSA,FILE,0,31.0,FINESTEERING,2319,307557.950,02000000,cdba,17139;SOL_COMPUTED,NARROW_INT,17.59970537620,78.12235899739,524.6932,-76.2000,WGS84,0.0074,0.0066,0.0164,"0",1.950,0.000,47,47,47,45,00,21,3f,37*f34a46b3
#BESTPOSA,FILE,0,31.0,FINESTEERING,2319,307558.000,02000000,cdba,17139;SOL_COMPUTED,NARROW_INT,17.59970517877,78.12236096198,524.6969,-76.2000,WGS84,0.0074,0.0067,0.0164,"0",2.000,0.000,47,47,47,45,00,21,3f,37*9307c25a
#BESTPOSA,FILE,0,31.0,FINESTEERING,2319,307558.050,02000000,cdba,17139;SOL_COMPUTED,NARROW_INT,17.59970500766,78.12236293712,524.7041,-76.2000,WGS84,0.0076,0.0067,0.0166,"0",2.050,0.000,47,47,47,45,00,21,3f,37*836cb696
#BESTPOSA,FILE,0,29.0,FINESTEERING,2319,307558.100,02000000,cdba,17139;SOL_COMPUTED,NARROW_INT,17.59970482081,78.12236493119,524.7098,-76.2000,WGS84,0.0076,0.0068,0.0167,"0",2.100,0.000,47,47,47,45,00,21,3f,37*a9a36321
#BESTPOSA,FILE,0,29.0,FINESTEERING,2319,307558.150,02000000,cdba,17139;SOL_COMPUTED,NARROW_INT,17.59970462589,78.12236692470,524.7100,-76.2000,WGS84,0.0076,0.0068,0.0167,"0",2.150,0.000,47,47,47,45,00,21,3f,37*a503170e
#BESTPOSA,FILE,0,29.0,FINESTEERING,2319,307558.200,02000000,cdba,17139;SOL_COMPUTED,NARROW_INT,17.59970444049,78.12236892805,524.7127,-76.2000,WGS84,0.0077,0.0068,0.0168,"0",2.200,0.000,47,47,47,45,00,21,3f,37*2add5bb5
#BESTPOSA,FILE,0,29.0,FINESTEERING,2319,307558.250,02000000,cdba,17139;SOL_COMPUTED,NARROW_INT,17.59970425447,78.12237091190,524.7125,-76.2000,WGS84,0.0077,0.0068,0.0168,"0",2.250,0.000,47,47,47,45,00,21,3f,37*d7c29592
#BESTPOSA,FILE,0,29.0,FINESTEERING,2319,307558.300,02000000,cdba,17139;SOL_COMPUTED,NARROW_INT,17.59970407966,78.12237289197,524.7119,-76.2000,WGS84,0.0077,0.0068,0.0168,"0",2.300,0.000,47,47,47,45,00,21,3f,37*63856936
#BESTPOSA,FILE,0,29.0,FINESTEERING,2319,307558.350,02000000,cdba,17139;SOL_COMPUTED,NARROW_INT,17.59970393345,78.12237489708,524.7115,-76.2000,WGS84,0.0077,0.0069,0.0169,"0",2.350,0.000,47,47,47,45,00,21,3f,37*86664d24
#BESTPOSA,FILE,0,29.0,FINESTEERING,2319,307558.400,02000000,cdba,17139;SOL_COMPUTED,NARROW_INT,17.59970379542,78.12237691428,524.7107,-76.2000,WGS84,0.0078,0.0069,0.0169,"0",2.400,0.000,47,47,47,45,00,21,3f,37*476ad9ca
#BESTPOSA,FILE,0,29.0,FINESTEERING,2319,307558.450,02000000,cdba,17139;SOL_COMPUTED,NARROW_INT,17.59970366612,78.12237895498,524.7135,-76.2000,WGS84,0.0078,0.0069,0.0169,"0",2.450,0.000,47,47,47,45,00,21,3f,37*d8627b45
#BESTPOSA,FILE,0,29.0,FINESTEERING,2319,307558.500,02000000,cdba,17139;SOL_COMPUTED,NARROW_INT,17.59970350310,78.12238101074,524.7175,-76.2000,WGS84,0.0078,0.0069,0.0170,"0",2.500,0.000,47,47,47,45,00,21,3f,37*7414df3c
#BESTPOSA,FILE,0,29.0,FINESTEERING,2319,307558.550,02000000,cdba,17139;SOL_COMPUTED,NARROW_INT,17.59970333229,78.12238310436,524.7221,-76.2000,WGS84,0.0078,0.0069,0.0170,"0",2.550,0.000,47,47,47,45,00,21,3f,37*9224accd
#BESTPOSA,FILE,0,29.0,FINESTEERING,2319,307558.600,02000000,cdba,17139;SOL_COMPUTED,NARROW_INT,17.59970317470,78.12238524334,524.7280,-76.2000,WGS84,0.0078,0.0069,0.0170,"0",2.600,0.000,47,47,47,45,00,21,3f,37*02889e17
#BESTPOSA,FILE,0,29.0,FINESTEERING,2319,307558.650,02000000,cdba,17139;SOL_COMPUTED,NARROW_INT,17.59970303314,78.12238739410,524.7332,-76.2000,WGS84,0.0079,0.0070,0.0171,"0",2.650,0.000,47,47,47,45,00,21,3f,37*b7e2bedc
#BESTPOSA,FILE,0,29.0,FINESTEERING,2319,307558.700,02000000,cdba,17139;SOL_COMPUTED,NARROW_INT,17.59970290149,78.12238955530,524.7380,-76.2000,WGS84,0.0079,0.0070,0.0171,"0",2.700,0.000,47,47,47,45,00,21,3f,37*4dd123b2
#BESTPOSA,FILE,0,29.0,FINESTEERING,2319,307558.750,02000000,cdba,17139;SOL_COMPUTED,NARROW_INT,17.59970279758,78.12239169945,524.7425,-76.2000,WGS84,0.0079,0.0070,0.0171,"0",2.750,0.000,47,47,47,45,00,21,3f,37*4aa10544
#BESTPOSA,FILE,0,29.0,FINESTEERING,2319,307558.800,02000000,cdba,17139;SOL_COMPUTED,NARROW_INT,17.59970271728,78.12239383927,524.7473,-76.2000,WGS84,0.0079,0.0070,0.0172,"0",2.800,0.000,47,47,47,45,00,21,3f,37*196d2c09
#BESTPOSA,FILE,0,29.0,FINESTEERING,2319,307558.850,02000000,cdba,17139;SOL_COMPUTED,NARROW_INT,17.59970265012,78.12239599683,524.7541,-76.2000,WGS84,0.0080,0.0070,0.0172,"0",2.850,0.000,47,47,47,45,00,21,3f,37*e64c3fc6
#BESTPOSA,FILE,0,29.0,FINESTEERING,2319,307558.900,02000000,cdba,17139;SOL_COMPUTED,NARROW_INT,17.59970262368,78.12239814873,524.7630,-76.2000,WGS84,0.0080,0.0070,0.0172,"0",2.900,0.000,47,47,47,45,00,21,3f,37*fcf7530d
#BESTPOSA,FILE,0,29.0,FINESTEERING,2319,307558.950,02000000,cdba,17139;SOL_COMPUTED,NARROW_INT,17.59970261840,78.12240032170,524.7669,-76.2000,WGS84,0.0080,0.0071,0.0173,"0",2.950,0.000,47,47,47,45,00,21,3f,37*57640856
#BESTPOSA,FILE,0,29.0,FINESTEERING,2319,307559.000,02000000,cdba,17139;SOL_COMPUTED,NARROW_INT,17.59970258129,78.12240249151,524.7734,-76.2000,WGS84,0.0080,0.0071,0.0173,"0",3.000,0.000,47,47,47,45,00,21,3f,37*d15d677b
#BESTPOSA,FILE,0,29.0,FINESTEERING,2319,307559.050,02000000,cdba,17139;SOL_COMPUTED,NARROW_INT,17.59970254694,78.12240467284,524.7780,-76.2000,WGS84,0.0082,0.0072,0.0175,"0",3.050,0.000,47,47,47,45,00,21,3f,37*dbf1c38d
#BESTPOSA,FILE,0,29.0,FINESTEERING,2319,307559.100,02000000,cdba,17139;SOL_COMPUTED,NARROW_INT,17.59970246069,78.12240686360,524.7806,-76.2000,WGS84,0.0082,0.0072,0.0176,"0",3.100,0.000,47,47,47,45,00,21,3f,37*d57d41f8
#BESTPOSA,FILE,0,34.5,FINESTEERING,2319,307559.150,02000000,cdba,17139;SOL_COMPUTED,NARROW_INT,17.59970233765,78.12240902586,524.7795,-76.2000,WGS84,0.0083,0.0072,0.0176,"0",3.150,0.000,47,47,47,45,00,21,3f,37*672080ec
#BESTPOSA,FILE,0,34.5,FINESTEERING,2319,307559.200,02000000,cdba,17139;SOL_COMPUTED,NARROW_INT,17.59970222609,78.12241118596,524.7776,-76.2000,WGS84,0.0083,0.0072,0.0177,"0",3.200,0.000,46,46,46,44,00,21,3f,37*aed4a850
#BESTPOSA,FILE,0,34.5,FINESTEERING,2319,307559.250,02000000,cdba,17139;SOL_COMPUTED,NARROW_INT,17.59970212390,78.12241336582,524.7747,-76.2000,WGS84,0.0083,0.0073,0.0177,"0",3.250,0.000,46,46,46,44,00,21,3f,37*083bd7d8
#BESTPOSA,FILE,0,34.5,FINESTEERING,2319,307559.300,02000000,cdba,17139;SOL_COMPUTED,NARROW_INT,17.59970205259,78.12241555812,524.7729,-76.2000,WGS84,0.0083,0.0073,0.0177,"0",3.300,0.000,47,46,46,44,00,21,3f,37*4e6684da
#BESTPOSA,FILE,0,34.5,FINESTEERING,2319,307559.350,02000000,cdba,17139;SOL_COMPUTED,NARROW_INT,17.59970192651,78.12241780470,524.7620,-76.2000,WGS84,0.0070,0.0066,0.0168,"0",0.350,0.000,47,46,46,44,00,21,3f,37*4123176d
#BESTPOSA,FILE,0,34.5,FINESTEERING,2319,307559.400,02000000,cdba,17139;SOL_COMPUTED,NARROW_INT,17.59970190425,78.12242003860,524.7655,-76.2000,WGS84,0.0071,0.0066,0.0168,"0",0.400,0.000,47,46,46,44,00,21,3f,37*f647eb0d
#BESTPOSA,FILE,0,34.5,FINESTEERING,2319,307559.450,02000000,cdba,17139;SOL_COMPUTED,NARROW_INT,17.59970193449,78.12242229207,524.7709,-76.2000,WGS84,0.0071,0.0066,0.0169,"0",0.450,0.000,47,46,46,44,00,21,3f,37*8c1c2be8
#BESTPOSA,FILE,0,34.5,FINESTEERING,2319,307559.500,02000000,cdba,17139;SOL_COMPUTED,NARROW_INT,17.59970202313,78.12242456103,524.7764,-76.2000,WGS84,0.0071,0.0067,0.0169,"0",0.500,0.000,47,46,46,44,00,21,3f,37*f913f78b
#BESTPOSA,FILE,0,34.5,FINESTEERING,2319,307559.550,02000000,cdba,17139;SOL_COMPUTED,NARROW_INT,17.59970210497,78.12242681498,524.7811,-76.2000,WGS84,0.0071,0.0067,0.0169,"0",0.550,0.000,47,46,46,44,00,21,3f,37*a7bebcbb
#BESTPOSA,FILE,0,34.5,FINESTEERING,2319,307559.600,02000000,cdba,17139;SOL_COMPUTED,NARROW_INT,17.59970218135,78.12242906123,524.7827,-76.2000,WGS84,0.0072,0.0067,0.0170,"0",0.600,0.000,47,46,46,44,00,21,3f,37*86f0af7b
#BESTPOSA,FILE,0,34.5,FINESTEERING,2319,307559.650,02000000,cdba,17139;SOL_COMPUTED,NARROW_INT,17.59970221089,78.12243131960,524.7832,-76.2000,WGS84,0.0072,0.0067,0.0170,"0",0.650,0.000,47,46,46,44,00,21,3f,37*906413a0
#BESTPOSA,FILE,0,34.5,FINESTEERING,2319,307559.700,02000000,cdba,17139;SOL_COMPUTED,NARROW_INT,17.59970223382,78.12243357174,524.7848,-76.2000,WGS84,0.0072,0.0067,0.0170,"0",0.700,0.000,47,46,46,44,00,21,3f,37*98087c33
#BESTPOSA,FILE,0,34.5,FINESTEERING,2319,307559.750,02000000,cdba,17139;SOL_COMPUTED,NARROW_INT,17.59970221567,78.12243582330,524.7865,-76.2000,WGS84,0.0073,0.0067,0.0171,"0",0.750,0.000,47,46,46,44,00,21,3f,37*2cda3ac2
#BESTPOSA,FILE,0,34.5,FINESTEERING,2319,307559.800,02000000,cdba,17139;SOL_COMPUTED,NARROW_INT,17.59970217257,78.12243806978,524.7883,-76.2000,WGS84,0.0073,0.0068,0.0171,"0",0.800,0.000,46,46,46,44,00,21,3f,37*9d0242a5
#BESTPOSA,FILE,0,34.5,FINESTEERING,2319,307559.850,02000000,cdba,17139;SOL_COMPUTED,NARROW_INT,17.59970211951,78.12244032592,524.7886,-76.2000,WGS84,0.0073,0.0068,0.0171,"0",0.850,0.000,47,46,46,44,00,21,3f,37*23aab5e1
#BESTPOSA,FILE,0,34.5,FINESTEERING,2319,307559.900,02000000,cdba,17139;SOL_COMPUTED,NARROW_INT,17.59970204233,78.12244258821,524.7879,-76.2000,WGS84,0.0073,0.0068,0.0172,"0",0.900,0.000,47,46,46,44,00,21,3f,37*376f387a
#BESTPOSA,FILE,0,34.5,FINESTEERING,2319,307559.950,02000000,cdba,17139;SOL_COMPUTED,NARROW_INT,17.59970203398,78.12244485611,524.7880,-76.2000,WGS84,0.0074,0.0068,0.0172,"0",0.950,0.000,47,46,46,44,00,21,3f,37*94316957
#BESTPOSA,FILE,0,34.5,FINESTEERING,2319,307560.000,02000000,cdba,17139;SOL_COMPUTED,NARROW_INT,17.59970210111,78.12244716078,524.7916,-76.2000,WGS84,0.0074,0.0068,0.0172,"0",1.000,0.000,47,46,46,44,00,21,3f,37*053bedee
#BESTPOSA,FILE,0,34.5,FINESTEERING,2319,307560.050,02000000,cdba,17139;SOL_COMPUTED,NARROW_INT,17.59970219176,78.12244947155,524.7900,-76.2000,WGS84,0.0076,0.0069,0.0175,"0",1.050,0.000,47,46,46,44,00,21,3f,37*852c0272
#BESTPOSA,FILE,0,33.0,FINESTEERING,2319,307560.100,02000000,cdba,17139;SOL_COMPUTED,NARROW_INT,17.59970228447,78.12245181174,524.7904,-76.2000,WGS84,0.0076,0.0069,0.0175,"0",1.100,0.000,47,47,47,45,00,21,3f,37*e8693808
#BESTPOSA,FILE,0,33.0,FINESTEERING,2319,307560.150,02000000,cdba,17139;SOL_COMPUTED,NARROW_INT,17.59970237114,78.12245416998,524.7944,-76.2000,WGS84,0.0076,0.0070,0.0175,"0",1.150,0.000,47,47,47,45,00,21,3f,37*f46a91ae
#BESTPOSA,FILE,0,33.0,FINESTEERING,2319,307560.200,02000000,cdba,17139;SOL_COMPUTED,NARROW_INT,17.59970247151,78.12245653591,524.7979,-76.2000,WGS84,0.0077,0.0070,0.0176,"0",1.200,0.000,47,47,47,45,00,21,3f,37*c90360f4
#BESTPOSA,FILE,0,33.0,FINESTEERING,2319,307560.250,02000000,cdba,17139;SOL_COMPUTED,NARROW_INT,17.59970258486,78.12245886147,524.8002,-76.2000,WGS84,0.0077,0.0070,0.0176,"0",1.250,0.000,47,47,47,45,00,21,3f,37*c69e4b05
#BESTPOSA,FILE,0,33.0,FINESTEERING,2319,307560.300,02000000,cdba,17139;SOL_COMPUTED,NARROW_INT,17.59970262933,78.12246116149,524.8027,-76.2000,WGS84,0.0077,0.0070,0.0176,"0",1.300,0.000,47,47,47,45,00,21,3f,37*7258d910
#BESTPOSA,FILE,0,33.0,FINESTEERING,2319,307560.350,02000000,cdba,17139;SOL_COMPUTED,NARROW_INT,17.59970262579,78.12246348332,524.8078,-76.2000,WGS84,0.0077,0.0070,0.0177,"0",1.350,0.000,47,47,47,45,00,21,3f,37*74b7da4e
#BESTPOSA,FILE,0,33.0,FINESTEERING,2319,307560.400,02000000,cdba,17139;SOL_COMPUTED,NARROW_INT,17.59970260121,78.12246582619,524.8170,-76.2000,WGS84,0.0078,0.0071,0.0177,"0",1.400,0.000,47,47,47,45,00,21,3f,37*73540564
#BESTPOSA,FILE,0,33.0,FINESTEERING,2319,307560.450,02000000,cdba,17139;SOL_COMPUTED,NARROW_INT,17.59970261974,78.12246815903,524.8203,-76.2000,WGS84,0.0078,0.0071,0.0177,"0",1.450,0.000,47,47,47,45,00,21,3f,37*a7cbbd6e
#BESTPOSA,FILE,0,33.0,FINESTEERING,2319,307560.500,02000000,cdba,17139;SOL_COMPUTED,NARROW_INT,17.59970267662,78.12247051430,524.8225,-76.2000,WGS84,0.0078,0.0071,0.0178,"0",1.500,0.000,47,47,47,45,00,21,3f,37*5cb9d195
#BESTPOSA,FILE,0,33.0,FINESTEERING,2319,307560.550,02000000,cdba,17139;SOL_COMPUTED,NARROW_INT,17.59970271859,78.12247289239,524.8207,-76.2000,WGS84,0.0078,0.0071,0.0178,"0",1.550,0.000,47,47,47,45,00,21,3f,37*51981067
#BESTPOSA,FILE,0,33.0,FINESTEERING,2319,307560.600,02000000,cdba,17139;SOL_COMPUTED,NARROW_INT,17.59970274875,78.12247525305,524.8156,-76.2000,WGS84,0.0079,0.0071,0.0178,"0",1.600,0.000,47,47,47,45,00,21,3f,37*3489fa0e
#BESTPOSA,FILE,0,33.0,FINESTEERING,2319,307560.650,02000000,cdba,17139;SOL_COMPUTED,NARROW_INT,17.59970281659,78.12247762336,524.8119,-76.2000,WGS84,0.0079,0.0071,0.0179,"0",1.650,0.000,47,47,47,45,00,21,3f,37*2c34d0e1
#BESTPOSA,FILE,0,33.0,FINESTEERING,2319,307560.700,02000000,cdba,17139;SOL_COMPUTED,NARROW_INT,17.59970289931,78.12247998242,524.8027,-76.2000,WGS84,0.0079,0.0072,0.0179,"0",1.700,0.000,47,47,47,45,00,21,3f,37*1ed64aa6
#BESTPOSA,FILE,0,33.0,FINESTEERING,2319,307560.750,02000000,cdba,17139;SOL_COMPUTED,NARROW_INT,17.59970302857,78.12248237064,524.8048,-76.2000,WGS84,0.0079,0.0072,0.0179,"0",1.750,0.000,47,47,47,45,00,21,3f,37*fb236ea5
#BESTPOSA,FILE,0,33.0,FINESTEERING,2319,307560.800,02000000,cdba,17139;SOL_COMPUTED,NARROW_INT,17.59970312495,78.12248479538,524.8122,-76.2000,WGS84,0.0080,0.0072,0.0180,"0",1.800,0.000,47,47,47,45,00,21,3f,37*bf0da80a
#BESTPOSA,FILE,0,33.0,FINESTEERING,2319,307560.850,02000000,cdba,17139;SOL_COMPUTED,NARROW_INT,17.59970319662,78.12248722120,524.8201,-76.2000,WGS84,0.0080,0.0072,0.0180,"0",1.850,0.000,47,47,47,45,00,21,3f,37*34bdbf9a
#BESTPOSA,FILE,0,33.0,FINESTEERING,2319,307560.900,02000000,cdba,17139;SOL_COMPUTED,NARROW_INT,17.59970324202,78.12248964080,524.8308,-76.2000,WGS84,0.0080,0.0072,0.0180,"0",1.900,0.000,47,47,47,45,00,21,3f,37*8947838a
#BESTPOSA,FILE,0,33.0,FINESTEERING,2319,307560.950,02000000,cdba,17139;SOL_COMPUTED,NARROW_INT,17.59970330826,78.12249203045,524.8354,-76.2000,WGS84,0.0080,0.0072,0.0181,"0",1.950,0.000,47,47,47,45,00,21,3f,37*962f05f6
#BESTPOSA,FILE,0,33.0,FINESTEERING,2319,307561.000,02000000,cdba,17139;SOL_COMPUTED,NARROW_INT,17.59970340028,78.12249441416,524.8344,-76.2000,WGS84,0.0080,0.0073,0.0181,"0",2.000,0.000,47,47,47,45,00,21,3f,37*3f03d221
#BESTPOSA,FILE,0,33.0,FINESTEERING,2319,307561.050,02000000,cdba,17139;SOL_COMPUTED,NARROW_INT,17.59970352075,78.12249680316,524.8346,-76.2000,WGS84,0.0082,0.0074,0.0183,"0",2.050,0.000,47,47,47,45,00,21,3f,37*e8a11c05
#BESTPOSA,FILE,0,29.5,FINESTEERING,2319,307561.100,02000000,cdba,17139;SOL_COMPUTED,NARROW_INT,17.59970362668,78.12249918665,524.8324,-76.2000,WGS84,0.0083,0.0074,0.0184,"0",2.100,0.000,47,47,47,45,00,21,3f,37*99fec74d
#BESTPOSA,FILE,0,29.5,FINESTEERING,2319,307561.150,02000000,cdba,17139;SOL_COMPUTED,NARROW_INT,17.59970371112,78.12250159226,524.8239,-76.2000,WGS84,0.0083,0.0074,0.0184,"0",2.150,0.000,47,47,47,45,00,21,3f,37*05d5c339
#BESTPOSA,FILE,0,29.5,FINESTEERING,2319,307561.200,02000000,cdba,17139;SOL_COMPUTED,NARROW_INT,17.59970378631,78.12250400857,524.8197,-76.2000,WGS84,0.0083,0.0074,0.0184,"0",2.200,0.000,47,47,47,45,00,21,3f,37*b735f192
#BESTPOSA,FILE,0,29.5,FINESTEERING,2319,307561.250,02000000,cdba,17139;SOL_COMPUTED,NARROW_INT,17.59970397977,78.12250642137,524.8264,-76.2000,WGS84,0.0105,0.0092,0.0202,"0",1.250,0.000,47,47,47,45,00,21,3f,37*70b2b604
#BESTPOSA,FILE,0,29.5,FINESTEERING,2319,307561.300,02000000,cdba,17139;SOL_COMPUTED,NARROW_INT,17.59970407136,78.12250886942,524.8279,-76.2000,WGS84,0.0105,0.0092,0.0202,"0",1.300,0.000,47,47,47,45,00,21,3f,37*dd6134fe
#BESTPOSA,FILE,0,29.5,FINESTEERING,2319,307561.350,02000000,cdba,17139;SOL_COMPUTED,NARROW_INT,17.59970416416,78.12251134481,524.8291,-76.2000,WGS84,0.0105,0.0093,0.0203,"0",1.350,0.000,47,47,47,45,00,21,3f,37*36b0f951
#BESTPOSA,FILE,0,29.5,FINESTEERING,2319,307561.400,02000000,cdba,17139;SOL_COMPUTED,NARROW_INT,17.59970426549,78.12251383687,524.8334,-76.2000,WGS84,0.0105,0.0093,0.0203,"0",1.400,0.000,47,47,47,45,00,21,3f,37*708f5817
#BESTPOSA,FILE,0,29.5,FINESTEERING,2319,307561.450,02000000,cdba,17139;SOL_COMPUTED,NARROW_INT,17.59970439688,78.12251632033,524.8404,-76.2000,WGS84,0.0105,0.0093,0.0203,"0",1.450,0.000,47,47,47,45,00,21,3f,37*b7f41b15
#BESTPOSA,FILE,0,29.5,FINESTEERING,2319,307561.500,02000000,cdba,17139;SOL_COMPUTED,NARROW_INT,17.59970452741,78.12251878890,524.8458,-76.2000,WGS84,0.0106,0.0093,0.0204,"0",1.500,0.000,47,47,47,45,00,21,3f,37*03963062
#BESTPOSA,FILE,0,29.5,FINESTEERING,2319,307561.550,02000000,cdba,17139;SOL_COMPUTED,NARROW_INT,17.59970465340,78.12252125384,524.8481,-76.2000,WGS84,0.0106,0.0093,0.0204,"0",1.550,0.000,47,47,47,45,00,21,3f,37*1e1a6069
#BESTPOSA,FILE,0,29.5,FINESTEERING,2319,307561.600,02000000,cdba,17139;SOL_COMPUTED,NARROW_INT,17.59970477679,78.12252371160,524.8477,-76.2000,WGS84,0.0106,0.0093,0.0204,"0",1.600,0.000,47,47,47,45,00,21,3f,37*0e19e560
#BESTPOSA,FILE,0,29.5,FINESTEERING,2319,307561.650,02000000,cdba,17139;SOL_COMPUTED,NARROW_INT,17.59970491005,78.12252618606,524.8479,-76.2000,WGS84,0.0106,0.0093,0.0204,"0",1.650,0.000,47,47,47,45,00,21,3f,37*419d5d93
