#BESTVELA,FILE,0,31.5,FINESTEERING,2319,307546.450,02000800,10a2,17139;SOL_COMPUTED,NARROW_INT,0.025,0.450,0.0157,71.170280,-0.0060,0*8c3a97d3
#BESTVELA,FILE,0,31.5,FINESTEERING,2319,307546.550,02000800,10a2,17139;SOL_COMPUTED,NARROW_INT,0.025,0.550,0.0191,226.254638,-0.0020,0*90a89a1d
#BESTVELA,FILE,0,31.5,FINESTEERING,2319,307546.650,02000800,10a2,17139;SOL_COMPUTED,NARROW_INT,0.025,0.650,0.0185,256.246486,-0.0088,0*599987f6
#BESTVELA,FILE,0,31.5,FINESTEERING,2319,307546.750,02000800,10a2,17139;SOL_COMPUTED,NARROW_INT,0.025,0.750,0.0082,101.583360,0.0253,0*0c883f66
#BESTVELA,FILE,0,31.5,FINESTEERING,2319,307546.800,02000800,10a2,17139;SOL_COMPUTED,NARROW_INT,0.025,0.800,0.0186,183.683836,-0.0389,0*909dcf22
#BESTVELA,FILE,0,31.5,FINESTEERING,2319,307546.900,02000800,10a2,17139;SOL_COMPUTED,NARROW_INT,0.025,0.900,0.0069,208.858443,-0.0486,0*6d29accc
#BESTVELA,FILE,0,31.5,FINESTEERING,2319,307547.000,02000800,10a2,17139;SOL_COMPUTED,NARROW_INT,0.025,1.000,0.0111,275.186443,0.0002,0*1e8e28a4
#BESTVELA,FILE,0,31.5,FINESTEERING,2319,307547.100,02000800,10a2,17139;SOL_COMPUTED,NARROW_INT,0.025,1.100,0.0040,47.588175,0.0042,0*863e9756
#BESTVELA,FILE,0,34.5,FINESTEERING,2319,307547.200,02000800,10a2,17139;SOL_COMPUTED,NARROW_INT,0.025,1.200,0.0090,318.304240,0.0020,0*3ca1154a
#BESTVELA,FILE,0,34.5,FINESTEERING,2319,307547.300,02000800,10a2,17139;SOL_COMPUTED,NARROW_INT,0.025,1.300,0.0147,153.131934,-0.0111,0*8dd1a32a
#BESTVELA,FILE,0,34.5,FINESTEERING,2319,307547.400,02000800,10a2,17139;SOL_COMPUTED,NARROW_INT,0.025,0.400,0.0113,135.321877,0.0083,0*9720c7e3
#BESTVELA,FILE,0,34.5,FINESTEERING,2319,307547.500,02000800,10a2,17139;SOL_COMPUTED,NARROW_INT,0.025,0.500,0.0050,250.386006,-0.0350,0*9da1031a
#BESTVELA,FILE,0,34.5,FINESTEERING,2319,307547.600,02000800,10a2,17139;SOL_COMPUTED,NARROW_INT,0.025,0.600,0.0074,19.599500,0.0065,0*a6b612ba
#BESTVELA,FILE,0,34.5,FINESTEERING,2319,307547.700,02000800,10a2,17139;SOL_COMPUTED,NARROW_INT,0.025,0.700,0.0106,37.308820,-0.0012,0*3ca17dbf
#BESTVELA,FILE,0,34.5,FINESTEERING,2319,307547.800,02000800,10a2,17139;SOL_COMPUTED,NARROW_INT,0.025,0.800,0.0150,111.626186,-0.0217,0*9ef50df0
#BESTVELA,FILE,0,34.5,FINESTEERING,2319,307547.900,02000800,10a2,17139;SOL_COMPUTED,NARROW_INT,0.025,0.900,0.0137,259.638107,-0.0091,0*ea775b20
#BESTVELA,FILE,0,34.5,FINESTEERING,2319,307548.000,02000800,10a2,17139;SOL_COMPUTED,NARROW_INT,0.025,1.000,0.0082,246.223725,-0.0154,0*cd8b038c
#BESTVELA,FILE,0,32.0,FINESTEERING,2319,307548.100,02000800,10a2,17139;SOL_COMPUTED,NARROW_INT,0.025,1.100,0.0155,67.645668,0.0191,0*3d2c66a7
#BESTVELA,FILE,0,32.0,FINESTEERING,2319,307548.150,02000800,10a2,17139;SOL_COMPUTED,NARROW_INT,0.025,1.150,0.0142,48.273317,-0.0062,0*ec778704
#BESTVELA,FILE,0,32.0,FINESTEERING,2319,307548.300,02000800,10a2,17139;SOL_COMPUTED,NARROW_INT,0.025,1.300,0.0199,209.122651,-0.0370,0*544426d9
#BESTVELA,FILE,0,32.0,FINESTEERING,2319,307548.350,02000800,10a2,17139;SOL_COMPUTED,NARROW_INT,0.025,1.350,0.0130,118.559629,0.0312,0*af048f82
#BESTVELA,FILE,0,32.0,FINESTEERING,2319,307548.450,02000800,10a2,17139;SOL_COMPUTED,NARROW_INT,0.025,0.450,0.0093,4.757559,-0.0082,0*178ba9af
#BESTVELA,FILE,0,32.0,FINESTEERING,2319,307548.550,02000800,10a2,17139;SOL_COMPUTED,NARROW_INT,0.025,0.550,0.0085,302.438532,-0.0153,0*2115fb7c
#BESTVELA,FILE,0,32.0,FINESTEERING,2319,307548.650,02000800,10a2,17139;SOL_COMPUTED,NARROW_INT,0.025,0.650,0.0164,354.932782,-0.0153,0*9e7008d1
#BESTVELA,FILE,0,32.0,FINESTEERING,2319,307548.750,02000800,10a2,17139;SOL_COMPUTED,NARROW_INT,0.025,0.750,0.0156,188.616411,-0.0267,0*509ea77c
#BESTVELA,FILE,0,32.0,FINESTEERING,2319,307548.850,02000800,10a2,17139;SOL_COMPUTED,NARROW_INT,0.025,0.850,0.0692,180.303463,-0.0055,0*edb0ca99
#BESTVELA,FILE,0,32.0,FINESTEERING,2319,307548.950,02000800,10a2,17139;SOL_COMPUTED,NARROW_INT,0.025,0.950,0.0951,199.472091,-0.0181,0*6276c13b
#BESTVELA,FILE,0,32.0,FINESTEERING,2319,307549.000,02000800,10a2,17139;SOL_COMPUTED,NARROW_INT,0.025,1.000,0.1059,165.285258,0.0309,0*3f6a5a1d
#BESTVELA,FILE,0,32.0,FINESTEERING,2319,307549.150,02000800,10a2,17139;SOL_COMPUTED,NARROW_INT,0.025,1.150,0.1546,170.893386,0.0366,0*69950e4c
#BESTVELA,FILE,0,32.0,FINESTEERING,2319,307549.250,02000800,10a2,17139;SOL_COMPUTED,NARROW_INT,0.025,1.250,0.1645,171.167539,0.0104,0*52a363c2
#BESTVELA,FILE,0,32.0,FINESTEERING,2319,307549.300,02000800,10a2,17139;SOL_COMPUTED,NARROW_INT,0.025,1.300,0.1795,181.706374,-0.0215,0*0d4da06b
#BESTVELA,FILE,0,32.0,FINESTEERING,2319,307549.450,02000800,10a2,17139;SOL_COMPUTED,NARROW_INT,0.025,0.450,0.2741,176.822288,0.0203,0*ba02f46d
#BESTVELA,FILE,0,32.0,FINESTEERING,2319,307549.550,02000800,10a2,17139;SOL_COMPUTED,NARROW_INT,0.025,0.550,0.3285,178.877343,0.0031,0*2bc19283
#BESTVELA,FILE,0,32.0,FINESTEERING,2319,307549.600,02000800,10a2,17139;SOL_COMPUTED,NARROW_INT,0.025,0.600,0.3652,178.469004,-0.0142,0*577b6016
#BESTVELA,FILE,0,32.0,FINESTEERING,2319,307549.700,02000800,10a2,17139;SOL_COMPUTED,NARROW_INT,0.025,0.700,0.4150,175.444552,-0.0214,0*d06440dd
#BESTVELA,FILE,0,32.0,FINESTEERING,2319,307549.800,02000800,10a2,17139;SOL_COMPUTED,NARROW_INT,0.025,0.800,0.5042,174.616006,-0.0047,0*46d84098
#BESTVELA,FILE,0,32.0,FINESTEERING,2319,307549.900,02000800,10a2,17139;SOL_COMPUTED,NARROW_INT,0.025,0.900,0.6051,177.508538,-0.0052,0*45ba6d69
#BESTVELA,FILE,0,32.0,FINESTEERING,2319,307549.950,02000800,10a2,17139;SOL_COMPUTED,NARROW_INT,0.025,0.950,0.6536,176.419644,0.0334,0*b3aeed4c
#BESTVELA,FILE,0,32.0,FINESTEERING,2319,307550.000,02000800,10a2,17139;SOL_COMPUTED,NARROW_INT,0.025,1.000,0.6760,178.783374,-0.0005,0*e23a29dc
#BESTVELA,FILE,0,32.0,FINESTEERING,2319,307550.050,02000800,10a2,17139;SOL_COMPUTED,NARROW_INT,0.025,1.050,0.7782,177.550697,-0.0552,0*b2bb6630
#BESTVELA,FILE,0,32.0,FINESTEERING,2319,307550.100,02000800,10a2,17139;SOL_COMPUTED,NARROW_INT,0.025,1.100,0.8084,177.771739,0.0359,0*4603827d
#BESTVELA,FILE,0,33.0,FINESTEERING,2319,307550.150,02000800,10a2,17139;SOL_COMPUTED,NARROW_INT,0.025,1.150,0.8171,179.222062,-0.0454,0*0957075d
#BESTVELA,FILE,0,33.0,FINESTEERING,2319,307550.200,02000800,10a2,17139;SOL_COMPUTED,NARROW_INT,0.025,1.200,0.8790,178.434662,-0.0248,0*4e821e31
#BESTVELA,FILE,0,33.0,FINESTEERING,2319,307550.250,02000800,10a2,17139;SOL_COMPUTED,NARROW_INT,0.025,1.250,0.9301,176.066072,0.0324,0*b22218f3
#BESTVELA,FILE,0,33.0,FINESTEERING,2319,307550.300,02000800,10a2,17139;SOL_COMPUTED,NARROW_INT,0.025,1.300,0.9720,176.873031,-0.0216,0*f3153d97
#BESTVELA,FILE,0,33.0,FINESTEERING,2319,307550.350,02000800,10a2,17139;SOL_COMPUTED,NARROW_INT,0.025,1.350,1.0542,178.625282,-0.0204,0*9f5219e3
#BESTVELA,FILE,0,33.0,FINESTEERING,2319,307550.400,02000800,10a2,17139;SOL_COMPUTED,NARROW_INT,0.025,1.400,1.0874,178.339121,0.0074,0*6b772246
#BESTVELA,FILE,0,33.0,FINESTEERING,2319,307550.450,02000800,10a2,17139;SOL_COMPUTED,NARROW_INT,0.025,1.450,1.0978,178.056481,0.0271,0*1e289aca
#BESTVELA,FILE,0,33.0,FINESTEERING,2319,307550.500,02000000,10a2,17139;SOL_COMPUTED,NARROW_INT,0.025,1.500,1.1508,179.555253,-0.0454,0*bbc6d012
#BESTVELA,FILE,0,33.0,FINESTEERING,2319,307550.550,02000000,10a2,17139;SOL_COMPUTED,NARROW_INT,0.025,1.550,1.2021,177.977755,0.0118,0*e690ac74
#BESTVELA,FILE,0,33.0,FINESTEERING,2319,307550.600,02000000,10a2,17139;SOL_COMPUTED,NARROW_INT,0.025,1.600,1.2498,177.608689,-0.0467,0*b2489bda
#BESTVELA,FILE,0,33.0,FINESTEERING,2319,307550.650,02000000,10a2,17139;SOL_COMPUTED,NARROW_INT,0.025,1.650,1.2953,180.244313,-0.0478,0*5f6c7efd
#BESTVELA,FILE,0,33.0,FINESTEERING,2319,307550.700,02000000,10a2,17139;SOL_COMPUTED,NARROW_INT,0.025,1.700,1.3709,178.570688,0.0205,0*3196b8a9
#BESTVELA,FILE,0,33.0,FINESTEERING,2319,307550.750,02000000,10a2,17139;SOL_COMPUTED,NARROW_INT,0.025,1.750,1.4038,177.493072,-0.0056,0*07f91e70
#BESTVELA,FILE,0,33.0,FINESTEERING,2319,307550.800,02000000,10a2,17139;SOL_COMPUTED,NARROW_INT,0.025,1.800,1.4453,177.683737,0.0498,0*8357d318
#BESTVELA,FILE,0,33.0,FINESTEERING,2319,307550.850,02000000,10a2,17139;SOL_COMPUTED,NARROW_INT,0.025,1.850,1.5091,176.961516,0.0322,0*592dcc13
#BESTVELA,FILE,0,33.0,FINESTEERING,2319,307550.900,02000000,10a2,17139;SOL_COMPUTED,NARROW_INT,0.025,1.900,1.5653,176.804995,-0.0574,0*36aa7de8
#BESTVELA,FILE,0,33.0,FINESTEERING,2319,307550.950,02000000,10a2,17139;SOL_COMPUTED,NARROW_INT,0.025,1.950,1.6578,177.849496,-0.1340,0*3b5a2082
#BESTVELA,FILE,0,33.0,FINESTEERING,2319,307551.000,02000000,10a2,17139;SOL_COMPUTED,NARROW_INT,0.025,2.000,1.6715,177.809000,0.0475,0*2dea786f
#BESTVELA,FILE,0,33.0,FINESTEERING,2319,307551.050,02000000,10a2,17139;SOL_COMPUTED,NARROW_INT,0.025,2.050,1.7084,177.923128,-0.0920,0*a549ac90
#BESTVELA,FILE,0,28.0,FINESTEERING,2319,307551.100,02000000,10a2,17139;SOL_COMPUTED,NARROW_INT,0.025,2.100,1.7688,176.783173,0.0213,0*0b798262
#BESTVELA,FILE,0,28.0,FINESTEERING,2319,307551.150,02000000,10a2,17139;SOL_COMPUTED,NARROW_INT,0.025,2.150,1.8086,178.365012,-0.0259,0*b7e0e1b9
#BESTVELA,FILE,0,28.0,FINESTEERING,2319,307551.200,02000000,10a2,17139;SOL_COMPUTED,NARROW_INT,0.025,2.200,1.8553,179.130531,-0.0427,0*4ebfe81d
#BESTVELA,FILE,0,28.0,FINESTEERING,2319,307551.250,02000000,10a2,17139;SOL_COMPUTED,NARROW_INT,0.025,2.250,1.8595,179.746421,-0.0349,0*870bd865
#BESTVELA,FILE,0,28.0,FINESTEERING,2319,307551.300,02000000,10a2,17139;SOL_COMPUTED,NARROW_INT,0.025,2.300,1.9136,178.858902,0.0436,0*7c345427
#BESTVELA,FILE,0,28.0,FINESTEERING,2319,307551.350,02000000,10a2,17139;SOL_COMPUTED,NARROW_INT,0.025,0.350,1.9917,178.016224,-0.0143,0*fe54c059
#BESTVELA,FILE,0,28.0,FINESTEERING,2319,307551.400,02000000,10a2,17139;SOL_COMPUTED,NARROW_INT,0.025,0.400,1.9803,179.768647,-0.0326,0*9a261254
#BESTVELA,FILE,0,28.0,FINESTEERING,2319,307551.450,02000000,10a2,17139;SOL_COMPUTED,NARROW_INT,0.025,0.450,1.9710,178.452565,0.0235,0*5bbad052
#BESTVELA,FILE,0,28.0,FINESTEERING,2319,307551.500,02000000,10a2,17139;SOL_COMPUTED,NARROW_INT,0.025,0.500,1.9901,179.733600,0.0159,0*285cfed4
#BESTVELA,FILE,0,28.0,FINESTEERING,2319,307551.550,02000000,10a2,17139;SOL_COMPUTED,NARROW_INT,0.025,0.550,2.0753,178.073854,-0.0477,0*b3f3f876
#BESTVELA,FILE,0,28.0,FINESTEERING,2319,307551.600,02000000,10a2,17139;SOL_COMPUTED,NARROW_INT,0.025,0.600,2.0257,177.256485,-0.0017,0*21b1b5b7
#BESTVELA,FILE,0,28.0,FINESTEERING,2319,307551.650,02000000,10a2,17139;SOL_COMPUTED,NARROW_INT,0.025,0.650,2.0729,177.209916,-0.0118,0*34c56cd6
#BESTVELA,FILE,0,28.0,FINESTEERING,2319,307551.700,02000000,10a2,17139;SOL_COMPUTED,NARROW_INT,0.025,0.700,2.0917,177.505952,0.0536,0*17496118
#BESTVELA,FILE,0,28.0,FINESTEERING,2319,307551.750,02000000,10a2,17139;SOL_COMPUTED,NARROW_INT,0.025,0.750,2.0931,177.780176,0.0117,0*51fbcfa3
#BESTVELA,FILE,0,28.0,FINESTEERING,2319,307551.800,02000000,10a2,17139;SOL_COMPUTED,NARROW_INT,0.025,0.800,2.0969,177.465205,0.0238,0*4afc83e2
#BESTVELA,FILE,0,28.0,FINESTEERING,2319,307551.850,02000000,10a2,17139;SOL_COMPUTED,NARROW_INT,0.025,0.850,2.1093,177.048341,-0.0023,0*1db0d3fb
#BESTVELA,FILE,0,28.0,FINESTEERING,2319,307551.900,02000000,10a2,17139;SOL_COMPUTED,NARROW_INT,0.025,0.900,2.0908,176.216319,0.0554,0*a21e5ba8
#BESTVELA,FILE,0,28.0,FINESTEERING,2319,307551.950,02000000,10a2,17139;SOL_COMPUTED,NARROW_INT,0.025,0.950,2.0530,178.614207,0.0296,0*bb0a343f
#BESTVELA,FILE,0,28.0,FINESTEERING,2319,307552.000,02000000,10a2,17139;SOL_COMPUTED,NARROW_INT,0.025,1.000,2.0776,176.923738,0.0318,0*62e18e15
#BESTVELA,FILE,0,28.0,FINESTEERING,2319,307552.050,02000000,10a2,17139;SOL_COMPUTED,NARROW_INT,0.025,1.050,2.0742,177.714101,0.0269,0*18f7513e
#BESTVELA,FILE,0,28.0,FINESTEERING,2319,307552.100,02000000,10a2,17139;SOL_COMPUTED,NARROW_INT,0.025,1.100,2.0258,177.365742,-0.0494,0*d8c672ec
#BESTVELA,FILE,0,28.0,FINESTEERING,2319,307552.150,02000000,10a2,17139;SOL_COMPUTED,NARROW_INT,0.025,1.150,2.0780,176.291745,-0.0020,0*4289ceb4
#BESTVELA,FILE,0,28.5,FINESTEERING,2319,307552.200,02000000,10a2,17139;SOL_COMPUTED,NARROW_INT,0.025,1.200,1.9953,175.641135,-0.0902,0*393ae520
#BESTVELA,FILE,0,28.5,FINESTEERING,2319,307552.250,02000000,10a2,17139;SOL_COMPUTED,NARROW_INT,0.025,1.250,2.0025,173.841130,0.0196,0*3da8239f
#BESTVELA,FILE,0,28.5,FINESTEERING,2319,307552.300,02000000,10a2,17139;SOL_COMPUTED,NARROW_INT,0.025,1.300,2.0331,174.148610,-0.0693,0*cae06389
#BESTVELA,FILE,0,28.5,FINESTEERING,2319,307552.350,02000000,10a2,17139;SOL_COMPUTED,NARROW_INT,0.025,0.350,1.9917,173.998928,-0.0558,0*877e11df
#BESTVELA,FILE,0,28.5,FINESTEERING,2319,307552.400,02000000,10a2,17139;SOL_COMPUTED,NARROW_INT,0.025,0.400,2.0653,174.428746,-0.0415,0*46d7fa0e
#BESTVELA,FILE,0,28.5,FINESTEERING,2319,307552.450,02000000,10a2,17139;SOL_COMPUTED,NARROW_INT,0.025,0.450,2.0600,173.414082,0.0729,0*d1c6ab34
#BESTVELA,FILE,0,28.5,FINESTEERING,2319,307552.500,02000000,10a2,17139;SOL_COMPUTED,NARROW_INT,0.025,0.500,2.0368,174.226962,0.0014,0*d316be84
#BESTVELA,FILE,0,28.5,FINESTEERING,2319,307552.550,02000000,10a2,17139;SOL_COMPUTED,NARROW_INT,0.025,0.550,2.0560,175.283406,-0.0334,0*91893d34
#BESTVELA,FILE,0,28.5,FINESTEERING,2319,307552.600,02000000,10a2,17139;SOL_COMPUTED,NARROW_INT,0.025,0.600,2.0511,175.253138,0.0480,0*c19dd4c2
#BESTVELA,FILE,0,28.5,FINESTEERING,2319,307552.650,02000000,10a2,17139;SOL_COMPUTED,NARROW_INT,0.025,0.650,2.0337,174.811228,0.0227,0*2f2efdfa
#BESTVELA,FILE,0,28.5,FINESTEERING,2319,307552.700,02000000,10a2,17139;SOL_COMPUTED,NARROW_INT,0.025,0.700,2.0668,175.055058,-0.0143,0*d6dcd43b
#BESTVELA,FILE,0,28.5,FINESTEERING,2319,307552.750,02000000,10a2,17139;SOL_COMPUTED,NARROW_INT,0.025,0.750,2.0354,174.677852,0.0524,0*51097787
#BESTVELA,FILE,0,28.5,FINESTEERING,2319,307552.800,02000000,10a2,17139;SOL_COMPUTED,NARROW_INT,0.025,0.800,1.9888,174.574780,-0.0105,0*d6de06e3
#BESTVELA,FILE,0,28.5,FINESTEERING,2319,307552.850,02000000,10a2,17139;SOL_COMPUTED,NARROW_INT,0.025,0.850,1.9468,174.290710,-0.0496,0*f393205e
#BESTVELA,FILE,0,28.5,FINESTEERING,2319,307552.900,02000000,10a2,17139;SOL_COMPUTED,NARROW_INT,0.025,0.900,1.9815,171.795074,-0.0105,0*b0dcfd58
#BESTVELA,FILE,0,28.5,FINESTEERING,2319,307552.950,02000000,10a2,17139;SOL_COMPUTED,NARROW_INT,0.025,0.950,1.9815,170.714096,0.0645,0*fab70a5d
#BESTVELA,FILE,0,28.5,FINESTEERING,2319,307553.000,02000000,10a2,17139;SOL_COMPUTED,NARROW_INT,0.025,1.000,1.9379,170.411844,-0.0074,0*47e50ba9
#BESTVELA,FILE,0,28.5,FINESTEERING,2319,307553.050,02000000,10a2,17139;SOL_COMPUTED,NARROW_INT,0.025,1.050,1.9308,170.053668,0.0094,0*e4123e55
#BESTVELA,FILE,0,28.5,FINESTEERING,2319,307553.100,02000000,10a2,17139;SOL_COMPUTED,NARROW_INT,0.025,1.100,1.9498,169.652031,-0.0493,0*3e3c115f
#BESTVELA,FILE,0,29.0,FINESTEERING,2319,307553.150,02000000,10a2,17139;SOL_COMPUTED,NARROW_INT,0.025,1.150,1.9550,167.553988,0.0993,0*5401b2e2
#BESTVELA,FILE,0,29.0,FINESTEERING,2319,307553.200,02000000,10a2,17139;SOL_COMPUTED,NARROW_INT,0.025,1.200,1.9164,168.401270,-0.0683,0*60ed7443
#BESTVELA,FILE,0,29.0,FINESTEERING,2319,307553.250,02000000,10a2,17139;SOL_COMPUTED,NARROW_INT,0.025,1.250,1.9312,168.134637,0.0795,0*e3eebd31
#BESTVELA,FILE,0,29.0,FINESTEERING,2319,307553.300,02000000,10a2,17139;SOL_COMPUTED,NARROW_INT,0.025,1.300,1.9240,167.392100,-0.0040,0*25c9568e
#BESTVELA,FILE,0,29.0,FINESTEERING,2319,307553.350,02000000,10a2,17139;SOL_COMPUTED,NARROW_INT,0.025,0.350,1.9177,165.815244,0.0358,0*8814d134
#BESTVELA,FILE,0,29.0,FINESTEERING,2319,307553.400,02000000,10a2,17139;SOL_COMPUTED,NARROW_INT,0.025,0.400,1.8970,166.592954,0.0364,0*fd414213
#BESTVELA,FILE,0,29.0,FINESTEERING,2319,307553.450,02000000,10a2,17139;SOL_COMPUTED,NARROW_INT,0.025,0.450,1.9140,165.299250,0.0378,0*b2c7ad6a
#BESTVELA,FILE,0,29.0,FINESTEERING,2319,307553.500,02000000,10a2,17139;SOL_COMPUTED,NARROW_INT,0.025,0.500,1.8482,164.465177,0.0030,0*7c5d2dae
#BESTVELA,FILE,0,29.0,FINESTEERING,2319,307553.550,02000000,10a2,17139;SOL_COMPUTED,NARROW_INT,0.025,0.550,1.8609,165.538345,-0.0430,0*c40e5bef
#BESTVELA,FILE,0,29.0,FINESTEERING,2319,307553.600,02000000,10a2,17139;SOL_COMPUTED,NARROW_INT,0.025,0.600,1.8560,165.383114,0.0193,0*dc9487a9
#BESTVELA,FILE,0,29.0,FINESTEERING,2319,307553.650,02000000,10a2,17139;SOL_COMPUTED,NARROW_INT,0.025,0.650,1.8643,164.508907,-0.0219,0*d89d50f6
#BESTVELA,FILE,0,29.0,FINESTEERING,2319,307553.700,02000000,10a2,17139;SOL_COMPUTED,NARROW_INT,0.025,0.700,1.8620,163.249798,-0.0459,0*00101354
#BESTVELA,FILE,0,29.0,FINESTEERING,2319,307553.750,02000000,10a2,17139;SOL_COMPUTED,NARROW_INT,0.025,0.750,1.8519,162.461439,0.0243,0*24f183e5
#BESTVELA,FILE,0,29.0,FINESTEERING,2319,307553.800,02000000,10a2,17139;SOL_COMPUTED,NARROW_INT,0.025,0.800,1.8259,162.179249,-0.0517,0*5b9654c9
#BESTVELA,FILE,0,29.0,FINESTEERING,2319,307553.850,02000000,10a2,17139;SOL_COMPUTED,NARROW_INT,0.025,0.850,1.8050,162.649981,-0.0983,0*77a7cf13
#BESTVELA,FILE,0,29.0,FINESTEERING,2319,307553.900,02000000,10a2,17139;SOL_COMPUTED,NARROW_INT,0.025,0.900,1.8083,161.708414,-0.0820,0*8e936978
#BESTVELA,FILE,0,29.0,FINESTEERING,2319,307553.950,02000000,10a2,17139;SOL_COMPUTED,NARROW_INT,0.025,0.950,1.8238,161.438677,-0.0458,0*89d9e624
#BESTVELA,FILE,0,29.0,FINESTEERING,2319,307554.000,02000000,10a2,17139;SOL_COMPUTED,NARROW_INT,0.025,1.000,1.8255,160.407479,-0.0408,0*012f29e6
#BESTVELA,FILE,0,29.0,FINESTEERING,2319,307554.050,02000000,10a2,17139;SOL_COMPUTED,NARROW_INT,0.025,1.050,1.8673,158.479829,-0.0389,0*378882e5
#BESTVELA,FILE,0,28.5,FINESTEERING,2319,307554.100,02000000,10a2,17139;SOL_COMPUTED,NARROW_INT,0.025,1.100,1.8699,156.956766,-0.0154,0*3b9da701
#BESTVELA,FILE,0,28.5,FINESTEERING,2319,307554.150,02000000,10a2,17139;SOL_COMPUTED,NARROW_INT,0.025,1.150,1.8674,155.533566,0.0014,0*e0e9b44a
#BESTVELA,FILE,0,28.5,FINESTEERING,2319,307554.200,02000000,10a2,17139;SOL_COMPUTED,NARROW_INT,0.025,1.200,1.8507,156.525168,-0.0347,0*7f4e277b
#BESTVELA,FILE,0,28.5,FINESTEERING,2319,307554.250,02000000,10a2,17139;SOL_COMPUTED,NARROW_INT,0.025,1.250,1.8846,154.349230,-0.0396,0*3048b40e
#BESTVELA,FILE,0,28.5,FINESTEERING,2319,307554.300,02000000,10a2,17139;SOL_COMPUTED,NARROW_INT,0.025,1.300,1.8501,153.905768,-0.0069,0*0229ea6c
#BESTVELA,FILE,0,28.5,FINESTEERING,2319,307554.350,02000000,10a2,17139;SOL_COMPUTED,NARROW_INT,0.025,1.350,1.8606,152.007664,-0.0516,0*355a2409
#BESTVELA,FILE,0,28.5,FINESTEERING,2319,307554.400,02000000,10a2,17139;SOL_COMPUTED,NARROW_INT,0.025,0.400,1.8595,151.421868,-0.0054,0*acbf9d4c
#BESTVELA,FILE,0,28.5,FINESTEERING,2319,307554.450,02000000,10a2,17139;SOL_COMPUTED,NARROW_INT,0.025,0.450,1.8148,150.443442,-0.0007,0*7181d3ae
#BESTVELA,FILE,0,28.5,FINESTEERING,2319,307554.500,02000000,10a2,17139;SOL_COMPUTED,NARROW_INT,0.025,0.500,1.8496,152.457254,-0.0701,0*fa53d098
#BESTVELA,FILE,0,28.5,FINESTEERING,2319,307554.550,02000000,10a2,17139;SOL_COMPUTED,NARROW_INT,0.025,0.550,1.8559,153.387003,-0.0517,0*0e8d7294
#BESTVELA,FILE,0,28.5,FINESTEERING,2319,307554.600,02000000,10a2,17139;SOL_COMPUTED,NARROW_INT,0.025,0.600,1.9035,151.817167,-0.0100,0*c63bb489
#BESTVELA,FILE,0,28.5,FINESTEERING,2319,307554.650,02000000,10a2,17139;SOL_COMPUTED,NARROW_INT,0.025,0.650,1.9314,150.293196,-0.0341,0*be319541
#BESTVELA,FILE,0,28.5,FINESTEERING,2319,307554.700,02000000,10a2,17139;SOL_COMPUTED,NARROW_INT,0.025,0.700,1.9495,149.103833,-0.0101,0*f2ba7e88
#BESTVELA,FILE,0,28.5,FINESTEERING,2319,307554.750,02000000,10a2,17139;SOL_COMPUTED,NARROW_INT,0.025,0.750,2.0091,149.459954,-0.0057,0*2357b654
#BESTVELA,FILE,0,28.5,FINESTEERING,2319,307554.800,02000000,10a2,17139;SOL_COMPUTED,NARROW_INT,0.025,0.800,2.0664,147.621327,-0.0528,0*864bfce9
#BESTVELA,FILE,0,28.5,FINESTEERING,2319,307554.850,02000000,10a2,17139;SOL_COMPUTED,NARROW_INT,0.025,0.850,2.0941,146.244414,0.0253,0*1ae6cd7a
#BESTVELA,FILE,0,28.5,FINESTEERING,2319,307554.900,02000000,10a2,17139;SOL_COMPUTED,NARROW_INT,0.025,0.900,2.1529,144.943011,-0.0083,0*04433fb6
#BESTVELA,FILE,0,28.5,FINESTEERING,2319,307554.950,02000000,10a2,17139;SOL_COMPUTED,NARROW_INT,0.025,0.950,2.1859,143.426380,0.0046,0*18fdb940
#BESTVELA,FILE,0,28.5,FINESTEERING,2319,307555.000,02000000,10a2,17139;SOL_COMPUTED,NARROW_INT,0.025,1.000,2.2158,142.880199,-0.0783,0*9a9547e0
#BESTVELA,FILE,0,28.5,FINESTEERING,2319,307555.050,02000000,10a2,17139;SOL_COMPUTED,NARROW_INT,0.025,1.050,2.2624,141.118396,-0.0022,0*35ef0e3b
#BESTVELA,FILE,0,28.5,FINESTEERING,2319,307555.100,02000000,10a2,17139;SOL_COMPUTED,NARROW_INT,0.025,1.100,2.3128,140.290638,-0.0734,0*26a531df
#BESTVELA,FILE,0,29.5,FINESTEERING,2319,307555.150,02000000,10a2,17139;SOL_COMPUTED,NARROW_INT,0.025,1.150,2.3652,140.207481,-0.0581,0*75ad0da2
#BESTVELA,FILE,0,29.5,FINESTEERING,2319,307555.200,02000000,10a2,17139;SOL_COMPUTED,NARROW_INT,0.025,1.200,2.4205,138.871473,-0.0370,0*74418d63
#BESTVELA,FILE,0,29.5,FINESTEERING,2319,307555.250,02000000,10a2,17139;SOL_COMPUTED,NARROW_INT,0.025,1.250,2.4751,138.181361,-0.0146,0*50498efc
#BESTVELA,FILE,0,29.5,FINESTEERING,2319,307555.300,02000000,10a2,17139;SOL_COMPUTED,NARROW_INT,0.025,1.300,2.5285,136.253019,0.0341,0*f06a612e
#BESTVELA,FILE,0,29.5,FINESTEERING,2319,307555.350,02000000,10a2,17139;SOL_COMPUTED,NARROW_INT,0.025,0.350,2.5601,133.680353,-0.0581,0*72ea7a65
#BESTVELA,FILE,0,29.5,FINESTEERING,2319,307555.400,02000000,10a2,17139;SOL_COMPUTED,NARROW_INT,0.025,0.400,2.5599,132.567152,-0.0124,0*f4cfbf0d
#BESTVELA,FILE,0,29.5,FINESTEERING,2319,307555.450,02000000,10a2,17139;SOL_COMPUTED,NARROW_INT,0.025,0.450,2.6365,131.303797,-0.0043,0*f9541a37
#BESTVELA,FILE,0,29.5,FINESTEERING,2319,307555.500,02000000,10a2,17139;SOL_COMPUTED,NARROW_INT,0.025,0.500,2.6890,130.028615,-0.0345,0*5c3f71d2
#BESTVELA,FILE,0,29.5,FINESTEERING,2319,307555.550,02000000,10a2,17139;SOL_COMPUTED,NARROW_INT,0.025,0.550,2.7375,129.784783,-0.0509,0*bb1912c0
#BESTVELA,FILE,0,29.5,FINESTEERING,2319,307555.600,02000000,10a2,17139;SOL_COMPUTED,NARROW_INT,0.025,0.600,2.7659,129.548553,-0.0127,0*76408098
#BESTVELA,FILE,0,29.5,FINESTEERING,2319,307555.650,02000000,10a2,17139;SOL_COMPUTED,NARROW_INT,0.025,0.650,2.8339,129.037082,-0.0826,0*38f6fb2d
#BESTVELA,FILE,0,29.5,FINESTEERING,2319,307555.700,02000000,10a2,17139;SOL_COMPUTED,NARROW_INT,0.025,0.700,2.8807,128.350228,-0.0770,0*a4d60354
#BESTVELA,FILE,0,29.5,FINESTEERING,2319,307555.750,02000000,10a2,17139;SOL_COMPUTED,NARROW_INT,0.025,0.750,2.9366,126.180631,-0.0683,0*042f547a
#BESTVELA,FILE,0,29.5,FINESTEERING,2319,307555.800,02000000,10a2,17139;SOL_COMPUTED,NARROW_INT,0.025,0.800,3.0367,124.638318,0.0008,0*4d209be4
#BESTVELA,FILE,0,29.5,FINESTEERING,2319,307555.850,02000000,10a2,17139;SOL_COMPUTED,NARROW_INT,0.025,0.850,3.0693,122.327613,0.0467,0*9cbbd62e
#BESTVELA,FILE,0,29.5,FINESTEERING,2319,307555.900,02000000,10a2,17139;SOL_COMPUTED,NARROW_INT,0.025,0.900,3.1182,120.878681,0.0043,0*dacdada5
#BESTVELA,FILE,0,29.5,FINESTEERING,2319,307555.950,02000000,10a2,17139;SOL_COMPUTED,NARROW_INT,0.025,0.950,3.1228,120.369134,0.0436,0*aa830173
#BESTVELA,FILE,0,29.5,FINESTEERING,2319,307556.000,02000000,10a2,17139;SOL_COMPUTED,NARROW_INT,0.025,1.000,3.1656,117.567128,0.0544,0*fe1f9016
#BESTVELA,FILE,0,29.5,FINESTEERING,2319,307556.050,02000000,10a2,17139;SOL_COMPUTED,NARROW_INT,0.025,1.050,3.2475,115.680712,0.0727,0*408ffc6f
#BESTVELA,FILE,0,29.5,FINESTEERING,2319,307556.100,02000000,10a2,17139;SOL_COMPUTED,NARROW_INT,0.025,1.100,3.2954,114.695023,0.1136,0*25f42cc3
#BESTVELA,FILE,0,29.5,FINESTEERING,2319,307556.150,02000000,10a2,17139;SOL_COMPUTED,NARROW_INT,0.025,1.150,3.3277,114.319582,0.0175,0*dffecaab
#BESTVELA,FILE,0,29.5,FINESTEERING,2319,307556.200,02000000,10a2,17139;SOL_COMPUTED,NARROW_INT,0.025,1.200,3.3486,113.584978,0.0342,0*576fb79a
#BESTVELA,FILE,0,29.5,FINESTEERING,2319,307556.250,02000000,10a2,17139;SOL_COMPUTED,NARROW_INT,0.025,1.250,3.3979,113.431010,0.0230,0*638d1bb2
#BESTVELA,FILE,0,29.5,FINESTEERING,2319,307556.300,02000000,10a2,17139;SOL_COMPUTED,NARROW_INT,0.025,1.300,3.3947,111.718462,-0.0087,0*b18a480a
#BESTVELA,FILE,0,29.5,FINESTEERING,2319,307556.350,02000000,10a2,17139;SOL_COMPUTED,NARROW_INT,0.025,0.350,3.4099,111.085849,0.0216,0*a1e8ccef
#BESTVELA,FILE,0,29.5,FINESTEERING,2319,307556.400,02000000,10a2,17139;SOL_COMPUTED,NARROW_INT,0.025,0.400,3.4728,110.257241,-0.0076,0*0090e43c
#BESTVELA,FILE,0,29.5,FINESTEERING,2319,307556.450,02000000,10a2,17139;SOL_COMPUTED,NARROW_INT,0.025,0.450,3.4514,107.939153,0.1948,0*ccc6cbd3
#BESTVELA,FILE,0,29.5,FINESTEERING,2319,307556.500,02000000,10a2,17139;SOL_COMPUTED,NARROW_INT,0.025,0.500,3.5532,109.122675,-0.0540,0*13f7b334
#BESTVELA,FILE,0,29.5,FINESTEERING,2319,307556.550,02000000,10a2,17139;SOL_COMPUTED,NARROW_INT,0.025,0.550,3.5729,107.044255,0.0475,0*90badba3
#BESTVELA,FILE,0,29.5,FINESTEERING,2319,307556.600,02000000,10a2,17139;SOL_COMPUTED,NARROW_INT,0.025,0.600,3.5702,107.190102,0.1143,0*feccd246
#BESTVELA,FILE,0,29.5,FINESTEERING,2319,307556.650,02000000,10a2,17139;SOL_COMPUTED,NARROW_INT,0.025,0.650,3.6088,106.174763,0.0367,0*c1a3c8e1
#BESTVELA,FILE,0,29.5,FINESTEERING,2319,307556.700,02000000,10a2,17139;SOL_COMPUTED,NARROW_INT,0.025,0.700,3.6397,104.734928,0.0058,0*4b6bdc66
#BESTVELA,FILE,0,29.5,FINESTEERING,2319,307556.750,02000000,10a2,17139;SOL_COMPUTED,NARROW_INT,0.025,0.750,3.6374,104.483722,0.0545,0*4f895828
#BESTVELA,FILE,0,29.5,FINESTEERING,2319,307556.800,02000000,10a2,17139;SOL_COMPUTED,NARROW_INT,0.025,0.800,3.6268,104.680117,0.0198,0*9f83544e
#BESTVELA,FILE,0,29.5,FINESTEERING,2319,307556.850,02000000,10a2,17139;SOL_COMPUTED,NARROW_INT,0.025,0.850,3.6501,104.483292,0.0767,0*d24b8e9d
#BESTVELA,FILE,0,29.5,FINESTEERING,2319,307556.900,02000000,10a2,17139;SOL_COMPUTED,NARROW_INT,0.025,0.900,3.6909,103.977020,0.0297,0*51ba27ab
#BESTVELA,FILE,0,29.5,FINESTEERING,2319,307556.950,02000000,10a2,17139;SOL_COMPUTED,NARROW_INT,0.025,0.950,3.7174,102.989451,0.0494,0*6fecd9f7
#BESTVELA,FILE,0,29.5,FINESTEERING,2319,307557.000,02000000,10a2,17139;SOL_COMPUTED,NARROW_INT,0.025,1.000,3.7136,102.704329,-0.0370,0*4a7b0598
#BESTVELA,FILE,0,29.5,FINESTEERING,2319,307557.050,02000000,10a2,17139;SOL_COMPUTED,NARROW_INT,0.025,1.050,3.7297,102.342104,0.0064,0*9792efb7
#BESTVELA,FILE,0,29.5,FINESTEERING,2319,307557.100,02000000,10a2,17139;SOL_COMPUTED,NARROW_INT,0.025,1.100,3.7569,101.686917,0.0248,0*2672c9fd
#BESTVELA,FILE,0,31.0,FINESTEERING,2319,307557.150,02000000,10a2,17139;SOL_COMPUTED,NARROW_INT,0.025,1.150,3.8368,101.425682,0.0159,0*06e2a98f
#BESTVELA,FILE,0,31.0,FINESTEERING,2319,307557.200,02000000,10a2,17139;SOL_COMPUTED,NARROW_INT,0.025,1.200,3.8859,100.690383,0.0617,0*ca751592
#BESTVELA,FILE,0,31.0,FINESTEERING,2319,307557.250,02000000,10a2,17139;SOL_COMPUTED,NARROW_INT,0.025,1.250,3.9005,100.552468,0.0941,0*125db0de
#BESTVELA,FILE,0,31.0,FINESTEERING,2319,307557.300,02000000,10a2,17139;SOL_COMPUTED,NARROW_INT,0.025,1.300,3.8895,99.921640,-0.0077,0*be2f164d
#BESTVELA,FILE,0,31.0,FINESTEERING,2319,307557.350,02000000,10a2,17139;SOL_COMPUTED,NARROW_INT,0.025,1.350,3.8638,99.077730,0.0178,0*69389def
#BESTVELA,FILE,0,31.0,FINESTEERING,2319,307557.400,02000000,10a2,17139;SOL_COMPUTED,NARROW_INT,0.025,1.400,3.8635,98.536532,0.0292,0*c3a94c62
#BESTVELA,FILE,0,31.0,FINESTEERING,2319,307557.450,02000000,10a2,17139;SOL_COMPUTED,NARROW_INT,0.025,1.450,3.8902,98.849694,0.0179,0*e6c14941
#BESTVELA,FILE,0,31.0,FINESTEERING,2319,307557.500,02000000,10a2,17139;SOL_COMPUTED,NARROW_INT,0.025,1.500,3.9135,98.123655,0.0337,0*7638a2a0
#BESTVELA,FILE,0,31.0,FINESTEERING,2319,307557.550,02000000,10a2,17139;SOL_COMPUTED,NARROW_INT,0.025,1.550,3.9486,98.202253,0.0474,0*3e737693
#BESTVELA,FILE,0,31.0,FINESTEERING,2319,307557.600,02000000,10a2,17139;SOL_COMPUTED,NARROW_INT,0.025,1.600,4.0253,97.734324,0.0439,0*33ae34f8
#BESTVELA,FILE,0,31.0,FINESTEERING,2319,307557.650,02000000,10a2,17139;SOL_COMPUTED,NARROW_INT,0.025,1.650,4.0816,97.679292,-0.0061,0*1a15620f
#BESTVELA,FILE,0,31.0,FINESTEERING,2319,307557.700,02000000,10a2,17139;SOL_COMPUTED,NARROW_INT,0.025,1.700,4.1368,98.167229,0.0891,0*890bd854
#BESTVELA,FILE,0,31.0,FINESTEERING,2319,307557.750,02000000,10a2,17139;SOL_COMPUTED,NARROW_INT,0.025,1.750,4.1504,97.950885,0.0461,0*b7c1e7cf
#BESTVELA,FILE,0,31.0,FINESTEERING,2319,307557.800,02000000,10a2,17139;SOL_COMPUTED,NARROW_INT,0.025,1.800,4.1073,98.460570,-0.0157,0*a259cc0a
#BESTVELA,FILE,0,31.0,FINESTEERING,2319,307557.850,02000000,10a2,17139;SOL_COMPUTED,NARROW_INT,0.025,1.850,4.1257,97.701052,-0.0123,0*316de69e
#BESTVELA,FILE,0,31.0,FINESTEERING,2319,307557.900,02000000,10a2,17139;SOL_COMPUTED,NARROW_INT,0.025,1.900,4.1822,97.329321,-0.0516,0*7d23c083
#BESTVELA,FILE,0,31.0,FINESTEERING,2319,307557.950,02000000,10a2,17139;SOL_COMPUTED,NARROW_INT,0.025,1.950,4.1882,96.682856,0.0206,0*35221faa
#BESTVELA,FILE,0,31.0,FINESTEERING,2319,307558.000,02000000,10a2,17139;SOL_COMPUTED,NARROW_INT,0.025,2.000,4.1936,95.981935,0.0746,0*a8bbb277
#BESTVELA,FILE,0,31.0,FINESTEERING,2319,307558.050,02000000,10a2,17139;SOL_COMPUTED,NARROW_INT,0.025,2.050,4.2102,95.161888,0.1445,0*7b22269b
#BESTVELA,FILE,0,29.0,FINESTEERING,2319,307558.100,02000000,10a2,17139;SOL_COMPUTED,NARROW_INT,0.025,2.100,4.2535,95.580369,0.1129,0*8a4b258e
#BESTVELA,FILE,0,29.0,FINESTEERING,2319,307558.150,02000000,10a2,17139;SOL_COMPUTED,NARROW_INT,0.025,2.150,4.2541,95.821442,0.0049,0*b7b31b36
#BESTVELA,FILE,0,29.0,FINESTEERING,2319,307558.200,02000000,10a2,17139;SOL_COMPUTED,NARROW_INT,0.025,2.200,4.2728,95.511804,0.0533,0*a0f4333c
#BESTVELA,FILE,0,29.0,FINESTEERING,2319,307558.250,02000000,10a2,17139;SOL_COMPUTED,NARROW_INT,0.025,2.250,4.2318,95.584215,-0.0038,0*5a12f10e
#BESTVELA,FILE,0,29.0,FINESTEERING,2319,307558.300,02000000,10a2,17139;SOL_COMPUTED,NARROW_INT,0.025,2.300,4.2214,95.259579,-0.0124,0*e3ceaee9
#BESTVELA,FILE,0,29.0,FINESTEERING,2319,307558.350,02000000,10a2,17139;SOL_COMPUTED,NARROW_INT,0.025,2.350,4.2691,94.347989,-0.0067,0*ad2d3403
#BESTVELA,FILE,0,29.0,FINESTEERING,2319,307558.400,02000000,10a2,17139;SOL_COMPUTED,NARROW_INT,0.025,2.400,4.2933,94.081064,-0.0174,0*c98c1c77
#BESTVELA,FILE,0,29.0,FINESTEERING,2319,307558.450,02000000,10a2,17139;SOL_COMPUTED,NARROW_INT,0.025,2.450,4.3418,93.779922,0.0558,0*75006a99
#BESTVELA,FILE,0,29.0,FINESTEERING,2319,307558.500,02000000,10a2,17139;SOL_COMPUTED,NARROW_INT,0.025,2.500,4.3792,94.726856,0.0815,0*ff19b9df
#BESTVELA,FILE,0,29.0,FINESTEERING,2319,307558.550,02000000,10a2,17139;SOL_COMPUTED,NARROW_INT,0.025,2.550,4.4608,94.862518,0.0919,0*14f3f7a7
#BESTVELA,FILE,0,29.0,FINESTEERING,2319,307558.600,02000000,10a2,17139;SOL_COMPUTED,NARROW_INT,0.025,2.600,4.5544,94.392746,0.1165,0*4487e288
#BESTVELA,FILE,0,29.0,FINESTEERING,2319,307558.650,02000000,10a2,17139;SOL_COMPUTED,NARROW_INT,0.025,2.650,4.5767,93.926143,0.1052,0*2436e53d
#BESTVELA,FILE,0,29.0,FINESTEERING,2319,307558.700,02000000,10a2,17139;SOL_COMPUTED,NARROW_INT,0.025,2.700,4.5974,93.634509,0.0953,0*93c7eae0
#BESTVELA,FILE,0,29.0,FINESTEERING,2319,307558.750,02000000,10a2,17139;SOL_COMPUTED,NARROW_INT,0.025,2.750,4.5578,92.892583,0.0895,0*8dd00396
#BESTVELA,FILE,0,29.0,FINESTEERING,2319,307558.800,02000000,10a2,17139;SOL_COMPUTED,NARROW_INT,0.025,2.800,4.5463,92.240961,0.0970,0*d32bfe2f
#BESTVELA,FILE,0,29.0,FINESTEERING,2319,307558.850,02000000,10a2,17139;SOL_COMPUTED,NARROW_INT,0.025,2.850,4.5829,91.858927,0.1365,0*ecfebab7
#BESTVELA,FILE,0,29.0,FINESTEERING,2319,307558.900,02000000,10a2,17139;SOL_COMPUTED,NARROW_INT,0.025,2.900,4.5688,90.733844,0.1769,0*ad1d4244
#BESTVELA,FILE,0,29.0,FINESTEERING,2319,307558.950,02000000,10a2,17139;SOL_COMPUTED,NARROW_INT,0.025,2.950,4.6132,90.145273,0.0787,0*0e00ff23
#BESTVELA,FILE,0,29.0,FINESTEERING,2319,307559.000,02000000,10a2,17139;SOL_COMPUTED,NARROW_INT,0.025,3.000,4.6072,91.021624,0.1305,0*b2c67702
#BESTVELA,FILE,0,29.0,FINESTEERING,2319,307559.050,02000000,10a2,17139;SOL_COMPUTED,NARROW_INT,0.025,3.050,4.6315,90.940605,0.0905,0*901b0228
#BESTVELA,FILE,0,29.0,FINESTEERING,2319,307559.100,02000000,10a2,17139;SOL_COMPUTED,NARROW_INT,0.025,3.100,4.6549,92.350664,0.0521,0*7bdceb94
#BESTVELA,FILE,0,34.5,FINESTEERING,2319,307559.150,02000000,10a2,17139;SOL_COMPUTED,NARROW_INT,0.025,3.150,4.5985,93.395645,-0.0211,0*0a8134b1
#BESTVELA,FILE,0,34.5,FINESTEERING,2319,307559.200,02000000,10a2,17139;SOL_COMPUTED,NARROW_INT,0.025,3.200,4.5925,93.082499,-0.0390,0*44703376
#BESTVELA,FILE,0,34.5,FINESTEERING,2319,307559.250,02000000,10a2,17139;SOL_COMPUTED,NARROW_INT,0.025,3.250,4.6333,92.798452,-0.0578,0*3f7b28ee
#BESTVELA,FILE,0,34.5,FINESTEERING,2319,307559.300,02000000,10a2,17139;SOL_COMPUTED,NARROW_INT,0.025,3.300,4.6569,91.942466,-0.0356,0*e3985340
#BESTVELA,FILE,0,34.5,FINESTEERING,2319,307559.350,02000000,10a2,17139;SOL_COMPUTED,NARROW_INT,0.025,0.350,4.7180,91.523458,0.0460,0*847f20ea
#BESTVELA,FILE,0,34.5,FINESTEERING,2319,307559.400,02000000,10a2,17139;SOL_COMPUTED,NARROW_INT,0.025,0.400,4.7428,90.595305,0.0707,0*4228e9f5
#BESTVELA,FILE,0,34.5,FINESTEERING,2319,307559.450,02000000,10a2,17139;SOL_COMPUTED,NARROW_INT,0.025,0.450,4.7845,89.198426,0.1066,0*d01a9577
#BESTVELA,FILE,0,34.5,FINESTEERING,2319,307559.500,02000000,10a2,17139;SOL_COMPUTED,NARROW_INT,0.025,0.500,4.8210,87.667254,0.1111,0*ddf22ea6
#BESTVELA,FILE,0,34.5,FINESTEERING,2319,307559.550,02000000,10a2,17139;SOL_COMPUTED,NARROW_INT,0.025,0.550,4.7885,87.831673,0.0931,0*62fb0c6f
#BESTVELA,FILE,0,34.5,FINESTEERING,2319,307559.600,02000000,10a2,17139;SOL_COMPUTED,NARROW_INT,0.025,0.600,4.7717,87.969303,0.0330,0*04a2bc92
#BESTVELA,FILE,0,34.5,FINESTEERING,2319,307559.650,02000000,10a2,17139;SOL_COMPUTED,NARROW_INT,0.025,0.650,4.7949,89.218477,0.0101,0*afa1c769
#BESTVELA,FILE,0,34.5,FINESTEERING,2319,307559.700,02000000,10a2,17139;SOL_COMPUTED,NARROW_INT,0.025,0.700,4.7815,89.391753,0.0306,0*34a57181
#BESTVELA,FILE,0,34.5,FINESTEERING,2319,307559.750,02000000,10a2,17139;SOL_COMPUTED,NARROW_INT,0.025,0.750,4.7802,90.481432,0.0347,0*d2862aea
#BESTVELA,FILE,0,34.5,FINESTEERING,2319,307559.800,02000000,10a2,17139;SOL_COMPUTED,NARROW_INT,0.025,0.800,4.7702,91.146018,0.0364,0*d593a7f9
#BESTVELA,FILE,0,34.5,FINESTEERING,2319,307559.850,02000000,10a2,17139;SOL_COMPUTED,NARROW_INT,0.025,0.850,4.7912,91.404788,0.0067,0*6fa1e364
#BESTVELA,FILE,0,34.5,FINESTEERING,2319,307559.900,02000000,10a2,17139;SOL_COMPUTED,NARROW_INT,0.025,0.900,4.8058,92.037295,-0.0146,0*74a3ccb9
#BESTVELA,FILE,0,34.5,FINESTEERING,2319,307559.950,02000000,10a2,17139;SOL_COMPUTED,NARROW_INT,0.025,0.950,4.8147,90.219941,0.0013,0*945228bc
#BESTVELA,FILE,0,34.5,FINESTEERING,2319,307560.000,02000000,10a2,17139;SOL_COMPUTED,NARROW_INT,0.025,1.000,4.8950,88.260472,0.0716,0*a0a544cc
#BESTVELA,FILE,0,34.5,FINESTEERING,2319,307560.050,02000000,10a2,17139;SOL_COMPUTED,NARROW_INT,0.025,1.050,4.9098,87.657492,-0.0320,0*d8c71782
#BESTVELA,FILE,0,33.0,FINESTEERING,2319,307560.100,02000000,10a2,17139;SOL_COMPUTED,NARROW_INT,0.025,1.100,4.9724,87.634528,0.0087,0*d34a47a2
#BESTVELA,FILE,0,33.0,FINESTEERING,2319,307560.150,02000000,10a2,17139;SOL_COMPUTED,NARROW_INT,0.025,1.150,5.0101,87.805443,0.0797,0*7342fbe2
#BESTVELA,FILE,0,33.0,FINESTEERING,2319,307560.200,02000000,10a2,17139;SOL_COMPUTED,NARROW_INT,0.025,1.200,5.0277,87.467180,0.0705,0*2a03fd32
#BESTVELA,FILE,0,33.0,FINESTEERING,2319,307560.250,02000000,10a2,17139;SOL_COMPUTED,NARROW_INT,0.025,1.250,4.9435,87.090597,0.0467,0*b01a19cb
#BESTVELA,FILE,0,33.0,FINESTEERING,2319,307560.300,02000000,10a2,17139;SOL_COMPUTED,NARROW_INT,0.025,1.300,4.8839,88.845021,0.0489,0*6426b4ba
#BESTVELA,FILE,0,33.0,FINESTEERING,2319,307560.350,02000000,10a2,17139;SOL_COMPUTED,NARROW_INT,0.025,1.350,4.9292,90.090892,0.1027,0*8ce70a44
#BESTVELA,FILE,0,33.0,FINESTEERING,2319,307560.400,02000000,10a2,17139;SOL_COMPUTED,NARROW_INT,0.025,1.400,4.9742,90.626983,0.1845,0*2f134916
#BESTVELA,FILE,0,33.0,FINESTEERING,2319,307560.450,02000000,10a2,17139;SOL_COMPUTED,NARROW_INT,0.025,1.450,4.9527,89.525348,0.0656,0*c6e278b6
#BESTVELA,FILE,0,33.0,FINESTEERING,2319,307560.500,02000000,10a2,17139;SOL_COMPUTED,NARROW_INT,0.025,1.500,5.0018,88.557352,0.0442,0*a3dd6a2e
#BESTVELA,FILE,0,33.0,FINESTEERING,2319,307560.550,02000000,10a2,17139;SOL_COMPUTED,NARROW_INT,0.025,1.550,5.0495,88.945961,-0.0371,0*3ea08005
#BESTVELA,FILE,0,33.0,FINESTEERING,2319,307560.600,02000000,10a2,17139;SOL_COMPUTED,NARROW_INT,0.025,1.600,5.0121,89.236741,-0.1026,0*ecf74e5e
#BESTVELA,FILE,0,33.0,FINESTEERING,2319,307560.650,02000000,10a2,17139;SOL_COMPUTED,NARROW_INT,0.025,1.650,5.0343,88.290489,-0.0735,0*37a145f8
#BESTVELA,FILE,0,33.0,FINESTEERING,2319,307560.700,02000000,10a2,17139;SOL_COMPUTED,NARROW_INT,0.025,1.700,5.0116,87.906064,-0.1831,0*25abe9cd
#BESTVELA,FILE,0,33.0,FINESTEERING,2319,307560.750,02000000,10a2,17139;SOL_COMPUTED,NARROW_INT,0.025,1.750,5.0782,86.769690,0.0410,0*d91828f3
#BESTVELA,FILE,0,33.0,FINESTEERING,2319,307560.800,02000000,10a2,17139;SOL_COMPUTED,NARROW_INT,0.025,1.800,5.1521,87.626616,0.1487,0*dacc0c00
#BESTVELA,FILE,0,33.0,FINESTEERING,2319,307560.850,02000000,10a2,17139;SOL_COMPUTED,NARROW_INT,0.025,1.850,5.1524,88.235453,0.1580,0*f18732a6
#BESTVELA,FILE,0,33.0,FINESTEERING,2319,307560.900,02000000,10a2,17139;SOL_COMPUTED,NARROW_INT,0.025,1.900,5.1377,88.879178,0.2146,0*c61de203
#BESTVELA,FILE,0,33.0,FINESTEERING,2319,307560.950,02000000,10a2,17139;SOL_COMPUTED,NARROW_INT,0.025,1.950,5.0753,88.344487,0.0916,0*10777cd0
#BESTVELA,FILE,0,33.0,FINESTEERING,2319,307561.000,02000000,10a2,17139;SOL_COMPUTED,NARROW_INT,0.025,2.000,5.0646,87.694851,-0.0209,0*98fbd0dc
#BESTVELA,FILE,0,33.0,FINESTEERING,2319,307561.050,02000000,10a2,17139;SOL_COMPUTED,NARROW_INT,0.025,2.050,5.0788,86.990035,0.0047,0*e0e343cc
#BESTVELA,FILE,0,29.5,FINESTEERING,2319,307561.100,02000000,10a2,17139;SOL_COMPUTED,NARROW_INT,0.025,2.100,5.0655,87.346852,-0.0450,0*eb8d9d6d
#BESTVELA,FILE,0,29.5,FINESTEERING,2319,307561.150,02000000,10a2,17139;SOL_COMPUTED,NARROW_INT,0.025,2.150,5.1105,87.903619,-0.1684,0*22257339
#BESTVELA,FILE,0,29.5,FINESTEERING,2319,307561.200,02000000,10a2,17139;SOL_COMPUTED,NARROW_INT,0.025,2.200,5.1325,88.141712,-0.0840,0*e97ab74f
#BESTVELA,FILE,0,29.5,FINESTEERING,2319,307561.250,02000000,10a2,17139;SOL_COMPUTED,NARROW_INT,0.025,1.250,5.1682,87.769750,-0.0598,0*35e3255e
#BESTVELA,FILE,0,29.5,FINESTEERING,2319,307561.300,02000000,10a2,17139;SOL_COMPUTED,NARROW_INT,0.025,1.300,5.2011,87.765933,0.0282,0*e65a7d98
#BESTVELA,FILE,0,29.5,FINESTEERING,2319,307561.350,02000000,10a2,17139;SOL_COMPUTED,NARROW_INT,0.025,1.350,5.2592,87.761418,0.0250,0*c6e2c7c2
#BESTVELA,FILE,0,29.5,FINESTEERING,2319,307561.400,02000000,10a2,17139;SOL_COMPUTED,NARROW_INT,0.025,1.400,5.2953,87.572227,0.0868,0*0610341a
#BESTVELA,FILE,0,29.5,FINESTEERING,2319,307561.450,02000000,10a2,17139;SOL_COMPUTED,NARROW_INT,0.025,1.450,5.2804,86.842166,0.1388,0*e05e9ee8
#BESTVELA,FILE,0,29.5,FINESTEERING,2319,307561.500,02000000,10a2,17139;SOL_COMPUTED,NARROW_INT,0.025,1.500,5.2487,86.844259,0.1086,0*fbd32151
#BESTVELA,FILE,0,29.5,FINESTEERING,2319,307561.550,02000000,10a2,17139;SOL_COMPUTED,NARROW_INT,0.025,1.550,5.2404,86.949139,0.0448,0*80fe0dc4
#BESTVELA,FILE,0,29.5,FINESTEERING,2319,307561.600,02000000,10a2,17139;SOL_COMPUTED,NARROW_INT,0.025,1.600,5.2249,87.003417,-0.0076,0*89e2282c
#BESTVELA,FILE,0,29.5,FINESTEERING,2319,307561.650,02000000,10a2,17139;SOL_COMPUTED,NARROW_INT,0.025,1.650,5.2615,86.785755,0.0049,0*5953010a
#BESTVELA,FILE,0,29.5,FINESTEERING,2319,307561.700,02000000,10a2,17139;SOL_COMPUTED,NARROW_INT,0.025,1.700,5.2694,87.167266,-0.0972,0*ffa5ee09
#BESTVELA,FILE,0,29.5,FINESTEERING,2319,307561.750,02000000,10a2,17139;SOL_COMPUTED,NARROW_INT,0.025,1.750,5.3056,87.057731,-0.0455,0*c7f7688e
#BESTVELA,FILE,0,29.5,FINESTEERING,2319,307561.800,02000000,10a2,17139;SOL_COMPUTED,NARROW_INT,0.025,1.800,5.3702,87.215937,0.0017,0*3d79222d
#BESTVELA,FILE,0,29.5,FINESTEERING,2319,307561.850,02000000,10a2,17139;SOL_COMPUTED,NARROW_INT,0.025,1.850,5.4027,87.619343,0.0027,0*c7dd5794
#BESTVELA,FILE,0,29.5,FINESTEERING,2319,307561.900,02000000,10a2,17139;SOL_COMPUTED,NARROW_INT,0.025,1.900,5.4636,87.526847,0.1004,0*980fa726
#BESTVELA,FILE,0,29.5,FINESTEERING,2319,307561.950,02000000,10a2,17139;SOL_COMPUTED,NARROW_INT,0.025,1.950,5.4764,87.374877,0.0750,0*3098201a
#BESTVELA,FILE,0,29.5,FINESTEERING,2319,307562.000,02000000,10a2,17139;SOL_COMPUTED,NARROW_INT,0.025,2.000,5.5134,87.573463,0.0523,0*699a5100
#BESTVELA,FILE,0,29.5,FINESTEERING,2319,307562.050,02000000,10a2,17139;SOL_COMPUTED,NARROW_INT,0.025,2.050,5.4913,87.018377,0.1035,0*8fc88d48
#BESTVELA,FILE,0,29.5,FINESTEERING,2319,307562.100,02000000,10a2,17139;SOL_COMPUTED,NARROW_INT,0.025,2.100,5.4794,86.501117,0.0861,0*679a7d53
#BESTVELA,FILE,0,32.5,FINESTEERING,2319,307562.150,02000000,10a2,17139;SOL_COMPUTED,NARROW_INT,0.025,2.150,5.4968,86.422969,0.0221,0*4ba3f445
#BESTVELA,FILE,0,32.5,FINESTEERING,2319,307562.200,02000000,10a2,17139;SOL_COMPUTED,NARROW_INT,0.025,2.200,5.5104,86.078085,-0.0226,0*3f7a4088
#BESTVELA,FILE,0,32.5,FINESTEERING,2319,307562.250,02000000,10a2,17139;SOL_COMPUTED,NARROW_INT,0.025,2.250,5.5037,86.088237,0.0219,0*5633bacd
#BESTVELA,FILE,0,32.5,FINESTEERING,2319,307562.300,02000000,10a2,17139;SOL_COMPUTED,NARROW_INT,0.025,2.300,5.5087,86.509091,-0.0310,0*bcf329a6
#BESTVELA,FILE,0,32.5,FINESTEERING,2319,307562.350,02000000,10a2,17139;SOL_COMPUTED,NARROW_INT,0.025,2.350,5.5600,86.755686,-0.0922,0*475a0121
#BESTVELA,FILE,0,32.5,FINESTEERING,2319,307562.400,02000000,10a2,17139;SOL_COMPUTED,NARROW_INT,0.025,2.400,5.5826,86.592874,-0.0071,0*ea69f3ba
#BESTVELA,FILE,0,32.5,FINESTEERING,2319,307562.450,02000000,10a2,17139;SOL_COMPUTED,NARROW_INT,0.025,2.450,5.6081,86.792743,-0.0201,0*44b739e0
#BESTVELA,FILE,0,32.5,FINESTEERING,2319,307562.500,02000000,10a2,17139;SOL_COMPUTED,NARROW_INT,0.025,2.500,5.6363,86.471794,0.0053,0*c6ee7e26
#BESTVELA,FILE,0,32.5,FINESTEERING,2319,307562.550,02000000,10a2,17139;SOL_COMPUTED,NARROW_INT,0.025,2.550,5.6247,86.471715,-0.0005,0*a92f441e
#BESTVELA,FILE,0,32.5,FINESTEERING,2319,307562.600,02000000,10a2,17139;SOL_COMPUTED,NARROW_INT,0.025,2.600,5.6258,86.280535,0.0520,0*3eff10a6
#BESTVELA,FILE,0,32.5,FINESTEERING,2319,307562.650,02000000,10a2,17139;SOL_COMPUTED,NARROW_INT,0.025,2.650,5.6275,86.163386,0.0612,0*94e2f06d
#BESTVELA,FILE,0,32.5,FINESTEERING,2319,307562.700,02000000,10a2,17139;SOL_COMPUTED,NARROW_INT,0.025,2.700,5.6333,85.818868,-0.0193,0*dfda6be9
#BESTVELA,FILE,0,32.5,FINESTEERING,2319,307562.750,02000000,10a2,17139;SOL_COMPUTED,NARROW_INT,0.025,2.750,5.6796,85.650932,-0.0399,0*9d331af6
#BESTVELA,FILE,0,32.5,FINESTEERING,2319,307562.800,02000000,10a2,17139;SOL_COMPUTED,NARROW_INT,0.025,2.800,5.6594,85.798070,0.0092,0*908be028
#BESTVELA,FILE,0,32.5,FINESTEERING,2319,307562.850,02000000,10a2,17139;SOL_COMPUTED,NARROW_INT,0.025,2.850,5.6875,85.928659,-0.0126,0*c0e18fbd
#BESTVELA,FILE,0,32.5,FINESTEERING,2319,307562.900,02000000,10a2,17139;SOL_COMPUTED,NARROW_INT,0.025,2.900,5.6649,86.332420,-0.0654,0*a2d9eec5
#BESTVELA,FILE,0,32.5,FINESTEERING,2319,307562.950,02000000,10a2,17139;SOL_COMPUTED,NARROW_INT,0.025,2.950,5.7146,86.179870,0.0142,0*1db5ccbd
#BESTVELA,FILE,0,32.5,FINESTEERING,2319,307563.000,02000000,10a2,17139;SOL_COMPUTED,NARROW_INT,0.025,3.000,5.7579,86.136779,0.0238,0*f6785824
#BESTVELA,FILE,0,32.5,FINESTEERING,2319,307563.050,02000000,10a2,17139;SOL_COMPUTED,NARROW_INT,0.025,3.050,5.7521,85.906357,0.0442,0*b24f6d72
#BESTVELA,FILE,0,31.5,FINESTEERING,2319,307563.100,02000000,10a2,17139;SOL_COMPUTED,NARROW_INT,0.025,3.100,5.7885,85.789383,0.1645,0*4439a36d
#BESTVELA,FILE,0,31.5,FINESTEERING,2319,307563.150,02000000,10a2,17139;SOL_COMPUTED,NARROW_INT,0.025,3.150,5.7708,86.179119,0.0632,0*117a6ee7
#BESTVELA,FILE,0,31.5,FINESTEERING,2319,307563.200,02000000,10a2,17139;SOL_COMPUTED,NARROW_INT,0.025,3.200,5.7598,86.147734,0.0269,0*d8b50852
#BESTVELA,FILE,0,31.5,FINESTEERING,2319,307563.250,02000000,10a2,17139;SOL_COMPUTED,NARROW_INT,0.025,2.250,5.7325,86.352421,0.0330,0*dff0dc6d
#BESTVELA,FILE,0,31.5,FINESTEERING,2319,307563.300,02000000,10a2,17139;SOL_COMPUTED,NARROW_INT,0.025,2.300,5.7180,86.757023,-0.0214,0*698aa134
#BESTVELA,FILE,0,31.5,FINESTEERING,2319,307563.350,02000000,10a2,17139;SOL_COMPUTED,NARROW_INT,0.025,2.350,5.7119,86.302305,0.0141,0*766730f7
#BESTVELA,FILE,0,31.5,FINESTEERING,2319,307563.400,02000000,10a2,17139;SOL_COMPUTED,NARROW_INT,0.025,2.400,5.6815,85.914181,-0.0338,0*5b4669a3
#BESTVELA,FILE,0,31.5,FINESTEERING,2319,307563.450,02000000,10a2,17139;SOL_COMPUTED,NARROW_INT,0.025,2.450,5.6699,86.644158,-0.0769,0*5807613f
#BESTVELA,FILE,0,31.5,FINESTEERING,2319,307563.500,02000000,10a2,17139;SOL_COMPUTED,NARROW_INT,0.025,2.500,5.6767,86.044381,-0.0297,0*37280ae1
#BESTVELA,FILE,0,31.5,FINESTEERING,2319,307563.550,02000000,10a2,17139;SOL_COMPUTED,NARROW_INT,0.025,2.550,5.6896,86.357449,0.0101,0*7ae4ca81
#BESTVELA,FILE,0,31.5,FINESTEERING,2319,307563.600,02000000,10a2,17139;SOL_COMPUTED,NARROW_INT,0.025,2.600,5.6465,86.082543,-0.0149,0*6ae5018e
#BESTVELA,FILE,0,31.5,FINESTEERING,2319,307563.650,02000000,10a2,17139;SOL_COMPUTED,NARROW_INT,0.025,2.650,5.6449,85.770159,0.0420,0*8d3ff612
#BESTVELA,FILE,0,31.5,FINESTEERING,2319,307563.700,02000000,10a2,17139;SOL_COMPUTED,NARROW_INT,0.025,2.700,5.6386,85.878619,0.0551,0*4e556d03
#BESTVELA,FILE,0,31.5,FINESTEERING,2319,307563.750,02000000,10a2,17139;SOL_COMPUTED,NARROW_INT,0.025,2.750,5.6028,86.852131,-0.0290,0*f0b93745
#BESTVELA,FILE,0,31.5,FINESTEERING,2319,307563.800,02000000,10a2,17139;SOL_COMPUTED,NARROW_INT,0.025,2.800,5.6030,85.708242,0.1100,0*2ce70364
#BESTVELA,FILE,0,31.5,FINESTEERING,2319,307563.850,02000000,10a2,17139;SOL_COMPUTED,NARROW_INT,0.025,2.850,5.5745,86.364075,0.0009,0*46de9052
#BESTVELA,FILE,0,31.5,FINESTEERING,2319,307563.900,02000000,10a2,17139;SOL_COMPUTED,NARROW_INT,0.025,2.900,5.5866,86.594870,0.0138,0*ededdc0c
#BESTVELA,FILE,0,31.5,FINESTEERING,2319,307563.950,02000000,10a2,17139;SOL_COMPUTED,NARROW_INT,0.025,2.950,5.6200,86.573500,-0.0037,0*1a3c87da
#BESTVELA,FILE,0,31.5,FINESTEERING,2319,307564.000,02000000,10a2,17139;SOL_COMPUTED,NARROW_INT,0.025,3.000,5.6109,85.817950,-0.0025,0*bb712a5c
#BESTVELA,FILE,0,31.5,FINESTEERING,2319,307564.050,02000000,10a2,17139;SOL_COMPUTED,NARROW_INT,0.025,3.050,5.6008,85.222775,-0.0310,0*fb0ec1e6
#BESTVELA,FILE,0,27.0,FINESTEERING,2319,307564.100,02000000,10a2,17139;SOL_COMPUTED,NARROW_INT,0.025,3.100,5.6468,85.859787,0.0035,0*f21f9aa6
#BESTVELA,FILE,0,27.0,FINESTEERING,2319,307564.150,02000000,10a2,17139;SOL_COMPUTED,NARROW_INT,0.025,3.150,5.6359,85.972415,0.0397,0*fb42e3ec
#BESTVELA,FILE,0,27.0,FINESTEERING,2319,307564.200,02000000,10a2,17139;SOL_COMPUTED,NARROW_INT,0.025,1.200,5.6358,86.116811,-0.0169,0*705fe2dd
#BESTVELA,FILE,0,27.0,FINESTEERING,2319,307564.250,02000000,10a2,17139;SOL_COMPUTED,NARROW_INT,0.025,1.250,5.6831,85.889344,0.1015,0*1cbdcf2f
#BESTVELA,FILE,0,27.0,FINESTEERING,2319,307564.300,02000000,10a2,17139;SOL_COMPUTED,NARROW_INT,0.025,1.300,5.6342,86.803178,0.0229,0*431a4b48
#BESTVELA,FILE,0,27.0,FINESTEERING,2319,307564.350,02000000,10a2,17139;SOL_COMPUTED,NARROW_INT,0.025,1.350,5.6459,86.412285,0.0202,0*d7dd5ace
#BESTVELA,FILE,0,27.0,FINESTEERING,2319,307564.400,02000000,10a2,17139;SOL_COMPUTED,NARROW_INT,0.025,1.400,5.6474,86.133133,-0.0043,0*fabcc357
#BESTVELA,FILE,0,27.0,FINESTEERING,2319,307564.450,02000000,10a2,17139;SOL_COMPUTED,NARROW_INT,0.025,1.450,5.6086,85.494500,-0.0151,0*e9d1fdf7
#BESTVELA,FILE,0,27.0,FINESTEERING,2319,307564.500,02000000,10a2,17139;SOL_COMPUTED,NARROW_INT,0.025,1.500,5.5858,85.641807,-0.0442,0*c4481428
#BESTVELA,FILE,0,27.0,FINESTEERING,2319,307564.550,02000000,10a2,17139;SOL_COMPUTED,NARROW_INT,0.025,1.550,5.6109,86.074226,-0.0014,0*3fd0c877
#BESTVELA,FILE,0,27.0,FINESTEERING,2319,307564.600,02000000,10a2,17139;SOL_COMPUTED,NARROW_INT,0.025,1.600,5.6139,86.678663,0.0393,0*e2476151
#BESTVELA,FILE,0,27.0,FINESTEERING,2319,307564.650,02000000,10a2,17139;SOL_COMPUTED,NARROW_INT,0.025,1.650,5.6231,86.572222,0.0287,0*5d10ffed
#BESTVELA,FILE,0,27.0,FINESTEERING,2319,307564.700,02000000,10a2,17139;SOL_COMPUTED,NARROW_INT,0.025,1.700,5.6354,86.463200,-0.0187,0*f88e62e8
#BESTVELA,FILE,0,27.0,FINESTEERING,2319,307564.750,02000000,10a2,17139;SOL_COMPUTED,NARROW_INT,0.025,1.750,5.6460,86.077693,0.0490,0*7cdd4276
#BESTVELA,FILE,0,27.0,FINESTEERING,2319,307564.800,02000000,10a2,17139;SOL_COMPUTED,NARROW_INT,0.025,1.800,5.6515,86.182086,0.0325,0*ac879729
#BESTVELA,FILE,0,27.0,FINESTEERING,2319,307564.850,02000000,10a2,17139;SOL_COMPUTED,NARROW_INT,0.025,1.850,5.6313,86.490672,0.0891,0*a8697981
#BESTVELA,FILE,0,27.0,FINESTEERING,2319,307564.900,02000000,10a2,17139;SOL_COMPUTED,NARROW_INT,0.025,1.900,5.6297,86.534783,0.0283,0*efa4c5c8
#BESTVELA,FILE,0,27.0,FINESTEERING,2319,307564.950,02000000,10a2,17139;SOL_COMPUTED,NARROW_INT,0.025,1.950,5.6139,86.565874,0.0425,0*5ef9a96f
#BESTVELA,FILE,0,27.0,FINESTEERING,2319,307565.000,02000000,10a2,17139;SOL_COMPUTED,NARROW_INT,0.025,2.000,5.6624,86.487372,0.0308,0*a675776d
#BESTVELA,FILE,0,27.0,FINESTEERING,2319,307565.050,02000000,10a2,17139;SOL_COMPUTED,NARROW_INT,0.025,2.050,5.6758,86.180097,0.0489,0*1ef1906c
#BESTVELA,FILE,0,27.0,FINESTEERING,2319,307565.100,02000000,10a2,17139;SOL_COMPUTED,NARROW_INT,0.025,2.100,5.6770,86.441209,0.0580,0*9e9c1a68
#BESTVELA,FILE,0,28.0,FINESTEERING,2319,307565.150,02000000,10a2,17139;SOL_COMPUTED,NARROW_INT,0.025,2.150,5.7380,86.185267,0.0025,0*92db53ed
#BESTVELA,FILE,0,28.0,FINESTEERING,2319,307565.200,02000000,10a2,17139;SOL_COMPUTED,NARROW_INT,0.025,2.200,5.6871,87.007699,0.0544,0*f8535a62
#BESTVELA,FILE,0,28.0,FINESTEERING,2319,307565.250,02000000,10a2,17139;SOL_COMPUTED,NARROW_INT,0.025,1.250,5.6829,87.303219,0.0429,0*6d4f21b7
#BESTVELA,FILE,0,28.0,FINESTEERING,2319,307565.300,02000000,10a2,17139;SOL_COMPUTED,NARROW_INT,0.025,1.300,5.6971,87.501206,0.1223,0*d7af7bb9
#BESTVELA,FILE,0,28.0,FINESTEERING,2319,307565.350,02000000,10a2,17139;SOL_COMPUTED,NARROW_INT,0.025,1.350,5.6726,87.107816,0.1007,0*4884b47c
#BESTVELA,FILE,0,28.0,FINESTEERING,2319,307565.400,02000000,10a2,17139;SOL_COMPUTED,NARROW_INT,0.025,0.400,5.6403,87.629964,0.0524,0*03b976bf
#BESTVELA,FILE,0,28.0,FINESTEERING,2319,307565.450,02000000,10a2,17139;SOL_COMPUTED,NARROW_INT,0.025,0.450,5.6219,87.889505,0.0458,0*c30de53b
#BESTVELA,FILE,0,28.0,FINESTEERING,2319,307565.500,02000000,10a2,17139;SOL_COMPUTED,NARROW_INT,0.025,0.500,5.5893,87.154348,0.0575,0*658b9b40
#BESTVELA,FILE,0,28.0,FINESTEERING,2319,307565.550,02000000,10a2,17139;SOL_COMPUTED,NARROW_INT,0.025,0.550,5.6157,88.012220,-0.0121,0*640d88c2
#BESTVELA,FILE,0,28.0,FINESTEERING,2319,307565.600,02000000,10a2,17139;SOL_COMPUTED,NARROW_INT,0.025,0.600,5.6032,87.285979,-0.0942,0*5055bff2
#BESTVELA,FILE,0,28.0,FINESTEERING,2319,307565.650,02000000,10a2,17139;SOL_COMPUTED,NARROW_INT,0.025,0.650,5.6131,87.296740,-0.0280,0*acfa8684
#BESTVELA,FILE,0,28.0,FINESTEERING,2319,307565.700,02000000,10a2,17139;SOL_COMPUTED,NARROW_INT,0.025,0.700,5.6783,87.777638,0.0514,0*6a4d1900
#BESTVELA,FILE,0,28.0,FINESTEERING,2319,307565.750,02000000,10a2,17139;SOL_COMPUTED,NARROW_INT,0.025,0.750,5.6991,87.945649,0.0589,0*589296c8
#BESTVELA,FILE,0,28.0,FINESTEERING,2319,307565.800,02000000,10a2,17139;SOL_COMPUTED,NARROW_INT,0.025,0.800,5.7853,88.201373,0.0692,0*d16a73fc
#BESTVELA,FILE,0,28.0,FINESTEERING,2319,307565.850,02000000,10a2,17139;SOL_COMPUTED,NARROW_INT,0.025,0.850,5.7762,88.221070,0.1040,0*35a2792a
#BESTVELA,FILE,0,28.0,FINESTEERING,2319,307565.900,02000000,10a2,17139;SOL_COMPUTED,NARROW_INT,0.025,0.900,5.7863,88.457470,0.1076,0*f82b3a9e
#BESTVELA,FILE,0,28.0,FINESTEERING,2319,307565.950,02000000,10a2,17139;SOL_COMPUTED,NARROW_INT,0.025,0.950,5.7427,88.822617,0.0484,0*11bd0268
#BESTVELA,FILE,0,28.0,FINESTEERING,2319,307566.000,02000000,10a2,17139;SOL_COMPUTED,NARROW_INT,0.025,1.000,5.7067,88.350452,0.1133,0*b8626576
#BESTVELA,FILE,0,28.0,FINESTEERING,2319,307566.050,02000000,10a2,17139;SOL_COMPUTED,NARROW_INT,0.025,1.050,5.6745,87.232515,0.0934,0*56f8567d
#BESTVELA,FILE,0,28.0,FINESTEERING,2319,307566.100,02000000,10a2,17139;SOL_COMPUTED,NARROW_INT,0.025,1.100,5.6378,86.898609,0.0572,0*ab7c89ff
#BESTVELA,FILE,0,29.0,FINESTEERING,2319,307566.150,02000000,10a2,17139;SOL_COMPUTED,NARROW_INT,0.025,1.150,5.6120,89.236997,-0.0782,0*507244ea
#BESTVELA,FILE,0,29.0,FINESTEERING,2319,307566.200,02000000,10a2,17139;SOL_COMPUTED,NARROW_INT,0.025,1.200,5.6359,88.677217,0.0115,0*a40bcd80
#BESTVELA,FILE,0,29.0,FINESTEERING,2319,307566.250,02000000,10a2,17139;SOL_COMPUTED,NARROW_INT,0.025,1.250,5.6681,89.464751,-0.0556,0*078c7e6c
#BESTVELA,FILE,0,29.0,FINESTEERING,2319,307566.300,02000000,10a2,17139;SOL_COMPUTED,NARROW_INT,0.025,1.300,5.6690,89.087272,-0.0243,0*19c71e1a
#BESTVELA,FILE,0,29.0,FINESTEERING,2319,307566.350,02000000,10a2,17139;SOL_COMPUTED,NARROW_INT,0.025,1.350,5.6586,89.338087,-0.0558,0*5b262747
#BESTVELA,FILE,0,29.0,FINESTEERING,2319,307566.400,02000000,10a2,17139;SOL_COMPUTED,NARROW_INT,0.025,1.400,5.6691,89.925616,-0.0033,0*6381c760
#BESTVELA,FILE,0,29.0,FINESTEERING,2319,307566.450,02000000,10a2,17139;SOL_COMPUTED,NARROW_INT,0.025,1.450,5.6990,89.043336,0.1248,0*3ca1f105
#BESTVELA,FILE,0,29.0,FINESTEERING,2319,307566.500,02000000,10a2,17139;SOL_COMPUTED,NARROW_INT,0.025,1.500,5.6860,89.253400,0.1555,0*36adb49d
#BESTVELA,FILE,0,29.0,FINESTEERING,2319,307566.550,02000000,10a2,17139;SOL_COMPUTED,NARROW_INT,0.025,1.550,5.6606,89.139774,0.1024,0*b14481cb
#BESTVELA,FILE,0,29.0,FINESTEERING,2319,307566.600,02000000,10a2,17139;SOL_COMPUTED,NARROW_INT,0.025,1.600,5.5990,89.008362,0.0707,0*740d5f96
#BESTVELA,FILE,0,29.0,FINESTEERING,2319,307566.650,02000000,10a2,17139;SOL_COMPUTED,NARROW_INT,0.025,1.650,5.5390,89.156693,0.0468,0*47b0af21
#BESTVELA,FILE,0,29.0,FINESTEERING,2319,307566.700,02000000,10a2,17139;SOL_COMPUTED,NARROW_INT,0.025,1.700,5.5019,89.719317,0.0003,0*ce0d6193
#BESTVELA,FILE,0,29.0,FINESTEERING,2319,307566.750,02000000,10a2,17139;SOL_COMPUTED,NARROW_INT,0.025,1.750,5.4620,90.009014,-0.0913,0*abc11917
#BESTVELA,FILE,0,29.0,FINESTEERING,2319,307566.800,02000000,10a2,17139;SOL_COMPUTED,NARROW_INT,0.025,1.800,5.4297,89.839407,-0.0303,0*deee5028
#BESTVELA,FILE,0,29.0,FINESTEERING,2319,307566.850,02000000,10a2,17139;SOL_COMPUTED,NARROW_INT,0.025,1.850,5.4453,89.684686,-0.0896,0*37910692
#BESTVELA,FILE,0,29.0,FINESTEERING,2319,307566.900,02000000,10a2,17139;SOL_COMPUTED,NARROW_INT,0.025,1.900,5.4090,88.772459,-0.0784,0*a7199f12
#BESTVELA,FILE,0,29.0,FINESTEERING,2319,307566.950,02000000,10a2,17139;SOL_COMPUTED,NARROW_INT,0.025,1.950,5.3905,89.697630,-0.0100,0*ae57dbd7
#BESTVELA,FILE,0,29.0,FINESTEERING,2319,307567.000,02000000,10a2,17139;SOL_COMPUTED,NARROW_INT,0.025,2.000,5.4054,89.181158,0.0570,0*a3d7d5b3
#BESTVELA,FILE,0,29.0,FINESTEERING,2319,307567.050,02000000,10a2,17139;SOL_COMPUTED,NARROW_INT,0.025,2.050,5.4087,89.742782,0.0807,0*acf78143
#BESTVELA,FILE,0,27.0,FINESTEERING,2319,307567.100,02000000,10a2,17139;SOL_COMPUTED,NARROW_INT,0.025,2.100,5.4640,89.709061,0.0233,0*7bd9a5b1
#BESTVELA,FILE,0,27.0,FINESTEERING,2319,307567.150,02000000,10a2,17139;SOL_COMPUTED,NARROW_INT,0.025,2.150,5.3659,89.711329,0.0936,0*e69f5fc9
#BESTVELA,FILE,0,27.0,FINESTEERING,2319,307567.200,02000000,10a2,17139;SOL_COMPUTED,NARROW_INT,0.025,2.200,5.3176,89.203563,0.1349,0*ddfc2a7c
#BESTVELA,FILE,0,27.0,FINESTEERING,2319,307567.250,02000000,10a2,17139;SOL_COMPUTED,NARROW_INT,0.025,2.250,5.2849,89.772496,0.0325,0*83fe974f
#BESTVELA,FILE,0,27.0,FINESTEERING,2319,307567.300,02000000,10a2,17139;SOL_COMPUTED,NARROW_INT,0.025,2.300,5.2745,89.585801,0.0544,0*bed93093
#BESTVELA,FILE,0,27.0,FINESTEERING,2319,307567.350,02000000,10a2,17139;SOL_COMPUTED,NARROW_INT,0.025,2.350,5.2239,89.548457,0.0536,0*2b56dc3b
#BESTVELA,FILE,0,27.0,FINESTEERING,2319,307567.400,02000000,10a2,17139;SOL_COMPUTED,NARROW_INT,0.025,0.400,5.1945,89.367555,0.0288,0*40601995
#BESTVELA,FILE,0,27.0,FINESTEERING,2319,307567.450,02000000,10a2,17139;SOL_COMPUTED,NARROW_INT,0.025,0.450,5.1812,88.962378,-0.0137,0*7484e3bc
#BESTVELA,FILE,0,27.0,FINESTEERING,2319,307567.500,02000000,10a2,17139;SOL_COMPUTED,NARROW_INT,0.025,0.500,5.1497,88.507696,-0.0216,0*bc429e0e
#BESTVELA,FILE,0,27.0,FINESTEERING,2319,307567.550,02000000,10a2,17139;SOL_COMPUTED,NARROW_INT,0.025,0.550,5.1560,89.024633,-0.0046,0*1431e77e
#BESTVELA,FILE,0,27.0,FINESTEERING,2319,307567.600,02000000,10a2,17139;SOL_COMPUTED,NARROW_INT,0.025,0.600,5.1406,88.421783,-0.0016,0*0e772bc9
#BESTVELA,FILE,0,27.0,FINESTEERING,2319,307567.650,02000000,10a2,17139;SOL_COMPUTED,NARROW_INT,0.025,0.650,5.1216,88.635226,0.0277,0*68b6c121
#BESTVELA,FILE,0,27.0,FINESTEERING,2319,307567.700,02000000,10a2,17139;SOL_COMPUTED,NARROW_INT,0.025,0.700,5.0943,89.348911,-0.0480,0*4eb3fcf6
#BESTVELA,FILE,0,27.0,FINESTEERING,2319,307567.750,02000000,10a2,17139;SOL_COMPUTED,NARROW_INT,0.025,0.750,5.0735,89.239414,0.1018,0*e1460904
#BESTVELA,FILE,0,27.0,FINESTEERING,2319,307567.800,02000000,10a2,17139;SOL_COMPUTED,NARROW_INT,0.025,0.800,5.0478,89.607247,0.1435,0*8e4eb6a8
#BESTVELA,FILE,0,27.0,FINESTEERING,2319,307567.850,02000000,10a2,17139;SOL_COMPUTED,NARROW_INT,0.025,0.850,4.9971,89.795026,0.1530,0*f371dae1
#BESTVELA,FILE,0,27.0,FINESTEERING,2319,307567.900,02000000,10a2,17139;SOL_COMPUTED,NARROW_INT,0.025,0.900,4.9803,89.131647,0.0653,0*b2074f19
#BESTVELA,FILE,0,27.0,FINESTEERING,2319,307567.950,02000000,10a2,17139;SOL_COMPUTED,NARROW_INT,0.025,0.950,4.9994,88.918816,0.0389,0*7e3024e1
#BESTVELA,FILE,0,27.0,FINESTEERING,2319,307568.000,02000000,10a2,17139;SOL_COMPUTED,NARROW_INT,0.025,1.000,4.8986,87.222466,-0.0014,0*59608f6c
#BESTVELA,FILE,0,27.0,FINESTEERING,2319,307568.050,02000000,10a2,17139;SOL_COMPUTED,NARROW_INT,0.025,1.050,4.9296,87.287401,-0.0040,0*bda31a16
#BESTVELA,FILE,0,27.0,FINESTEERING,2319,307568.100,02000000,10a2,17139;SOL_COMPUTED,NARROW_INT,0.025,1.100,4.9035,88.032311,-0.0052,0*7d65d02a
#BESTVELA,FILE,0,31.5,FINESTEERING,2319,307568.150,02000000,10a2,17139;SOL_COMPUTED,NARROW_INT,0.025,1.150,4.8208,87.785688,0.0334,0*9377ecf3
#BESTVELA,FILE,0,31.5,FINESTEERING,2319,307568.200,02000000,10a2,17139;SOL_COMPUTED,NARROW_INT,0.025,1.200,4.8465,88.828086,-0.0227,0*25c06cbe
#BESTVELA,FILE,0,31.5,FINESTEERING,2319,307568.250,02000000,10a2,17139;SOL_COMPUTED,NARROW_INT,0.025,1.250,4.8045,88.405158,0.0393,0*915d3c79
#BESTVELA,FILE,0,31.5,FINESTEERING,2319,307568.300,02000000,10a2,17139;SOL_COMPUTED,NARROW_INT,0.025,1.300,4.8025,88.747321,-0.0139,0*ae2929e2
#BESTVELA,FILE,0,31.5,FINESTEERING,2319,307568.350,02000000,10a2,17139;SOL_COMPUTED,NARROW_INT,0.025,1.350,4.7474,89.084916,0.1232,0*1e49e4eb
#BESTVELA,FILE,0,31.5,FINESTEERING,2319,307568.400,02000000,10a2,17139;SOL_COMPUTED,NARROW_INT,0.025,0.400,4.7737,88.716771,-0.0201,0*52eb26c3
#BESTVELA,FILE,0,31.5,FINESTEERING,2319,307568.450,02000000,10a2,17139;SOL_COMPUTED,NARROW_INT,0.025,0.450,4.7044,88.590100,0.0096,0*0dd1eccf
#BESTVELA,FILE,0,31.5,FINESTEERING,2319,307568.500,02000000,10a2,17139;SOL_COMPUTED,NARROW_INT,0.025,0.500,4.6659,88.922967,-0.0232,0*fe01a680
#BESTVELA,FILE,0,31.5,FINESTEERING,2319,307568.550,02000000,10a2,17139;SOL_COMPUTED,NARROW_INT,0.025,0.550,4.6596,88.301805,0.0295,0*858ee27a
#BESTVELA,FILE,0,31.5,FINESTEERING,2319,307568.600,02000000,10a2,17139;SOL_COMPUTED,NARROW_INT,0.025,0.600,4.6071,88.354555,-0.0356,0*155f9311
#BESTVELA,FILE,0,31.5,FINESTEERING,2319,307568.650,02000000,10a2,17139;SOL_COMPUTED,NARROW_INT,0.025,0.650,4.6081,88.351640,0.0453,0*f36a0d47
#BESTVELA,FILE,0,31.5,FINESTEERING,2319,307568.700,02000000,10a2,17139;SOL_COMPUTED,NARROW_INT,0.025,0.700,4.6191,88.288998,-0.0784,0*cb93b599
#BESTVELA,FILE,0,31.5,FINESTEERING,2319,307568.750,02000000,10a2,17139;SOL_COMPUTED,NARROW_INT,0.025,0.750,4.6499,88.079689,-0.0139,0*07444238
#BESTVELA,FILE,0,31.5,FINESTEERING,2319,307568.800,02000000,10a2,17139;SOL_COMPUTED,NARROW_INT,0.025,0.800,4.6492,87.610738,0.0267,0*219b76b7
#BESTVELA,FILE,0,31.5,FINESTEERING,2319,307568.850,02000000,10a2,17139;SOL_COMPUTED,NARROW_INT,0.025,0.850,4.6404,87.936687,0.0114,0*7533f92a
#BESTVELA,FILE,0,31.5,FINESTEERING,2319,307568.900,02000000,10a2,17139;SOL_COMPUTED,NARROW_INT,0.025,0.900,4.6772,88.043112,0.0201,0*ff2e98e0
