#CORRIMUDATAA,FILE,0,31.5,FINESTEERING,2319,307546.400,02000800,e5fc,17139;2319,307546.400000000,0.0000145620081850,-0.0001974433015317,0.0000007448411715,-0.0003912041343998,-0.0002281617627560,0.0002677418257692*b1257407
#CORRIMUDATAA,FILE,0,31.5,FINESTEERING,2319,307546.500,02000800,e5fc,17139;2319,307546.500000000,0.0000463880223642,-0.0000699039135469,-0.0000655826202181,0.0027034417875035,-0.0007326951915096,0.0003244958192120*83672bfc
#CORRIMUDATAA,FILE,0,31.5,FINESTEERING,2319,307546.600,02000800,e5fc,17139;2319,307546.600000000,0.0000109633219937,0.0001055975822097,0.0000234490846728,0.0024849330893042,0.0010109587961970,0.0001903582183538*62597c9a
#CORRIMUDATAA,FILE,0,31.5,FINESTEERING,2319,307546.700,02000800,e5fc,17139;2319,307546.700000000,-0.0000356095885385,0.0000865894985021,0.0000510986084354,-0.0037014716880268,0.0004267265794238,0.0001662900775670*7c304fb9
#CORRIMUDATAA,FILE,0,31.5,FINESTEERING,2319,307546.800,02000800,e5fc,17139;2319,307546.800000000,-0.0000345099098455,-0.0000863448805726,-0.0000253543435958,-0.0014423345458253,-0.0005564015751109,-0.0006803545191081*3225852c
#CORRIMUDATAA,FILE,0,31.5,FINESTEERING,2319,307546.900,02000800,e5fc,17139;2319,307546.900000000,0.0000409822113624,-0.0000676961851092,-0.0000244043318848,0.0026325270428578,-0.0006874457000977,-0.0000679566365440*7fa55f49
#CORRIMUDATAA,FILE,0,31.5,FINESTEERING,2319,307547.000,02000800,e5fc,17139;2319,307547.000000000,0.0000388698778914,0.0000271196212286,0.0000274564577422,0.0012737598400530,0.0009675326199084,-0.0001262613885022*e7fd93a4
#CORRIMUDATAA,FILE,0,31.5,FINESTEERING,2319,307547.100,02000800,e5fc,17139;2319,307547.100000000,-0.0000525726650705,0.0000663058047038,-0.0000076519872006,-0.0025928916452199,-0.0003373469766636,-0.0002164889453369*c0876d68
#CORRIMUDATAA,FILE,0,34.5,FINESTEERING,2319,307547.150,02000800,e5fc,17139;2319,307547.150000000,-0.0000291019053459,0.0000883041954916,-0.0000168966197678,-0.0009999835815576,-0.0004346482326659,-0.0043872782839375*356d2000
#CORRIMUDATAA,FILE,0,34.5,FINESTEERING,2319,307547.250,02000800,e5fc,17139;2319,307547.250000000,0.0000080543053012,-0.0000285945836958,0.0000287548140254,0.0003098261062959,0.0015363520027688,0.0023857168139889*da507133
#CORRIMUDATAA,FILE,0,34.5,FINESTEERING,2319,307547.350,02000800,e5fc,17139;2319,307547.350000000,-0.0000393007368467,-0.0000596374231556,-0.0000087993359083,-0.0004186199884123,-0.0027109103654312,0.0005047464833937*050fa5b6
#CORRIMUDATAA,FILE,0,34.5,FINESTEERING,2319,307547.450,02000800,e5fc,17139;2319,307547.450000000,-0.0000027237056326,0.0000057423558985,-0.0000238745514216,0.0012431983748881,0.0009751324524483,-0.0021096490968166*4e1f7e47
#CORRIMUDATAA,FILE,0,34.5,FINESTEERING,2319,307547.550,02000800,e5fc,17139;2319,307547.550000000,0.0000497684171178,0.0000402001830341,0.0000270913879847,0.0003729373425972,0.0009961005256531,0.0002237596391185*cea6f0ab
#CORRIMUDATAA,FILE,0,34.5,FINESTEERING,2319,307547.650,02000800,e5fc,17139;2319,307547.650000000,-0.0000252203712824,0.0000118411621129,0.0000041168610257,-0.0017368032360557,-0.0009518694354696,0.0013201430351197*64eaa64d
#CORRIMUDATAA,FILE,0,34.5,FINESTEERING,2319,307547.750,02000800,e5fc,17139;2319,307547.750000000,-0.0000203483322900,-0.0000401991592698,-0.0000196100134065,0.0001496809585874,0.0001955641670041,-0.0007894202783616*4d48d330
#CORRIMUDATAA,FILE,0,34.5,FINESTEERING,2319,307547.850,02000800,e5fc,17139;2319,307547.850000000,0.0000158505139944,-0.0000114382663518,0.0000020974527544,0.0007334614010868,-0.0003621642735277,0.0002158203695759*a633497b
#CORRIMUDATAA,FILE,0,34.5,FINESTEERING,2319,307547.950,02000800,e5fc,17139;2319,307547.950000000,0.0000006773438539,0.0000174876553408,0.0000182852899238,0.0001732956392488,0.0014104789525725,-0.0005000052327710*03fbb5b6
#CORRIMUDATAA,FILE,0,34.5,FINESTEERING,2319,307548.050,02000800,e5fc,17139;2319,307548.050000000,-0.0000442910314025,0.0000381042273128,0.0000194784066541,0.0000187039092321,-0.0015512134288886,0.0009928779602133*0bf43bd3
#CORRIMUDATAA,FILE,0,32.0,FINESTEERING,2319,307548.150,02000800,e5fc,17139;2319,307548.150000000,0.0000650523492700,-0.0000559457019554,-0.0000396996515815,-0.0025236806136472,-0.0016047792539341,-0.0002611097902908*fc8e183a
#CORRIMUDATAA,FILE,0,32.0,FINESTEERING,2319,307548.250,02000800,e5fc,17139;2319,307548.250000000,0.0000490440055087,-0.0000995831607333,0.0000077619508649,0.0021184136858901,0.0037780901529020,-0.0015783392505443*b4747deb
#CORRIMUDATAA,FILE,0,32.0,FINESTEERING,2319,307548.350,02000800,e5fc,17139;2319,307548.350000000,-0.0001004855902609,0.0000005091142348,0.0000071540333827,-0.0003693821278051,-0.0000452959130696,0.0004797097854062*2642468f
#CORRIMUDATAA,FILE,0,32.0,FINESTEERING,2319,307548.400,02000800,e5fc,17139;2319,307548.400000000,-0.0000794523830385,0.0000949176779088,-0.0000332990705796,0.0005593299698590,-0.0028633118550404,0.0004550195285186*00bbeea1
#CORRIMUDATAA,FILE,0,32.0,FINESTEERING,2319,307548.500,02000800,e5fc,17139;2319,307548.500000000,0.0000633053858012,0.0000486488727035,0.0000034843880300,0.0016604040931288,-0.0015935904050469,-0.0014673406330912*320f1965
#CORRIMUDATAA,FILE,0,32.0,FINESTEERING,2319,307548.600,02000800,e5fc,17139;2319,307548.600000000,0.0001758329864383,-0.0000249135463754,0.0000171101030333,-0.0040785465165763,0.0021897240889578,-0.0061866672010314*e516e093
#CORRIMUDATAA,FILE,0,32.0,FINESTEERING,2319,307548.700,02000800,e5fc,17139;2319,307548.700000000,0.0005933742590298,-0.0000495210103236,-0.0001616764880627,-0.0010927930388773,0.0124434028705474,-0.0024433275730024*b806feba
#CORRIMUDATAA,FILE,0,32.0,FINESTEERING,2319,307548.800,02000800,e5fc,17139;2319,307548.800000000,0.0004459113165380,-0.0002053346420210,-0.0000540264977490,0.0047803349618989,0.0106333163011208,0.0065504088336506*a27caacf
#CORRIMUDATAA,FILE,0,32.0,FINESTEERING,2319,307548.900,02000800,e5fc,17139;2319,307548.900000000,0.0003930592988497,-0.0000437690046181,-0.0000564401911532,-0.0006797117959026,0.0206136362152372,0.0064199903451233*b7252c2f
#CORRIMUDATAA,FILE,0,32.0,FINESTEERING,2319,307549.000,02000800,e5fc,17139;2319,307549.000000000,-0.0002217652372265,0.0000589155627799,-0.0001382517083901,0.0012445751160147,0.0076634513451867,0.0106824250004313*7db89fc9
#CORRIMUDATAA,FILE,0,32.0,FINESTEERING,2319,307549.100,02000800,e5fc,17139;2319,307549.100000000,-0.0002861089291034,0.0001093856851974,-0.0001283695948754,-0.0004146486075128,0.0152450914435893,-0.0056104403066623*b5d8b825
#CORRIMUDATAA,FILE,0,32.0,FINESTEERING,2319,307549.200,02000800,e5fc,17139;2319,307549.200000000,0.0002093596255324,-0.0000420669005111,-0.0002884109489126,-0.0013752091496390,0.0185433576969762,-0.0058399992158529*c627c069
#CORRIMUDATAA,FILE,0,32.0,FINESTEERING,2319,307549.300,02000800,e5fc,17139;2319,307549.300000000,0.0003024791164580,-0.0000638744180770,-0.0003208889979382,0.0026338855039617,0.0194065870029191,-0.0003806626227362*0900c660
#CORRIMUDATAA,FILE,0,32.0,FINESTEERING,2319,307549.400,02000800,e5fc,17139;2319,307549.400000000,0.0003796255161701,0.0000207383291042,-0.0003467397995802,0.0013727390560266,0.0292701555571451,-0.0012478314725504*4f3dff56
#CORRIMUDATAA,FILE,0,32.0,FINESTEERING,2319,307549.500,02000800,e5fc,17139;2319,307549.500000000,0.0001808775294020,0.0000119948305589,-0.0004206676882494,-0.0002852455112263,0.0263035185333550,0.0052608747138910*89901067
#CORRIMUDATAA,FILE,0,32.0,FINESTEERING,2319,307549.600,02000800,e5fc,17139;2319,307549.600000000,0.0002323736971676,-0.0000311200385659,-0.0005810529023405,0.0003140391361841,0.0360534892016719,-0.0005300881768852*b042bd5f
#CORRIMUDATAA,FILE,0,32.0,FINESTEERING,2319,307549.650,02000800,e5fc,17139;2319,307549.650000000,0.0002896708529424,0.0000080287278954,-0.0006671974631807,-0.0000723793513080,0.0383161339942037,-0.0014518941397458*7ae9e3ac
#CORRIMUDATAA,FILE,0,32.0,FINESTEERING,2319,307549.750,02000800,e5fc,17139;2319,307549.750000000,0.0003673790141651,0.0000384078601481,-0.0007153978217340,0.0031717230836197,0.0393703147464598,-0.0008000348971877*47f8114a
#CORRIMUDATAA,FILE,0,32.0,FINESTEERING,2319,307549.850,02000800,e5fc,17139;2319,307549.850000000,0.0004567523276851,-0.0001013513344984,-0.0007777772331963,0.0019034933074807,0.0455001813643821,-0.0009601750071150*c65f81b0
#CORRIMUDATAA,FILE,0,32.0,FINESTEERING,2319,307549.950,02000800,e5fc,17139;2319,307549.950000000,0.0003422184057078,-0.0000010119824127,-0.0009904396728827,-0.0004908842965342,0.0452385971041197,0.0018316594051789*f92bb15a
#CORRIMUDATAA,FILE,0,32.0,FINESTEERING,2319,307550.000,02000800,e5fc,17139;2319,307550.000000000,0.0002454437945696,0.0001169379333225,-0.0010947765029672,0.0015955838732265,0.0455576463055534,0.0031316176492578*21ca6476
#CORRIMUDATAA,FILE,0,32.0,FINESTEERING,2319,307550.050,02000800,e5fc,17139;2319,307550.050000000,0.0002031198108251,0.0001581761463562,-0.0011652936596038,0.0027180869258211,0.0472356309231134,0.0002316531241509*a8e7753c
#CORRIMUDATAA,FILE,0,32.0,FINESTEERING,2319,307550.100,02000800,e5fc,17139;2319,307550.100000000,0.0002278259001475,0.0001824272667219,-0.0012285249282087,0.0028760964603538,0.0485369511542178,-0.0001852051402192*dec63764
#CORRIMUDATAA,FILE,0,33.0,FINESTEERING,2319,307550.150,02000800,e5fc,17139;2319,307550.150000000,0.0002301327117640,0.0001992914988014,-0.0012513336759234,0.0037922918621054,0.0469167836492017,0.0025153829593890*5ad95b9a
#CORRIMUDATAA,FILE,0,33.0,FINESTEERING,2319,307550.200,02000800,e5fc,17139;2319,307550.200000000,0.0002937465563632,0.0000775429512946,-0.0012935464820372,0.0008005171538589,0.0464091562181669,0.0020618640516135*19ec9363
#CORRIMUDATAA,FILE,0,33.0,FINESTEERING,2319,307550.250,02000800,e5fc,17139;2319,307550.250000000,0.0002573624455598,0.0001354420201031,-0.0013443796480728,0.0004902097929439,0.0462213456161785,0.0003311032892086*22b8450e
#CORRIMUDATAA,FILE,0,33.0,FINESTEERING,2319,307550.300,02000800,e5fc,17139;2319,307550.300000000,0.0002391731206498,0.0001371011740812,-0.0013874478788891,0.0027537461358756,0.0469740569309464,-0.0002773368537846*0261ad1e
#CORRIMUDATAA,FILE,0,33.0,FINESTEERING,2319,307550.350,02000800,e5fc,17139;2319,307550.350000000,0.0002459335766941,0.0000244714991680,-0.0013901445101015,0.0032449069955389,0.0461663923718430,-0.0004274507551505*b2a54a5b
#CORRIMUDATAA,FILE,0,33.0,FINESTEERING,2319,307550.400,02000800,e5fc,17139;2319,307550.400000000,0.0003384420635130,0.0000639711800791,-0.0014184371317213,0.0013204394366528,0.0459355192734190,-0.0010149860578491*3252f323
#CORRIMUDATAA,FILE,0,33.0,FINESTEERING,2319,307550.450,02000800,e5fc,17139;2319,307550.450000000,0.0004175448237786,0.0002217358605986,-0.0014535554721755,0.0017153879433538,0.0462443028544703,-0.0009055384582245*4fb5f6c2
#CORRIMUDATAA,FILE,0,33.0,FINESTEERING,2319,307550.500,02000000,e5fc,17139;2319,307550.500000000,0.0005219232895588,0.0002488991959359,-0.0014613661453718,0.0051293352335937,0.0470333451233355,-0.0012246747549426*a2514323
#CORRIMUDATAA,FILE,0,33.0,FINESTEERING,2319,307550.550,02000000,e5fc,17139;2319,307550.550000000,0.0005385437226411,0.0001880934650527,-0.0014257937577656,0.0056055693919816,0.0476319112380422,-0.0005982494250088*993c6fbf
#CORRIMUDATAA,FILE,0,33.0,FINESTEERING,2319,307550.600,02000000,e5fc,17139;2319,307550.600000000,0.0005198702408853,0.0002253688959196,-0.0013908485084335,0.0038011807127668,0.0478931956725157,0.0009791845059471*2602d961
#CORRIMUDATAA,FILE,0,33.0,FINESTEERING,2319,307550.650,02000000,e5fc,17139;2319,307550.650000000,0.0004583161040008,0.0003502304801906,-0.0013599208078581,0.0029383296645389,0.0468914523887782,0.0008608017232880*d6d2497a
#CORRIMUDATAA,FILE,0,33.0,FINESTEERING,2319,307550.700,02000000,e5fc,17139;2319,307550.700000000,0.0004311130166294,0.0002979124275351,-0.0013551905420654,0.0022450769745069,0.0472120140967088,0.0033615379046655*347666ff
#CORRIMUDATAA,FILE,0,33.0,FINESTEERING,2319,307550.750,02000000,e5fc,17139;2319,307550.750000000,0.0003807870592616,0.0000998416194653,-0.0014039020886952,-0.0000176071994969,0.0495596428375877,0.0015014269369632*25bea400
#CORRIMUDATAA,FILE,0,33.0,FINESTEERING,2319,307550.800,02000000,e5fc,17139;2319,307550.800000000,0.0002572400878177,-0.0001802761655676,-0.0014430181098208,0.0005191548369081,0.0508748304107714,-0.0010859006262899*5ff926b0
#CORRIMUDATAA,FILE,0,33.0,FINESTEERING,2319,307550.850,02000000,e5fc,17139;2319,307550.850000000,0.0000760081589294,-0.0004078286121818,-0.0013506226648792,0.0042059768865234,0.0518931894301093,-0.0035762826201822*2b970efb
#CORRIMUDATAA,FILE,0,33.0,FINESTEERING,2319,307550.900,02000000,e5fc,17139;2319,307550.900000000,-0.0000869178071432,-0.0006984143136307,-0.0011588899104062,0.0063232691030617,0.0507251558804868,-0.0053713778342750*95861e4f
#CORRIMUDATAA,FILE,0,33.0,FINESTEERING,2319,307550.950,02000000,e5fc,17139;2319,307550.950000000,-0.0000660785534512,-0.0009739466347067,-0.0009737166709939,0.0034742748247089,0.0511022699660437,-0.0050473259797563*e6166a32
#CORRIMUDATAA,FILE,0,33.0,FINESTEERING,2319,307551.000,02000000,e5fc,17139;2319,307551.000000000,-0.0000546613241963,-0.0008729489661394,-0.0009071541103408,-0.0002880783730782,0.0506780866129696,-0.0016564284762308*9617916b
#CORRIMUDATAA,FILE,0,33.0,FINESTEERING,2319,307551.050,02000000,e5fc,17139;2319,307551.050000000,0.0000339228815732,-0.0006401043337582,-0.0009030370748869,0.0010369060055112,0.0499339147053675,-0.0017473056732162*30d466ec
#CORRIMUDATAA,FILE,0,28.0,FINESTEERING,2319,307551.100,02000000,e5fc,17139;2319,307551.100000000,0.0001919050977024,-0.0003929496551077,-0.0008880162332636,0.0059700628844163,0.0473808322534963,0.0009322823655269*441a565b
#CORRIMUDATAA,FILE,0,28.0,FINESTEERING,2319,307551.150,02000000,e5fc,17139;2319,307551.150000000,0.0002882390746581,-0.0001405762380215,-0.0007903237570645,0.0081337660210927,0.0462748376559091,0.0030062368020059*53b8dad2
#CORRIMUDATAA,FILE,0,28.0,FINESTEERING,2319,307551.200,02000000,e5fc,17139;2319,307551.200000000,0.0003091236068261,0.0000270802109838,-0.0006466512929428,0.0085194365084349,0.0427588489424768,0.0040781253550237*bc2bf32d
#CORRIMUDATAA,FILE,0,28.0,FINESTEERING,2319,307551.250,02000000,e5fc,17139;2319,307551.250000000,0.0001920197200028,0.0000268566959424,-0.0004655352109165,0.0053438612978125,0.0352502852283749,0.0053449846914667*26c040ec
#CORRIMUDATAA,FILE,0,28.0,FINESTEERING,2319,307551.300,02000000,e5fc,17139;2319,307551.300000000,0.0000490350288583,0.0001244973953339,-0.0002639964912214,0.0019409866362697,0.0306617904387932,0.0033644101828001*a823472c
#CORRIMUDATAA,FILE,0,28.0,FINESTEERING,2319,307551.350,02000000,e5fc,17139;2319,307551.350000000,0.0002018906813216,0.0004150534266158,-0.0000593197195507,0.0029559363062108,0.0277122305502019,-0.0019654994875120*4144310c
#CORRIMUDATAA,FILE,0,28.0,FINESTEERING,2319,307551.400,02000000,e5fc,17139;2319,307551.400000000,0.0005334626688634,0.0005681246146611,0.0001685425528990,0.0035687441991373,0.0272517982773344,-0.0066004512080562*ff805f2a
#CORRIMUDATAA,FILE,0,28.0,FINESTEERING,2319,307551.450,02000000,e5fc,17139;2319,307551.450000000,0.0008680988895413,0.0005150640927534,0.0003035313626250,0.0017325600862279,0.0264001515954932,-0.0055854570615364*409676c9
#CORRIMUDATAA,FILE,0,28.0,FINESTEERING,2319,307551.500,02000000,e5fc,17139;2319,307551.500000000,0.0009515737053387,0.0002427908690146,0.0004080200760958,-0.0020322328565975,0.0218124211360054,0.0010006476743880*286595a3
#CORRIMUDATAA,FILE,0,28.0,FINESTEERING,2319,307551.550,02000000,e5fc,17139;2319,307551.550000000,0.0007431107544021,-0.0000023637728747,0.0005258914694431,-0.0068825617707041,0.0169608540641259,0.0082863009318529*92db793b
#CORRIMUDATAA,FILE,0,28.0,FINESTEERING,2319,307551.600,02000000,e5fc,17139;2319,307551.600000000,0.0004797453049013,-0.0000013436492818,0.0006908365928812,-0.0051219558948819,0.0146742193275445,0.0086015375888771*070fb085
#CORRIMUDATAA,FILE,0,28.0,FINESTEERING,2319,307551.650,02000000,e5fc,17139;2319,307551.650000000,0.0001285085541707,-0.0000258020913463,0.0009709110081169,-0.0009732300734443,0.0094208539511034,0.0085074133770421*07e64f57
#CORRIMUDATAA,FILE,0,28.0,FINESTEERING,2319,307551.700,02000000,e5fc,17139;2319,307551.700000000,-0.0000652995115334,-0.0002603896339931,0.0012796889296833,0.0025254802409920,0.0064934866795989,0.0067499069896879*c0721812
#CORRIMUDATAA,FILE,0,28.0,FINESTEERING,2319,307551.750,02000000,e5fc,17139;2319,307551.750000000,-0.0003825739071633,-0.0004470960807534,0.0015472045724402,-0.0002866605339448,-0.0010038393757760,0.0111166537022821*e4507977
#CORRIMUDATAA,FILE,0,28.0,FINESTEERING,2319,307551.800,02000000,e5fc,17139;2319,307551.800000000,-0.0003443532356434,-0.0005368298276359,0.0016990722981741,-0.0030049289241148,-0.0000356377499059,0.0057030564166938*53d5157d
#CORRIMUDATAA,FILE,0,28.0,FINESTEERING,2319,307551.850,02000000,e5fc,17139;2319,307551.850000000,-0.0003853272818402,-0.0003614774278202,0.0017947178711228,-0.0030879728018693,-0.0037957297455922,0.0036667383139677*e98a0fac
#CORRIMUDATAA,FILE,0,28.0,FINESTEERING,2319,307551.900,02000000,e5fc,17139;2319,307551.900000000,-0.0004488597426380,0.0000659516050329,0.0018978771712361,-0.0026190007167333,-0.0045119614103936,0.0025192991768681*3682d12f
#CORRIMUDATAA,FILE,0,28.0,FINESTEERING,2319,307551.950,02000000,e5fc,17139;2319,307551.950000000,-0.0002680167132574,0.0002185633862740,0.0019617562636456,-0.0000863343667010,-0.0045844107609913,-0.0014152261517557*8da04d70
#CORRIMUDATAA,FILE,0,28.0,FINESTEERING,2319,307552.000,02000000,e5fc,17139;2319,307552.000000000,-0.0002690642546494,0.0003181553721652,0.0020981903997385,-0.0020097168137636,-0.0071211508515190,-0.0038230338721194*48619784
#CORRIMUDATAA,FILE,0,28.0,FINESTEERING,2319,307552.050,02000000,e5fc,17139;2319,307552.050000000,-0.0000151798500276,0.0001052482663598,0.0021991730295182,-0.0053273694933103,-0.0025240613463019,-0.0111838768415434*986ce022
#CORRIMUDATAA,FILE,0,28.0,FINESTEERING,2319,307552.100,02000000,e5fc,17139;2319,307552.100000000,0.0002454365818668,-0.0001621950797095,0.0023104522655203,-0.0104582043632541,-0.0009120013094767,-0.0227624732503502*d393d84b
#CORRIMUDATAA,FILE,0,28.0,FINESTEERING,2319,307552.150,02000000,e5fc,17139;2319,307552.150000000,0.0007359820053483,-0.0005349849062364,0.0024398942841938,-0.0103300266238064,-0.0013029211862126,-0.0234988563383356*b13d193a
#CORRIMUDATAA,FILE,0,28.5,FINESTEERING,2319,307552.200,02000000,e5fc,17139;2319,307552.200000000,0.0012074261698554,-0.0009196541561118,0.0026797563560687,-0.0106650323132986,-0.0034662144619398,-0.0159473045359774*4a69b6fd
#CORRIMUDATAA,FILE,0,28.5,FINESTEERING,2319,307552.250,02000000,e5fc,17139;2319,307552.250000000,0.0015312824276811,-0.0010247293150443,0.0029968396775306,-0.0054188140110918,-0.0035178269696353,-0.0084191233008200*32341dcf
#CORRIMUDATAA,FILE,0,28.5,FINESTEERING,2319,307552.300,02000000,e5fc,17139;2319,307552.300000000,0.0014616364629634,-0.0014174750122746,0.0033128833962760,-0.0031783116823752,-0.0083672788868936,0.0055441402515171*b9cdc548
#CORRIMUDATAA,FILE,0,28.5,FINESTEERING,2319,307552.350,02000000,e5fc,17139;2319,307552.350000000,0.0008643620085538,-0.0016648030187479,0.0035682845560855,-0.0052758794392663,-0.0080987681623772,0.0190978726953707*0489e94d
#CORRIMUDATAA,FILE,0,28.5,FINESTEERING,2319,307552.400,02000000,e5fc,17139;2319,307552.400000000,0.0000765690394284,-0.0016397856451734,0.0038302239847786,-0.0077703289361187,-0.0072769915735849,0.0220174442414564*0e19a420
#CORRIMUDATAA,FILE,0,28.5,FINESTEERING,2319,307552.450,02000000,e5fc,17139;2319,307552.450000000,-0.0005029247161541,-0.0010204689324959,0.0040718429469027,-0.0073137102258759,-0.0065090342331826,0.0198736040434384*b32a63f6
#CORRIMUDATAA,FILE,0,28.5,FINESTEERING,2319,307552.500,02000000,e5fc,17139;2319,307552.500000000,-0.0007600520648484,-0.0005121469739059,0.0043597956804038,-0.0030810345876041,-0.0054951741252263,0.0145073375866216*149af6a5
#CORRIMUDATAA,FILE,0,28.5,FINESTEERING,2319,307552.550,02000000,e5fc,17139;2319,307552.550000000,-0.0009943107641551,-0.0000351027650494,0.0046478192072120,-0.0024528226119496,-0.0079390080565511,0.0171097886847534*05e785f1
#CORRIMUDATAA,FILE,0,28.5,FINESTEERING,2319,307552.600,02000000,e5fc,17139;2319,307552.600000000,-0.0013340316682532,0.0004988484954903,0.0049638803381943,-0.0043268047990810,-0.0073181857942950,0.0122731113990321*77dcd8e4
#CORRIMUDATAA,FILE,0,28.5,FINESTEERING,2319,307552.650,02000000,e5fc,17139;2319,307552.650000000,-0.0016696722739727,0.0009631152724783,0.0053075020468194,-0.0019447666559470,-0.0086014934803032,0.0044066173046898*ff2b692c
#CORRIMUDATAA,FILE,0,28.5,FINESTEERING,2319,307552.700,02000000,e5fc,17139;2319,307552.700000000,-0.0017605748492878,0.0013679954634283,0.0056962252127993,-0.0033620885339150,-0.0056627668972766,-0.0067405141824052*1f0f5e30
#CORRIMUDATAA,FILE,0,28.5,FINESTEERING,2319,307552.750,02000000,e5fc,17139;2319,307552.750000000,-0.0012617542623181,0.0013090734844870,0.0060415143261013,-0.0066758670111016,-0.0063333638136082,-0.0148419342383436*92df528d
#CORRIMUDATAA,FILE,0,28.5,FINESTEERING,2319,307552.800,02000000,e5fc,17139;2319,307552.800000000,-0.0007206418817318,0.0011030020978757,0.0063615451004743,-0.0121043133894518,-0.0060471702705673,-0.0125159933678802*6f8105f5
#CORRIMUDATAA,FILE,0,28.5,FINESTEERING,2319,307552.850,02000000,e5fc,17139;2319,307552.850000000,-0.0002834125888627,0.0008707485574240,0.0066053013098891,-0.0181803851020335,-0.0065884817472999,-0.0110414487585690*1940d2fd
#CORRIMUDATAA,FILE,0,28.5,FINESTEERING,2319,307552.900,02000000,e5fc,17139;2319,307552.900000000,-0.0001289238515485,0.0006653108631947,0.0067847022810484,-0.0210769210446479,-0.0060355674339389,-0.0083599824349534*526e8830
#CORRIMUDATAA,FILE,0,28.5,FINESTEERING,2319,307552.950,02000000,e5fc,17139;2319,307552.950000000,-0.0000725256576936,0.0004281093325085,0.0068857757701134,-0.0194620667960674,-0.0065246758868811,-0.0058404087623512*94018256
#CORRIMUDATAA,FILE,0,28.5,FINESTEERING,2319,307553.000,02000000,e5fc,17139;2319,307553.000000000,0.0000062129124772,-0.0001344770997055,0.0070290061066153,-0.0150158835637205,-0.0061428975720984,-0.0001841246750537*dcc9b6ce
#CORRIMUDATAA,FILE,0,28.5,FINESTEERING,2319,307553.050,02000000,e5fc,17139;2319,307553.050000000,0.0000019667947595,-0.0004514654173343,0.0072067436360042,-0.0144800066001946,-0.0098015996498324,0.0077511521347330*a5c2a54a
#CORRIMUDATAA,FILE,0,28.5,FINESTEERING,2319,307553.100,02000000,e5fc,17139;2319,307553.100000000,-0.0000770377470394,-0.0006205480701666,0.0074771495098258,-0.0114512905977345,-0.0095510041023900,0.0084059515008807*ffcd1117
#CORRIMUDATAA,FILE,0,29.0,FINESTEERING,2319,307553.150,02000000,e5fc,17139;2319,307553.150000000,-0.0001585662521154,-0.0006854395073188,0.0077467009312745,-0.0122125779269202,-0.0097895291800884,0.0058337931541068*0d03523d
#CORRIMUDATAA,FILE,0,29.0,FINESTEERING,2319,307553.200,02000000,e5fc,17139;2319,307553.200000000,-0.0004589887382802,-0.0005831425549837,0.0080451958294202,-0.0113780236826008,-0.0085192015658672,0.0034120533764871*214660c9
#CORRIMUDATAA,FILE,0,29.0,FINESTEERING,2319,307553.250,02000000,e5fc,17139;2319,307553.250000000,-0.0004159407426945,-0.0007117373989348,0.0082800074227461,-0.0138054390858015,-0.0056805687918637,-0.0021845446068605*cf899f78
#CORRIMUDATAA,FILE,0,29.0,FINESTEERING,2319,307553.300,02000000,e5fc,17139;2319,307553.300000000,-0.0005755857823930,-0.0005698782079956,0.0084593972617319,-0.0181008492125657,-0.0077572031443697,0.0001160833854441*935722d1
#CORRIMUDATAA,FILE,0,29.0,FINESTEERING,2319,307553.350,02000000,e5fc,17139;2319,307553.350000000,-0.0004873552220873,-0.0004782598999647,0.0085625415442475,-0.0172755703558148,-0.0057858412249921,-0.0029171227974558*10238ae3
#CORRIMUDATAA,FILE,0,29.0,FINESTEERING,2319,307553.400,02000000,e5fc,17139;2319,307553.400000000,-0.0005428645728315,-0.0005756092802843,0.0087081407279624,-0.0161134498140017,-0.0082709225056481,0.0002845453763301*fed4567f
#CORRIMUDATAA,FILE,0,29.0,FINESTEERING,2319,307553.450,02000000,e5fc,17139;2319,307553.450000000,-0.0006315519782079,-0.0006752735625502,0.0088762380390947,-0.0165615556290015,-0.0086152981418333,-0.0006044097233015*3ed88206
#CORRIMUDATAA,FILE,0,29.0,FINESTEERING,2319,307553.500,02000000,e5fc,17139;2319,307553.500000000,-0.0005117745697023,-0.0006611202930337,0.0091989030001374,-0.0147250376180103,-0.0055059161553040,-0.0027075928920018*61e704c6
#CORRIMUDATAA,FILE,0,29.0,FINESTEERING,2319,307553.550,02000000,e5fc,17139;2319,307553.550000000,-0.0003056027458719,-0.0002433456446560,0.0095724782202599,-0.0132517441085973,-0.0038894903179840,-0.0072546839108166*d8c2a456
#CORRIMUDATAA,FILE,0,29.0,FINESTEERING,2319,307553.600,02000000,e5fc,17139;2319,307553.600000000,-0.0001188803795155,0.0001046938012036,0.0099701297581248,-0.0114732121160227,-0.0028655620324900,-0.0099928122788018*f2b378e4
#CORRIMUDATAA,FILE,0,29.0,FINESTEERING,2319,307553.650,02000000,e5fc,17139;2319,307553.650000000,-0.0000508124073585,0.0003595558008524,0.0101421484202574,-0.0155122353125004,-0.0029171424327607,-0.0092073199344012*80c47f6b
#CORRIMUDATAA,FILE,0,29.0,FINESTEERING,2319,307553.700,02000000,e5fc,17139;2319,307553.700000000,0.0001695042676849,-0.0000798798672312,0.0102346154251952,-0.0192792931341668,-0.0018044576520575,-0.0071175197162006*a37ce977
#CORRIMUDATAA,FILE,0,29.0,FINESTEERING,2319,307553.750,02000000,e5fc,17139;2319,307553.750000000,0.0002484708237073,-0.0000151587340305,0.0103725103850065,-0.0234606171235168,-0.0018331543684412,-0.0058808732563587*66b9f0be
#CORRIMUDATAA,FILE,0,29.0,FINESTEERING,2319,307553.800,02000000,e5fc,17139;2319,307553.800000000,0.0005138564629456,0.0005645783745559,0.0107585361744214,-0.0159249695299247,-0.0020691800041559,-0.0102826146375010*ed6f6890
#CORRIMUDATAA,FILE,0,29.0,FINESTEERING,2319,307553.850,02000000,e5fc,17139;2319,307553.850000000,0.0007722308879184,0.0009862329623733,0.0112660168021867,-0.0070949446073419,-0.0036028245028542,-0.0043511519489704*028f7433
#CORRIMUDATAA,FILE,0,29.0,FINESTEERING,2319,307553.900,02000000,e5fc,17139;2319,307553.900000000,0.0009001469312928,0.0007746795268356,0.0116544467567160,-0.0102243204143447,0.0013335004603433,-0.0032712140644518*74ffad3e
#CORRIMUDATAA,FILE,0,29.0,FINESTEERING,2319,307553.950,02000000,e5fc,17139;2319,307553.950000000,0.0007226780601715,0.0005946373351717,0.0117074459706129,-0.0277827180249224,0.0010598744925603,0.0050845402047730*45edd16b
#CORRIMUDATAA,FILE,0,29.0,FINESTEERING,2319,307554.000,02000000,e5fc,17139;2319,307554.000000000,0.0003751905011796,0.0005201848376277,0.0114967557872108,-0.0376072236653685,0.0024048671113722,0.0074951651494047*2dc7058e
#CORRIMUDATAA,FILE,0,29.0,FINESTEERING,2319,307554.050,02000000,e5fc,17139;2319,307554.050000000,-0.0000803643626574,0.0003655627060571,0.0113934421784452,-0.0279820814940992,-0.0023118327301043,0.0167501935830684*c5977cf8
#CORRIMUDATAA,FILE,0,28.5,FINESTEERING,2319,307554.100,02000000,e5fc,17139;2319,307554.100000000,-0.0006389827749758,0.0000117259594539,0.0117189490790795,-0.0152754028670702,-0.0055594215099575,0.0177649126646787*50a7ef5a
#CORRIMUDATAA,FILE,0,28.5,FINESTEERING,2319,307554.150,02000000,e5fc,17139;2319,307554.150000000,-0.0009164839730617,-0.0003452966768315,0.0122713780256111,-0.0120736217119096,-0.0040776150675013,0.0095408572698275*856a20cb
#CORRIMUDATAA,FILE,0,28.5,FINESTEERING,2319,307554.200,02000000,e5fc,17139;2319,307554.200000000,-0.0010240668204441,-0.0005009524924855,0.0127703014901153,-0.0172158093660385,0.0015673215947958,0.0018191081222949*22b08e07
#CORRIMUDATAA,FILE,0,28.5,FINESTEERING,2319,307554.250,02000000,e5fc,17139;2319,307554.250000000,-0.0008663096405468,-0.0010017947210120,0.0130084839199402,-0.0274506593598230,0.0034264637162047,-0.0095646435017359*3510064d
#CORRIMUDATAA,FILE,0,28.5,FINESTEERING,2319,307554.300,02000000,e5fc,17139;2319,307554.300000000,-0.0006583491887941,-0.0013111219684774,0.0130121944127284,-0.0361430652374143,0.0040607337574414,-0.0102385236382648*34e9d303
#CORRIMUDATAA,FILE,0,28.5,FINESTEERING,2319,307554.350,02000000,e5fc,17139;2319,307554.350000000,-0.0004184443470037,-0.0011710709028558,0.0129467502450916,-0.0339500594152676,0.0011081455612884,-0.0073848760678548*134fb65d
#CORRIMUDATAA,FILE,0,28.5,FINESTEERING,2319,307554.400,02000000,e5fc,17139;2319,307554.400000000,-0.0000487869744542,-0.0012412610542393,0.0130967125253853,-0.0248434330804124,0.0093793605803778,-0.0045836439109402*71b78694
#CORRIMUDATAA,FILE,0,28.5,FINESTEERING,2319,307554.450,02000000,e5fc,17139;2319,307554.450000000,0.0002052353163999,-0.0006642690701060,0.0134506647982519,-0.0132425810535606,0.0122849817268460,-0.0088187754517718*898dcbbe
#CORRIMUDATAA,FILE,0,28.5,FINESTEERING,2319,307554.500,02000000,e5fc,17139;2319,307554.500000000,0.0011001894811592,0.0004804776858257,0.0140300826764220,-0.0140090492538072,0.0246330449197600,-0.0092811752706785*46fc8b2a
#CORRIMUDATAA,FILE,0,28.5,FINESTEERING,2319,307554.550,02000000,e5fc,17139;2319,307554.550000000,0.0015572510141736,0.0010223945031020,0.0145557485185630,-0.0058057890569137,0.0296273529003928,-0.0016503669187342*77d5b01d
#CORRIMUDATAA,FILE,0,28.5,FINESTEERING,2319,307554.600,02000000,e5fc,17139;2319,307554.600000000,0.0017074311042552,0.0011130644957091,0.0151023719106903,-0.0181697341421737,0.0347198256725840,-0.0010604190163708*75113668
#CORRIMUDATAA,FILE,0,28.5,FINESTEERING,2319,307554.650,02000000,e5fc,17139;2319,307554.650000000,0.0016568985872877,0.0014129057209215,0.0154513385999666,-0.0291200226509652,0.0324537604542051,0.0013151335082966*9924936e
#CORRIMUDATAA,FILE,0,28.5,FINESTEERING,2319,307554.700,02000000,e5fc,17139;2319,307554.700000000,0.0013470322428141,0.0020192417964042,0.0158282963690426,-0.0369405163716364,0.0314512409088931,0.0104890547460203*0d402191
#CORRIMUDATAA,FILE,0,28.5,FINESTEERING,2319,307554.750,02000000,e5fc,17139;2319,307554.750000000,0.0007558905894287,0.0023010818524128,0.0162229903466764,-0.0277589484959677,0.0268207304887655,0.0178147081795857*a1d34aaa
#CORRIMUDATAA,FILE,0,28.5,FINESTEERING,2319,307554.800,02000000,e5fc,17139;2319,307554.800000000,0.0002240708958627,0.0019505316354130,0.0167753843078953,-0.0272374638653877,0.0339977227924028,0.0141236912673568*ea6829f0
#CORRIMUDATAA,FILE,0,28.5,FINESTEERING,2319,307554.850,02000000,e5fc,17139;2319,307554.850000000,0.0000035982263807,0.0015515167218643,0.0171926283190603,-0.0275785298635060,0.0414559664900271,0.0001117134281406*179f4c9a
#CORRIMUDATAA,FILE,0,28.5,FINESTEERING,2319,307554.900,02000000,e5fc,17139;2319,307554.900000000,0.0001172047988288,0.0010236508744891,0.0174495916799993,-0.0368863803152390,0.0483808653881551,-0.0120768813236806*749999d9
#CORRIMUDATAA,FILE,0,28.5,FINESTEERING,2319,307554.950,02000000,e5fc,17139;2319,307554.950000000,0.0003468022797402,0.0007920254033969,0.0175669485866769,-0.0438931961518248,0.0494494950110169,-0.0154730633492385*84e4a487
#CORRIMUDATAA,FILE,0,28.5,FINESTEERING,2319,307555.000,02000000,e5fc,17139;2319,307555.000000000,0.0006978961245854,0.0007302691485329,0.0177057028984388,-0.0435790437652846,0.0498067247205252,-0.0137771737237532*fed915ff
#CORRIMUDATAA,FILE,0,28.5,FINESTEERING,2319,307555.050,02000000,e5fc,17139;2319,307555.050000000,0.0009321697140430,0.0005821714333061,0.0181155351033632,-0.0369855242121532,0.0472918680052993,-0.0048971210918413*195684be
#CORRIMUDATAA,FILE,0,28.5,FINESTEERING,2319,307555.100,02000000,e5fc,17139;2319,307555.100000000,0.0009619930039042,0.0009910090039948,0.0187273776566751,-0.0309945283581744,0.0487348966116426,0.0038943904019370*2cc5f125
#CORRIMUDATAA,FILE,0,29.5,FINESTEERING,2319,307555.150,02000000,e5fc,17139;2319,307555.150000000,0.0008333550913238,0.0010824964333469,0.0193464850754305,-0.0270840427941161,0.0572768494815637,-0.0006745911062418*a89b9d17
#CORRIMUDATAA,FILE,0,29.5,FINESTEERING,2319,307555.200,02000000,e5fc,17139;2319,307555.200000000,0.0005788543959920,0.0011635139721434,0.0196679236285007,-0.0405738652345353,0.0583142933482395,0.0076288726368825*d8356f9a
#CORRIMUDATAA,FILE,0,29.5,FINESTEERING,2319,307555.250,02000000,e5fc,17139;2319,307555.250000000,0.0001996896976913,0.0013053684641237,0.0198899753601883,-0.0501612653094409,0.0581399732888690,0.0010925967501788*dce10f7b
#CORRIMUDATAA,FILE,0,29.5,FINESTEERING,2319,307555.300,02000000,e5fc,17139;2319,307555.300000000,0.0006802638526902,0.0008589043021477,0.0198996255039598,-0.0529604444256033,0.0555361792115730,0.0003067481434485*e8518265
#CORRIMUDATAA,FILE,0,29.5,FINESTEERING,2319,307555.350,02000000,e5fc,17139;2319,307555.350000000,0.0006903039748255,0.0002007155215222,0.0203212795830151,-0.0492679331210500,0.0432142449134312,0.0047074497012845*c2ee4b4d
#CORRIMUDATAA,FILE,0,29.5,FINESTEERING,2319,307555.400,02000000,e5fc,17139;2319,307555.400000000,0.0015922364951573,-0.0003761170865553,0.0210838334294751,-0.0569114043736154,0.0521641825875925,0.0009943067427465*9beff273
#CORRIMUDATAA,FILE,0,29.5,FINESTEERING,2319,307555.450,02000000,e5fc,17139;2319,307555.450000000,0.0019806073689344,0.0001539736528569,0.0218404013833386,-0.0462627599343333,0.0557386765850770,-0.0124017502499341*e709be45
#CORRIMUDATAA,FILE,0,29.5,FINESTEERING,2319,307555.500,02000000,e5fc,17139;2319,307555.500000000,0.0021138736015540,-0.0002737301278632,0.0222845823536750,-0.0372887118112387,0.0618923536224564,-0.0157186614992816*e1b018e7
#CORRIMUDATAA,FILE,0,29.5,FINESTEERING,2319,307555.550,02000000,e5fc,17139;2319,307555.550000000,0.0021395902307375,0.0000504562174104,0.0224252644066410,-0.0558997686934182,0.0596256164925622,-0.0061657800898664*b780e17f
#CORRIMUDATAA,FILE,0,29.5,FINESTEERING,2319,307555.600,02000000,e5fc,17139;2319,307555.600000000,0.0024571774165714,0.0016040462006715,0.0222290757992667,-0.0671456612561083,0.0611151966399509,-0.0179249602516803*41c10c69
#CORRIMUDATAA,FILE,0,29.5,FINESTEERING,2319,307555.650,02000000,e5fc,17139;2319,307555.650000000,0.0026908935589601,0.0030664706666545,0.0222920204796782,-0.0543975051589967,0.0534958872320342,0.0015007076694913*d23a70d0
#CORRIMUDATAA,FILE,0,29.5,FINESTEERING,2319,307555.700,02000000,e5fc,17139;2319,307555.700000000,0.0022519699813540,0.0033450134406298,0.0225340721810347,-0.0482212649826830,0.0476352786594546,0.0146671906850152*d8ad5fc8
#CORRIMUDATAA,FILE,0,29.5,FINESTEERING,2319,307555.750,02000000,e5fc,17139;2319,307555.750000000,0.0020234701046736,0.0024448879220265,0.0228857444317924,-0.0473480029582201,0.0506476531440176,0.0168855965606152*1f00fdfc
#CORRIMUDATAA,FILE,0,29.5,FINESTEERING,2319,307555.800,02000000,e5fc,17139;2319,307555.800000000,0.0009467495144821,0.0017916394400340,0.0229543731795267,-0.0740198655606229,0.0440787854046046,0.0323577880409190*1215ae70
#CORRIMUDATAA,FILE,0,29.5,FINESTEERING,2319,307555.850,02000000,e5fc,17139;2319,307555.850000000,0.0005131471646966,0.0008331286581573,0.0226328661787415,-0.0844978414671247,0.0513310429212515,0.0162769527217677*7ff3193a
#CORRIMUDATAA,FILE,0,29.5,FINESTEERING,2319,307555.900,02000000,e5fc,17139;2319,307555.900000000,-0.0000336456181574,0.0012447620262546,0.0222099028146362,-0.0763921538045940,0.0501622416277428,-0.0102638403743303*a0e01132
#CORRIMUDATAA,FILE,0,29.5,FINESTEERING,2319,307555.950,02000000,e5fc,17139;2319,307555.950000000,0.0000683876598147,0.0009634456136606,0.0217599822850631,-0.0638350960220316,0.0449737462791185,-0.0091681262024686*9aa29db3
#CORRIMUDATAA,FILE,0,29.5,FINESTEERING,2319,307556.000,02000000,e5fc,17139;2319,307556.000000000,-0.0003190658306102,-0.0013802632584957,0.0210207689115417,-0.0794059768973871,0.0361658102741784,0.0515321631275791*917ae13b
#CORRIMUDATAA,FILE,0,29.5,FINESTEERING,2319,307556.050,02000000,e5fc,17139;2319,307556.050000000,-0.0007256923517001,-0.0027526698890432,0.0198837044581670,-0.1042304732057310,0.0453854532416458,0.0239712816554555*ba73f87f
#CORRIMUDATAA,FILE,0,29.5,FINESTEERING,2319,307556.100,02000000,e5fc,17139;2319,307556.100000000,-0.0010541971358615,-0.0015743935893381,0.0188047990580110,-0.0886795715198144,0.0436249173980528,-0.0114729335495757*8ab41416
#CORRIMUDATAA,FILE,0,29.5,FINESTEERING,2319,307556.150,02000000,e5fc,17139;2319,307556.150000000,-0.0008686449420629,-0.0008628103979548,0.0184277347662559,-0.0484973919762964,0.0371037195867915,-0.0109976802549517*60f1d4d4
#CORRIMUDATAA,FILE,0,29.5,FINESTEERING,2319,307556.200,02000000,e5fc,17139;2319,307556.200000000,-0.0002226776524386,-0.0010534061473815,0.0184524581242409,-0.0294697236278968,0.0396618071197944,-0.0071381007117616*ad6bde5f
#CORRIMUDATAA,FILE,0,29.5,FINESTEERING,2319,307556.250,02000000,e5fc,17139;2319,307556.250000000,-0.0002759338374310,-0.0020389593127897,0.0186659048218080,-0.0413315941179188,0.0411810526651716,-0.0329649538357327*420e3c6a
#CORRIMUDATAA,FILE,0,29.5,FINESTEERING,2319,307556.300,02000000,e5fc,17139;2319,307556.300000000,0.0001936927204903,-0.0012488991413892,0.0183171425959005,-0.0744418716354126,0.0352074657565747,-0.0163124227758100*fce6e003
#CORRIMUDATAA,FILE,0,29.5,FINESTEERING,2319,307556.350,02000000,e5fc,17139;2319,307556.350000000,0.0002613923706473,-0.0006813163133498,0.0175741236734577,-0.0778839791182880,0.0348645211138385,0.0086914552165609*69b525b1
#CORRIMUDATAA,FILE,0,29.5,FINESTEERING,2319,307556.400,02000000,e5fc,17139;2319,307556.400000000,-0.0003961190390266,0.0004084130296933,0.0166328738983538,-0.0605919723651285,0.0293303281334005,0.0073163990775008*d06abfb1
#CORRIMUDATAA,FILE,0,29.5,FINESTEERING,2319,307556.450,02000000,e5fc,17139;2319,307556.450000000,-0.0007107383779643,-0.0004625040220327,0.0161690465769336,-0.0414792829619903,0.0275215277591731,0.0224302458884113*56d9e405
#CORRIMUDATAA,FILE,0,29.5,FINESTEERING,2319,307556.500,02000000,e5fc,17139;2319,307556.500000000,-0.0008878018224841,-0.0017138352321810,0.0157478065460104,-0.0506623078800982,0.0229988686423414,0.0291707347576333*e6da971e
#CORRIMUDATAA,FILE,0,29.5,FINESTEERING,2319,307556.550,02000000,e5fc,17139;2319,307556.550000000,-0.0012342149550970,-0.0015987458889467,0.0152605179314910,-0.0616853404039455,0.0311141385977615,0.0220794824256371*0ff29ae3
#CORRIMUDATAA,FILE,0,29.5,FINESTEERING,2319,307556.600,02000000,e5fc,17139;2319,307556.600000000,-0.0011084335348094,-0.0010986835593359,0.0143610452229451,-0.0701839247059913,0.0347626365151513,-0.0109015724616696*3f24b1a4
#CORRIMUDATAA,FILE,0,29.5,FINESTEERING,2319,307556.650,02000000,e5fc,17139;2319,307556.650000000,-0.0012072305383075,-0.0009658919128218,0.0132758635459796,-0.0564198432909914,0.0304141655599220,-0.0002089680281115*e8bc2afa
#CORRIMUDATAA,FILE,0,29.5,FINESTEERING,2319,307556.700,02000000,e5fc,17139;2319,307556.700000000,-0.0010034909133932,-0.0013970555846383,0.0122555756861183,-0.0514616194375722,0.0294056423856730,-0.0169628590820606*4e5ca822
#CORRIMUDATAA,FILE,0,29.5,FINESTEERING,2319,307556.750,02000000,e5fc,17139;2319,307556.750000000,-0.0006984134121241,-0.0007638917220472,0.0113770533716644,-0.0386939211349907,0.0261799380087358,-0.0215247362466179*085c4a76
#CORRIMUDATAA,FILE,0,29.5,FINESTEERING,2319,307556.800,02000000,e5fc,17139;2319,307556.800000000,-0.0000472413615449,-0.0005714493590499,0.0108384345529750,-0.0298312114745558,0.0248125331754040,-0.0113337312410028*ed5382b7
#CORRIMUDATAA,FILE,0,29.5,FINESTEERING,2319,307556.850,02000000,e5fc,17139;2319,307556.850000000,-0.0001784346480321,-0.0003449137644010,0.0105424075887332,-0.0283427975014662,0.0217370802492300,-0.0021736787673668*0580cb51
#CORRIMUDATAA,FILE,0,29.5,FINESTEERING,2319,307556.900,02000000,e5fc,17139;2319,307556.900000000,-0.0002281187605464,-0.0004634822148050,0.0102028139127282,-0.0393033046468809,0.0272772883897086,-0.0002664979508306*c2c5ac6b
#CORRIMUDATAA,FILE,0,29.5,FINESTEERING,2319,307556.950,02000000,e5fc,17139;2319,307556.950000000,-0.0000613635398706,-0.0002758815489246,0.0094831046291327,-0.0446007850123649,0.0182489900455975,-0.0275918831327653*1708a9a8
#CORRIMUDATAA,FILE,0,29.5,FINESTEERING,2319,307557.000,02000000,e5fc,17139;2319,307557.000000000,0.0010199973246307,-0.0004637732710086,0.0088986148813453,-0.0406969458193728,0.0311470653328192,-0.0033958428798045*2248bf3c
#CORRIMUDATAA,FILE,0,29.5,FINESTEERING,2319,307557.050,02000000,e5fc,17139;2319,307557.050000000,0.0005292260836541,0.0008487068038378,0.0085076959852446,-0.0279267313422176,0.0188004899798867,0.0021150706227747*0f72b6c0
#CORRIMUDATAA,FILE,0,29.5,FINESTEERING,2319,307557.100,02000000,e5fc,17139;2319,307557.100000000,0.0002444467763203,-0.0006251280122284,0.0081746295073852,-0.0306077141365971,0.0226614292187833,0.0464182353169419*98a5732e
#CORRIMUDATAA,FILE,0,31.0,FINESTEERING,2319,307557.150,02000000,e5fc,17139;2319,307557.150000000,-0.0011416215841032,-0.0005558647263693,0.0078439762938181,-0.0374215818175207,0.0174735590338011,0.0168848117571638*e89b3abb
#CORRIMUDATAA,FILE,0,31.0,FINESTEERING,2319,307557.200,02000000,e5fc,17139;2319,307557.200000000,-0.0016481066320716,-0.0008338597872819,0.0076532245992799,-0.0358840004755674,0.0232471737585653,0.0154926091153808*5c9ae3b3
#CORRIMUDATAA,FILE,0,31.0,FINESTEERING,2319,307557.250,02000000,e5fc,17139;2319,307557.250000000,-0.0022825224041959,-0.0000311528994328,0.0074315433215475,-0.0272499064157115,0.0192701332894891,-0.0048488053102328*911fd0df
#CORRIMUDATAA,FILE,0,31.0,FINESTEERING,2319,307557.300,02000000,e5fc,17139;2319,307557.300000000,-0.0008213721768617,-0.0009807914278909,0.0071973743030633,-0.0221942113595839,0.0311831700430431,-0.0231133793084455*65da4960
#CORRIMUDATAA,FILE,0,31.0,FINESTEERING,2319,307557.350,02000000,e5fc,17139;2319,307557.350000000,-0.0003573121128172,-0.0011551436575083,0.0069433613500528,-0.0270466442356349,0.0264096002452088,-0.0479180541178529*e43edcb1
#CORRIMUDATAA,FILE,0,31.0,FINESTEERING,2319,307557.400,02000000,e5fc,17139;2319,307557.400000000,0.0010468196365311,-0.0015754470887852,0.0066542096811586,-0.0375809248402320,0.0274508863472867,-0.0139858511917039*3cb52596
#CORRIMUDATAA,FILE,0,31.0,FINESTEERING,2319,307557.450,02000000,e5fc,17139;2319,307557.450000000,0.0014138534861139,-0.0010485375716024,0.0061943507190640,-0.0363529547167384,0.0274071524387048,-0.0009346569178341*4c668c5f
#CORRIMUDATAA,FILE,0,31.0,FINESTEERING,2319,307557.500,02000000,e5fc,17139;2319,307557.500000000,0.0012624435894284,-0.0010060270082984,0.0058292323431537,-0.0245429567599789,0.0284604292204202,-0.0076090011353003*3ccb92e1
#CORRIMUDATAA,FILE,0,31.0,FINESTEERING,2319,307557.550,02000000,e5fc,17139;2319,307557.550000000,0.0007299404830809,-0.0009531667451983,0.0055726434132869,-0.0202431208638116,0.0247681037616444,0.0164824541991967*54b08966
#CORRIMUDATAA,FILE,0,31.0,FINESTEERING,2319,307557.600,02000000,e5fc,17139;2319,307557.600000000,0.0000593101129504,-0.0006871333762740,0.0053180696353996,-0.0156032836815549,0.0223928858027345,0.0415483853977700*2890ad8b
#CORRIMUDATAA,FILE,0,31.0,FINESTEERING,2319,307557.650,02000000,e5fc,17139;2319,307557.650000000,-0.0012274892165177,-0.0005133116510322,0.0051038970869697,-0.0113409917028297,0.0268840844908556,0.0363927470732422*3885353f
#CORRIMUDATAA,FILE,0,31.0,FINESTEERING,2319,307557.700,02000000,e5fc,17139;2319,307557.700000000,-0.0017744723206644,0.0001604699715549,0.0048753689135784,-0.0159416382387415,0.0316245371821080,-0.0076823959834548*8ebf061e
#CORRIMUDATAA,FILE,0,31.0,FINESTEERING,2319,307557.750,02000000,e5fc,17139;2319,307557.750000000,-0.0016283032181125,0.0008217490794630,0.0045014483704346,-0.0170553570327980,0.0333138442796350,-0.0235824096281160*b9f15dc2
#CORRIMUDATAA,FILE,0,31.0,FINESTEERING,2319,307557.800,02000000,e5fc,17139;2319,307557.800000000,-0.0006205721101456,0.0012322886854468,0.0041971265811278,-0.0153285738324588,0.0345666638522349,-0.0405839575935428*e658da29
#CORRIMUDATAA,FILE,0,31.0,FINESTEERING,2319,307557.850,02000000,e5fc,17139;2319,307557.850000000,0.0000756594249990,0.0013453105193908,0.0039094398036456,-0.0184379393185791,0.0282421246846181,-0.0128902317234688*53a1c248
#CORRIMUDATAA,FILE,0,31.0,FINESTEERING,2319,307557.900,02000000,e5fc,17139;2319,307557.900000000,0.0005300541874731,0.0009615471496830,0.0036124484794268,-0.0212890267969946,0.0231400879410087,0.0135891040035791*6747753b
#CORRIMUDATAA,FILE,0,31.0,FINESTEERING,2319,307557.950,02000000,e5fc,17139;2319,307557.950000000,0.0006893942480560,0.0001458989102421,0.0033934179554984,-0.0221322853133074,0.0193716090442231,0.0169423378178826*c64c6ea8
#CORRIMUDATAA,FILE,0,31.0,FINESTEERING,2319,307558.000,02000000,e5fc,17139;2319,307558.000000000,0.0008277388253968,-0.0009607144771883,0.0033226055504079,-0.0166952423553165,0.0254111990951820,0.0178692259868338*9e1b7e95
#CORRIMUDATAA,FILE,0,31.0,FINESTEERING,2319,307558.050,02000000,e5fc,17139;2319,307558.050000000,0.0003434233765377,-0.0015782779493080,0.0035635271566724,-0.0123334594648449,0.0234257647069003,0.0127922756794111*a2d38231
#CORRIMUDATAA,FILE,0,29.0,FINESTEERING,2319,307558.100,02000000,e5fc,17139;2319,307558.100000000,0.0003950990623497,-0.0009172477298197,0.0039657533633120,-0.0117198334951025,0.0231636067019884,0.0014048834420053*7717b760
#CORRIMUDATAA,FILE,0,29.0,FINESTEERING,2319,307558.150,02000000,e5fc,17139;2319,307558.150000000,0.0007986242303968,-0.0004190602206218,0.0041688653273377,-0.0062123209766564,0.0221327079697445,-0.0179225449362668*998c0a73
#CORRIMUDATAA,FILE,0,29.0,FINESTEERING,2319,307558.200,02000000,e5fc,17139;2319,307558.200000000,0.0016381375834479,-0.0005506391937278,0.0042408375344225,-0.0154641457043897,0.0251709404626324,-0.0387319524532314*f5ee94d5
#CORRIMUDATAA,FILE,0,29.0,FINESTEERING,2319,307558.250,02000000,e5fc,17139;2319,307558.250000000,0.0031403629044860,-0.0001354361278284,0.0039985965859844,-0.0197109526331543,0.0270619847852318,-0.0435498042234166*849ff4af
#CORRIMUDATAA,FILE,0,29.0,FINESTEERING,2319,307558.300,02000000,e5fc,17139;2319,307558.300000000,0.0037301512582263,-0.0005590376229120,0.0039172658571799,-0.0179768325486425,0.0199822687203049,-0.0156241691118751*a6459d82
#CORRIMUDATAA,FILE,0,29.0,FINESTEERING,2319,307558.350,02000000,e5fc,17139;2319,307558.350000000,0.0040112846961741,-0.0013379740303061,0.0038961198873749,-0.0189020829192758,0.0193615396812370,-0.0002663945915229*645d5f4c
#CORRIMUDATAA,FILE,0,29.0,FINESTEERING,2319,307558.400,02000000,e5fc,17139;2319,307558.400000000,0.0036707248974963,-0.0011111518480116,0.0040053509945762,-0.0212047337079237,0.0160943489740162,0.0214482240410747*6743a308
#CORRIMUDATAA,FILE,0,29.0,FINESTEERING,2319,307558.450,02000000,e5fc,17139;2319,307558.450000000,0.0027292817605547,-0.0003688100207798,0.0041125637056627,-0.0153951113909728,0.0131223022860389,0.0393911883831366*95bf1f31
#CORRIMUDATAA,FILE,0,29.0,FINESTEERING,2319,307558.500,02000000,e5fc,17139;2319,307558.500000000,0.0016200277225906,0.0005498205998373,0.0041475373760873,-0.0086273027888374,0.0108945844991823,0.0620126286333608*e9218b83
#CORRIMUDATAA,FILE,0,29.0,FINESTEERING,2319,307558.550,02000000,e5fc,17139;2319,307558.550000000,-0.0005322794029388,0.0009176346365958,0.0040970419138051,-0.0131979376132617,0.0164421277694510,0.0669265158231258*8f9a5a97
#CORRIMUDATAA,FILE,0,29.0,FINESTEERING,2319,307558.600,02000000,e5fc,17139;2319,307558.600000000,-0.0024803136123328,0.0004115794725838,0.0038599737118355,-0.0133344878479803,0.0220594430355002,0.0064318049844035*198b5fb1
#CORRIMUDATAA,FILE,0,29.0,FINESTEERING,2319,307558.650,02000000,e5fc,17139;2319,307558.650000000,-0.0035216299453429,0.0011730170910414,0.0037239603565622,-0.0225615933010281,0.0193997378956084,-0.0048304982518047*107b4c44
#CORRIMUDATAA,FILE,0,29.0,FINESTEERING,2319,307558.700,02000000,e5fc,17139;2319,307558.700000000,-0.0034019425591195,0.0006561472713536,0.0037000011856282,-0.0201668777817185,0.0118666135288324,-0.0020576125887664*e8b923d3
#CORRIMUDATAA,FILE,0,29.0,FINESTEERING,2319,307558.750,02000000,e5fc,17139;2319,307558.750000000,-0.0023390566116471,-0.0000452258225044,0.0036266605024119,-0.0252585105455763,0.0184595684047484,-0.0093644970779070*a9e8edf4
#CORRIMUDATAA,FILE,0,29.0,FINESTEERING,2319,307558.800,02000000,e5fc,17139;2319,307558.800000000,-0.0023682999207516,-0.0007709228851375,0.0035959545888312,-0.0196845960728131,0.0166675278170395,0.0139935534365652*dd4793c3
#CORRIMUDATAA,FILE,0,29.0,FINESTEERING,2319,307558.850,02000000,e5fc,17139;2319,307558.850000000,-0.0018902864480863,-0.0026160207393503,0.0035518329473200,-0.0211965175605118,0.0138011372856544,-0.0050907598168281*5e9fab11
#CORRIMUDATAA,FILE,0,29.0,FINESTEERING,2319,307558.900,02000000,e5fc,17139;2319,307558.900000000,-0.0019879595047379,-0.0036878410617875,0.0036191948547717,-0.0305563756895542,0.0181515994352148,0.0122390180970790*998cdbf1
#CORRIMUDATAA,FILE,0,29.0,FINESTEERING,2319,307558.950,02000000,e5fc,17139;2319,307558.950000000,-0.0016328454841044,-0.0028645790096354,0.0035722574284541,-0.0275959321936371,0.0179274981393165,-0.0074810333702858*7386a1a5
#CORRIMUDATAA,FILE,0,29.0,FINESTEERING,2319,307559.000,02000000,e5fc,17139;2319,307559.000000000,-0.0017198526632510,-0.0017231903083817,0.0037272999046436,-0.0090961200286147,0.0138603086265665,0.0059025532048171*2f79234b
#CORRIMUDATAA,FILE,0,29.0,FINESTEERING,2319,307559.050,02000000,e5fc,17139;2319,307559.050000000,-0.0009864455966833,-0.0016065267181828,0.0037891727549697,-0.0022644358971919,0.0239738976459964,-0.0426014407290537*e577bdc5
#CORRIMUDATAA,FILE,0,29.0,FINESTEERING,2319,307559.100,02000000,e5fc,17139;2319,307559.100000000,-0.0006164019741604,0.0008629634141867,0.0040089300446098,0.0031433903508210,0.0228622158185388,-0.0554418981245638*fc69a384
#CORRIMUDATAA,FILE,0,34.5,FINESTEERING,2319,307559.150,02000000,e5fc,17139;2319,307559.150000000,0.0016169442297823,0.0021886825504848,0.0039023598033069,0.0015159573047223,0.0277518101974102,-0.0856767250296312*c74cf026
#CORRIMUDATAA,FILE,0,34.5,FINESTEERING,2319,307559.200,02000000,e5fc,17139;2319,307559.200000000,0.0023566529135283,0.0029521674967135,0.0037626599892515,-0.0074362507153376,0.0158091624842652,-0.0160026845774130*4ff32717
#CORRIMUDATAA,FILE,0,34.5,FINESTEERING,2319,307559.250,02000000,e5fc,17139;2319,307559.250000000,0.0014790569991416,0.0026282747592711,0.0035855372316743,-0.0184797856301570,0.0095075769331501,0.0133735483296242*9246d85f
#CORRIMUDATAA,FILE,0,34.5,FINESTEERING,2319,307559.300,02000000,e5fc,17139;2319,307559.300000000,0.0012702116878729,0.0025623625845943,0.0036422396600428,-0.0211274963072209,0.0156760805355471,0.0427641146129679*40da3dd3
#CORRIMUDATAA,FILE,0,34.5,FINESTEERING,2319,307559.350,02000000,e5fc,17139;2319,307559.350000000,0.0001840708219037,0.0025633200851206,0.0034920198485672,-0.0226519815822638,0.0138698429829003,0.0253796220779682*b7d202ad
#CORRIMUDATAA,FILE,0,34.5,FINESTEERING,2319,307559.400,02000000,e5fc,17139;2319,307559.400000000,-0.0011401547525117,0.0007654157964503,0.0030897711131485,-0.0306300983708072,0.0182817762499111,0.0547944172290810*a8def0a5
#CORRIMUDATAA,FILE,0,34.5,FINESTEERING,2319,307559.450,02000000,e5fc,17139;2319,307559.450000000,-0.0020392620390412,-0.0020562040739870,0.0025522682388437,-0.0251901875761942,0.0134347983230273,0.0070189240870993*57d6673f
#CORRIMUDATAA,FILE,0,34.5,FINESTEERING,2319,307559.500,02000000,e5fc,17139;2319,307559.500000000,-0.0021468577507818,-0.0044954279236082,0.0024358738178309,-0.0348136845110617,0.0196109617781782,0.0013661976381175*63a56f39
#CORRIMUDATAA,FILE,0,34.5,FINESTEERING,2319,307559.550,02000000,e5fc,17139;2319,307559.550000000,-0.0018839890287650,-0.0044635951619449,0.0022754698713811,-0.0323097008886128,0.0131041919613024,-0.0324755891039251*9c7061c1
#CORRIMUDATAA,FILE,0,34.5,FINESTEERING,2319,307559.600,02000000,e5fc,17139;2319,307559.600000000,-0.0004339783048119,-0.0030410691681229,0.0022274315638604,-0.0167557092032807,0.0185106177834645,-0.0065203001610387*22c92d1c
#CORRIMUDATAA,FILE,0,34.5,FINESTEERING,2319,307559.650,02000000,e5fc,17139;2319,307559.650000000,-0.0000732838083772,-0.0010208264509244,0.0022095426870316,0.0216700015420518,0.0125325344221493,-0.0044334457016140*0bffda5e
#CORRIMUDATAA,FILE,0,34.5,FINESTEERING,2319,307559.700,02000000,e5fc,17139;2319,307559.700000000,0.0003049134888925,-0.0017463391858550,0.0024539244227759,0.0222670465438628,0.0138121407150157,-0.0015252457432112*7f912d7a
#CORRIMUDATAA,FILE,0,34.5,FINESTEERING,2319,307559.750,02000000,e5fc,17139;2319,307559.750000000,0.0008526779743490,-0.0000619306707458,0.0024064882947805,-0.0086356185044637,0.0147130685102502,-0.0469596781563466*03e99833
#CORRIMUDATAA,FILE,0,34.5,FINESTEERING,2319,307559.800,02000000,e5fc,17139;2319,307559.800000000,0.0024183723055781,0.0029341058355786,0.0020934317775532,-0.0197501588383728,0.0173496399132121,0.0242646569325031*a08568c9
#CORRIMUDATAA,FILE,0,34.5,FINESTEERING,2319,307559.850,02000000,e5fc,17139;2319,307559.850000000,0.0018140885179768,0.0048996084465624,0.0017970485752834,0.0066588290319790,0.0108514823352105,0.0077515505616322*081b7257
#CORRIMUDATAA,FILE,0,34.5,FINESTEERING,2319,307559.900,02000000,e5fc,17139;2319,307559.900000000,0.0025143418984292,0.0043662533767429,0.0017336324981107,0.0174700872262129,0.0173735945427097,-0.0160465356451411*22a1eeb6
#CORRIMUDATAA,FILE,0,34.5,FINESTEERING,2319,307559.950,02000000,e5fc,17139;2319,307559.950000000,0.0012207474649005,0.0009104020927389,0.0016064245869138,-0.0189840074165347,0.0081357988943117,-0.0064849264015245*6d40a695
#CORRIMUDATAA,FILE,0,34.5,FINESTEERING,2319,307560.000,02000000,e5fc,17139;2319,307560.000000000,0.0007075349315990,-0.0014728723890164,0.0012877165085126,-0.0432042952787255,0.0161004298462274,0.0156410199780892*7292f0d3
#CORRIMUDATAA,FILE,0,34.5,FINESTEERING,2319,307560.050,02000000,e5fc,17139;2319,307560.050000000,-0.0004068095661719,-0.0016841292140621,0.0010073100596350,-0.0431322592476936,0.0150669798227422,-0.0028025900448568*e68f91ef
#CORRIMUDATAA,FILE,0,33.0,FINESTEERING,2319,307560.100,02000000,e5fc,17139;2319,307560.100000000,-0.0021036090970208,-0.0010540749699724,0.0010872379908631,-0.0057882686865426,0.0082893349512250,0.0375234939218625*26da4a9f
#CORRIMUDATAA,FILE,0,33.0,FINESTEERING,2319,307560.150,02000000,e5fc,17139;2319,307560.150000000,-0.0024747427729698,-0.0021530137181691,0.0013671128678005,0.0057794665694810,0.0151507725656094,-0.0028411849199026*0bf6d21d
#CORRIMUDATAA,FILE,0,33.0,FINESTEERING,2319,307560.200,02000000,e5fc,17139;2319,307560.200000000,-0.0035572121191382,-0.0029983730346714,0.0012925503967555,-0.0082615409534312,-0.0017766316014848,0.0134326812771433*44c743bd
#CORRIMUDATAA,FILE,0,33.0,FINESTEERING,2319,307560.250,02000000,e5fc,17139;2319,307560.250000000,-0.0008519030077388,-0.0037516140921218,0.0012626815450391,-0.0085443555733843,0.0032678636227243,0.0129482714931309*29e3a48f
#CORRIMUDATAA,FILE,0,33.0,FINESTEERING,2319,307560.300,02000000,e5fc,17139;2319,307560.300000000,0.0001514821984680,0.0012038944545342,0.0010185756101354,-0.0045321317701789,0.0221911603341014,0.0108445449125420*c3401983
#CORRIMUDATAA,FILE,0,33.0,FINESTEERING,2319,307560.350,02000000,e5fc,17139;2319,307560.350000000,0.0003017851326105,0.0016960602290823,0.0012773977927675,0.0331402238912558,0.0040776208286253,0.0290162642897954*fcf77049
#CORRIMUDATAA,FILE,0,33.0,FINESTEERING,2319,307560.400,02000000,e5fc,17139;2319,307560.400000000,0.0010646909919862,0.0036695910413769,0.0009295235262269,0.0082144466426564,0.0184658407876239,-0.0033370999470190*e8a425f7
#CORRIMUDATAA,FILE,0,33.0,FINESTEERING,2319,307560.450,02000000,e5fc,17139;2319,307560.450000000,-0.0005101127294364,0.0006232041181919,0.0008876538521728,-0.0001123683807125,0.0137343181676634,-0.0532690360338497*4a9c0841
#CORRIMUDATAA,FILE,0,33.0,FINESTEERING,2319,307560.500,02000000,e5fc,17139;2319,307560.500000000,0.0006827947079437,0.0010869485961787,0.0004143833330155,-0.0276134516710406,0.0250975065751563,-0.0289152095972931*e065c5ee
#CORRIMUDATAA,FILE,0,33.0,FINESTEERING,2319,307560.550,02000000,e5fc,17139;2319,307560.550000000,0.0001100267275293,0.0018948240565342,0.0006711573265560,-0.0099227914999234,0.0114131906270538,-0.0553196725824850*29746343
#CORRIMUDATAA,FILE,0,33.0,FINESTEERING,2319,307560.600,02000000,e5fc,17139;2319,307560.600000000,0.0010265474867149,0.0010529923376561,0.0008180861274721,0.0078169946689260,0.0212020545704839,-0.0779220454452077*2e84445a
#CORRIMUDATAA,FILE,0,33.0,FINESTEERING,2319,307560.650,02000000,e5fc,17139;2319,307560.650000000,0.0009661917124270,0.0006252367289975,0.0010485279466195,-0.0018111587479215,0.0155210040381741,-0.0109913594409048*4d1dbf26
#CORRIMUDATAA,FILE,0,33.0,FINESTEERING,2319,307560.700,02000000,e5fc,17139;2319,307560.700000000,0.0002039545246892,-0.0011576738999781,0.0008409595793917,-0.0247509436110434,-0.0041945190046505,0.0154875417330727*19fbba74
#CORRIMUDATAA,FILE,0,33.0,FINESTEERING,2319,307560.750,02000000,e5fc,17139;2319,307560.750000000,-0.0012191504054004,-0.0005167480906367,0.0006633981365882,-0.0212473898254327,-0.0093046103172646,0.2265123179186991*492612e7
#CORRIMUDATAA,FILE,0,33.0,FINESTEERING,2319,307560.800,02000000,e5fc,17139;2319,307560.800000000,-0.0028164566956483,-0.0032904407963335,0.0010050138745375,0.0071795365645481,0.0193326043682016,0.0247786327585084*1b322818
#CORRIMUDATAA,FILE,0,33.0,FINESTEERING,2319,307560.850,02000000,e5fc,17139;2319,307560.850000000,-0.0039224332953118,0.0024110777762892,0.0015097409107467,0.0210935195940657,-0.0066257500858043,-0.0257263566381853*e3a70c80
#CORRIMUDATAA,FILE,0,33.0,FINESTEERING,2319,307560.900,02000000,e5fc,17139;2319,307560.900000000,-0.0002502474517831,-0.0015970908045743,0.0014623034123523,0.0052871710746921,0.0331369321457863,0.0412504960022357*61f46a74
#CORRIMUDATAA,FILE,0,33.0,FINESTEERING,2319,307560.950,02000000,e5fc,17139;2319,307560.950000000,-0.0010978417590651,-0.0006163279372894,0.0013548847519642,-0.0107571191324407,0.0133663830935337,-0.1091438320800430*07c4135a
#CORRIMUDATAA,FILE,0,33.0,FINESTEERING,2319,307561.000,02000000,e5fc,17139;2319,307561.000000000,0.0015596535299433,-0.0013277693498485,0.0008713141949788,-0.0333672669618084,0.0316340294122184,-0.0475003626001271*d9a26d63
#CORRIMUDATAA,FILE,0,33.0,FINESTEERING,2319,307561.050,02000000,e5fc,17139;2319,307561.050000000,0.0012943505835100,-0.0012315452668210,0.0007822778974015,-0.0020442228967237,0.0099449217834744,-0.0645763399205418*5c3d47e1
#CORRIMUDATAA,FILE,0,29.5,FINESTEERING,2319,307561.100,02000000,e5fc,17139;2319,307561.100000000,0.0023236262760326,-0.0002396388183655,0.0013810947493137,0.0096812181333163,0.0223134468495959,-0.0390927658593225*b2e75c53
#CORRIMUDATAA,FILE,0,29.5,FINESTEERING,2319,307561.150,02000000,e5fc,17139;2319,307561.150000000,0.0022799968505465,-0.0011188755573939,0.0014245299605223,-0.0051856420591621,0.0041526456271385,-0.0149116133816944*cf218059
#CORRIMUDATAA,FILE,0,29.5,FINESTEERING,2319,307561.200,02000000,e5fc,17139;2319,307561.200000000,0.0018868832565928,0.0003933037539001,0.0013310386183897,-0.0187814199551872,0.0169608265524745,0.0227829527945451*b82e4434
#CORRIMUDATAA,FILE,0,29.5,FINESTEERING,2319,307561.250,02000000,e5fc,17139;2319,307561.250000000,0.0010637919307794,0.0010835232532415,0.0008617827202095,-0.0135399027136301,0.0032391342672247,0.0450305148496690*2684838d
#CORRIMUDATAA,FILE,0,29.5,FINESTEERING,2319,307561.300,02000000,e5fc,17139;2319,307561.300000000,0.0001581921962425,0.0009720753039952,0.0008297652383475,0.0044293198322875,0.0108838013738046,0.0595022404456661*0b621af9
#CORRIMUDATAA,FILE,0,29.5,FINESTEERING,2319,307561.350,02000000,e5fc,17139;2319,307561.350000000,-0.0011795288322923,0.0005110620212298,0.0010049138250090,0.0074962986230795,0.0051492095734340,0.0678146514868432*fe42b8f9
#CORRIMUDATAA,FILE,0,29.5,FINESTEERING,2319,307561.400,02000000,e5fc,17139;2319,307561.400000000,-0.0020341222027670,-0.0006505222161483,0.0011491075500623,-0.0093225353234633,0.0073209943972787,0.0518645328696744*17b16a35
#CORRIMUDATAA,FILE,0,29.5,FINESTEERING,2319,307561.450,02000000,e5fc,17139;2319,307561.450000000,-0.0020154340886667,-0.0012648279811719,0.0008370506631738,-0.0252967635686478,0.0188445076571021,-0.0078958009331320*ee3b6fca
