#INSPVAXA,FILE,0,31.5,FINESTEERING,2319,307546.400,02000800,46eb,17139;INS_SOLUTION_GOOD,INS_RTKFIXED,17.59981841407,78.12226193241,523.3473,-76.2000,-0.0011,0.0073,0.0029,-0.628851167,-1.235905354,174.291489536,0.0395,0.0419,0.0374,0.0025,0.0025,0.0025,0.0162,0.0152,0.4870,ab000045,0*a20409c3
#INSPVAXA,FILE,0,31.5,FINESTEERING,2319,307546.500,02000800,46eb,17139;INS_SOLUTION_GOOD,INS_RTKFIXED,17.59981841313,78.12226192425,523.3456,-76.2000,-0.0001,0.0019,0.0033,-0.638007577,-1.231315867,174.299626706,0.0395,0.0419,0.0374,0.0025,0.0025,0.0025,0.0162,0.0152,0.4870,ab000045,0*1181c744
#INSPVAXA,FILE,0,31.5,FINESTEERING,2319,307546.600,02000800,46eb,17139;INS_SOLUTION_GOOD,INS_RTKFIXED,17.59981841147,78.12226191007,523.3440,-76.2000,-0.0024,-0.0040,0.0031,-0.626310379,-1.229350845,174.298992970,0.0395,0.0419,0.0374,0.0025,0.0025,0.0025,0.0162,0.0152,0.4870,ab000045,0*7e47bbe6
#INSPVAXA,FILE,0,31.5,FINESTEERING,2319,307546.700,02000800,46eb,17139;INS_SOLUTION_GOOD,INS_RTKFIXED,17.59981840829,78.12226189663,523.3425,-76.2000,-0.0028,0.0020,0.0029,-0.615241897,-1.233164850,174.294225216,0.0395,0.0419,0.0374,0.0025,0.0025,0.0025,0.0162,0.0152,0.4870,ab000045,0*c52275b6
#INSPVAXA,FILE,0,31.5,FINESTEERING,2319,307546.800,02000800,46eb,17139;INS_SOLUTION_GOOD,INS_RTKFIXED,17.59981840601,78.12226188913,523.3409,-76.2000,-0.0012,0.0052,0.0008,-0.622509298,-1.237386277,174.298111607,0.0395,0.0419,0.0374,0.0025,0.0025,0.0025,0.0162,0.0152,0.4870,ab000045,0*23377f3c
#INSPVAXA,FILE,0,31.5,FINESTEERING,2319,307546.900,02000800,46eb,17139;INS_SOLUTION_GOOD,INS_RTKFIXED,17.59981840514,78.12226188132,523.3392,-76.2000,0.0001,0.0002,0.0011,-0.630234764,-1.233937627,174.302361571,0.0395,0.0419,0.0374,0.0025,0.0025,0.0025,0.0162,0.0152,0.4870,ab000045,0*f031f629
#INSPVAXA,FILE,0,31.5,FINESTEERING,2319,307547.000,02000800,46eb,17139;INS_SOLUTION_GOOD,INS_RTKFIXED,17.59981840379,78.12226186872,523.3375,-76.2000,-0.0019,-0.0033,0.0011,-0.626130320,-1.229062443,174.300290806,0.0395,0.0419,0.0374,0.0025,0.0025,0.0025,0.0162,0.0152,0.4870,ab000045,0*599f0c37
#INSPVAXA,FILE,0,31.5,FINESTEERING,2319,307547.050,02000800,46eb,17139;INS_SOLUTION_GOOD,INS_RTKFIXED,17.59981840338,78.12226186614,523.3370,-76.2000,-0.0020,-0.0016,0.0034,-0.623612907,-1.229859351,174.300287546,0.0373,0.0392,0.0353,0.0023,0.0023,0.0023,0.0159,0.0151,0.4870,ab000045,0*83f81e2b
#INSPVAXA,FILE,0,31.5,FINESTEERING,2319,307547.150,02000800,46eb,17139;INS_SOLUTION_GOOD,INS_RTKFIXED,17.59981840434,78.12226187199,523.3366,-76.2000,-0.0007,0.0014,-0.0035,-0.613594484,-1.234378289,174.301120796,0.0373,0.0392,0.0353,0.0023,0.0023,0.0023,0.0159,0.0151,0.4870,ab000045,0*d63d17be
#INSPVAXA,FILE,0,34.5,FINESTEERING,2319,307547.250,02000800,46eb,17139;INS_SOLUTION_GOOD,INS_RTKFIXED,17.59981840405,78.12226187788,523.3360,-76.2000,-0.0037,0.0013,0.0008,-0.616405473,-1.232694731,174.297023856,0.0373,0.0392,0.0353,0.0023,0.0023,0.0023,0.0159,0.0151,0.4870,ab000045,0*fd4ee653
#INSPVAXA,FILE,0,34.5,FINESTEERING,2319,307547.350,02000800,46eb,17139;INS_SOLUTION_GOOD,INS_RTKFIXED,17.59981840440,78.12226188470,523.3358,-76.2000,0.0013,0.0024,0.0030,-0.624299369,-1.236861883,174.296852775,0.0373,0.0392,0.0353,0.0023,0.0023,0.0023,0.0159,0.0151,0.4870,ab000045,0*8f397b31
#INSPVAXA,FILE,0,34.5,FINESTEERING,2319,307547.450,02000800,46eb,17139;INS_SOLUTION_GOOD,INS_RTKFIXED,17.59981840738,78.12226189063,523.3355,-76.2000,0.0003,0.0006,-0.0012,-0.623669914,-1.237224853,174.298726434,0.0373,0.0392,0.0353,0.0023,0.0023,0.0023,0.0159,0.0151,0.4870,ab000045,0*7543db25
#INSPVAXA,FILE,0,34.5,FINESTEERING,2319,307547.550,02000800,46eb,17139;INS_SOLUTION_GOOD,INS_RTKFIXED,17.59981840751,78.12226189487,523.3348,-76.2000,-0.0021,0.0002,-0.0018,-0.618579935,-1.231091872,174.294941069,0.0373,0.0392,0.0353,0.0023,0.0023,0.0023,0.0159,0.0151,0.4870,ab000045,0*6efa1d01
#INSPVAXA,FILE,0,34.5,FINESTEERING,2319,307547.650,02000800,46eb,17139;INS_SOLUTION_GOOD,INS_RTKFIXED,17.59981840798,78.12226190073,523.3344,-76.2000,0.0002,0.0038,0.0009,-0.618466636,-1.233626046,174.292843493,0.0373,0.0392,0.0353,0.0023,0.0023,0.0023,0.0159,0.0151,0.4870,ab000045,0*f159abe4
#INSPVAXA,FILE,0,34.5,FINESTEERING,2319,307547.750,02000800,46eb,17139;INS_SOLUTION_GOOD,INS_RTKFIXED,17.59981840924,78.12226190788,523.3341,-76.2000,0.0001,0.0038,-0.0001,-0.623146011,-1.235517305,174.294169507,0.0373,0.0392,0.0353,0.0023,0.0023,0.0023,0.0159,0.0151,0.4870,ab000045,0*b31ca7d0
#INSPVAXA,FILE,0,34.5,FINESTEERING,2319,307547.850,02000800,46eb,17139;INS_SOLUTION_GOOD,INS_RTKFIXED,17.59981841076,78.12226191431,523.3336,-76.2000,0.0007,0.0028,-0.0003,-0.625205723,-1.233202270,174.293477942,0.0373,0.0392,0.0353,0.0023,0.0023,0.0023,0.0159,0.0151,0.4870,ab000045,0*41fb410d
#INSPVAXA,FILE,0,34.5,FINESTEERING,2319,307547.950,02000800,46eb,17139;INS_SOLUTION_GOOD,INS_RTKFIXED,17.59981841126,78.12226191976,523.3332,-76.2000,-0.0017,0.0027,-0.0013,-0.623590539,-1.233334149,174.290620524,0.0373,0.0392,0.0353,0.0023,0.0023,0.0023,0.0159,0.0151,0.4870,ab000045,0*2deff79b
#INSPVAXA,FILE,0,34.5,FINESTEERING,2319,307548.050,02000800,46eb,17139;INS_SOLUTION_GOOD,INS_RTKFIXED,17.59981841130,78.12226192372,523.3328,-76.2000,0.0007,0.0027,0.0001,-0.619440399,-1.237825742,174.288132023,0.0354,0.0368,0.0335,0.0023,0.0023,0.0023,0.0156,0.0151,0.4870,ab000045,0*44f8ec50
#INSPVAXA,FILE,0,32.0,FINESTEERING,2319,307548.150,02000800,46eb,17139;INS_SOLUTION_GOOD,INS_RTKFIXED,17.59981841588,78.12226192665,523.3329,-76.2000,0.0050,0.0068,0.0005,-0.625934804,-1.231743080,174.292547893,0.0354,0.0368,0.0335,0.0023,0.0023,0.0023,0.0156,0.0151,0.4870,ab000045,0*abfdbe42
#INSPVAXA,FILE,0,32.0,FINESTEERING,2319,307548.250,02000800,46eb,17139;INS_SOLUTION_GOOD,INS_RTKFIXED,17.59981841856,78.12226193068,523.3329,-76.2000,-0.0021,0.0038,-0.0022,-0.636422424,-1.224688701,174.293154878,0.0354,0.0368,0.0335,0.0023,0.0023,0.0023,0.0156,0.0151,0.4870,ab000045,0*7b56f51b
#INSPVAXA,FILE,0,32.0,FINESTEERING,2319,307548.300,02000800,46eb,17139;INS_SOLUTION_GOOD,INS_RTKFIXED,17.59981841783,78.12226193182,523.3328,-76.2000,-0.0036,0.0036,-0.0013,-0.641341418,-1.229205595,174.290870587,0.0354,0.0368,0.0335,0.0023,0.0023,0.0023,0.0156,0.0151,0.4870,ab000045,0*81782e16
#INSPVAXA,FILE,0,32.0,FINESTEERING,2319,307548.400,02000800,46eb,17139;INS_SOLUTION_GOOD,INS_RTKFIXED,17.59981841727,78.12226193404,523.3328,-76.2000,0.0013,0.0023,-0.0003,-0.632161629,-1.238672598,174.294953004,0.0354,0.0368,0.0335,0.0023,0.0023,0.0023,0.0156,0.0151,0.4870,ab000045,0*e8c61139
#INSPVAXA,FILE,0,32.0,FINESTEERING,2319,307548.500,02000800,46eb,17139;INS_SOLUTION_GOOD,INS_RTKFIXED,17.59981842142,78.12226193324,523.3327,-76.2000,0.0056,-0.0016,-0.0032,-0.625839421,-1.232331913,174.295826612,0.0354,0.0368,0.0335,0.0023,0.0023,0.0023,0.0156,0.0151,0.4870,ab000045,0*80658966
#INSPVAXA,FILE,0,32.0,FINESTEERING,2319,307548.600,02000800,46eb,17139;INS_SOLUTION_GOOD,INS_RTKFIXED,17.59981842670,78.12226193354,523.3320,-76.2000,0.0025,0.0052,-0.0117,-0.622684786,-1.210230192,174.292832026,0.0354,0.0368,0.0335,0.0023,0.0023,0.0023,0.0156,0.0151,0.4870,ab000045,0*c900afd2
#INSPVAXA,FILE,0,32.0,FINESTEERING,2319,307548.700,02000800,46eb,17139;INS_SOLUTION_GOOD,INS_RTKFIXED,17.59981841824,78.12226194227,523.3300,-76.2000,-0.0229,0.0132,-0.0233,-0.635131648,-1.155456158,174.310480691,0.0354,0.0368,0.0335,0.0023,0.0023,0.0023,0.0156,0.0151,0.4870,ab000045,0*30033f47
#INSPVAXA,FILE,0,32.0,FINESTEERING,2319,307548.800,02000800,46eb,17139;INS_SOLUTION_GOOD,INS_RTKFIXED,17.59981839006,78.12226194873,523.3277,-76.2000,-0.0449,0.0049,-0.0131,-0.659332995,-1.090214796,174.318787173,0.0354,0.0368,0.0335,0.0023,0.0023,0.0023,0.0156,0.0151,0.4870,ab000045,0*6f864c5a
#INSPVAXA,FILE,0,32.0,FINESTEERING,2319,307548.900,02000800,46eb,17139;INS_SOLUTION_GOOD,INS_RTKFIXED,17.59981833156,78.12226195478,523.3264,-76.2000,-0.0850,0.0088,-0.0075,-0.662546294,-1.061026964,174.326236001,0.0354,0.0368,0.0335,0.0023,0.0023,0.0023,0.0156,0.0151,0.4870,ab000045,0*e425bed7
#INSPVAXA,FILE,0,32.0,FINESTEERING,2319,307549.000,02000800,46eb,17139;INS_SOLUTION_GOOD,INS_RTKFIXED,17.59981824618,78.12226196369,523.3269,-76.2000,-0.1020,0.0089,0.0161,-0.657299552,-1.084961920,174.344335732,0.0354,0.0368,0.0335,0.0023,0.0023,0.0023,0.0156,0.0151,0.4870,ab000045,0*6d4ac900
#INSPVAXA,FILE,0,32.0,FINESTEERING,2319,307549.100,02000800,46eb,17139;INS_SOLUTION_GOOD,INS_RTKFIXED,17.59981814164,78.12226197393,523.3280,-76.2000,-0.1309,0.0127,0.0068,-0.652216940,-1.117055904,174.360902465,0.0338,0.0349,0.0324,0.0060,0.0061,0.0057,0.0162,0.0157,0.4863,ab000041,0*2bfa6a7f
#INSPVAXA,FILE,0,32.0,FINESTEERING,2319,307549.200,02000800,46eb,17139;INS_SOLUTION_GOOD,INS_RTKFIXED,17.59981800555,78.12226198927,523.3273,-76.2000,-0.1673,0.0184,-0.0128,-0.662842331,-1.091334461,174.393068617,0.0338,0.0349,0.0324,0.0060,0.0061,0.0057,0.0162,0.0157,0.4863,ab000041,0*f20f4e74
#INSPVAXA,FILE,0,32.0,FINESTEERING,2319,307549.300,02000800,46eb,17139;INS_SOLUTION_GOOD,INS_RTKFIXED,17.59981783797,78.12226200620,523.3259,-76.2000,-0.2048,0.0166,-0.0147,-0.662289517,-1.057944765,174.429995892,0.0338,0.0349,0.0324,0.0060,0.0061,0.0057,0.0162,0.0157,0.4863,ab000041,0*eb17957e
#INSPVAXA,FILE,0,32.0,FINESTEERING,2319,307549.400,02000800,46eb,17139;INS_SOLUTION_GOOD,INS_RTKFIXED,17.59981762616,78.12226202429,523.3242,-76.2000,-0.2624,0.0202,-0.0148,-0.658411653,-1.018141900,174.468370743,0.0338,0.0349,0.0324,0.0060,0.0061,0.0057,0.0162,0.0157,0.4863,ab000041,0*e5c8e0d1
#INSPVAXA,FILE,0,32.0,FINESTEERING,2319,307549.450,02000800,46eb,17139;INS_SOLUTION_GOOD,INS_RTKFIXED,17.59981750137,78.12226203508,523.3236,-76.2000,-0.2885,0.0236,-0.0110,-0.665303933,-0.999981609,174.489618683,0.0338,0.0349,0.0324,0.0060,0.0061,0.0057,0.0162,0.0157,0.4863,ab000041,0*4b790295
#INSPVAXA,FILE,0,32.0,FINESTEERING,2319,307549.550,02000800,46eb,17139;INS_SOLUTION_GOOD,INS_RTKFIXED,17.59981721458,78.12226206028,523.3227,-76.2000,-0.3478,0.0278,-0.0077,-0.663405607,-0.981489489,174.543867188,0.0338,0.0349,0.0324,0.0060,0.0061,0.0057,0.0162,0.0157,0.4863,ab000041,0*a3d149a0
#INSPVAXA,FILE,0,32.0,FINESTEERING,2319,307549.650,02000800,46eb,17139;INS_SOLUTION_GOOD,INS_RTKFIXED,17.59981686529,78.12226209089,523.3216,-76.2000,-0.4238,0.0354,-0.0106,-0.667338936,-0.946031428,174.619157580,0.0338,0.0349,0.0324,0.0060,0.0061,0.0057,0.0162,0.0157,0.4863,ab000041,0*c90cef13
#INSPVAXA,FILE,0,32.0,FINESTEERING,2319,307549.750,02000800,46eb,17139;INS_SOLUTION_GOOD,INS_RTKFIXED,17.59981644633,78.12226212567,523.3202,-76.2000,-0.5030,0.0369,-0.0153,-0.667942736,-0.900653195,174.701294526,0.0338,0.0349,0.0324,0.0060,0.0061,0.0057,0.0162,0.0157,0.4863,ab000041,0*3f4eb741
#INSPVAXA,FILE,0,32.0,FINESTEERING,2319,307549.850,02000800,46eb,17139;INS_SOLUTION_GOOD,INS_RTKFIXED,17.59981595071,78.12226216316,523.3183,-76.2000,-0.5937,0.0417,-0.0201,-0.677312627,-0.848366204,174.788827309,0.0338,0.0349,0.0324,0.0060,0.0061,0.0057,0.0162,0.0157,0.4863,ab000041,0*b070c433
#INSPVAXA,FILE,0,32.0,FINESTEERING,2319,307549.950,02000800,46eb,17139;INS_SOLUTION_GOOD,INS_RTKFIXED,17.59981537247,78.12226220742,523.3163,-76.2000,-0.6842,0.0503,-0.0161,-0.676367379,-0.808427562,174.900026693,0.0338,0.0349,0.0324,0.0060,0.0061,0.0057,0.0162,0.0157,0.4863,ab000041,0*0cbf0592
#INSPVAXA,FILE,0,32.0,FINESTEERING,2319,307550.000,02000800,46eb,17139;INS_SOLUTION_GOOD,INS_RTKFIXED,17.59981505262,78.12226223188,523.3155,-76.2000,-0.7301,0.0521,-0.0144,-0.672364498,-0.794072261,174.964666008,0.0338,0.0349,0.0324,0.0060,0.0061,0.0057,0.0162,0.0157,0.4863,ab000041,0*fdc16f12
#INSPVAXA,FILE,0,32.0,FINESTEERING,2319,307550.050,02000800,46eb,17139;INS_SOLUTION_GOOD,INS_RTKFIXED,17.59981471145,78.12226225670,523.3147,-76.2000,-0.7784,0.0536,-0.0154,-0.661787711,-0.783095740,175.032594155,0.0332,0.0339,0.0324,0.0087,0.0092,0.0078,0.0168,0.0163,0.4857,ab000241,0*9b3d93aa
#INSPVAXA,FILE,0,32.0,FINESTEERING,2319,307550.100,02000800,46eb,17139;INS_SOLUTION_GOOD,INS_RTKFIXED,17.59981434816,78.12226228178,523.3139,-76.2000,-0.8270,0.0544,-0.0168,-0.651588890,-0.768535996,175.104156286,0.0332,0.0339,0.0324,0.0087,0.0092,0.0078,0.0168,0.0163,0.4857,ab000241,0*eae2a6ff
#INSPVAXA,FILE,0,33.0,FINESTEERING,2319,307550.150,02000800,46eb,17139;INS_SOLUTION_GOOD,INS_RTKFIXED,17.59981396349,78.12226230698,523.3132,-76.2000,-0.8734,0.0552,-0.0120,-0.642859173,-0.754587218,175.175748912,0.0332,0.0339,0.0324,0.0087,0.0092,0.0078,0.0168,0.0163,0.4857,ab000241,0*afae3d16
#INSPVAXA,FILE,0,33.0,FINESTEERING,2319,307550.200,02000800,46eb,17139;INS_SOLUTION_GOOD,INS_RTKFIXED,17.59981355787,78.12226233352,523.3126,-76.2000,-0.9198,0.0588,-0.0117,-0.638725502,-0.737160620,175.251137316,0.0332,0.0339,0.0324,0.0087,0.0092,0.0078,0.0168,0.0163,0.4857,ab000241,0*522a976e
#INSPVAXA,FILE,0,33.0,FINESTEERING,2319,307550.250,02000800,46eb,17139;INS_SOLUTION_GOOD,INS_RTKFIXED,17.59981313143,78.12226236165,523.3119,-76.2000,-0.9658,0.0616,-0.0128,-0.631160994,-0.720423191,175.329159876,0.0332,0.0339,0.0324,0.0087,0.0092,0.0078,0.0168,0.0163,0.4857,ab000241,0*c3e85f89
#INSPVAXA,FILE,0,33.0,FINESTEERING,2319,307550.300,02000800,46eb,17139;INS_SOLUTION_GOOD,INS_RTKFIXED,17.59981268382,78.12226239044,523.3112,-76.2000,-1.0131,0.0615,-0.0146,-0.626712039,-0.706262331,175.409010443,0.0332,0.0339,0.0324,0.0087,0.0092,0.0078,0.0168,0.0163,0.4857,ab000241,0*79a34aa0
#INSPVAXA,FILE,0,33.0,FINESTEERING,2319,307550.350,02000800,46eb,17139;INS_SOLUTION_GOOD,INS_RTKFIXED,17.59981221528,78.12226241947,523.3105,-76.2000,-1.0589,0.0625,-0.0154,-0.627370025,-0.691685559,175.488575664,0.0332,0.0339,0.0324,0.0087,0.0092,0.0078,0.0168,0.0163,0.4857,ab000241,0*988840bc
#INSPVAXA,FILE,0,33.0,FINESTEERING,2319,307550.400,02000800,46eb,17139;INS_SOLUTION_GOOD,INS_RTKFIXED,17.59981172597,78.12226244948,523.3097,-76.2000,-1.1049,0.0654,-0.0166,-0.621862256,-0.668987926,175.570289020,0.0332,0.0339,0.0324,0.0087,0.0092,0.0078,0.0168,0.0163,0.4857,ab000241,0*f5c16a1f
#INSPVAXA,FILE,0,33.0,FINESTEERING,2319,307550.450,02000800,46eb,17139;INS_SOLUTION_GOOD,INS_RTKFIXED,17.59981121578,78.12226248042,523.3088,-76.2000,-1.1513,0.0663,-0.0179,-0.607376632,-0.641108775,175.654163665,0.0332,0.0339,0.0324,0.0087,0.0092,0.0078,0.0168,0.0163,0.4857,ab000241,0*1c9a02ea
#INSPVAXA,FILE,0,33.0,FINESTEERING,2319,307550.500,02000000,46eb,17139;INS_SOLUTION_GOOD,INS_RTKFIXED,17.59981068426,78.12226251080,523.3079,-76.2000,-1.1987,0.0638,-0.0193,-0.595283522,-0.609656719,175.737232685,0.0332,0.0339,0.0324,0.0087,0.0092,0.0078,0.0168,0.0163,0.4857,ab000241,0*e5960147
#INSPVAXA,FILE,0,33.0,FINESTEERING,2319,307550.550,02000000,46eb,17139;INS_SOLUTION_GOOD,INS_RTKFIXED,17.59981013112,78.12226254022,523.3069,-76.2000,-1.2468,0.0621,-0.0203,-0.586601257,-0.576463612,175.817630323,0.0332,0.0339,0.0324,0.0087,0.0092,0.0078,0.0168,0.0163,0.4857,ab000241,0*b84a045a
#INSPVAXA,FILE,0,33.0,FINESTEERING,2319,307550.600,02000000,46eb,17139;INS_SOLUTION_GOOD,INS_RTKFIXED,17.59980955632,78.12226256933,523.3059,-76.2000,-1.2950,0.0628,-0.0194,-0.572473955,-0.547243755,175.896358652,0.0332,0.0339,0.0324,0.0087,0.0092,0.0078,0.0168,0.0163,0.4857,ab000241,0*ddddff97
#INSPVAXA,FILE,0,33.0,FINESTEERING,2319,307550.650,02000000,46eb,17139;INS_SOLUTION_GOOD,INS_RTKFIXED,17.59980896025,78.12226259858,523.3049,-76.2000,-1.3417,0.0628,-0.0192,-0.550443061,-0.521926608,175.973669144,0.0332,0.0339,0.0324,0.0087,0.0092,0.0078,0.0168,0.0163,0.4857,ab000241,0*faf45703
#INSPVAXA,FILE,0,33.0,FINESTEERING,2319,307550.700,02000000,46eb,17139;INS_SOLUTION_GOOD,INS_RTKFIXED,17.59980834289,78.12226262824,523.3041,-76.2000,-1.3889,0.0647,-0.0170,-0.539669154,-0.499386627,176.051414721,0.0332,0.0339,0.0324,0.0087,0.0092,0.0078,0.0168,0.0163,0.4857,ab000241,0*a858a2c3
#INSPVAXA,FILE,0,33.0,FINESTEERING,2319,307550.750,02000000,46eb,17139;INS_SOLUTION_GOOD,INS_RTKFIXED,17.59980770328,78.12226265941,523.3033,-76.2000,-1.4398,0.0689,-0.0146,-0.538483312,-0.477489370,176.132953215,0.0332,0.0339,0.0324,0.0087,0.0092,0.0078,0.0168,0.0163,0.4857,ab000241,0*a0087c8b
#INSPVAXA,FILE,0,33.0,FINESTEERING,2319,307550.800,02000000,46eb,17139;INS_SOLUTION_GOOD,INS_RTKFIXED,17.59980704073,78.12226269203,523.3025,-76.2000,-1.4907,0.0707,-0.0177,-0.553181103,-0.463987072,176.215401797,0.0332,0.0339,0.0324,0.0087,0.0092,0.0078,0.0168,0.0163,0.4857,ab000241,0*fcf87c75
#INSPVAXA,FILE,0,33.0,FINESTEERING,2319,307550.850,02000000,46eb,17139;INS_SOLUTION_GOOD,INS_RTKFIXED,17.59980635479,78.12226272447,523.3014,-76.2000,-1.5434,0.0687,-0.0234,-0.585159012,-0.461893104,176.289578520,0.0332,0.0339,0.0324,0.0087,0.0092,0.0078,0.0168,0.0163,0.4857,ab000241,0*2b732555
#INSPVAXA,FILE,0,33.0,FINESTEERING,2319,307550.900,02000000,46eb,17139;INS_SOLUTION_GOOD,INS_RTKFIXED,17.59980564578,78.12226275554,523.3001,-76.2000,-1.5940,0.0656,-0.0284,-0.632832879,-0.469933848,176.351222575,0.0332,0.0339,0.0324,0.0087,0.0092,0.0078,0.0168,0.0163,0.4857,ab000241,0*70df50d9
#INSPVAXA,FILE,0,33.0,FINESTEERING,2319,307550.950,02000000,46eb,17139;INS_SOLUTION_GOOD,INS_RTKFIXED,17.59980491366,78.12226278631,523.2986,-76.2000,-1.6448,0.0665,-0.0337,-0.691322722,-0.473291075,176.404048235,0.0332,0.0339,0.0324,0.0087,0.0092,0.0078,0.0168,0.0163,0.4857,ab000241,0*6dc2ccaf
#INSPVAXA,FILE,0,33.0,FINESTEERING,2319,307551.000,02000000,46eb,17139;INS_SOLUTION_GOOD,INS_RTKFIXED,17.59980415866,78.12226281860,523.2969,-76.2000,-1.6955,0.0703,-0.0351,-0.737980153,-0.469961790,176.455552452,0.0332,0.0339,0.0324,0.0087,0.0092,0.0078,0.0168,0.0163,0.4857,ab000241,0*48558080
#INSPVAXA,FILE,0,33.0,FINESTEERING,2319,307551.050,02000000,46eb,17139;INS_SOLUTION_GOOD,INS_RTKFIXED,17.59980338049,78.12226285140,523.2951,-76.2000,-1.7443,0.0714,-0.0379,-0.765877693,-0.469511915,176.507578936,0.0342,0.0346,0.0338,0.0111,0.0123,0.0095,0.0174,0.0169,0.4850,ab000241,0*99fd07cc
#INSPVAXA,FILE,0,28.0,FINESTEERING,2319,307551.100,02000000,46eb,17139;INS_SOLUTION_GOOD,INS_RTKFIXED,17.59980258009,78.12226288237,523.2933,-76.2000,-1.7916,0.0660,-0.0365,-0.785004536,-0.454791609,176.556756760,0.0342,0.0346,0.0338,0.0111,0.0123,0.0095,0.0174,0.0169,0.4850,ab000241,0*f4cdadd8
#INSPVAXA,FILE,0,28.0,FINESTEERING,2319,307551.150,02000000,46eb,17139;INS_SOLUTION_GOOD,INS_RTKFIXED,17.59980175851,78.12226291097,523.2917,-76.2000,-1.8375,0.0609,-0.0322,-0.789756782,-0.434317948,176.599598597,0.0342,0.0346,0.0338,0.0111,0.0123,0.0095,0.0174,0.0169,0.4850,ab000241,0*eb22db9d
#INSPVAXA,FILE,0,28.0,FINESTEERING,2319,307551.200,02000000,46eb,17139;INS_SOLUTION_GOOD,INS_RTKFIXED,17.59980091717,78.12226293685,523.2903,-76.2000,-1.8787,0.0552,-0.0269,-0.784817947,-0.419339993,176.632162113,0.0342,0.0346,0.0338,0.0111,0.0123,0.0095,0.0174,0.0169,0.4850,ab000241,0*c2561ea0
#INSPVAXA,FILE,0,28.0,FINESTEERING,2319,307551.250,02000000,46eb,17139;INS_SOLUTION_GOOD,INS_RTKFIXED,17.59980005943,78.12226296109,523.2891,-76.2000,-1.9118,0.0533,-0.0218,-0.784546403,-0.409592628,176.654709898,0.0342,0.0346,0.0338,0.0111,0.0123,0.0095,0.0174,0.0169,0.4850,ab000241,0*1ca0b148
#INSPVAXA,FILE,0,28.0,FINESTEERING,2319,307551.300,02000000,46eb,17139;INS_SOLUTION_GOOD,INS_RTKFIXED,17.59979918752,78.12226298509,523.2881,-76.2000,-1.9407,0.0541,-0.0195,-0.773540428,-0.407135685,176.665112120,0.0342,0.0346,0.0338,0.0111,0.0123,0.0095,0.0174,0.0169,0.4850,ab000241,0*1b7dbe5d
#INSPVAXA,FILE,0,28.0,FINESTEERING,2319,307551.350,02000000,46eb,17139;INS_SOLUTION_GOOD,INS_RTKFIXED,17.59979830294,78.12226300861,523.2870,-76.2000,-1.9683,0.0518,-0.0239,-0.743670667,-0.389677358,176.663247794,0.0342,0.0346,0.0338,0.0111,0.0123,0.0095,0.0174,0.0169,0.4850,ab000241,0*09e161f3
#INSPVAXA,FILE,0,28.0,FINESTEERING,2319,307551.400,02000000,46eb,17139;INS_SOLUTION_GOOD,INS_RTKFIXED,17.59979740592,78.12226303119,523.2856,-76.2000,-1.9954,0.0498,-0.0313,-0.709481261,-0.350832033,176.648648665,0.0342,0.0346,0.0338,0.0111,0.0123,0.0095,0.0174,0.0169,0.4850,ab000241,0*0f33c22f
#INSPVAXA,FILE,0,28.0,FINESTEERING,2319,307551.450,02000000,46eb,17139;INS_SOLUTION_GOOD,INS_RTKFIXED,17.59979649695,78.12226305355,523.2839,-76.2000,-2.0213,0.0499,-0.0367,-0.683745335,-0.295578221,176.628208966,0.0342,0.0346,0.0338,0.0111,0.0123,0.0095,0.0174,0.0169,0.4850,ab000241,0*157fc478
#INSPVAXA,FILE,0,28.0,FINESTEERING,2319,307551.500,02000000,46eb,17139;INS_SOLUTION_GOOD,INS_RTKFIXED,17.59979557795,78.12226307723,523.2823,-76.2000,-2.0408,0.0555,-0.0329,-0.677330229,-0.242918759,176.601758014,0.0342,0.0346,0.0338,0.0111,0.0123,0.0095,0.0174,0.0169,0.4850,ab000241,0*10a62222
#INSPVAXA,FILE,0,28.0,FINESTEERING,2319,307551.550,02000000,46eb,17139;INS_SOLUTION_GOOD,INS_RTKFIXED,17.59979465122,78.12226310432,523.2810,-76.2000,-2.0558,0.0646,-0.0229,-0.680115758,-0.208239367,176.568803966,0.0342,0.0346,0.0338,0.0111,0.0123,0.0095,0.0174,0.0169,0.4850,ab000241,0*94ef4001
#INSPVAXA,FILE,0,28.0,FINESTEERING,2319,307551.600,02000000,46eb,17139;INS_SOLUTION_GOOD,INS_RTKFIXED,17.59979371783,78.12226313453,523.2801,-76.2000,-2.0689,0.0694,-0.0142,-0.678100384,-0.187697960,176.523711402,0.0342,0.0346,0.0338,0.0111,0.0123,0.0095,0.0174,0.0169,0.4850,ab000241,0*5a7df23d
#INSPVAXA,FILE,0,28.0,FINESTEERING,2319,307551.650,02000000,46eb,17139;INS_SOLUTION_GOOD,INS_RTKFIXED,17.59979278001,78.12226316571,523.2796,-76.2000,-2.0767,0.0694,-0.0063,-0.682775419,-0.188447276,176.461436184,0.0342,0.0346,0.0338,0.0111,0.0123,0.0095,0.0174,0.0169,0.4850,ab000241,0*2db49c80
#INSPVAXA,FILE,0,28.0,FINESTEERING,2319,307551.700,02000000,46eb,17139;INS_SOLUTION_GOOD,INS_RTKFIXED,17.59979183907,78.12226319606,523.2795,-76.2000,-2.0818,0.0664,0.0009,-0.699851371,-0.197571658,176.381232385,0.0342,0.0346,0.0338,0.0111,0.0123,0.0095,0.0174,0.0169,0.4850,ab000241,0*568c2f82
#INSPVAXA,FILE,0,28.0,FINESTEERING,2319,307551.750,02000000,46eb,17139;INS_SOLUTION_GOOD,INS_RTKFIXED,17.59979089813,78.12226322643,523.2799,-76.2000,-2.0789,0.0678,0.0109,-0.732303256,-0.220648023,176.288328657,0.0342,0.0346,0.0338,0.0111,0.0123,0.0095,0.0174,0.0169,0.4850,ab000241,0*d92a6702
#INSPVAXA,FILE,0,28.0,FINESTEERING,2319,307551.800,02000000,46eb,17139;INS_SOLUTION_GOOD,INS_RTKFIXED,17.59978995721,78.12226325812,523.2806,-76.2000,-2.0777,0.0722,0.0167,-0.760302732,-0.251129072,176.188546843,0.0342,0.0346,0.0338,0.0111,0.0123,0.0095,0.0174,0.0169,0.4850,ab000241,0*8b5aaf82
#INSPVAXA,FILE,0,28.0,FINESTEERING,2319,307551.850,02000000,46eb,17139;INS_SOLUTION_GOOD,INS_RTKFIXED,17.59978901807,78.12226329121,523.2815,-76.2000,-2.0747,0.0745,0.0191,-0.778013611,-0.265733457,176.083712250,0.0342,0.0346,0.0338,0.0111,0.0123,0.0095,0.0174,0.0169,0.4850,ab000241,0*de950ec4
#INSPVAXA,FILE,0,28.0,FINESTEERING,2319,307551.900,02000000,46eb,17139;INS_SOLUTION_GOOD,INS_RTKFIXED,17.59978808096,78.12226332532,523.2825,-76.2000,-2.0684,0.0767,0.0216,-0.763021247,-0.295580717,175.973523049,0.0342,0.0346,0.0338,0.0111,0.0123,0.0095,0.0174,0.0169,0.4850,ab000241,0*5eea0911
#INSPVAXA,FILE,0,28.0,FINESTEERING,2319,307551.950,02000000,46eb,17139;INS_SOLUTION_GOOD,INS_RTKFIXED,17.59978714600,78.12226335954,523.2835,-76.2000,-2.0646,0.0749,0.0167,-0.745822376,-0.311807477,175.858879844,0.0342,0.0346,0.0338,0.0111,0.0123,0.0095,0.0174,0.0169,0.4850,ab000241,0*d6daacfc
#INSPVAXA,FILE,0,28.0,FINESTEERING,2319,307552.000,02000000,46eb,17139;INS_SOLUTION_GOOD,INS_RTKFIXED,17.59978621415,78.12226339431,523.2843,-76.2000,-2.0563,0.0789,0.0144,-0.728646485,-0.323956104,175.736608637,0.0342,0.0346,0.0338,0.0111,0.0123,0.0095,0.0174,0.0169,0.4850,ab000241,0*a3fcff36
#INSPVAXA,FILE,0,28.0,FINESTEERING,2319,307552.050,02000000,46eb,17139;INS_SOLUTION_GOOD,INS_RTKFIXED,17.59978528385,78.12226343108,523.2847,-76.2000,-2.0556,0.0850,-0.0028,-0.724978264,-0.322618446,175.607446528,0.0368,0.0375,0.0366,0.0132,0.0147,0.0107,0.0180,0.0174,0.4843,ab000241,0*d30c2bfc
#INSPVAXA,FILE,0,28.0,FINESTEERING,2319,307552.100,02000000,46eb,17139;INS_SOLUTION_GOOD,INS_RTKFIXED,17.59978435460,78.12226347243,523.2839,-76.2000,-2.0531,0.0963,-0.0292,-0.741640511,-0.301730458,175.473369555,0.0368,0.0375,0.0366,0.0132,0.0147,0.0107,0.0180,0.0174,0.4843,ab000241,0*8937495d
#INSPVAXA,FILE,0,28.0,FINESTEERING,2319,307552.150,02000000,46eb,17139;INS_SOLUTION_GOOD,INS_RTKFIXED,17.59978342621,78.12226351855,523.2821,-76.2000,-2.0502,0.1056,-0.0490,-0.780291853,-0.252262265,175.328335351,0.0368,0.0375,0.0366,0.0132,0.0147,0.0107,0.0180,0.0174,0.4843,ab000241,0*e968c4c1
#INSPVAXA,FILE,0,28.5,FINESTEERING,2319,307552.200,02000000,46eb,17139;INS_SOLUTION_GOOD,INS_RTKFIXED,17.59978249983,78.12226356953,523.2793,-76.2000,-2.0467,0.1147,-0.0651,-0.841526342,-0.170526157,175.168008558,0.0368,0.0375,0.0366,0.0132,0.0147,0.0107,0.0180,0.0174,0.4843,ab000241,0*714cab3b
#INSPVAXA,FILE,0,28.5,FINESTEERING,2319,307552.250,02000000,46eb,17139;INS_SOLUTION_GOOD,INS_RTKFIXED,17.59978157521,78.12226362307,523.2761,-76.2000,-2.0411,0.1180,-0.0670,-0.901309821,-0.086329225,174.987474861,0.0368,0.0375,0.0366,0.0132,0.0147,0.0107,0.0180,0.0174,0.4843,ab000241,0*1a5775a6
#INSPVAXA,FILE,0,28.5,FINESTEERING,2319,307552.300,02000000,46eb,17139;INS_SOLUTION_GOOD,INS_RTKFIXED,17.59978065430,78.12226367791,523.2731,-76.2000,-2.0317,0.1208,-0.0574,-0.990898357,-0.011212136,174.789920110,0.0368,0.0375,0.0366,0.0132,0.0147,0.0107,0.0180,0.0174,0.4843,ab000241,0*b6853b07
#INSPVAXA,FILE,0,28.5,FINESTEERING,2319,307552.350,02000000,46eb,17139;INS_SOLUTION_GOOD,INS_RTKFIXED,17.59977973721,78.12226373489,523.2709,-76.2000,-2.0234,0.1272,-0.0324,-1.093421274,0.019667385,174.579824456,0.0368,0.0375,0.0366,0.0132,0.0147,0.0107,0.0180,0.0174,0.4843,ab000241,0*19f6d261
#INSPVAXA,FILE,0,28.5,FINESTEERING,2319,307552.400,02000000,46eb,17139;INS_SOLUTION_GOOD,INS_RTKFIXED,17.59977882380,78.12226379524,523.2698,-76.2000,-2.0154,0.1356,-0.0120,-1.177762808,0.001294886,174.354537788,0.0368,0.0375,0.0366,0.0132,0.0147,0.0107,0.0180,0.0174,0.4843,ab000241,0*f62c6343
#INSPVAXA,FILE,0,28.5,FINESTEERING,2319,307552.450,02000000,46eb,17139;INS_SOLUTION_GOOD,INS_RTKFIXED,17.59977791373,78.12226385900,523.2698,-76.2000,-2.0089,0.1406,0.0058,-1.220990941,-0.042653598,174.116754462,0.0368,0.0375,0.0366,0.0132,0.0147,0.0107,0.0180,0.0174,0.4843,ab000241,0*55fae2ae
#INSPVAXA,FILE,0,28.5,FINESTEERING,2319,307552.500,02000000,46eb,17139;INS_SOLUTION_GOOD,INS_RTKFIXED,17.59977700637,78.12226392427,523.2704,-76.2000,-2.0039,0.1428,0.0201,-1.241213395,-0.093116310,173.861591862,0.0368,0.0375,0.0366,0.0132,0.0147,0.0107,0.0180,0.0174,0.4843,ab000241,0*4f4ab511
#INSPVAXA,FILE,0,28.5,FINESTEERING,2319,307552.550,02000000,46eb,17139;INS_SOLUTION_GOOD,INS_RTKFIXED,17.59977610263,78.12226399046,523.2719,-76.2000,-1.9949,0.1450,0.0384,-1.232342715,-0.161333981,173.589671045,0.0368,0.0375,0.0366,0.0132,0.0147,0.0107,0.0180,0.0174,0.4843,ab000241,0*b7a5c060
#INSPVAXA,FILE,0,28.5,FINESTEERING,2319,307552.600,02000000,46eb,17139;INS_SOLUTION_GOOD,INS_RTKFIXED,17.59977520229,78.12226405831,523.2741,-76.2000,-1.9860,0.1480,0.0480,-1.185174637,-0.255641157,173.300806315,0.0368,0.0375,0.0366,0.0132,0.0147,0.0107,0.0180,0.0174,0.4843,ab000241,0*72e9d511
#INSPVAXA,FILE,0,28.5,FINESTEERING,2319,307552.650,02000000,46eb,17139;INS_SOLUTION_GOOD,INS_RTKFIXED,17.59977430597,78.12226412679,523.2765,-76.2000,-1.9787,0.1489,0.0462,-1.122911981,-0.359067618,172.990008143,0.0368,0.0375,0.0366,0.0132,0.0147,0.0107,0.0180,0.0174,0.4843,ab000241,0*9c754cfe
#INSPVAXA,FILE,0,28.5,FINESTEERING,2319,307552.700,02000000,46eb,17139;INS_SOLUTION_GOOD,INS_RTKFIXED,17.59977341241,78.12226419642,523.2786,-76.2000,-1.9721,0.1523,0.0364,-1.036882985,-0.466578057,172.657669960,0.0368,0.0375,0.0366,0.0132,0.0147,0.0107,0.0180,0.0174,0.4843,ab000241,0*2e9e0222
#INSPVAXA,FILE,0,28.5,FINESTEERING,2319,307552.750,02000000,46eb,17139;INS_SOLUTION_GOOD,INS_RTKFIXED,17.59977252218,78.12226426852,523.2801,-76.2000,-1.9649,0.1589,0.0196,-0.961209947,-0.531731014,172.305037020,0.0368,0.0375,0.0366,0.0132,0.0147,0.0107,0.0180,0.0174,0.4843,ab000241,0*f1f7b904
#INSPVAXA,FILE,0,28.5,FINESTEERING,2319,307552.800,02000000,46eb,17139;INS_SOLUTION_GOOD,INS_RTKFIXED,17.59977163521,78.12226434549,523.2809,-76.2000,-1.9565,0.1732,0.0101,-0.900941208,-0.565808544,171.935167658,0.0368,0.0375,0.0366,0.0132,0.0147,0.0107,0.0180,0.0174,0.4843,ab000241,0*372dbdd2
#INSPVAXA,FILE,0,28.5,FINESTEERING,2319,307552.850,02000000,46eb,17139;INS_SOLUTION_GOOD,INS_RTKFIXED,17.59977075236,78.12226443019,523.2811,-76.2000,-1.9474,0.1914,0.0003,-0.849694014,-0.581029864,171.551568115,0.0368,0.0375,0.0366,0.0132,0.0147,0.0107,0.0180,0.0174,0.4843,ab000241,0*7bc9ddd4
#INSPVAXA,FILE,0,28.5,FINESTEERING,2319,307552.900,02000000,46eb,17139;INS_SOLUTION_GOOD,INS_RTKFIXED,17.59976987371,78.12226452410,523.2809,-76.2000,-1.9373,0.2113,-0.0097,-0.817888781,-0.594027984,171.160454365,0.0368,0.0375,0.0366,0.0132,0.0147,0.0107,0.0180,0.0174,0.4843,ab000241,0*7cbf42c7
#INSPVAXA,FILE,0,28.5,FINESTEERING,2319,307552.950,02000000,46eb,17139;INS_SOLUTION_GOOD,INS_RTKFIXED,17.59976899933,78.12226462652,523.2804,-76.2000,-1.9293,0.2284,-0.0135,-0.795686654,-0.600861016,170.763407096,0.0368,0.0375,0.0366,0.0132,0.0147,0.0107,0.0180,0.0174,0.4843,ab000241,0*03229f42
#INSPVAXA,FILE,0,28.5,FINESTEERING,2319,307553.000,02000000,46eb,17139;INS_SOLUTION_GOOD,INS_RTKFIXED,17.59976812883,78.12226473549,523.2798,-76.2000,-1.9196,0.2412,-0.0136,-0.811571717,-0.609409036,170.357465973,0.0368,0.0375,0.0366,0.0132,0.0147,0.0107,0.0180,0.0174,0.4843,ab000241,0*bd71e9d3
#INSPVAXA,FILE,0,28.5,FINESTEERING,2319,307553.050,02000000,46eb,17139;INS_SOLUTION_GOOD,INS_RTKFIXED,17.59976726650,78.12226485385,523.2796,-76.2000,-1.9077,0.2528,-0.0034,-0.837627096,-0.611387993,169.939531267,0.0416,0.0429,0.0402,0.0148,0.0162,0.0117,0.0183,0.0178,0.4837,ab000241,0*9649368a
#INSPVAXA,FILE,0,28.5,FINESTEERING,2319,307553.100,02000000,46eb,17139;INS_SOLUTION_GOOD,INS_RTKFIXED,17.59976641235,78.12226498053,523.2798,-76.2000,-1.8953,0.2629,0.0080,-0.867608936,-0.628887680,169.504650890,0.0416,0.0429,0.0402,0.0148,0.0162,0.0117,0.0183,0.0178,0.4837,ab000241,0*4e919c12
#INSPVAXA,FILE,0,29.0,FINESTEERING,2319,307553.150,02000000,46eb,17139;INS_SOLUTION_GOOD,INS_RTKFIXED,17.59976556372,78.12226511214,523.2803,-76.2000,-1.8853,0.2725,0.0128,-0.899143383,-0.642705543,169.053698224,0.0416,0.0429,0.0402,0.0148,0.0162,0.0117,0.0183,0.0178,0.4837,ab000241,0*82b34972
#INSPVAXA,FILE,0,29.0,FINESTEERING,2319,307553.200,02000000,46eb,17139;INS_SOLUTION_GOOD,INS_RTKFIXED,17.59976471990,78.12226524827,523.2809,-76.2000,-1.8737,0.2826,0.0142,-0.928621420,-0.681987626,168.587490897,0.0416,0.0429,0.0402,0.0148,0.0162,0.0117,0.0183,0.0178,0.4837,ab000241,0*4d317472
#INSPVAXA,FILE,0,29.0,FINESTEERING,2319,307553.250,02000000,46eb,17139;INS_SOLUTION_GOOD,INS_RTKFIXED,17.59976388002,78.12226539025,523.2815,-76.2000,-1.8652,0.2961,0.0091,-0.964054886,-0.718204497,168.107498579,0.0416,0.0429,0.0402,0.0148,0.0162,0.0117,0.0183,0.0178,0.4837,ab000241,0*c367d7bc
#INSPVAXA,FILE,0,29.0,FINESTEERING,2319,307553.300,02000000,46eb,17139;INS_SOLUTION_GOOD,INS_RTKFIXED,17.59976304494,78.12226553954,523.2821,-76.2000,-1.8534,0.3137,0.0095,-0.991820030,-0.755053805,167.620945509,0.0416,0.0429,0.0402,0.0148,0.0162,0.0117,0.0183,0.0178,0.4837,ab000241,0*a6a8f8fe
#INSPVAXA,FILE,0,29.0,FINESTEERING,2319,307553.350,02000000,46eb,17139;INS_SOLUTION_GOOD,INS_RTKFIXED,17.59976221410,78.12226569618,523.2825,-76.2000,-1.8440,0.3291,0.0077,-1.007787702,-0.795127678,167.127303822,0.0416,0.0429,0.0402,0.0148,0.0162,0.0117,0.0183,0.0178,0.4837,ab000241,0*510170a7
#INSPVAXA,FILE,0,29.0,FINESTEERING,2319,307553.400,02000000,46eb,17139;INS_SOLUTION_GOOD,INS_RTKFIXED,17.59976138859,78.12226585944,523.2829,-76.2000,-1.8316,0.3427,0.0080,-1.039111988,-0.834617819,166.625354463,0.0416,0.0429,0.0402,0.0148,0.0162,0.0117,0.0183,0.0178,0.4837,ab000241,0*c1c3997e
#INSPVAXA,FILE,0,29.0,FINESTEERING,2319,307553.450,02000000,46eb,17139;INS_SOLUTION_GOOD,INS_RTKFIXED,17.59976056859,78.12226602932,523.2833,-76.2000,-1.8192,0.3564,0.0076,-1.070815476,-0.878469221,166.112054833,0.0416,0.0429,0.0402,0.0148,0.0162,0.0117,0.0183,0.0178,0.4837,ab000241,0*8651b6ea
#INSPVAXA,FILE,0,29.0,FINESTEERING,2319,307553.500,02000000,46eb,17139;INS_SOLUTION_GOOD,INS_RTKFIXED,17.59975975279,78.12226620534,523.2836,-76.2000,-1.8123,0.3684,-0.0007,-1.099985125,-0.915145062,165.576862002,0.0416,0.0429,0.0402,0.0148,0.0162,0.0117,0.0183,0.0178,0.4837,ab000241,0*7dd79f7a
#INSPVAXA,FILE,0,29.0,FINESTEERING,2319,307553.550,02000000,46eb,17139;INS_SOLUTION_GOOD,INS_RTKFIXED,17.59975894036,78.12226638689,523.2835,-76.2000,-1.8048,0.3797,-0.0085,-1.092776827,-0.941066839,165.019520849,0.0416,0.0429,0.0402,0.0148,0.0162,0.0117,0.0183,0.0178,0.4837,ab000241,0*72c24718
#INSPVAXA,FILE,0,29.0,FINESTEERING,2319,307553.600,02000000,46eb,17139;INS_SOLUTION_GOOD,INS_RTKFIXED,17.59975813067,78.12226657324,523.2829,-76.2000,-1.7995,0.3910,-0.0212,-1.071684320,-0.955046690,164.440628308,0.0416,0.0429,0.0402,0.0148,0.0162,0.0117,0.0183,0.0178,0.4837,ab000241,0*b43466d9
#INSPVAXA,FILE,0,29.0,FINESTEERING,2319,307553.650,02000000,46eb,17139;INS_SOLUTION_GOOD,INS_RTKFIXED,17.59975732401,78.12226676594,523.2819,-76.2000,-1.7910,0.4056,-0.0265,-1.039957018,-0.967411626,163.857552360,0.0416,0.0429,0.0402,0.0148,0.0162,0.0117,0.0183,0.0178,0.4837,ab000241,0*947bb077
#INSPVAXA,FILE,0,29.0,FINESTEERING,2319,307553.700,02000000,46eb,17139;INS_SOLUTION_GOOD,INS_RTKFIXED,17.59975652056,78.12226696680,523.2805,-76.2000,-1.7837,0.4272,-0.0335,-1.039592041,-0.964806157,163.268012889,0.0416,0.0429,0.0402,0.0148,0.0162,0.0117,0.0183,0.0178,0.4837,ab000241,0*6fbffd5c
#INSPVAXA,FILE,0,29.0,FINESTEERING,2319,307553.750,02000000,46eb,17139;INS_SOLUTION_GOOD,INS_RTKFIXED,17.59975572097,78.12226717787,523.2787,-76.2000,-1.7752,0.4479,-0.0404,-1.026137677,-0.954835875,162.668162772,0.0416,0.0429,0.0402,0.0148,0.0162,0.0117,0.0183,0.0178,0.4837,ab000241,0*1d6921d7
#INSPVAXA,FILE,0,29.0,FINESTEERING,2319,307553.800,02000000,46eb,17139;INS_SOLUTION_GOOD,INS_RTKFIXED,17.59975492463,78.12226739602,523.2764,-76.2000,-1.7688,0.4587,-0.0507,-0.967463660,-0.931649261,162.039749906,0.0416,0.0429,0.0402,0.0148,0.0162,0.0117,0.0183,0.0178,0.4837,ab000241,0*1d2ef07f
#INSPVAXA,FILE,0,29.0,FINESTEERING,2319,307553.850,02000000,46eb,17139;INS_SOLUTION_GOOD,INS_RTKFIXED,17.59975413091,78.12226761726,523.2739,-76.2000,-1.7643,0.4623,-0.0531,-0.900699873,-0.891364313,161.382450367,0.0416,0.0429,0.0402,0.0148,0.0162,0.0117,0.0183,0.0178,0.4837,ab000241,0*d8f1ee01
#INSPVAXA,FILE,0,29.0,FINESTEERING,2319,307553.900,02000000,46eb,17139;INS_SOLUTION_GOOD,INS_RTKFIXED,17.59975333828,78.12226784293,523.2712,-76.2000,-1.7613,0.4772,-0.0556,-0.851602352,-0.853498534,160.707205036,0.0416,0.0429,0.0402,0.0148,0.0162,0.0117,0.0183,0.0178,0.4837,ab000241,0*f95176f3
#INSPVAXA,FILE,0,29.0,FINESTEERING,2319,307553.950,02000000,46eb,17139;INS_SOLUTION_GOOD,INS_RTKFIXED,17.59975254908,78.12226808027,523.2687,-76.2000,-1.7513,0.5108,-0.0483,-0.811669185,-0.823819934,160.038159625,0.0416,0.0429,0.0402,0.0148,0.0162,0.0117,0.0183,0.0178,0.4837,ab000241,0*73b4f283
#INSPVAXA,FILE,0,29.0,FINESTEERING,2319,307554.000,02000000,46eb,17139;INS_SOLUTION_GOOD,INS_RTKFIXED,17.59975176446,78.12226833419,523.2665,-76.2000,-1.7392,0.5470,-0.0423,-0.772033078,-0.823934106,159.384013208,0.0416,0.0429,0.0402,0.0148,0.0162,0.0117,0.0183,0.0178,0.4837,ab000241,0*b92fe16a
#INSPVAXA,FILE,0,29.0,FINESTEERING,2319,307554.050,02000000,46eb,17139;INS_SOLUTION_GOOD,INS_RTKFIXED,17.59975099487,78.12226860736,523.2651,-76.2000,-1.7282,0.5673,-0.0226,-0.754271357,-0.848148139,158.729153519,0.0499,0.0513,0.0440,0.0161,0.0172,0.0124,0.0187,0.0183,0.4831,ab000241,0*016ee792
#INSPVAXA,FILE,0,28.5,FINESTEERING,2319,307554.100,02000000,46eb,17139;INS_SOLUTION_GOOD,INS_RTKFIXED,17.59975024000,78.12226889385,523.2646,-76.2000,-1.7169,0.5764,-0.0030,-0.745285904,-0.905490593,158.046216175,0.0499,0.0513,0.0440,0.0161,0.0172,0.0124,0.0187,0.0183,0.4831,ab000241,0*4598c58d
#INSPVAXA,FILE,0,28.5,FINESTEERING,2319,307554.150,02000000,46eb,17139;INS_SOLUTION_GOOD,INS_RTKFIXED,17.59974948898,78.12226918510,523.2647,-76.2000,-1.7093,0.5879,0.0006,-0.759291628,-0.966685803,157.330829490,0.0499,0.0513,0.0440,0.0161,0.0172,0.0124,0.0187,0.0183,0.4831,ab000241,0*e9336d19
#INSPVAXA,FILE,0,28.5,FINESTEERING,2319,307554.200,02000000,46eb,17139;INS_SOLUTION_GOOD,INS_RTKFIXED,17.59974874042,78.12226948369,523.2649,-76.2000,-1.7037,0.6077,-0.0015,-0.786585445,-1.038379999,156.590113955,0.0499,0.0513,0.0440,0.0161,0.0172,0.0124,0.0187,0.0183,0.4831,ab000241,0*35cfc12a
#INSPVAXA,FILE,0,28.5,FINESTEERING,2319,307554.250,02000000,46eb,17139;INS_SOLUTION_GOOD,INS_RTKFIXED,17.59974799534,78.12226979410,523.2646,-76.2000,-1.6946,0.6380,-0.0136,-0.835341795,-1.093201225,155.841787069,0.0499,0.0513,0.0440,0.0161,0.0172,0.0124,0.0187,0.0183,0.4831,ab000241,0*797d2b0b
#INSPVAXA,FILE,0,28.5,FINESTEERING,2319,307554.300,02000000,46eb,17139;INS_SOLUTION_GOOD,INS_RTKFIXED,17.59974725516,78.12227012015,523.2638,-76.2000,-1.6811,0.6749,-0.0246,-0.899179158,-1.135578586,155.097851467,0.0499,0.0513,0.0440,0.0161,0.0172,0.0124,0.0187,0.0183,0.4831,ab000241,0*f94f7206
#INSPVAXA,FILE,0,28.5,FINESTEERING,2319,307554.350,02000000,46eb,17139;INS_SOLUTION_GOOD,INS_RTKFIXED,17.59974652099,78.12227046116,523.2626,-76.2000,-1.6676,0.7027,-0.0308,-0.947090627,-1.166469868,154.355090255,0.0499,0.0513,0.0440,0.0161,0.0172,0.0124,0.0187,0.0183,0.4831,ab000241,0*9c47906a
#INSPVAXA,FILE,0,28.5,FINESTEERING,2319,307554.400,02000000,46eb,17139;INS_SOLUTION_GOOD,INS_RTKFIXED,17.59974578844,78.12227081475,523.2611,-76.2000,-1.6695,0.7296,-0.0351,-1.005536515,-1.179035937,153.598248984,0.0499,0.0513,0.0440,0.0161,0.0172,0.0124,0.0187,0.0183,0.4831,ab000241,0*20f828fd
#INSPVAXA,FILE,0,28.5,FINESTEERING,2319,307554.450,02000000,46eb,17139;INS_SOLUTION_GOOD,INS_RTKFIXED,17.59974505405,78.12227117705,523.2591,-76.2000,-1.6776,0.7437,-0.0446,-1.013594969,-1.163113989,152.814879571,0.0499,0.0513,0.0440,0.0161,0.0172,0.0124,0.0187,0.0183,0.4831,ab000241,0*786ca208
#INSPVAXA,FILE,0,28.5,FINESTEERING,2319,307554.500,02000000,46eb,17139;INS_SOLUTION_GOOD,INS_RTKFIXED,17.59974431329,78.12227155024,523.2567,-76.2000,-1.6964,0.7688,-0.0534,-0.931536556,-1.099262695,151.997419715,0.0499,0.0513,0.0440,0.0161,0.0172,0.0124,0.0187,0.0183,0.4831,ab000241,0*928ab1d0
#INSPVAXA,FILE,0,28.5,FINESTEERING,2319,307554.550,02000000,46eb,17139;INS_SOLUTION_GOOD,INS_RTKFIXED,17.59974356238,78.12227193246,523.2541,-76.2000,-1.7204,0.7897,-0.0544,-0.865540773,-1.014123085,151.147604681,0.0499,0.0513,0.0440,0.0161,0.0172,0.0124,0.0187,0.0183,0.4831,ab000241,0*9340d745
#INSPVAXA,FILE,0,28.5,FINESTEERING,2319,307554.600,02000000,46eb,17139;INS_SOLUTION_GOOD,INS_RTKFIXED,17.59974280159,78.12227232934,523.2514,-76.2000,-1.7392,0.8284,-0.0558,-0.782310004,-0.929005568,150.271186269,0.0499,0.0513,0.0440,0.0161,0.0172,0.0124,0.0187,0.0183,0.4831,ab000241,0*a52ec625
#INSPVAXA,FILE,0,28.5,FINESTEERING,2319,307554.650,02000000,46eb,17139;INS_SOLUTION_GOOD,INS_RTKFIXED,17.59974203430,78.12227274526,523.2487,-76.2000,-1.7498,0.8724,-0.0549,-0.674778895,-0.846079859,149.375097671,0.0499,0.0513,0.0440,0.0161,0.0172,0.0124,0.0187,0.0183,0.4831,ab000241,0*bb167a8e
#INSPVAXA,FILE,0,28.5,FINESTEERING,2319,307554.700,02000000,46eb,17139;INS_SOLUTION_GOOD,INS_RTKFIXED,17.59974126295,78.12227318336,523.2465,-76.2000,-1.7551,0.9215,-0.0416,-0.533764946,-0.793034518,148.459694478,0.0499,0.0513,0.0440,0.0161,0.0172,0.0124,0.0187,0.0183,0.4831,ab000241,0*283f0703
#INSPVAXA,FILE,0,28.5,FINESTEERING,2319,307554.750,02000000,46eb,17139;INS_SOLUTION_GOOD,INS_RTKFIXED,17.59974048803,78.12227363991,523.2450,-76.2000,-1.7658,0.9559,-0.0222,-0.393411989,-0.766204605,147.516747469,0.0499,0.0513,0.0440,0.0161,0.0172,0.0124,0.0187,0.0183,0.4831,ab000241,0*1fe35525
#INSPVAXA,FILE,0,28.5,FINESTEERING,2319,307554.800,02000000,46eb,17139;INS_SOLUTION_GOOD,INS_RTKFIXED,17.59973970710,78.12227411585,523.2443,-76.2000,-1.7812,0.9987,-0.0149,-0.274122461,-0.771222497,146.544698723,0.0499,0.0513,0.0440,0.0161,0.0172,0.0124,0.0187,0.0183,0.4831,ab000241,0*4167da43
#INSPVAXA,FILE,0,28.5,FINESTEERING,2319,307554.850,02000000,46eb,17139;INS_SOLUTION_GOOD,INS_RTKFIXED,17.59973891763,78.12227461323,523.2436,-76.2000,-1.8007,1.0485,-0.0212,-0.185551605,-0.777830532,145.549559610,0.0499,0.0513,0.0440,0.0161,0.0172,0.0124,0.0187,0.0183,0.4831,ab000241,0*14bbe7c9
#INSPVAXA,FILE,0,28.5,FINESTEERING,2319,307554.900,02000000,46eb,17139;INS_SOLUTION_GOOD,INS_RTKFIXED,17.59973811963,78.12227513698,523.2423,-76.2000,-1.8179,1.1114,-0.0365,-0.120507406,-0.765883313,144.546219900,0.0499,0.0513,0.0440,0.0161,0.0172,0.0124,0.0187,0.0183,0.4831,ab000241,0*8a50353b
#INSPVAXA,FILE,0,28.5,FINESTEERING,2319,307554.950,02000000,46eb,17139;INS_SOLUTION_GOOD,INS_RTKFIXED,17.59973731478,78.12227569067,523.2403,-76.2000,-1.8301,1.1789,-0.0527,-0.067697189,-0.740251387,143.535563822,0.0499,0.0513,0.0440,0.0161,0.0172,0.0124,0.0187,0.0183,0.4831,ab000241,0*908e207c
#INSPVAXA,FILE,0,28.5,FINESTEERING,2319,307555.000,02000000,46eb,17139;INS_SOLUTION_GOOD,INS_RTKFIXED,17.59973650378,78.12227627504,523.2375,-76.2000,-1.8454,1.2408,-0.0631,-0.014644730,-0.694937410,142.515680073,0.0499,0.0513,0.0440,0.0161,0.0172,0.0124,0.0187,0.0183,0.4831,ab000241,0*b998c197
#INSPVAXA,FILE,0,28.5,FINESTEERING,2319,307555.050,02000000,46eb,17139;INS_SOLUTION_GOOD,INS_RTKFIXED,17.59973568544,78.12227688859,523.2341,-76.2000,-1.8583,1.2972,-0.0661,0.034576301,-0.636025249,141.464443650,0.0713,0.0686,0.0483,0.0185,0.0190,0.0132,0.0191,0.0188,0.4826,ab000241,0*d8acbe3f
#INSPVAXA,FILE,0,28.5,FINESTEERING,2319,307555.100,02000000,46eb,17139;INS_SOLUTION_GOOD,INS_RTKFIXED,17.59973485566,78.12227752833,523.2306,-76.2000,-1.8807,1.3536,-0.0645,0.103839595,-0.574372018,140.378186060,0.0713,0.0686,0.0483,0.0185,0.0190,0.0132,0.0191,0.0188,0.4826,ab000241,0*ea9cfdfb
#INSPVAXA,FILE,0,29.5,FINESTEERING,2319,307555.150,02000000,46eb,17139;INS_SOLUTION_GOOD,INS_RTKFIXED,17.59973401404,78.12227819537,523.2270,-76.2000,-1.9063,1.4114,-0.0595,0.187416880,-0.544405488,139.252037246,0.0713,0.0686,0.0483,0.0185,0.0190,0.0132,0.0191,0.0188,0.4826,ab000241,0*edc56ce0
#INSPVAXA,FILE,0,29.5,FINESTEERING,2319,307555.200,02000000,46eb,17139;INS_SOLUTION_GOOD,INS_RTKFIXED,17.59973316463,78.12227889455,523.2237,-76.2000,-1.9248,1.4829,-0.0558,0.257517748,-0.494109876,138.123646961,0.0713,0.0686,0.0483,0.0185,0.0190,0.0132,0.0191,0.0188,0.4826,ab000241,0*c02dffae
#INSPVAXA,FILE,0,29.5,FINESTEERING,2319,307555.250,02000000,46eb,17139;INS_SOLUTION_GOOD,INS_RTKFIXED,17.59973231013,78.12227962893,523.2205,-76.2000,-1.9257,1.5610,-0.0546,0.353000897,-0.493883508,136.979698497,0.0713,0.0686,0.0483,0.0185,0.0190,0.0132,0.0191,0.0188,0.4826,ab000241,0*13b2b924
#INSPVAXA,FILE,0,29.5,FINESTEERING,2319,307555.300,02000000,46eb,17139;INS_SOLUTION_GOOD,INS_RTKFIXED,17.59973145356,78.12228039920,523.2175,-76.2000,-1.9307,1.6375,-0.0609,0.388599252,-0.430667803,135.838260825,0.0713,0.0686,0.0483,0.0185,0.0190,0.0132,0.0191,0.0188,0.4826,ab000241,0*e0c9b9d4
#INSPVAXA,FILE,0,29.5,FINESTEERING,2319,307555.350,02000000,46eb,17139;INS_SOLUTION_GOOD,INS_RTKFIXED,17.59973059794,78.12228120088,523.2145,-76.2000,-1.9235,1.7041,-0.0485,0.391745670,-0.364453663,134.658602543,0.0713,0.0686,0.0483,0.0185,0.0190,0.0132,0.0191,0.0188,0.4826,ab000241,0*f842c125
#INSPVAXA,FILE,0,29.5,FINESTEERING,2319,307555.400,02000000,46eb,17139;INS_SOLUTION_GOOD,INS_RTKFIXED,17.59972974424,78.12228203857,523.2117,-76.2000,-1.9187,1.7818,-0.0587,0.383549494,-0.273154947,133.432667963,0.0713,0.0686,0.0483,0.0185,0.0190,0.0132,0.0191,0.0188,0.4826,ab000241,0*8714a8f3
#INSPVAXA,FILE,0,29.5,FINESTEERING,2319,307555.450,02000000,46eb,17139;INS_SOLUTION_GOOD,INS_RTKFIXED,17.59972888916,78.12228291027,523.2083,-76.2000,-1.9291,1.8552,-0.0665,0.393956033,-0.133181358,132.166851251,0.0713,0.0686,0.0483,0.0185,0.0190,0.0132,0.0191,0.0188,0.4826,ab000241,0*f2b30728
#INSPVAXA,FILE,0,29.5,FINESTEERING,2319,307555.500,02000000,46eb,17139;INS_SOLUTION_GOOD,INS_RTKFIXED,17.59972802854,78.12228381537,523.2041,-76.2000,-1.9428,1.9254,-0.0840,0.370811375,0.001181653,130.883828875,0.0713,0.0686,0.0483,0.0185,0.0190,0.0132,0.0191,0.0188,0.4826,ab000241,0*69e85539
#INSPVAXA,FILE,0,29.5,FINESTEERING,2319,307555.550,02000000,46eb,17139;INS_SOLUTION_GOOD,INS_RTKFIXED,17.59972716867,78.12228475842,523.1996,-76.2000,-1.9321,2.0145,-0.0899,0.394565885,0.143669420,129.600394957,0.0713,0.0686,0.0483,0.0185,0.0190,0.0132,0.0191,0.0188,0.4826,ab000241,0*c6d82d43
#INSPVAXA,FILE,0,29.5,FINESTEERING,2319,307555.600,02000000,46eb,17139;INS_SOLUTION_GOOD,INS_RTKFIXED,17.59972631404,78.12228574393,523.1943,-76.2000,-1.9165,2.1015,-0.1080,0.530068177,0.281669289,128.330769650,0.0713,0.0686,0.0483,0.0185,0.0190,0.0132,0.0191,0.0188,0.4826,ab000241,0*0af33b10
#INSPVAXA,FILE,0,29.5,FINESTEERING,2319,307555.650,02000000,46eb,17139;INS_SOLUTION_GOOD,INS_RTKFIXED,17.59972546401,78.12228676549,523.1889,-76.2000,-1.9089,2.1749,-0.0968,0.704930747,0.457117847,127.051316175,0.0713,0.0686,0.0483,0.0185,0.0190,0.0132,0.0191,0.0188,0.4826,ab000241,0*51dc68bb
#INSPVAXA,FILE,0,29.5,FINESTEERING,2319,307555.700,02000000,46eb,17139;INS_SOLUTION_GOOD,INS_RTKFIXED,17.59972461827,78.12228781903,523.1843,-76.2000,-1.8978,2.2367,-0.0746,0.888020333,0.590855960,125.753081711,0.0713,0.0686,0.0483,0.0185,0.0190,0.0132,0.0191,0.0188,0.4826,ab000241,0*5105809a
#INSPVAXA,FILE,0,29.5,FINESTEERING,2319,307555.750,02000000,46eb,17139;INS_SOLUTION_GOOD,INS_RTKFIXED,17.59972377670,78.12228890454,523.1806,-76.2000,-1.8855,2.3082,-0.0605,0.984814506,0.717586231,124.436695233,0.0713,0.0686,0.0483,0.0185,0.0190,0.0132,0.0191,0.0188,0.4826,ab000241,0*d21f5ffc
#INSPVAXA,FILE,0,29.5,FINESTEERING,2319,307555.800,02000000,46eb,17139;INS_SOLUTION_GOOD,INS_RTKFIXED,17.59972295019,78.12229002635,523.1786,-76.2000,-1.8392,2.3903,-0.0178,1.056054328,0.779954852,123.125254772,0.0713,0.0686,0.0483,0.0185,0.0190,0.0132,0.0191,0.0188,0.4826,ab000241,0*286c3cc5
#INSPVAXA,FILE,0,29.5,FINESTEERING,2319,307555.850,02000000,46eb,17139;INS_SOLUTION_GOOD,INS_RTKFIXED,17.59972214263,78.12229118916,523.1775,-76.2000,-1.7950,2.4822,-0.0145,1.076668373,0.809856519,121.837093005,0.0713,0.0686,0.0483,0.0185,0.0190,0.0132,0.0191,0.0188,0.4826,ab000241,0*05c43283
#INSPVAXA,FILE,0,29.5,FINESTEERING,2319,307555.900,02000000,46eb,17139;INS_SOLUTION_GOOD,INS_RTKFIXED,17.59972135261,78.12229239132,523.1762,-76.2000,-1.7613,2.5615,-0.0284,1.136109613,0.839656080,120.572520326,0.0713,0.0686,0.0483,0.0185,0.0190,0.0132,0.0191,0.0188,0.4826,ab000241,0*c2c4af5b
#INSPVAXA,FILE,0,29.5,FINESTEERING,2319,307555.950,02000000,46eb,17139;INS_SOLUTION_GOOD,INS_RTKFIXED,17.59972057787,78.12229362798,523.1744,-76.2000,-1.7279,2.6279,-0.0215,1.161438006,0.860896645,119.336826712,0.0713,0.0686,0.0483,0.0185,0.0190,0.0132,0.0191,0.0188,0.4826,ab000241,0*40155a16
#INSPVAXA,FILE,0,29.5,FINESTEERING,2319,307556.000,02000000,46eb,17139;INS_SOLUTION_GOOD,INS_RTKFIXED,17.59971982472,78.12229489632,523.1751,-76.2000,-1.6635,2.7032,0.0378,0.990532529,0.866181240,118.154144274,0.0713,0.0686,0.0483,0.0185,0.0190,0.0132,0.0191,0.0188,0.4826,ab000241,0*329d14b3
#INSPVAXA,FILE,0,29.5,FINESTEERING,2319,307556.050,02000000,46eb,17139;INS_SOLUTION_GOOD,INS_RTKFIXED,17.59971910773,78.12229621279,523.1767,-76.2000,-1.5885,2.7959,0.0500,0.824311034,0.814369824,117.039056126,0.1035,0.0717,0.0529,0.0214,0.0197,0.0136,0.0191,0.0193,0.4821,ab000241,0*92a57e06
#INSPVAXA,FILE,0,29.5,FINESTEERING,2319,307556.100,02000000,46eb,17139;INS_SOLUTION_GOOD,INS_RTKFIXED,17.59971842328,78.12229757615,523.1776,-76.2000,-1.5415,2.8660,0.0361,0.746632625,0.775442150,115.978523053,0.1035,0.0717,0.0529,0.0214,0.0197,0.0136,0.0191,0.0193,0.4821,ab000241,0*e7cee38e
#INSPVAXA,FILE,0,29.5,FINESTEERING,2319,307556.150,02000000,46eb,17139;INS_SOLUTION_GOOD,INS_RTKFIXED,17.59971775255,78.12229896611,523.1780,-76.2000,-1.5205,2.9166,0.0295,0.685940507,0.749028261,114.924227399,0.1035,0.0717,0.0529,0.0214,0.0197,0.0136,0.0191,0.0193,0.4821,ab000241,0*9cccfa06
#INSPVAXA,FILE,0,29.5,FINESTEERING,2319,307556.200,02000000,46eb,17139;INS_SOLUTION_GOOD,INS_RTKFIXED,17.59971708746,78.12230037893,523.1780,-76.2000,-1.5152,2.9642,0.0195,0.597130146,0.752302286,113.862654897,0.1035,0.0717,0.0529,0.0214,0.0197,0.0136,0.0191,0.0193,0.4821,ab000241,0*5d161f9e
#INSPVAXA,FILE,0,29.5,FINESTEERING,2319,307556.250,02000000,46eb,17139;INS_SOLUTION_GOOD,INS_RTKFIXED,17.59971643066,78.12230181699,523.1766,-76.2000,-1.4814,3.0233,-0.0244,0.458794939,0.754804957,112.792047491,0.1035,0.0717,0.0529,0.0214,0.0197,0.0136,0.0191,0.0193,0.4821,ab000241,0*3cbf956a
#INSPVAXA,FILE,0,29.5,FINESTEERING,2319,307556.300,02000000,46eb,17139;INS_SOLUTION_GOOD,INS_RTKFIXED,17.59971579724,78.12230328359,523.1742,-76.2000,-1.4158,3.0865,-0.0206,0.395852498,0.770013121,111.755023541,0.1035,0.0717,0.0529,0.0214,0.0197,0.0136,0.0191,0.0193,0.4821,ab000241,0*7e25afe5
#INSPVAXA,FILE,0,29.5,FINESTEERING,2319,307556.350,02000000,46eb,17139;INS_SOLUTION_GOOD,INS_RTKFIXED,17.59971519102,78.12230477911,523.1721,-76.2000,-1.3592,3.1464,-0.0078,0.359033259,0.795905404,110.764848877,0.1035,0.0717,0.0529,0.0214,0.0197,0.0136,0.0191,0.0193,0.4821,ab000241,0*9bf4e358
#INSPVAXA,FILE,0,29.5,FINESTEERING,2319,307556.400,02000000,46eb,17139;INS_SOLUTION_GOOD,INS_RTKFIXED,17.59971460700,78.12230629821,523.1705,-76.2000,-1.3255,3.1863,-0.0024,0.376985217,0.782232832,109.828803393,0.1035,0.0717,0.0529,0.0214,0.0197,0.0136,0.0191,0.0193,0.4821,ab000241,0*04e15cb4
#INSPVAXA,FILE,0,29.5,FINESTEERING,2319,307556.450,02000000,46eb,17139;INS_SOLUTION_GOOD,INS_RTKFIXED,17.59971403739,78.12230783697,523.1701,-76.2000,-1.2984,3.2217,0.0222,0.318584720,0.715926465,108.909367059,0.1035,0.0717,0.0529,0.0214,0.0197,0.0136,0.0191,0.0193,0.4821,ab000241,0*a9a02376
#INSPVAXA,FILE,0,29.5,FINESTEERING,2319,307556.500,02000000,46eb,17139;INS_SOLUTION_GOOD,INS_RTKFIXED,17.59971348530,78.12230939333,523.1711,-76.2000,-1.2498,3.2610,0.0491,0.190807300,0.674733271,108.016906114,0.1035,0.0717,0.0529,0.0214,0.0197,0.0136,0.0191,0.0193,0.4821,ab000241,0*7b13a800
#INSPVAXA,FILE,0,29.5,FINESTEERING,2319,307556.550,02000000,46eb,17139;INS_SOLUTION_GOOD,INS_RTKFIXED,17.59971295511,78.12231097207,523.1734,-76.2000,-1.1941,3.3131,0.0649,0.084669683,0.603141482,107.154432883,0.1035,0.0717,0.0529,0.0214,0.0197,0.0136,0.0191,0.0193,0.4821,ab000241,0*d9270c8d
#INSPVAXA,FILE,0,29.5,FINESTEERING,2319,307556.600,02000000,46eb,17139;INS_SOLUTION_GOOD,INS_RTKFIXED,17.59971244974,78.12231257562,523.1753,-76.2000,-1.1373,3.3696,0.0446,0.032987780,0.543279725,106.356216173,0.1035,0.0717,0.0529,0.0214,0.0197,0.0136,0.0191,0.0193,0.4821,ab000241,0*21580295
#INSPVAXA,FILE,0,29.5,FINESTEERING,2319,307556.650,02000000,46eb,17139;INS_SOLUTION_GOOD,INS_RTKFIXED,17.59971196550,78.12231420059,523.1771,-76.2000,-1.0944,3.4156,0.0536,-0.044001460,0.474549667,105.617745189,0.1035,0.0717,0.0529,0.0214,0.0197,0.0136,0.0191,0.0193,0.4821,ab000241,0*cf355619
#INSPVAXA,FILE,0,29.5,FINESTEERING,2319,307556.700,02000000,46eb,17139;INS_SOLUTION_GOOD,INS_RTKFIXED,17.59971150003,78.12231584560,523.1780,-76.2000,-1.0530,3.4571,0.0301,-0.118570701,0.417977008,104.937308683,0.1035,0.0717,0.0529,0.0214,0.0197,0.0136,0.0191,0.0193,0.4821,ab000241,0*d15c8fd8
#INSPVAXA,FILE,0,29.5,FINESTEERING,2319,307556.750,02000000,46eb,17139;INS_SOLUTION_GOOD,INS_RTKFIXED,17.59971104899,78.12231750775,523.1779,-76.2000,-1.0257,3.4875,0.0170,-0.159686851,0.377067040,104.300008421,0.1035,0.0717,0.0529,0.0214,0.0197,0.0136,0.0191,0.0193,0.4821,ab000241,0*43f1edea
#INSPVAXA,FILE,0,29.5,FINESTEERING,2319,307556.800,02000000,46eb,17139;INS_SOLUTION_GOOD,INS_RTKFIXED,17.59971060903,78.12231918488,523.1772,-76.2000,-1.0047,3.5211,0.0068,-0.194655491,0.392815906,103.688336256,0.1035,0.0717,0.0529,0.0214,0.0197,0.0136,0.0191,0.0193,0.4821,ab000241,0*4025801e
#INSPVAXA,FILE,0,29.5,FINESTEERING,2319,307556.850,02000000,46eb,17139;INS_SOLUTION_GOOD,INS_RTKFIXED,17.59971017917,78.12232087549,523.1763,-76.2000,-0.9800,3.5471,0.0135,-0.209590257,0.375419045,103.087456267,0.1035,0.0717,0.0529,0.0214,0.0197,0.0136,0.0191,0.0193,0.4821,ab000241,0*d4f7c8ec
#INSPVAXA,FILE,0,29.5,FINESTEERING,2319,307556.900,02000000,46eb,17139;INS_SOLUTION_GOOD,INS_RTKFIXED,17.59970976354,78.12232258253,523.1755,-76.2000,-0.9444,3.5873,-0.0029,-0.256817238,0.360414408,102.514560414,0.1035,0.0717,0.0529,0.0214,0.0197,0.0136,0.0191,0.0193,0.4821,ab000241,0*bab53397
#INSPVAXA,FILE,0,29.5,FINESTEERING,2319,307556.950,02000000,46eb,17139;INS_SOLUTION_GOOD,INS_RTKFIXED,17.59970936631,78.12232430370,523.1734,-76.2000,-0.9049,3.6098,-0.0075,-0.241862173,0.353398301,101.983889728,0.1035,0.0717,0.0529,0.0214,0.0197,0.0136,0.0191,0.0193,0.4821,ab000241,0*fc44a06e
#INSPVAXA,FILE,0,29.5,FINESTEERING,2319,307557.000,02000000,46eb,17139;INS_SOLUTION_GOOD,INS_RTKFIXED,17.59970898461,78.12232604241,523.1713,-76.2000,-0.8801,3.6478,-0.0421,-0.286813873,0.435097898,101.487009128,0.1035,0.0717,0.0529,0.0214,0.0197,0.0136,0.0191,0.0193,0.4821,ab000241,0*3083995a
#INSPVAXA,FILE,0,29.5,FINESTEERING,2319,307557.050,02000000,46eb,17139;INS_SOLUTION_GOOD,INS_RTKFIXED,17.59970862055,78.12232777575,523.1690,-76.2000,-0.8553,3.6669,-0.0106,-0.215728771,0.451376400,101.005020772,0.1265,0.0683,0.0571,0.0240,0.0211,0.0143,0.0194,0.0197,0.4818,ab000241,0*19ebf637
#INSPVAXA,FILE,0,29.5,FINESTEERING,2319,307557.100,02000000,46eb,17139;INS_SOLUTION_GOOD,INS_RTKFIXED,17.59970827434,78.12232949802,523.1690,-76.2000,-0.8247,3.6992,0.0290,-0.316721057,0.447458299,100.545761629,0.1265,0.0683,0.0571,0.0240,0.0211,0.0143,0.0194,0.0197,0.4818,ab000241,0*c0e720ea
#INSPVAXA,FILE,0,31.0,FINESTEERING,2319,307557.150,02000000,46eb,17139;INS_SOLUTION_GOOD,INS_RTKFIXED,17.59970794248,78.12233123154,523.1699,-76.2000,-0.7880,3.7221,0.0540,-0.318544936,0.350842253,100.100949579,0.1265,0.0683,0.0571,0.0240,0.0211,0.0143,0.0194,0.0197,0.4818,ab000241,0*ca0e4ed3
#INSPVAXA,FILE,0,31.0,FINESTEERING,2319,307557.200,02000000,46eb,17139;INS_SOLUTION_GOOD,INS_RTKFIXED,17.59970762485,78.12233297850,523.1717,-76.2000,-0.7602,3.7515,0.0450,-0.378977724,0.248526715,99.667933298,0.1265,0.0683,0.0571,0.0240,0.0211,0.0143,0.0194,0.0197,0.4818,ab000241,0*90a37b23
#INSPVAXA,FILE,0,31.0,FINESTEERING,2319,307557.250,02000000,46eb,17139;INS_SOLUTION_GOOD,INS_RTKFIXED,17.59970731821,78.12233473706,523.1733,-76.2000,-0.7382,3.7725,0.0460,-0.373111841,0.110452847,99.247506126,0.1265,0.0683,0.0571,0.0240,0.0211,0.0143,0.0194,0.0197,0.4818,ab000241,0*5f6ba7c8
#INSPVAXA,FILE,0,31.0,FINESTEERING,2319,307557.300,02000000,46eb,17139;INS_SOLUTION_GOOD,INS_RTKFIXED,17.59970701962,78.12233651097,523.1738,-76.2000,-0.7259,3.8131,0.0034,-0.448490008,0.092011732,98.840561974,0.1265,0.0683,0.0571,0.0240,0.0211,0.0143,0.0194,0.0197,0.4818,ab000241,0*fadc4202
#INSPVAXA,FILE,0,31.0,FINESTEERING,2319,307557.350,02000000,46eb,17139;INS_SOLUTION_GOOD,INS_RTKFIXED,17.59970673078,78.12233829924,523.1720,-76.2000,-0.6965,3.8390,-0.0349,-0.519774780,0.099048388,98.448704048,0.1265,0.0683,0.0571,0.0240,0.0211,0.0143,0.0194,0.0197,0.4818,ab000241,0*43bd3881
#INSPVAXA,FILE,0,31.0,FINESTEERING,2319,307557.400,02000000,46eb,17139;INS_SOLUTION_GOOD,INS_RTKFIXED,17.59970645630,78.12234010293,523.1693,-76.2000,-0.6576,3.8718,-0.0413,-0.613426972,0.156472205,98.074402556,0.1265,0.0683,0.0571,0.0240,0.0211,0.0143,0.0194,0.0197,0.4818,ab000241,0*d4b64c56
#INSPVAXA,FILE,0,31.0,FINESTEERING,2319,307557.450,02000000,46eb,17139;INS_SOLUTION_GOOD,INS_RTKFIXED,17.59970619646,78.12234192167,523.1665,-76.2000,-0.6264,3.9060,-0.0379,-0.675195789,0.250667759,97.727784665,0.1265,0.0683,0.0571,0.0240,0.0211,0.0143,0.0194,0.0197,0.4818,ab000241,0*520c79f1
#INSPVAXA,FILE,0,31.0,FINESTEERING,2319,307557.500,02000000,46eb,17139;INS_SOLUTION_GOOD,INS_RTKFIXED,17.59970594668,78.12234375536,523.1633,-76.2000,-0.6123,3.9377,-0.0475,-0.725540353,0.317838729,97.398891974,0.1265,0.0683,0.0571,0.0240,0.0211,0.0143,0.0194,0.0197,0.4818,ab000241,0*874fd0cd
#INSPVAXA,FILE,0,31.0,FINESTEERING,2319,307557.550,02000000,46eb,17139;INS_SOLUTION_GOOD,INS_RTKFIXED,17.59970570455,78.12234560224,523.1607,-76.2000,-0.5946,3.9603,-0.0189,-0.783595030,0.329865346,97.085589885,0.1265,0.0683,0.0571,0.0240,0.0211,0.0143,0.0194,0.0197,0.4818,ab000241,0*13b81285
#INSPVAXA,FILE,0,31.0,FINESTEERING,2319,307557.600,02000000,46eb,17139;INS_SOLUTION_GOOD,INS_RTKFIXED,17.59970546863,78.12234746046,523.1602,-76.2000,-0.5830,3.9841,0.0316,-0.810712474,0.306354728,96.785554355,0.1265,0.0683,0.0571,0.0240,0.0211,0.0143,0.0194,0.0197,0.4818,ab000241,0*aa13fbad
#INSPVAXA,FILE,0,31.0,FINESTEERING,2319,307557.650,02000000,46eb,17139;INS_SOLUTION_GOOD,INS_RTKFIXED,17.59970523683,78.12234933177,523.1615,-76.2000,-0.5745,4.0128,0.0523,-0.842267139,0.208261589,96.498971170,0.1265,0.0683,0.0571,0.0240,0.0211,0.0143,0.0194,0.0197,0.4818,ab000241,0*157f4108
#INSPVAXA,FILE,0,31.0,FINESTEERING,2319,307557.700,02000000,46eb,17139;INS_SOLUTION_GOOD,INS_RTKFIXED,17.59970501039,78.12235121817,523.1626,-76.2000,-0.5588,4.0503,0.0332,-0.815487155,0.106620555,96.227998877,0.1265,0.0683,0.0571,0.0240,0.0211,0.0143,0.0194,0.0197,0.4818,ab000241,0*a873b4ae
#INSPVAXA,FILE,0,31.0,FINESTEERING,2319,307557.750,02000000,46eb,17139;INS_SOLUTION_GOOD,INS_RTKFIXED,17.59970478956,78.12235312075,523.1626,-76.2000,-0.5481,4.0854,0.0024,-0.757074406,0.019870148,95.978228771,0.1265,0.0683,0.0571,0.0240,0.0211,0.0143,0.0194,0.0197,0.4818,ab000241,0*ce81f0c8
#INSPVAXA,FILE,0,31.0,FINESTEERING,2319,307557.800,02000000,46eb,17139;INS_SOLUTION_GOOD,INS_RTKFIXED,17.59970457375,78.12235504040,523.1607,-76.2000,-0.5354,4.1196,-0.0339,-0.667650102,-0.000389662,95.744718267,0.1265,0.0683,0.0571,0.0240,0.0211,0.0143,0.0194,0.0197,0.4818,ab000241,0*faa6c094
#INSPVAXA,FILE,0,31.0,FINESTEERING,2319,307557.850,02000000,46eb,17139;INS_SOLUTION_GOOD,INS_RTKFIXED,17.59970436464,78.12235697435,523.1579,-76.2000,-0.5176,4.1458,-0.0437,-0.607784053,0.018737858,95.526670978,0.1265,0.0683,0.0571,0.0240,0.0211,0.0143,0.0194,0.0197,0.4818,ab000241,0*62e7b580
#INSPVAXA,FILE,0,31.0,FINESTEERING,2319,307557.900,02000000,46eb,17139;INS_SOLUTION_GOOD,INS_RTKFIXED,17.59970416401,78.12235892050,523.1557,-76.2000,-0.4967,4.1708,-0.0199,-0.565795568,0.048788392,95.325633862,0.1265,0.0683,0.0571,0.0240,0.0211,0.0143,0.0194,0.0197,0.4818,ab000241,0*41f3179a
#INSPVAXA,FILE,0,31.0,FINESTEERING,2319,307557.950,02000000,46eb,17139;INS_SOLUTION_GOOD,INS_RTKFIXED,17.59970397255,78.12236087697,523.1543,-76.2000,-0.4753,4.1911,0.0032,-0.572168502,0.090181991,95.133700633,0.1265,0.0683,0.0571,0.0240,0.0211,0.0143,0.0194,0.0197,0.4818,ab000241,0*05e9afb9
#INSPVAXA,FILE,0,31.0,FINESTEERING,2319,307558.000,02000000,46eb,17139;INS_SOLUTION_GOOD,INS_RTKFIXED,17.59970378849,78.12236284605,523.1537,-76.2000,-0.4645,4.2188,0.0215,-0.653607119,0.135873924,94.940769918,0.1265,0.0683,0.0571,0.0240,0.0211,0.0143,0.0194,0.0197,0.4818,ab000241,0*1a1fd148
#INSPVAXA,FILE,0,31.0,FINESTEERING,2319,307558.050,02000000,46eb,17139;INS_SOLUTION_GOOD,INS_RTKFIXED,17.59970360920,78.12236481946,523.1541,-76.2000,-0.4557,4.2410,0.0213,-0.748161335,0.149241669,94.728042820,0.1395,0.0630,0.0616,0.0263,0.0225,0.0149,0.0197,0.0201,0.4815,ab000241,0*512ee6c9
#INSPVAXA,FILE,0,29.0,FINESTEERING,2319,307558.100,02000000,46eb,17139;INS_SOLUTION_GOOD,INS_RTKFIXED,17.59970343151,78.12236679822,523.1550,-76.2000,-0.4453,4.2637,0.0193,-0.775636210,0.161975027,94.494214580,0.1395,0.0630,0.0616,0.0263,0.0225,0.0149,0.0197,0.0201,0.4815,ab000241,0*e90a91be
#INSPVAXA,FILE,0,29.0,FINESTEERING,2319,307558.150,02000000,46eb,17139;INS_SOLUTION_GOOD,INS_RTKFIXED,17.59970325612,78.12236878771,523.1552,-76.2000,-0.4425,4.2876,-0.0045,-0.808349204,0.229261347,94.250247825,0.1395,0.0630,0.0616,0.0263,0.0225,0.0149,0.0197,0.0201,0.4815,ab000241,0*26a2f31f
