#BESTVELA,FILE,0,34.0,FINESTEERING,2319,306853.900,02000800,10a2,17139;SOL_COMPUTED,INS_RTKFIXED,0.000,0.000,0.9395,45.870821,-0.0003,0*ff5cfe58
#BESTVELA,FILE,0,34.0,FINESTEERING,2319,306853.950,02000800,10a2,17139;SOL_COMPUTED,INS_RTKFIXED,0.000,0.000,0.9568,44.798933,0.0005,0*6cadf7f2
#BESTVELA,FILE,0,34.0,FINESTEERING,2319,306854.100,02000800,10a2,17139;SOL_COMPUTED,INS_RTKFIXED,0.000,0.000,1.0073,43.044045,-0.0032,0*741283e6
#BESTVELA,FILE,0,35.5,FINESTEERING,2319,306854.150,02000800,10a2,17139;SOL_COMPUTED,INS_RTKFIXED,0.000,0.000,1.0278,42.512104,-0.0017,0*67891645
#BESTVELA,FILE,0,35.5,FINESTEERING,2319,306854.300,02000800,10a2,17139;SOL_COMPUTED,INS_RTKFIXED,0.000,0.000,1.0853,40.297356,-0.0031,0*9f1a6d75
#BESTVELA,FILE,0,35.5,FINESTEERING,2319,306854.350,02000800,10a2,17139;SOL_COMPUTED,INS_RTKFIXED,0.000,0.000,1.1035,39.384148,-0.0009,0*81360325
#BESTVELA,FILE,0,35.5,FINESTEERING,2319,306854.400,02000800,10a2,17139;SOL_COMPUTED,INS_RTKFIXED,0.000,0.000,1.1200,38.555573,0.0016,0*47052abf
#BESTVELA,FILE,0,35.5,FINESTEERING,2319,306854.450,02000800,10a2,17139;SOL_COMPUTED,INS_RTKFIXED,0.000,0.000,1.1365,37.807682,0.0001,0*7849ccb0
#BESTVELA,FILE,0,35.5,FINESTEERING,2319,306854.500,02000800,10a2,17139;SOL_COMPUTED,INS_RTKFIXED,0.000,0.000,1.1533,36.900424,-0.0007,0*962fc832
#BESTVELA,FILE,0,35.5,FINESTEERING,2319,306854.700,02000800,10a2,17139;SOL_COMPUTED,INS_RTKFIXED,0.000,0.000,1.2247,33.398776,-0.0046,0*c6e5de90
#BESTVELA,FILE,0,35.5,FINESTEERING,2319,306854.750,02000800,10a2,17139;SOL_COMPUTED,INS_RTKFIXED,0.000,0.000,1.2475,32.617357,-0.0030,0*f949bbf4
#BESTVELA,FILE,0,35.5,FINESTEERING,2319,306854.850,02000800,10a2,17139;SOL_COMPUTED,INS_RTKFIXED,0.000,0.000,1.2934,30.057282,0.0100,0*903e0b43
#BESTVELA,FILE,0,35.5,FINESTEERING,2319,306854.900,02000800,10a2,17139;SOL_COMPUTED,INS_RTKFIXED,0.000,0.000,1.3132,28.995523,0.0127,0*e50d597a
#BESTVELA,FILE,0,33.0,FINESTEERING,2319,306855.100,02000800,10a2,17139;SOL_COMPUTED,INS_RTKFIXED,0.000,0.000,1.3812,26.133357,0.0017,0*e05cf6c1
#BESTVELA,FILE,0,33.0,FINESTEERING,2319,306855.150,02000800,10a2,17139;SOL_COMPUTED,INS_RTKFIXED,0.000,0.000,1.3955,25.569036,-0.0038,0*138ecc36
#BESTVELA,FILE,0,33.0,FINESTEERING,2319,306855.250,02000800,10a2,17139;SOL_COMPUTED,INS_RTKFIXED,0.000,0.000,1.4068,24.096064,-0.0080,0*5e70ad7f
#BESTVELA,FILE,0,33.0,FINESTEERING,2319,306855.400,02000800,10a2,17139;SOL_COMPUTED,INS_RTKFIXED,0.000,0.000,1.4169,21.291436,0.0046,0*d2f65dfd
#BESTVELA,FILE,0,33.0,FINESTEERING,2319,306855.450,02000800,10a2,17139;SOL_COMPUTED,INS_RTKFIXED,0.000,0.000,1.4201,20.558157,0.0047,0*324e310e
#BESTVELA,FILE,0,33.0,FINESTEERING,2319,306855.600,02000800,10a2,17139;SOL_COMPUTED,INS_RTKFIXED,0.000,0.000,1.4192,17.620494,0.0106,0*2d22ec3d
#BESTVELA,FILE,0,33.0,FINESTEERING,2319,306855.700,02000800,10a2,17139;SOL_COMPUTED,INS_RTKFIXED,0.000,0.000,1.4147,16.708901,0.0028,0*1888b170
#BESTVELA,FILE,0,33.0,FINESTEERING,2319,306855.750,02000800,10a2,17139;SOL_COMPUTED,INS_RTKFIXED,0.000,0.000,1.4151,16.084502,0.0029,0*439b6a58
#BESTVELA,FILE,0,33.0,FINESTEERING,2319,306855.900,02000800,10a2,17139;SOL_COMPUTED,INS_RTKFIXED,0.000,0.000,1.4052,12.930643,-0.0028,0*1185ba3c
#BESTVELA,FILE,0,33.0,FINESTEERING,2319,306856.000,02000800,10a2,17139;SOL_COMPUTED,INS_RTKFIXED,0.000,0.000,1.4036,12.047827,0.0012,0*5f55bad2
#BESTVELA,FILE,0,33.0,FINESTEERING,2319,306856.050,02000800,10a2,17139;SOL_COMPUTED,INS_RTKFIXED,0.000,0.000,1.4048,11.977721,-0.0009,0*0e3e399b
#BESTVELA,FILE,0,33.0,FINESTEERING,2319,306856.250,02000800,10a2,17139;SOL_COMPUTED,INS_RTKFIXED,0.000,0.000,1.3992,9.314010,-0.0057,0*2f844aa1
#BESTVELA,FILE,0,34.0,FINESTEERING,2319,306856.400,02000800,10a2,17139;SOL_COMPUTED,INS_RTKFIXED,0.000,0.000,1.3951,8.476436,-0.0120,0*c4042988
#BESTVELA,FILE,0,34.0,FINESTEERING,2319,306856.450,02000800,10a2,17139;SOL_COMPUTED,INS_RTKFIXED,0.000,0.000,1.3932,8.260846,-0.0148,0*d795372f
#BESTVELA,FILE,0,34.0,FINESTEERING,2319,306856.500,02000800,10a2,17139;SOL_COMPUTED,INS_RTKFIXED,0.000,0.000,1.3931,7.673599,-0.0114,0*db5d3d4c
#BESTVELA,FILE,0,34.0,FINESTEERING,2319,306856.550,02000800,10a2,17139;SOL_COMPUTED,INS_RTKFIXED,0.000,0.000,1.3915,7.146059,-0.0094,0*645525c5
#BESTVELA,FILE,0,34.0,FINESTEERING,2319,306856.700,02000800,10a2,17139;SOL_COMPUTED,INS_RTKFIXED,0.000,0.000,1.3840,5.827834,-0.0078,0*389d7c93
#BESTVELA,FILE,0,34.0,FINESTEERING,2319,306856.750,02000800,10a2,17139;SOL_COMPUTED,INS_RTKFIXED,0.000,0.000,1.3844,5.261028,-0.0089,0*ff978596
#BESTVELA,FILE,0,34.0,FINESTEERING,2319,306856.800,02000800,10a2,17139;SOL_COMPUTED,INS_RTKFIXED,0.000,0.000,1.3835,4.780893,-0.0073,0*4e7c7773
#BESTVELA,FILE,0,34.0,FINESTEERING,2319,306856.950,02000800,10a2,17139;SOL_COMPUTED,INS_RTKFIXED,0.000,0.000,1.3571,3.908930,0.0056,0*f8d0bd0e
#BESTVELA,FILE,0,34.0,FINESTEERING,2319,306857.150,02000800,10a2,17139;SOL_COMPUTED,INS_RTKFIXED,0.000,0.000,1.3165,1.711320,0.0048,0*852a5f3c
#BESTVELA,FILE,0,34.5,FINESTEERING,2319,306857.200,02000800,10a2,17139;SOL_COMPUTED,INS_RTKFIXED,0.000,0.000,1.3009,1.014637,0.0080,0*54b0c530
#BESTVELA,FILE,0,34.5,FINESTEERING,2319,306857.250,02000800,10a2,17139;SOL_COMPUTED,INS_RTKFIXED,0.000,0.000,1.2916,0.401092,0.0110,0*dce7844a
#BESTVELA,FILE,0,34.5,FINESTEERING,2319,306857.400,02000800,10a2,17139;SOL_COMPUTED,INS_RTKFIXED,0.000,0.000,1.2760,359.416904,0.0089,0*888aeaf2
#BESTVELA,FILE,0,34.5,FINESTEERING,2319,306857.450,02000800,10a2,17139;SOL_COMPUTED,INS_RTKFIXED,0.000,0.000,1.2644,359.753723,-0.0037,0*24368111
#BESTVELA,FILE,0,34.5,FINESTEERING,2319,306857.500,02000800,10a2,17139;SOL_COMPUTED,INS_RTKFIXED,0.000,0.000,1.2508,0.444409,-0.0099,0*bd357e28
#BESTVELA,FILE,0,34.5,FINESTEERING,2319,306857.550,02000800,10a2,17139;SOL_COMPUTED,INS_RTKFIXED,0.000,0.000,1.2509,0.925670,-0.0083,0*29b84340
#BESTVELA,FILE,0,34.5,FINESTEERING,2319,306857.600,02000800,10a2,17139;SOL_COMPUTED,INS_RTKFIXED,0.000,0.000,1.2419,1.329204,-0.0077,0*7b4dc233
#BESTVELA,FILE,0,34.5,FINESTEERING,2319,306857.650,02000800,10a2,17139;SOL_COMPUTED,INS_RTKFIXED,0.000,0.000,1.2324,1.092493,-0.0072,0*e49492f9
#BESTVELA,FILE,0,34.5,FINESTEERING,2319,306857.700,02000800,10a2,17139;SOL_COMPUTED,INS_RTKFIXED,0.000,0.000,1.2218,0.862493,-0.0136,0*165c784c
#BESTVELA,FILE,0,34.5,FINESTEERING,2319,306857.750,02000800,10a2,17139;SOL_COMPUTED,INS_RTKFIXED,0.000,0.000,1.2164,0.410478,-0.0155,0*3872321e
#BESTVELA,FILE,0,34.5,FINESTEERING,2319,306857.800,02000800,10a2,17139;SOL_COMPUTED,INS_RTKFIXED,0.000,0.000,1.2094,359.691469,-0.0160,0*59dc5955
#BESTVELA,FILE,0,34.5,FINESTEERING,2319,306857.850,02000800,10a2,17139;SOL_COMPUTED,INS_RTKFIXED,0.000,0.000,1.2037,359.201755,-0.0146,0*92a3c9ce
#BESTVELA,FILE,0,34.5,FINESTEERING,2319,306857.900,02000800,10a2,17139;SOL_COMPUTED,INS_RTKFIXED,0.000,0.000,1.2046,358.912521,-0.0126,0*b5ca25e1
#BESTVELA,FILE,0,34.5,FINESTEERING,2319,306857.950,02000000,10a2,17139;SOL_COMPUTED,INS_RTKFIXED,0.000,0.000,1.2039,358.620248,-0.0102,0*178e3f1f
#BESTVELA,FILE,0,34.5,FINESTEERING,2319,306858.000,02000000,10a2,17139;SOL_COMPUTED,INS_RTKFIXED,0.000,0.000,1.2065,358.630849,-0.0105,0*96d98d35
#BESTVELA,FILE,0,34.5,FINESTEERING,2319,306858.050,02000000,10a2,17139;SOL_COMPUTED,INS_RTKFIXED,0.000,0.000,1.2031,358.822432,-0.0146,0*bac62c9e
#BESTVELA,FILE,0,25.0,FINESTEERING,2319,306858.100,02000000,10a2,17139;SOL_COMPUTED,INS_RTKFIXED,0.000,0.000,1.1943,358.891089,-0.0142,0*5bece4fc
#BESTVELA,FILE,0,25.0,FINESTEERING,2319,306858.150,02000000,10a2,17139;SOL_COMPUTED,INS_RTKFIXED,0.000,0.000,1.1954,358.958349,-0.0155,0*361fc9ce
#BESTVELA,FILE,0,25.0,FINESTEERING,2319,306858.200,02000000,10a2,17139;SOL_COMPUTED,INS_RTKFIXED,0.000,0.000,1.2039,359.056710,-0.0144,0*53a49ef4
#BESTVELA,FILE,0,25.0,FINESTEERING,2319,306858.250,02000000,10a2,17139;SOL_COMPUTED,INS_RTKFIXED,0.000,0.000,1.2164,359.178819,-0.0104,0*76ef060f
#BESTVELA,FILE,0,25.0,FINESTEERING,2319,306858.300,02000000,10a2,17139;SOL_COMPUTED,INS_RTKFIXED,0.000,0.000,1.2224,359.259639,-0.0123,0*3ceaa534
#BESTVELA,FILE,0,25.0,FINESTEERING,2319,306858.350,02000000,10a2,17139;SOL_COMPUTED,INS_RTKFIXED,0.000,0.000,1.2270,358.786398,-0.0057,0*867c8325
#BESTVELA,FILE,0,25.0,FINESTEERING,2319,306858.400,02000000,10a2,17139;SOL_COMPUTED,INS_RTKFIXED,0.000,0.000,1.2269,358.713434,-0.0100,0*e77f890f
#BESTVELA,FILE,0,25.0,FINESTEERING,2319,306858.450,02000000,10a2,17139;SOL_COMPUTED,INS_RTKFIXED,0.000,0.000,1.2307,358.344531,-0.0053,0*b5c1c63e
#BESTVELA,FILE,0,25.0,FINESTEERING,2319,306858.500,02000000,10a2,17139;SOL_COMPUTED,INS_RTKFIXED,0.000,0.000,1.2361,358.503777,-0.0070,0*02e77992
#BESTVELA,FILE,0,25.0,FINESTEERING,2319,306858.550,02000000,10a2,17139;SOL_COMPUTED,INS_RTKFIXED,0.000,0.000,1.2517,358.339347,-0.0093,0*a0562fda
#BESTVELA,FILE,0,25.0,FINESTEERING,2319,306858.600,02000000,10a2,17139;SOL_COMPUTED,INS_RTKFIXED,0.000,0.000,1.2696,358.569218,-0.0116,0*d8f83738
#BESTVELA,FILE,0,25.0,FINESTEERING,2319,306858.650,02000000,10a2,17139;SOL_COMPUTED,INS_RTKFIXED,0.000,0.000,1.2845,358.592661,-0.0135,0*b714a1f5
#BESTVELA,FILE,0,25.0,FINESTEERING,2319,306858.700,02000000,10a2,17139;SOL_COMPUTED,INS_RTKFIXED,0.000,0.000,1.2924,358.737352,-0.0161,0*dcc6b8c8
#BESTVELA,FILE,0,25.0,FINESTEERING,2319,306858.750,02000000,10a2,17139;SOL_COMPUTED,INS_RTKFIXED,0.000,0.000,1.2843,358.719460,-0.0189,0*d901501a
#BESTVELA,FILE,0,25.0,FINESTEERING,2319,306858.800,02000000,10a2,17139;SOL_COMPUTED,INS_RTKFIXED,0.000,0.000,1.2837,358.934604,-0.0114,0*25ebdb22
#BESTVELA,FILE,0,25.0,FINESTEERING,2319,306858.850,02000000,10a2,17139;SOL_COMPUTED,INS_RTKFIXED,0.000,0.000,1.2939,359.516096,0.0072,0*307f7e89
#BESTVELA,FILE,0,25.0,FINESTEERING,2319,306858.900,02000000,10a2,17139;SOL_COMPUTED,INS_RTKFIXED,0.000,0.000,1.3048,359.450649,0.0345,0*75867b03
#BESTVELA,FILE,0,25.0,FINESTEERING,2319,306858.950,02000000,10a2,17139;SOL_COMPUTED,INS_RTKFIXED,0.000,0.000,1.3220,359.565460,0.0527,0*81d103dd
#BESTVELA,FILE,0,25.0,FINESTEERING,2319,306859.000,02000000,10a2,17139;SOL_COMPUTED,INS_RTKFIXED,0.000,0.000,1.3260,359.163441,0.0494,0*b8811a7e
#BESTVELA,FILE,0,25.0,FINESTEERING,2319,306859.050,02000000,10a2,17139;SOL_COMPUTED,INS_RTKFIXED,0.000,0.000,1.3312,358.438975,0.0472,0*e8ca60e2
#BESTVELA,FILE,0,25.0,FINESTEERING,2319,306859.100,02000000,10a2,17139;SOL_COMPUTED,INS_RTKFIXED,0.000,0.000,1.3168,358.341784,0.0297,0*04eaa992
#BESTVELA,FILE,0,28.0,FINESTEERING,2319,306859.150,02000000,10a2,17139;SOL_COMPUTED,INS_RTKFIXED,0.000,0.000,1.3040,358.246101,0.0170,0*381ebf18
#BESTVELA,FILE,0,28.0,FINESTEERING,2319,306859.200,02000000,10a2,17139;SOL_COMPUTED,INS_RTKFIXED,0.000,0.000,1.3042,357.636004,0.0096,0*de82f845
#BESTVELA,FILE,0,28.0,FINESTEERING,2319,306859.250,02000000,10a2,17139;SOL_COMPUTED,INS_RTKFIXED,0.000,0.000,1.3159,357.523644,0.0178,0*6237a754
#BESTVELA,FILE,0,28.0,FINESTEERING,2319,306859.300,02000000,10a2,17139;SOL_COMPUTED,INS_RTKFIXED,0.000,0.000,1.3239,357.324216,0.0165,0*df352a0b
#BESTVELA,FILE,0,28.0,FINESTEERING,2319,306859.350,02000000,10a2,17139;SOL_COMPUTED,INS_RTKFIXED,0.000,0.000,1.3611,357.953860,0.0237,0*61088eae
#BESTVELA,FILE,0,28.0,FINESTEERING,2319,306859.400,02000000,10a2,17139;SOL_COMPUTED,INS_RTKFIXED,0.000,0.000,1.3804,358.612632,0.0259,0*f8971e1f
#BESTVELA,FILE,0,28.0,FINESTEERING,2319,306859.450,02000000,10a2,17139;SOL_COMPUTED,INS_RTKFIXED,0.000,0.000,1.3879,359.315675,0.0436,0*78259f41
#BESTVELA,FILE,0,28.0,FINESTEERING,2319,306859.500,02000000,10a2,17139;SOL_COMPUTED,INS_RTKFIXED,0.000,0.000,1.4165,1.062822,0.0638,0*04c2c643
#BESTVELA,FILE,0,28.0,FINESTEERING,2319,306859.550,02000000,10a2,17139;SOL_COMPUTED,INS_RTKFIXED,0.000,0.000,1.4157,1.085839,0.0667,0*495de31d
#BESTVELA,FILE,0,28.0,FINESTEERING,2319,306859.600,02000000,10a2,17139;SOL_COMPUTED,INS_RTKFIXED,0.000,0.000,1.4207,1.640979,0.0675,0*cd8635b1
#BESTVELA,FILE,0,28.0,FINESTEERING,2319,306859.650,02000000,10a2,17139;SOL_COMPUTED,INS_RTKFIXED,0.000,0.000,1.4269,2.361226,0.0523,0*21864dc1
#BESTVELA,FILE,0,28.0,FINESTEERING,2319,306859.700,02000000,10a2,17139;SOL_COMPUTED,INS_RTKFIXED,0.000,0.000,1.4208,1.779941,0.0532,0*111ab839
#BESTVELA,FILE,0,28.0,FINESTEERING,2319,306859.750,02000000,10a2,17139;SOL_COMPUTED,INS_RTKFIXED,0.000,0.000,1.4333,1.290348,0.0392,0*274e7448
#BESTVELA,FILE,0,28.0,FINESTEERING,2319,306859.800,02000000,10a2,17139;SOL_COMPUTED,INS_RTKFIXED,0.000,0.000,1.4378,0.535296,0.0311,0*c10eb546
#BESTVELA,FILE,0,28.0,FINESTEERING,2319,306859.850,02000000,10a2,17139;SOL_COMPUTED,INS_RTKFIXED,0.000,0.000,1.4367,0.222847,0.0425,0*d0f04b05
#BESTVELA,FILE,0,28.0,FINESTEERING,2319,306859.900,02000000,10a2,17139;SOL_COMPUTED,INS_RTKFIXED,0.000,0.000,1.4486,0.205829,0.0478,0*9d58c1e9
#BESTVELA,FILE,0,28.0,FINESTEERING,2319,306859.950,02000000,10a2,17139;SOL_COMPUTED,INS_RTKFIXED,0.000,0.000,1.4618,359.659910,0.0733,0*c48fca65
#BESTVELA,FILE,0,28.0,FINESTEERING,2319,306860.000,02000000,10a2,17139;SOL_COMPUTED,INS_RTKFIXED,0.000,0.000,1.4843,359.870790,0.0621,0*9c3d13a5
#BESTVELA,FILE,0,28.0,FINESTEERING,2319,306860.050,02000000,10a2,17139;SOL_COMPUTED,INS_RTKFIXED,0.000,0.000,1.4776,359.391053,0.0604,0*d872c5ff
#BESTVELA,FILE,0,28.0,FINESTEERING,2319,306860.100,02000000,10a2,17139;SOL_COMPUTED,INS_RTKFIXED,0.000,0.000,1.4979,0.093975,0.0624,0*3ec95090
#BESTVELA,FILE,0,30.0,FINESTEERING,2319,306860.150,02000000,10a2,17139;SOL_COMPUTED,INS_RTKFIXED,0.000,0.000,1.4913,0.767543,0.0551,0*d6ab6ca8
#BESTVELA,FILE,0,30.0,FINESTEERING,2319,306860.200,02000000,10a2,17139;SOL_COMPUTED,INS_RTKFIXED,0.000,0.000,1.5037,1.142979,0.0549,0*6d5ee20f
#BESTVELA,FILE,0,30.0,FINESTEERING,2319,306860.250,02000000,10a2,17139;SOL_COMPUTED,INS_RTKFIXED,0.000,0.000,1.5095,1.902626,0.0517,0*72d41c5f
#BESTVELA,FILE,0,30.0,FINESTEERING,2319,306860.300,02000000,10a2,17139;SOL_COMPUTED,INS_RTKFIXED,0.000,0.000,1.5253,1.475548,0.0485,0*4176f3f5
#BESTVELA,FILE,0,30.0,FINESTEERING,2319,306860.350,02000000,10a2,17139;SOL_COMPUTED,INS_RTKFIXED,0.000,0.000,1.5415,1.758069,0.0321,0*035a4711
#BESTVELA,FILE,0,30.0,FINESTEERING,2319,306860.400,02000000,10a2,17139;SOL_COMPUTED,INS_RTKFIXED,0.000,0.000,1.5647,2.446538,0.0247,0*d176cb1a
#BESTVELA,FILE,0,30.0,FINESTEERING,2319,306860.450,02000000,10a2,17139;SOL_COMPUTED,INS_RTKFIXED,0.000,0.000,1.5620,2.020073,0.0504,0*07288872
#BESTVELA,FILE,0,30.0,FINESTEERING,2319,306860.500,02000000,10a2,17139;SOL_COMPUTED,INS_RTKFIXED,0.000,0.000,1.5813,1.964635,0.0636,0*9fbcdd5d
#BESTVELA,FILE,0,30.0,FINESTEERING,2319,306860.550,02000000,10a2,17139;SOL_COMPUTED,INS_RTKFIXED,0.000,0.000,1.6051,1.858610,0.0789,0*9cb1e687
#BESTVELA,FILE,0,30.0,FINESTEERING,2319,306860.600,02000000,10a2,17139;SOL_COMPUTED,INS_RTKFIXED,0.000,0.000,1.6247,1.945520,0.0810,0*acc82410
#BESTVELA,FILE,0,30.0,FINESTEERING,2319,306860.650,02000000,10a2,17139;SOL_COMPUTED,INS_RTKFIXED,0.000,0.000,1.6256,1.232434,0.0958,0*1250e767
#BESTVELA,FILE,0,30.0,FINESTEERING,2319,306860.700,02000000,10a2,17139;SOL_COMPUTED,INS_RTKFIXED,0.000,0.000,1.6458,1.041566,0.0941,0*e6c973bd
#BESTVELA,FILE,0,30.0,FINESTEERING,2319,306860.750,02000000,10a2,17139;SOL_COMPUTED,INS_RTKFIXED,0.000,0.000,1.6487,0.768967,0.1140,0*5cfb93ab
#BESTVELA,FILE,0,30.0,FINESTEERING,2319,306860.800,02000000,10a2,17139;SOL_COMPUTED,INS_RTKFIXED,0.000,0.000,1.6637,1.136248,0.1185,0*9d53f414
#BESTVELA,FILE,0,30.0,FINESTEERING,2319,306860.850,02000000,10a2,17139;SOL_COMPUTED,INS_RTKFIXED,0.000,0.000,1.6588,0.524503,0.1107,0*b83eb2a2
#BESTVELA,FILE,0,30.0,FINESTEERING,2319,306860.900,02000000,10a2,17139;SOL_COMPUTED,INS_RTKFIXED,0.000,0.000,1.6783,0.753191,0.0929,0*de020137
#BESTVELA,FILE,0,30.0,FINESTEERING,2319,306860.950,02000000,10a2,17139;SOL_COMPUTED,INS_RTKFIXED,0.000,0.000,1.6761,0.560742,0.0699,0*652a5994
#BESTVELA,FILE,0,30.0,FINESTEERING,2319,306861.000,02000000,10a2,17139;SOL_COMPUTED,INS_RTKFIXED,0.000,0.000,1.6833,1.220127,0.0319,0*798f1a4e
#BESTVELA,FILE,0,30.0,FINESTEERING,2319,306861.050,02000000,10a2,17139;SOL_COMPUTED,INS_RTKFIXED,0.000,0.000,1.6918,1.619799,0.0127,0*625c5336
#BESTVELA,FILE,0,27.5,FINESTEERING,2319,306861.100,02000000,10a2,17139;SOL_COMPUTED,INS_RTKFIXED,0.000,0.000,1.6988,2.248826,0.0145,0*324503bc
#BESTVELA,FILE,0,27.5,FINESTEERING,2319,306861.150,02000000,10a2,17139;SOL_COMPUTED,INS_RTKFIXED,0.000,0.000,1.7189,2.734075,0.0233,0*7c9db203
#BESTVELA,FILE,0,27.5,FINESTEERING,2319,306861.200,02000000,10a2,17139;SOL_COMPUTED,INS_RTKFIXED,0.000,0.000,1.7338,2.469866,0.0537,0*678c54bf
#BESTVELA,FILE,0,27.5,FINESTEERING,2319,306861.250,02000000,10a2,17139;SOL_COMPUTED,INS_RTKFIXED,0.000,0.000,1.7633,3.037477,0.0672,0*f30efcdd
#BESTVELA,FILE,0,27.5,FINESTEERING,2319,306861.300,02000000,10a2,17139;SOL_COMPUTED,INS_RTKFIXED,0.000,0.000,1.7734,2.753537,0.0886,0*7622b498
#BESTVELA,FILE,0,27.5,FINESTEERING,2319,306861.350,02000000,10a2,17139;SOL_COMPUTED,INS_RTKFIXED,0.000,0.000,1.8008,2.842724,0.0952,0*b329812b
#BESTVELA,FILE,0,27.5,FINESTEERING,2319,306861.400,02000000,10a2,17139;SOL_COMPUTED,INS_RTKFIXED,0.000,0.000,1.8117,2.285939,0.0982,0*43c127fc
#BESTVELA,FILE,0,27.5,FINESTEERING,2319,306861.450,02000000,10a2,17139;SOL_COMPUTED,INS_RTKFIXED,0.000,0.000,1.8366,2.180730,0.0900,0*6b6373f0
#BESTVELA,FILE,0,27.5,FINESTEERING,2319,306861.500,02000000,10a2,17139;SOL_COMPUTED,INS_RTKFIXED,0.000,0.000,1.8507,1.896606,0.0625,0*4864428c
#BESTVELA,FILE,0,27.5,FINESTEERING,2319,306861.550,02000000,10a2,17139;SOL_COMPUTED,INS_RTKFIXED,0.000,0.000,1.8597,1.253680,0.0571,0*0521ede9
#BESTVELA,FILE,0,27.5,FINESTEERING,2319,306861.600,02000000,10a2,17139;SOL_COMPUTED,INS_RTKFIXED,0.000,0.000,1.8756,0.683890,0.0628,0*592acc95
#BESTVELA,FILE,0,27.5,FINESTEERING,2319,306861.650,02000000,10a2,17139;SOL_COMPUTED,INS_RTKFIXED,0.000,0.000,1.8946,0.300518,0.0721,0*721a2bf5
#BESTVELA,FILE,0,27.5,FINESTEERING,2319,306861.700,02000000,10a2,17139;SOL_COMPUTED,INS_RTKFIXED,0.000,0.000,1.9119,0.492367,0.0565,0*074a5e69
#BESTVELA,FILE,0,27.5,FINESTEERING,2319,306861.750,02000000,10a2,17139;SOL_COMPUTED,INS_RTKFIXED,0.000,0.000,1.9375,0.610813,0.0544,0*a3e8d584
#BESTVELA,FILE,0,27.5,FINESTEERING,2319,306861.800,02000000,10a2,17139;SOL_COMPUTED,INS_RTKFIXED,0.000,0.000,1.9705,0.685778,0.0585,0*9216fb72
#BESTVELA,FILE,0,27.5,FINESTEERING,2319,306861.850,02000000,10a2,17139;SOL_COMPUTED,INS_RTKFIXED,0.000,0.000,1.9911,0.643961,0.0650,0*05eb66e1
#BESTVELA,FILE,0,27.5,FINESTEERING,2319,306861.900,02000000,10a2,17139;SOL_COMPUTED,INS_RTKFIXED,0.000,0.000,2.0135,1.035042,0.0587,0*b4fb8589
#BESTVELA,FILE,0,27.5,FINESTEERING,2319,306861.950,02000000,10a2,17139;SOL_COMPUTED,INS_RTKFIXED,0.000,0.000,2.0264,1.178028,0.0566,0*effa8aab
#BESTVELA,FILE,0,27.5,FINESTEERING,2319,306862.000,02000000,10a2,17139;SOL_COMPUTED,INS_RTKFIXED,0.000,0.000,2.0382,1.250005,0.0462,0*801545f7
#BESTVELA,FILE,0,27.5,FINESTEERING,2319,306862.050,02000000,10a2,17139;SOL_COMPUTED,INS_RTKFIXED,0.000,0.000,2.0502,0.920671,0.0489,0*d18d77b0
#BESTVELA,FILE,0,27.5,FINESTEERING,2319,306862.100,02000000,10a2,17139;SOL_COMPUTED,INS_RTKFIXED,0.000,0.000,2.0595,0.487081,0.0416,0*85e67abe
#BESTVELA,FILE,0,27.5,FINESTEERING,2319,306862.150,02000000,10a2,17139;SOL_COMPUTED,INS_RTKFIXED,0.000,0.000,2.0575,359.887978,0.0495,0*5b19503e
#BESTVELA,FILE,0,27.5,FINESTEERING,2319,306862.200,02000000,10a2,17139;SOL_COMPUTED,INS_RTKFIXED,0.000,0.000,2.0812,359.399719,0.0537,0*524ebf2a
#BESTVELA,FILE,0,31.0,FINESTEERING,2319,306862.250,02000000,10a2,17139;SOL_COMPUTED,INS_RTKFIXED,0.000,0.000,2.0853,358.366704,0.0674,0*18560882
#BESTVELA,FILE,0,31.0,FINESTEERING,2319,306862.300,02000000,10a2,17139;SOL_COMPUTED,INS_RTKFIXED,0.000,0.000,2.0969,357.536269,0.0715,0*a7ce6b91
#BESTVELA,FILE,0,31.0,FINESTEERING,2319,306862.350,02000000,10a2,17139;SOL_COMPUTED,INS_RTKFIXED,0.000,0.000,2.0996,356.331531,0.0869,0*98717144
#BESTVELA,FILE,0,31.0,FINESTEERING,2319,306862.400,02000000,10a2,17139;SOL_COMPUTED,INS_RTKFIXED,0.000,0.000,2.1001,355.556948,0.0925,0*d14eb6b3
#BESTVELA,FILE,0,31.0,FINESTEERING,2319,306862.450,02000000,10a2,17139;SOL_COMPUTED,INS_RTKFIXED,0.000,0.000,2.1035,354.894370,0.0951,0*46881bf7
#BESTVELA,FILE,0,31.0,FINESTEERING,2319,306862.500,02000000,10a2,17139;SOL_COMPUTED,INS_RTKFIXED,0.000,0.000,2.1268,355.106814,0.0901,0*f0d596d1
#BESTVELA,FILE,0,31.0,FINESTEERING,2319,306862.550,02000000,10a2,17139;SOL_COMPUTED,INS_RTKFIXED,0.000,0.000,2.1396,355.862751,0.0742,0*4b102905
#BESTVELA,FILE,0,31.0,FINESTEERING,2319,306862.600,02000000,10a2,17139;SOL_COMPUTED,INS_RTKFIXED,0.000,0.000,2.1607,356.599160,0.0550,0*2877d639
#BESTVELA,FILE,0,31.0,FINESTEERING,2319,306862.650,02000000,10a2,17139;SOL_COMPUTED,INS_RTKFIXED,0.000,0.000,2.1758,357.185837,0.0346,0*f43e1614
#BESTVELA,FILE,0,31.0,FINESTEERING,2319,306862.700,02000000,10a2,17139;SOL_COMPUTED,INS_RTKFIXED,0.000,0.000,2.1978,357.264053,0.0263,0*66c2b8dd
#BESTVELA,FILE,0,31.0,FINESTEERING,2319,306862.750,02000000,10a2,17139;SOL_COMPUTED,INS_RTKFIXED,0.000,0.000,2.2036,357.030127,0.0180,0*af321f96
#BESTVELA,FILE,0,31.0,FINESTEERING,2319,306862.800,02000000,10a2,17139;SOL_COMPUTED,INS_RTKFIXED,0.000,0.000,2.2175,356.718285,0.0276,0*e6b60827
#BESTVELA,FILE,0,31.0,FINESTEERING,2319,306862.850,02000000,10a2,17139;SOL_COMPUTED,INS_RTKFIXED,0.000,0.000,2.2288,355.977834,0.0436,0*d42fdbf0
#BESTVELA,FILE,0,31.0,FINESTEERING,2319,306862.900,02000000,10a2,17139;SOL_COMPUTED,INS_RTKFIXED,0.000,0.000,2.2337,355.260147,0.0639,0*b39c7ba8
#BESTVELA,FILE,0,31.0,FINESTEERING,2319,306862.950,02000000,10a2,17139;SOL_COMPUTED,INS_RTKFIXED,0.000,0.000,2.2372,354.254277,0.0630,0*cf57a39a
#BESTVELA,FILE,0,31.0,FINESTEERING,2319,306863.000,02000000,10a2,17139;SOL_COMPUTED,INS_RTKFIXED,0.000,0.000,2.2126,352.813916,0.0732,0*87b5caf2
#BESTVELA,FILE,0,31.0,FINESTEERING,2319,306863.050,02000000,10a2,17139;SOL_COMPUTED,INS_RTKFIXED,0.000,0.000,2.2206,352.634028,0.0435,0*819927de
#BESTVELA,FILE,0,29.0,FINESTEERING,2319,306863.100,02000000,10a2,17139;SOL_COMPUTED,INS_RTKFIXED,0.000,0.000,2.1793,351.276781,0.0610,0*192f76ea
#BESTVELA,FILE,0,29.0,FINESTEERING,2319,306863.150,02000000,10a2,17139;SOL_COMPUTED,INS_RTKFIXED,0.000,0.000,2.1741,350.904510,0.0487,0*5e4bd24d
#BESTVELA,FILE,0,29.0,FINESTEERING,2319,306863.200,02000000,10a2,17139;SOL_COMPUTED,INS_RTKFIXED,0.000,0.000,2.1489,350.686322,0.0458,0*ebfaac96
#BESTVELA,FILE,0,29.0,FINESTEERING,2319,306863.250,02000000,10a2,17139;SOL_COMPUTED,INS_RTKFIXED,0.000,0.000,2.1569,351.097599,0.0555,0*2820b957
#BESTVELA,FILE,0,29.0,FINESTEERING,2319,306863.300,02000000,10a2,17139;SOL_COMPUTED,INS_RTKFIXED,0.000,0.000,2.1707,351.173553,0.0718,0*164c0264
#BESTVELA,FILE,0,29.0,FINESTEERING,2319,306863.350,02000000,10a2,17139;SOL_COMPUTED,INS_RTKFIXED,0.000,0.000,2.1895,351.289365,0.0708,0*e3b2315c
#BESTVELA,FILE,0,29.0,FINESTEERING,2319,306863.400,02000000,10a2,17139;SOL_COMPUTED,INS_RTKFIXED,0.000,0.000,2.2313,351.584945,0.0784,0*2be7178f
#BESTVELA,FILE,0,29.0,FINESTEERING,2319,306863.450,02000000,10a2,17139;SOL_COMPUTED,INS_RTKFIXED,0.000,0.000,2.2782,352.119214,0.0847,0*78cbe4be
#BESTVELA,FILE,0,29.0,FINESTEERING,2319,306863.500,02000000,10a2,17139;SOL_COMPUTED,INS_RTKFIXED,0.000,0.000,2.3022,352.349038,0.0885,0*f3070a33
#BESTVELA,FILE,0,29.0,FINESTEERING,2319,306863.550,02000000,10a2,17139;SOL_COMPUTED,INS_RTKFIXED,0.000,0.000,2.3218,352.339466,0.0837,0*4c95e5d7
#BESTVELA,FILE,0,29.0,FINESTEERING,2319,306863.600,02000000,10a2,17139;SOL_COMPUTED,INS_RTKFIXED,0.000,0.000,2.3335,352.000748,0.0692,0*d346d5ba
#BESTVELA,FILE,0,29.0,FINESTEERING,2319,306863.650,02000000,10a2,17139;SOL_COMPUTED,INS_RTKFIXED,0.000,0.000,2.3382,351.466538,0.0527,0*9fab016f
#BESTVELA,FILE,0,29.0,FINESTEERING,2319,306863.700,02000000,10a2,17139;SOL_COMPUTED,INS_RTKFIXED,0.000,0.000,2.3598,351.042450,0.0392,0*11c62d6a
#BESTVELA,FILE,0,29.0,FINESTEERING,2319,306863.750,02000000,10a2,17139;SOL_COMPUTED,INS_RTKFIXED,0.000,0.000,2.3637,351.038619,0.0374,0*d088b22e
#BESTVELA,FILE,0,29.0,FINESTEERING,2319,306863.800,02000000,10a2,17139;SOL_COMPUTED,INS_RTKFIXED,0.000,0.000,2.3776,351.415599,-0.0034,0*e11fd2e1
#BESTVELA,FILE,0,29.0,FINESTEERING,2319,306863.850,02000000,10a2,17139;SOL_COMPUTED,INS_RTKFIXED,0.000,0.000,2.3776,351.695364,-0.0015,0*c8b9fa2e
#BESTVELA,FILE,0,29.0,FINESTEERING,2319,306863.900,02000000,10a2,17139;SOL_COMPUTED,INS_RTKFIXED,0.000,0.000,2.3957,351.542624,0.0320,0*6b6acf6f
#BESTVELA,FILE,0,29.0,FINESTEERING,2319,306863.950,02000000,10a2,17139;SOL_COMPUTED,INS_RTKFIXED,0.000,0.000,2.4116,351.960238,0.0531,0*c4674806
#BESTVELA,FILE,0,29.0,FINESTEERING,2319,306864.000,02000000,10a2,17139;SOL_COMPUTED,INS_RTKFIXED,0.000,0.000,2.4083,351.841126,0.0634,0*278d6f84
#BESTVELA,FILE,0,29.0,FINESTEERING,2319,306864.050,02000000,10a2,17139;SOL_COMPUTED,INS_RTKFIXED,0.000,0.000,2.4224,351.320691,0.0915,0*242b66c0
#BESTVELA,FILE,0,29.0,FINESTEERING,2319,306864.100,02000000,10a2,17139;SOL_COMPUTED,INS_RTKFIXED,0.000,0.000,2.4171,350.784812,0.1054,0*5b467ba7
#BESTVELA,FILE,0,30.5,FINESTEERING,2319,306864.150,02000000,10a2,17139;SOL_COMPUTED,INS_RTKFIXED,0.000,0.000,2.4108,349.886629,0.1619,0*b79b6e50
#BESTVELA,FILE,0,30.5,FINESTEERING,2319,306864.200,02000000,10a2,17139;SOL_COMPUTED,INS_RTKFIXED,0.000,0.000,2.4135,348.376720,0.1896,0*b0493d52
#BESTVELA,FILE,0,30.5,FINESTEERING,2319,306864.250,02000000,10a2,17139;SOL_COMPUTED,INS_RTKFIXED,0.000,0.000,2.4027,347.566325,0.1878,0*d955d90f
#BESTVELA,FILE,0,30.5,FINESTEERING,2319,306864.300,02000000,10a2,17139;SOL_COMPUTED,INS_RTKFIXED,0.000,0.000,2.4278,347.743212,0.1869,0*1e22071c
#BESTVELA,FILE,0,30.5,FINESTEERING,2319,306864.350,02000000,10a2,17139;SOL_COMPUTED,INS_RTKFIXED,0.000,0.000,2.4264,348.047149,0.1507,0*fdedcc0d
#BESTVELA,FILE,0,30.5,FINESTEERING,2319,306864.400,02000000,10a2,17139;SOL_COMPUTED,INS_RTKFIXED,0.000,0.000,2.4316,348.368540,0.0920,0*65a8ab73
#BESTVELA,FILE,0,30.5,FINESTEERING,2319,306864.450,02000000,10a2,17139;SOL_COMPUTED,INS_RTKFIXED,0.000,0.000,2.4282,349.163864,0.0119,0*1f06c23f
#BESTVELA,FILE,0,30.5,FINESTEERING,2319,306864.500,02000000,10a2,17139;SOL_COMPUTED,INS_RTKFIXED,0.000,0.000,2.4209,349.761416,-0.0504,0*17c760ab
#BESTVELA,FILE,0,30.5,FINESTEERING,2319,306864.550,02000000,10a2,17139;SOL_COMPUTED,INS_RTKFIXED,0.000,0.000,2.4323,350.672880,-0.0864,0*4988728a
#BESTVELA,FILE,0,30.5,FINESTEERING,2319,306864.600,02000000,10a2,17139;SOL_COMPUTED,INS_RTKFIXED,0.000,0.000,2.4507,351.128635,-0.0932,0*306c33df
#BESTVELA,FILE,0,30.5,FINESTEERING,2319,306864.650,02000000,10a2,17139;SOL_COMPUTED,INS_RTKFIXED,0.000,0.000,2.4813,351.229940,-0.0932,0*8849268d
#BESTVELA,FILE,0,30.5,FINESTEERING,2319,306864.700,02000000,10a2,17139;SOL_COMPUTED,INS_RTKFIXED,0.000,0.000,2.5226,350.889936,-0.0770,0*7f102434
#BESTVELA,FILE,0,30.5,FINESTEERING,2319,306864.750,02000000,10a2,17139;SOL_COMPUTED,INS_RTKFIXED,0.000,0.000,2.5600,350.812486,-0.0638,0*e9355a93
#BESTVELA,FILE,0,30.5,FINESTEERING,2319,306864.800,02000000,10a2,17139;SOL_COMPUTED,INS_RTKFIXED,0.000,0.000,2.5887,350.597077,-0.0640,0*ef06e289
#BESTVELA,FILE,0,30.5,FINESTEERING,2319,306864.850,02000000,10a2,17139;SOL_COMPUTED,INS_RTKFIXED,0.000,0.000,2.6154,350.383406,-0.0300,0*3967bfb7
#BESTVELA,FILE,0,30.5,FINESTEERING,2319,306864.900,02000000,10a2,17139;SOL_COMPUTED,INS_RTKFIXED,0.000,0.000,2.6627,349.777507,-0.0136,0*3637a057
#BESTVELA,FILE,0,30.5,FINESTEERING,2319,306864.950,02000000,10a2,17139;SOL_COMPUTED,INS_RTKFIXED,0.000,0.000,2.6915,349.380585,-0.0086,0*0f43714b
#BESTVELA,FILE,0,30.5,FINESTEERING,2319,306865.000,02000000,10a2,17139;SOL_COMPUTED,INS_RTKFIXED,0.000,0.000,2.7218,348.902505,-0.0038,0*dc4175ed
#BESTVELA,FILE,0,30.5,FINESTEERING,2319,306865.050,02000000,10a2,17139;SOL_COMPUTED,INS_RTKFIXED,0.000,0.000,2.7552,348.657613,0.0088,0*670b69de
#BESTVELA,FILE,0,29.5,FINESTEERING,2319,306865.100,02000000,10a2,17139;SOL_COMPUTED,INS_RTKFIXED,0.000,0.000,2.7961,348.543728,0.0139,0*b26e13aa
#BESTVELA,FILE,0,29.5,FINESTEERING,2319,306865.150,02000000,10a2,17139;SOL_COMPUTED,INS_RTKFIXED,0.000,0.000,2.8250,348.763810,0.0008,0*6941ab10
#BESTVELA,FILE,0,29.5,FINESTEERING,2319,306865.200,02000000,10a2,17139;SOL_COMPUTED,INS_RTKFIXED,0.000,0.000,2.8620,349.003125,-0.0073,0*406199e0
#BESTVELA,FILE,0,29.5,FINESTEERING,2319,306865.250,02000000,10a2,17139;SOL_COMPUTED,INS_RTKFIXED,0.000,0.000,2.8868,349.198972,-0.0140,0*19c52a4b
#BESTVELA,FILE,0,29.5,FINESTEERING,2319,306865.300,02000000,10a2,17139;SOL_COMPUTED,INS_RTKFIXED,0.000,0.000,2.9146,349.530080,-0.0204,0*9c1e09a5
#BESTVELA,FILE,0,29.5,FINESTEERING,2319,306865.350,02000000,10a2,17139;SOL_COMPUTED,INS_RTKFIXED,0.000,0.000,2.9438,349.836244,-0.0162,0*58d6a3d6
#BESTVELA,FILE,0,29.5,FINESTEERING,2319,306865.400,02000000,10a2,17139;SOL_COMPUTED,INS_RTKFIXED,0.000,0.000,2.9808,350.203604,-0.0137,0*1d7b1572
#BESTVELA,FILE,0,29.5,FINESTEERING,2319,306865.450,02000000,10a2,17139;SOL_COMPUTED,INS_RTKFIXED,0.000,0.000,3.0132,350.682575,-0.0235,0*514779db
#BESTVELA,FILE,0,29.5,FINESTEERING,2319,306865.500,02000000,10a2,17139;SOL_COMPUTED,INS_RTKFIXED,0.000,0.000,3.0312,351.220250,-0.0243,0*163056da
#BESTVELA,FILE,0,29.5,FINESTEERING,2319,306865.550,02000000,10a2,17139;SOL_COMPUTED,INS_RTKFIXED,0.000,0.000,3.0585,351.679996,-0.0315,0*c61a6d19
#BESTVELA,FILE,0,29.5,FINESTEERING,2319,306865.600,02000000,10a2,17139;SOL_COMPUTED,INS_RTKFIXED,0.000,0.000,3.0729,351.775542,-0.0312,0*5d1781d3
#BESTVELA,FILE,0,29.5,FINESTEERING,2319,306865.650,02000000,10a2,17139;SOL_COMPUTED,INS_RTKFIXED,0.000,0.000,3.0991,351.872051,-0.0225,0*fd4c1946
#BESTVELA,FILE,0,29.5,FINESTEERING,2319,306865.700,02000000,10a2,17139;SOL_COMPUTED,INS_RTKFIXED,0.000,0.000,3.1066,351.712282,-0.0111,0*36b62a23
#BESTVELA,FILE,0,29.5,FINESTEERING,2319,306865.750,02000000,10a2,17139;SOL_COMPUTED,INS_RTKFIXED,0.000,0.000,3.1167,351.599145,-0.0086,0*a0d7d382
#BESTVELA,FILE,0,29.5,FINESTEERING,2319,306865.800,02000000,10a2,17139;SOL_COMPUTED,INS_RTKFIXED,0.000,0.000,3.1227,351.629574,-0.0065,0*38fd6ffe
#BESTVELA,FILE,0,29.5,FINESTEERING,2319,306865.850,02000000,10a2,17139;SOL_COMPUTED,INS_RTKFIXED,0.000,0.000,3.1128,351.492994,-0.0085,0*eae0150c
#BESTVELA,FILE,0,29.5,FINESTEERING,2319,306865.900,02000000,10a2,17139;SOL_COMPUTED,INS_RTKFIXED,0.000,0.000,3.1038,351.474837,-0.0175,0*99daa48b
#BESTVELA,FILE,0,29.5,FINESTEERING,2319,306865.950,02000000,10a2,17139;SOL_COMPUTED,INS_RTKFIXED,0.000,0.000,3.1004,351.802699,-0.0244,0*0beda130
#BESTVELA,FILE,0,29.5,FINESTEERING,2319,306866.000,02000000,10a2,17139;SOL_COMPUTED,INS_RTKFIXED,0.000,0.000,3.0955,352.246993,-0.0235,0*1e60ccb0
#BESTVELA,FILE,0,29.5,FINESTEERING,2319,306866.050,02000000,10a2,17139;SOL_COMPUTED,INS_RTKFIXED,0.000,0.000,3.0992,352.852128,-0.0317,0*604455d4
#BESTVELA,FILE,0,29.5,FINESTEERING,2319,306866.100,02000000,10a2,17139;SOL_COMPUTED,INS_RTKFIXED,0.000,0.000,3.1089,353.141209,-0.0242,0*518b8e97
#BESTVELA,FILE,0,31.0,FINESTEERING,2319,306866.150,02000000,10a2,17139;SOL_COMPUTED,INS_RTKFIXED,0.000,0.000,3.1167,353.417171,-0.0126,0*a73e4460
#BESTVELA,FILE,0,31.0,FINESTEERING,2319,306866.200,02000000,10a2,17139;SOL_COMPUTED,INS_RTKFIXED,0.000,0.000,3.1181,353.869542,-0.0274,0*eddefea1
#BESTVELA,FILE,0,31.0,FINESTEERING,2319,306866.250,02000000,10a2,17139;SOL_COMPUTED,INS_RTKFIXED,0.000,0.000,3.1197,354.028154,-0.0302,0*4520b0f6
#BESTVELA,FILE,0,31.0,FINESTEERING,2319,306866.300,02000000,10a2,17139;SOL_COMPUTED,INS_RTKFIXED,0.000,0.000,3.1127,354.009358,-0.0334,0*cd166d6e
#BESTVELA,FILE,0,31.0,FINESTEERING,2319,306866.350,02000000,10a2,17139;SOL_COMPUTED,INS_RTKFIXED,0.000,0.000,3.0964,354.049850,-0.0325,0*3e1d95e6
#BESTVELA,FILE,0,31.0,FINESTEERING,2319,306866.400,02000000,10a2,17139;SOL_COMPUTED,INS_RTKFIXED,0.000,0.000,3.0852,353.863596,-0.0422,0*7a3928b1
#BESTVELA,FILE,0,31.0,FINESTEERING,2319,306866.450,02000000,10a2,17139;SOL_COMPUTED,INS_RTKFIXED,0.000,0.000,3.0713,353.759474,-0.0400,0*d51ff070
#BESTVELA,FILE,0,31.0,FINESTEERING,2319,306866.500,02000000,10a2,17139;SOL_COMPUTED,INS_RTKFIXED,0.000,0.000,3.0767,353.759227,-0.0340,0*d47c7de1
#BESTVELA,FILE,0,31.0,FINESTEERING,2319,306866.550,02000000,10a2,17139;SOL_COMPUTED,INS_RTKFIXED,0.000,0.000,3.0773,354.035468,-0.0281,0*92b8319c
#BESTVELA,FILE,0,31.0,FINESTEERING,2319,306866.600,02000000,10a2,17139;SOL_COMPUTED,INS_RTKFIXED,0.000,0.000,3.0807,354.370832,-0.0291,0*5b4da7a9
#BESTVELA,FILE,0,31.0,FINESTEERING,2319,306866.650,02000000,10a2,17139;SOL_COMPUTED,INS_RTKFIXED,0.000,0.000,3.0840,354.609425,-0.0061,0*a8e0d82b
#BESTVELA,FILE,0,31.0,FINESTEERING,2319,306866.700,02000000,10a2,17139;SOL_COMPUTED,INS_RTKFIXED,0.000,0.000,3.0971,354.890323,-0.0041,0*38fcf951
#BESTVELA,FILE,0,31.0,FINESTEERING,2319,306866.750,02000000,10a2,17139;SOL_COMPUTED,INS_RTKFIXED,0.000,0.000,3.0908,355.148120,-0.0021,0*12241590
#BESTVELA,FILE,0,31.0,FINESTEERING,2319,306866.800,02000000,10a2,17139;SOL_COMPUTED,INS_RTKFIXED,0.000,0.000,3.0934,355.585743,-0.0067,0*59acf34b
#BESTVELA,FILE,0,31.0,FINESTEERING,2319,306866.850,02000000,10a2,17139;SOL_COMPUTED,INS_RTKFIXED,0.000,0.000,3.0893,355.916254,-0.0230,0*c90fe88b
#BESTVELA,FILE,0,31.0,FINESTEERING,2319,306866.900,02000000,10a2,17139;SOL_COMPUTED,INS_RTKFIXED,0.000,0.000,3.0797,356.091121,-0.0512,0*ff372ffb
#BESTVELA,FILE,0,31.0,FINESTEERING,2319,306866.950,02000000,10a2,17139;SOL_COMPUTED,INS_RTKFIXED,0.000,0.000,3.0677,356.227478,-0.0795,0*a5ac4a1b
#BESTVELA,FILE,0,31.0,FINESTEERING,2319,306867.000,02000000,10a2,17139;SOL_COMPUTED,INS_RTKFIXED,0.000,0.000,3.0607,356.254161,-0.0758,0*6b791d8a
#BESTVELA,FILE,0,31.0,FINESTEERING,2319,306867.050,02000000,10a2,17139;SOL_COMPUTED,INS_RTKFIXED,0.000,0.000,3.0609,356.361050,-0.0799,0*684e9b89
#BESTVELA,FILE,0,30.5,FINESTEERING,2319,306867.100,02000000,10a2,17139;SOL_COMPUTED,INS_RTKFIXED,0.000,0.000,3.0632,356.397181,-0.0686,0*bcffed71
#BESTVELA,FILE,0,30.5,FINESTEERING,2319,306867.150,02000000,10a2,17139;SOL_COMPUTED,INS_RTKFIXED,0.000,0.000,3.0752,356.420314,-0.0444,0*fa417b75
#BESTVELA,FILE,0,30.5,FINESTEERING,2319,306867.200,02000000,10a2,17139;SOL_COMPUTED,INS_RTKFIXED,0.000,0.000,3.0793,356.414248,-0.0191,0*e9d669d2
#BESTVELA,FILE,0,30.5,FINESTEERING,2319,306867.250,02000000,10a2,17139;SOL_COMPUTED,INS_RTKFIXED,0.000,0.000,3.0898,356.339291,-0.0026,0*b1103987
#BESTVELA,FILE,0,30.5,FINESTEERING,2319,306867.300,02000000,10a2,17139;SOL_COMPUTED,INS_RTKFIXED,0.000,0.000,3.0904,356.504876,-0.0011,0*e13929f0
#BESTVELA,FILE,0,30.5,FINESTEERING,2319,306867.350,02000000,10a2,17139;SOL_COMPUTED,INS_RTKFIXED,0.000,0.000,3.0914,356.729088,-0.0121,0*6403a8f5
#BESTVELA,FILE,0,30.5,FINESTEERING,2319,306867.400,02000000,10a2,17139;SOL_COMPUTED,INS_RTKFIXED,0.000,0.000,3.0792,357.104194,-0.0297,0*3ba42ff9
#BESTVELA,FILE,0,30.5,FINESTEERING,2319,306867.450,02000000,10a2,17139;SOL_COMPUTED,INS_RTKFIXED,0.000,0.000,3.0751,357.182944,-0.0412,0*6e404426
#BESTVELA,FILE,0,30.5,FINESTEERING,2319,306867.500,02000000,10a2,17139;SOL_COMPUTED,INS_RTKFIXED,0.000,0.000,3.0625,357.233849,-0.0480,0*705dd507
#BESTVELA,FILE,0,30.5,FINESTEERING,2319,306867.550,02000000,10a2,17139;SOL_COMPUTED,INS_RTKFIXED,0.000,0.000,3.0613,357.365814,-0.0534,0*7c9a8050
#BESTVELA,FILE,0,30.5,FINESTEERING,2319,306867.600,02000000,10a2,17139;SOL_COMPUTED,INS_RTKFIXED,0.000,0.000,3.0638,357.548194,-0.0518,0*00b5e58a
#BESTVELA,FILE,0,30.5,FINESTEERING,2319,306867.650,02000000,10a2,17139;SOL_COMPUTED,INS_RTKFIXED,0.000,0.000,3.0687,357.776382,-0.0440,0*3375482a
#BESTVELA,FILE,0,30.5,FINESTEERING,2319,306867.700,02000000,10a2,17139;SOL_COMPUTED,INS_RTKFIXED,0.000,0.000,3.0701,357.909233,-0.0347,0*40771286
#BESTVELA,FILE,0,30.5,FINESTEERING,2319,306867.750,02000000,10a2,17139;SOL_COMPUTED,INS_RTKFIXED,0.000,0.000,3.0720,357.917363,-0.0217,0*548332ec
#BESTVELA,FILE,0,30.5,FINESTEERING,2319,306867.800,02000000,10a2,17139;SOL_COMPUTED,INS_RTKFIXED,0.000,0.000,3.0711,358.072285,-0.0255,0*4b83f4de
#BESTVELA,FILE,0,30.5,FINESTEERING,2319,306867.850,02000000,10a2,17139;SOL_COMPUTED,INS_RTKFIXED,0.000,0.000,3.0655,358.344318,-0.0313,0*b8a9342d
#BESTVELA,FILE,0,30.5,FINESTEERING,2319,306867.900,02000000,10a2,17139;SOL_COMPUTED,INS_RTKFIXED,0.000,0.000,3.0566,358.494782,-0.0278,0*b2a111bb
#BESTVELA,FILE,0,30.5,FINESTEERING,2319,306867.950,02000000,10a2,17139;SOL_COMPUTED,INS_RTKFIXED,0.000,0.000,3.0427,358.617759,-0.0352,0*e469f18b
#BESTVELA,FILE,0,30.5,FINESTEERING,2319,306868.000,02000000,10a2,17139;SOL_COMPUTED,INS_RTKFIXED,0.000,0.000,3.0234,358.540601,-0.0355,0*cb9b2545
#BESTVELA,FILE,0,30.5,FINESTEERING,2319,306868.050,02000000,10a2,17139;SOL_COMPUTED,INS_RTKFIXED,0.000,0.000,3.0104,358.583285,-0.0430,0*e8b9799e
#BESTVELA,FILE,0,30.5,FINESTEERING,2319,306868.100,02000000,10a2,17139;SOL_COMPUTED,INS_RTKFIXED,0.000,0.000,2.9848,358.568294,-0.0469,0*ced15452
#BESTVELA,FILE,0,31.0,FINESTEERING,2319,306868.150,02000000,10a2,17139;SOL_COMPUTED,INS_RTKFIXED,0.000,0.000,2.9757,358.679889,-0.0437,0*d611b670
#BESTVELA,FILE,0,31.0,FINESTEERING,2319,306868.200,02000000,10a2,17139;SOL_COMPUTED,INS_RTKFIXED,0.000,0.000,2.9588,358.646077,-0.0376,0*364b2a1f
#BESTVELA,FILE,0,31.0,FINESTEERING,2319,306868.250,02000000,10a2,17139;SOL_COMPUTED,INS_RTKFIXED,0.000,0.000,2.9507,358.961747,-0.0314,0*566a3c34
#BESTVELA,FILE,0,31.0,FINESTEERING,2319,306868.300,02000000,10a2,17139;SOL_COMPUTED,INS_RTKFIXED,0.000,0.000,2.9365,359.192948,-0.0259,0*f53ccc00
#BESTVELA,FILE,0,31.0,FINESTEERING,2319,306868.350,02000000,10a2,17139;SOL_COMPUTED,INS_RTKFIXED,0.000,0.000,2.9264,359.545473,-0.0317,0*566d91b7
#BESTVELA,FILE,0,31.0,FINESTEERING,2319,306868.400,02000000,10a2,17139;SOL_COMPUTED,INS_RTKFIXED,0.000,0.000,2.9049,359.421650,-0.0294,0*de460fff
#BESTVELA,FILE,0,31.0,FINESTEERING,2319,306868.450,02000000,10a2,17139;SOL_COMPUTED,INS_RTKFIXED,0.000,0.000,2.8931,359.260672,-0.0297,0*c64d620c
#BESTVELA,FILE,0,31.0,FINESTEERING,2319,306868.500,02000000,10a2,17139;SOL_COMPUTED,INS_RTKFIXED,0.000,0.000,2.8857,359.151597,-0.0368,0*81877ed1
#BESTVELA,FILE,0,31.0,FINESTEERING,2319,306868.550,02000000,10a2,17139;SOL_COMPUTED,INS_RTKFIXED,0.000,0.000,2.8690,359.080773,-0.0428,0*9eb5fe8d
#BESTVELA,FILE,0,31.0,FINESTEERING,2319,306868.600,02000000,10a2,17139;SOL_COMPUTED,INS_RTKFIXED,0.000,0.000,2.8505,359.244130,-0.0465,0*0f4f5408
#BESTVELA,FILE,0,31.0,FINESTEERING,2319,306868.650,02000000,10a2,17139;SOL_COMPUTED,INS_RTKFIXED,0.000,0.000,2.8363,359.299100,-0.0488,0*27857459
#BESTVELA,FILE,0,31.0,FINESTEERING,2319,306868.700,02000000,10a2,17139;SOL_COMPUTED,INS_RTKFIXED,0.000,0.000,2.8195,358.836464,-0.0373,0*c375b911
#BESTVELA,FILE,0,31.0,FINESTEERING,2319,306868.750,02000000,10a2,17139;SOL_COMPUTED,INS_RTKFIXED,0.000,0.000,2.8097,358.886017,-0.0359,0*eb087531
#BESTVELA,FILE,0,31.0,FINESTEERING,2319,306868.800,02000000,10a2,17139;SOL_COMPUTED,INS_RTKFIXED,0.000,0.000,2.7943,359.171866,-0.0367,0*ca7a6675
#BESTVELA,FILE,0,31.0,FINESTEERING,2319,306868.850,02000000,10a2,17139;SOL_COMPUTED,INS_RTKFIXED,0.000,0.000,2.7830,359.393226,-0.0319,0*f292e9d1
#BESTVELA,FILE,0,31.0,FINESTEERING,2319,306868.900,02000000,10a2,17139;SOL_COMPUTED,INS_RTKFIXED,0.000,0.000,2.7626,359.543052,-0.0313,0*c8a885a7
#BESTVELA,FILE,0,31.0,FINESTEERING,2319,306868.950,02000000,10a2,17139;SOL_COMPUTED,INS_RTKFIXED,0.000,0.000,2.7501,359.802476,-0.0284,0*0c1d9e62
#BESTVELA,FILE,0,31.0,FINESTEERING,2319,306869.000,02000000,10a2,17139;SOL_COMPUTED,INS_RTKFIXED,0.000,0.000,2.7409,0.001217,-0.0294,0*e72ca54d
#BESTVELA,FILE,0,31.0,FINESTEERING,2319,306869.050,02000000,10a2,17139;SOL_COMPUTED,INS_RTKFIXED,0.000,0.000,2.7253,0.276826,-0.0352,0*540428c2
#BESTVELA,FILE,0,31.0,FINESTEERING,2319,306869.100,02000000,10a2,17139;SOL_COMPUTED,INS_RTKFIXED,0.000,0.000,2.7178,0.284351,-0.0235,0*9908f684
#BESTVELA,FILE,0,32.0,FINESTEERING,2319,306869.150,02000000,10a2,17139;SOL_COMPUTED,INS_RTKFIXED,0.000,0.000,2.7020,0.387921,-0.0437,0*118d83c7
#BESTVELA,FILE,0,32.0,FINESTEERING,2319,306869.200,02000000,10a2,17139;SOL_COMPUTED,INS_RTKFIXED,0.000,0.000,2.6839,0.450876,-0.0319,0*fed9309b
#BESTVELA,FILE,0,32.0,FINESTEERING,2319,306869.250,02000000,10a2,17139;SOL_COMPUTED,INS_RTKFIXED,0.000,0.000,2.6766,0.384110,-0.0204,0*5b4a9371
#BESTVELA,FILE,0,32.0,FINESTEERING,2319,306869.300,02000000,10a2,17139;SOL_COMPUTED,INS_RTKFIXED,0.000,0.000,2.6589,0.175606,-0.0315,0*2e1a480b
#BESTVELA,FILE,0,32.0,FINESTEERING,2319,306869.350,02000000,10a2,17139;SOL_COMPUTED,INS_RTKFIXED,0.000,0.000,2.6342,359.764267,-0.0347,0*32d8d8c9
#BESTVELA,FILE,0,32.0,FINESTEERING,2319,306869.400,02000000,10a2,17139;SOL_COMPUTED,INS_RTKFIXED,0.000,0.000,2.6208,359.410214,-0.0390,0*a1edee1d
#BESTVELA,FILE,0,32.0,FINESTEERING,2319,306869.450,02000000,10a2,17139;SOL_COMPUTED,INS_RTKFIXED,0.000,0.000,2.6039,359.400465,-0.0364,0*39d89b23
#BESTVELA,FILE,0,32.0,FINESTEERING,2319,306869.500,02000000,10a2,17139;SOL_COMPUTED,INS_RTKFIXED,0.000,0.000,2.5961,359.690641,-0.0339,0*38861321
#BESTVELA,FILE,0,32.0,FINESTEERING,2319,306869.550,02000000,10a2,17139;SOL_COMPUTED,INS_RTKFIXED,0.000,0.000,2.5831,359.814787,-0.0328,0*8eddb55f
#BESTVELA,FILE,0,32.0,FINESTEERING,2319,306869.600,02000000,10a2,17139;SOL_COMPUTED,INS_RTKFIXED,0.000,0.000,2.5653,0.145644,-0.0444,0*27f29bae
#BESTVELA,FILE,0,32.0,FINESTEERING,2319,306869.650,02000000,10a2,17139;SOL_COMPUTED,INS_RTKFIXED,0.000,0.000,2.5453,0.107405,-0.0416,0*69c97749
#BESTVELA,FILE,0,32.0,FINESTEERING,2319,306869.700,02000000,10a2,17139;SOL_COMPUTED,INS_RTKFIXED,0.000,0.000,2.5322,0.416676,-0.0438,0*438601ae
#BESTVELA,FILE,0,32.0,FINESTEERING,2319,306869.750,02000000,10a2,17139;SOL_COMPUTED,INS_RTKFIXED,0.000,0.000,2.5202,0.581454,-0.0368,0*c1bf071b
#BESTVELA,FILE,0,32.0,FINESTEERING,2319,306869.800,02000000,10a2,17139;SOL_COMPUTED,INS_RTKFIXED,0.000,0.000,2.5144,0.783047,-0.0312,0*5f3597c4
#BESTVELA,FILE,0,32.0,FINESTEERING,2319,306869.850,02000000,10a2,17139;SOL_COMPUTED,INS_RTKFIXED,0.000,0.000,2.5056,0.596334,-0.0193,0*d4009509
#BESTVELA,FILE,0,32.0,FINESTEERING,2319,306869.900,02000000,10a2,17139;SOL_COMPUTED,INS_RTKFIXED,0.000,0.000,2.4997,0.502766,-0.0151,0*a5849106
#BESTVELA,FILE,0,32.0,FINESTEERING,2319,306869.950,02000000,10a2,17139;SOL_COMPUTED,INS_RTKFIXED,0.000,0.000,2.4793,0.741884,-0.0301,0*17a28ebd
#BESTVELA,FILE,0,32.0,FINESTEERING,2319,306870.000,02000000,10a2,17139;SOL_COMPUTED,INS_RTKFIXED,0.000,0.000,2.4632,0.409677,-0.0304,0*6ce3269b
#BESTVELA,FILE,0,32.0,FINESTEERING,2319,306870.050,02000000,10a2,17139;SOL_COMPUTED,INS_RTKFIXED,0.000,0.000,2.4552,0.127054,-0.0242,0*44a6a30d
#BESTVELA,FILE,0,32.0,FINESTEERING,2319,306870.100,02000000,10a2,17139;SOL_COMPUTED,INS_RTKFIXED,0.000,0.000,2.4296,359.994727,-0.0257,0*74b74d4f
#BESTVELA,FILE,0,33.5,FINESTEERING,2319,306870.150,02000000,10a2,17139;SOL_COMPUTED,INS_RTKFIXED,0.000,0.000,2.4168,359.995325,-0.0301,0*7cdcfb1b
#BESTVELA,FILE,0,33.5,FINESTEERING,2319,306870.200,02000000,10a2,17139;SOL_COMPUTED,INS_RTKFIXED,0.000,0.000,2.4033,0.017591,-0.0310,0*02a6a750
#BESTVELA,FILE,0,33.5,FINESTEERING,2319,306870.250,02000000,10a2,17139;SOL_COMPUTED,INS_RTKFIXED,0.000,0.000,2.3908,0.174028,-0.0210,0*d48cf534
#BESTVELA,FILE,0,33.5,FINESTEERING,2319,306870.300,02000000,10a2,17139;SOL_COMPUTED,INS_RTKFIXED,0.000,0.000,2.3806,0.520849,-0.0221,0*738b0665
#BESTVELA,FILE,0,33.5,FINESTEERING,2319,306870.350,02000000,10a2,17139;SOL_COMPUTED,INS_RTKFIXED,0.000,0.000,2.3654,0.626372,-0.0244,0*23fff229
#BESTVELA,FILE,0,33.5,FINESTEERING,2319,306870.400,02000000,10a2,17139;SOL_COMPUTED,INS_RTKFIXED,0.000,0.000,2.3490,0.886411,-0.0332,0*f6b4b64d
#BESTVELA,FILE,0,33.5,FINESTEERING,2319,306870.450,02000000,10a2,17139;SOL_COMPUTED,INS_RTKFIXED,0.000,0.000,2.3347,0.801005,-0.0398,0*64a40742
#BESTVELA,FILE,0,33.5,FINESTEERING,2319,306870.500,02000000,10a2,17139;SOL_COMPUTED,INS_RTKFIXED,0.000,0.000,2.3206,0.743055,-0.0336,0*2c60ed80
#BESTVELA,FILE,0,33.5,FINESTEERING,2319,306870.550,02000000,10a2,17139;SOL_COMPUTED,INS_RTKFIXED,0.000,0.000,2.3103,0.823016,-0.0383,0*445bca82
#BESTVELA,FILE,0,33.5,FINESTEERING,2319,306870.600,02000000,10a2,17139;SOL_COMPUTED,INS_RTKFIXED,0.000,0.000,2.3025,0.820303,-0.0274,0*c800076d
#BESTVELA,FILE,0,33.5,FINESTEERING,2319,306870.650,02000000,10a2,17139;SOL_COMPUTED,INS_RTKFIXED,0.000,0.000,2.2945,0.606893,-0.0182,0*873ac434
#BESTVELA,FILE,0,33.5,FINESTEERING,2319,306870.700,02000000,10a2,17139;SOL_COMPUTED,INS_RTKFIXED,0.000,0.000,2.2745,0.564134,-0.0159,0*2c78115a
#BESTVELA,FILE,0,33.5,FINESTEERING,2319,306870.750,02000000,10a2,17139;SOL_COMPUTED,INS_RTKFIXED,0.000,0.000,2.2630,0.776528,-0.0244,0*9d3dd222
#BESTVELA,FILE,0,33.5,FINESTEERING,2319,306870.800,02000000,10a2,17139;SOL_COMPUTED,INS_RTKFIXED,0.000,0.000,2.2462,0.904716,-0.0260,0*43814355
#BESTVELA,FILE,0,33.5,FINESTEERING,2319,306870.850,02000000,10a2,17139;SOL_COMPUTED,INS_RTKFIXED,0.000,0.000,2.2308,0.497264,-0.0236,0*1b5636dc
#BESTVELA,FILE,0,33.5,FINESTEERING,2319,306870.900,02000000,10a2,17139;SOL_COMPUTED,INS_RTKFIXED,0.000,0.000,2.2166,0.493101,-0.0224,0*6bfd25f4
#BESTVELA,FILE,0,33.5,FINESTEERING,2319,306870.950,02000000,10a2,17139;SOL_COMPUTED,INS_RTKFIXED,0.000,0.000,2.2046,0.741370,-0.0305,0*72afbb13
#BESTVELA,FILE,0,33.5,FINESTEERING,2319,306871.000,02000000,10a2,17139;SOL_COMPUTED,INS_RTKFIXED,0.000,0.000,2.1961,0.895538,-0.0271,0*41ff1185
#BESTVELA,FILE,0,33.5,FINESTEERING,2319,306871.050,02000000,10a2,17139;SOL_COMPUTED,INS_RTKFIXED,0.000,0.000,2.1895,1.130850,-0.0286,0*57a3697f
#BESTVELA,FILE,0,31.5,FINESTEERING,2319,306871.100,02000000,10a2,17139;SOL_COMPUTED,INS_RTKFIXED,0.000,0.000,2.1780,1.225586,-0.0271,0*74d98e6c
#BESTVELA,FILE,0,31.5,FINESTEERING,2319,306871.150,02000000,10a2,17139;SOL_COMPUTED,INS_RTKFIXED,0.000,0.000,2.1766,2.025333,-0.0344,0*5ada852d
#BESTVELA,FILE,0,31.5,FINESTEERING,2319,306871.200,02000000,10a2,17139;SOL_COMPUTED,INS_RTKFIXED,0.000,0.000,2.1698,2.306077,-0.0386,0*12f6f925
#BESTVELA,FILE,0,31.5,FINESTEERING,2319,306871.250,02000000,10a2,17139;SOL_COMPUTED,INS_RTKFIXED,0.000,0.000,2.1645,2.840016,-0.0435,0*f0301ada
#BESTVELA,FILE,0,31.5,FINESTEERING,2319,306871.300,02000000,10a2,17139;SOL_COMPUTED,INS_RTKFIXED,0.000,0.000,2.1656,3.087577,-0.0404,0*6cdb3f9b
#BESTVELA,FILE,0,31.5,FINESTEERING,2319,306871.350,02000000,10a2,17139;SOL_COMPUTED,INS_RTKFIXED,0.000,0.000,2.1712,3.603721,-0.0323,0*328865c6
#BESTVELA,FILE,0,31.5,FINESTEERING,2319,306871.400,02000000,10a2,17139;SOL_COMPUTED,INS_RTKFIXED,0.000,0.000,2.1652,4.309020,-0.0455,0*83780118
#BESTVELA,FILE,0,31.5,FINESTEERING,2319,306871.450,02000000,10a2,17139;SOL_COMPUTED,INS_RTKFIXED,0.000,0.000,2.1622,4.316882,-0.0353,0*c6f23b30
#BESTVELA,FILE,0,31.5,FINESTEERING,2319,306871.500,02000000,10a2,17139;SOL_COMPUTED,INS_RTKFIXED,0.000,0.000,2.1678,4.529014,-0.0337,0*35cbb28a
#BESTVELA,FILE,0,31.5,FINESTEERING,2319,306871.550,02000000,10a2,17139;SOL_COMPUTED,INS_RTKFIXED,0.000,0.000,2.1664,4.549253,-0.0291,0*da1b07dd
#BESTVELA,FILE,0,31.5,FINESTEERING,2319,306871.600,02000000,10a2,17139;SOL_COMPUTED,INS_RTKFIXED,0.000,0.000,2.1644,4.813335,-0.0273,0*5fe1864e
#BESTVELA,FILE,0,31.5,FINESTEERING,2319,306871.650,02000000,10a2,17139;SOL_COMPUTED,INS_RTKFIXED,0.000,0.000,2.1602,4.831456,-0.0265,0*aab94573
#BESTVELA,FILE,0,31.5,FINESTEERING,2319,306871.700,02000000,10a2,17139;SOL_COMPUTED,INS_RTKFIXED,0.000,0.000,2.1590,5.087904,-0.0306,0*f4f47b5e
#BESTVELA,FILE,0,31.5,FINESTEERING,2319,306871.750,02000000,10a2,17139;SOL_COMPUTED,INS_RTKFIXED,0.000,0.000,2.1570,5.379522,-0.0353,0*a3367bfe
#BESTVELA,FILE,0,31.5,FINESTEERING,2319,306871.800,02000000,10a2,17139;SOL_COMPUTED,INS_RTKFIXED,0.000,0.000,2.1577,5.877743,-0.0304,0*aa143224
#BESTVELA,FILE,0,31.5,FINESTEERING,2319,306871.850,02000000,10a2,17139;SOL_COMPUTED,INS_RTKFIXED,0.000,0.000,2.1567,6.393686,-0.0350,0*75a741a2
#BESTVELA,FILE,0,31.5,FINESTEERING,2319,306871.900,02000000,10a2,17139;SOL_COMPUTED,INS_RTKFIXED,0.000,0.000,2.1537,6.716032,-0.0328,0*a5ff84cf
#BESTVELA,FILE,0,31.5,FINESTEERING,2319,306871.950,02000000,10a2,17139;SOL_COMPUTED,INS_RTKFIXED,0.000,0.000,2.1608,7.049910,-0.0307,0*e3decca5
#BESTVELA,FILE,0,31.5,FINESTEERING,2319,306872.000,02000000,10a2,17139;SOL_COMPUTED,INS_RTKFIXED,0.000,0.000,2.1578,7.082961,-0.0221,0*6c8e55f8
#BESTVELA,FILE,0,31.5,FINESTEERING,2319,306872.050,02000000,10a2,17139;SOL_COMPUTED,INS_RTKFIXED,0.000,0.000,2.1677,7.413219,-0.0269,0*2331b280
#BESTVELA,FILE,0,31.5,FINESTEERING,2319,306872.100,02000000,10a2,17139;SOL_COMPUTED,INS_RTKFIXED,0.000,0.000,2.1671,7.642325,-0.0292,0*4a14febb
#BESTVELA,FILE,0,34.5,FINESTEERING,2319,306872.150,02000000,10a2,17139;SOL_COMPUTED,INS_RTKFIXED,0.000,0.000,2.1646,7.880076,-0.0332,0*200ff96b
#BESTVELA,FILE,0,34.5,FINESTEERING,2319,306872.200,02000000,10a2,17139;SOL_COMPUTED,INS_RTKFIXED,0.000,0.000,2.1553,7.866810,-0.0200,0*79cd094b
#BESTVELA,FILE,0,34.5,FINESTEERING,2319,306872.250,02000000,10a2,17139;SOL_COMPUTED,INS_RTKFIXED,0.000,0.000,2.1519,8.121531,-0.0194,0*325b857d
#BESTVELA,FILE,0,34.5,FINESTEERING,2319,306872.300,02000000,10a2,17139;SOL_COMPUTED,INS_RTKFIXED,0.000,0.000,2.1317,8.491560,-0.0265,0*8ad98a66
#BESTVELA,FILE,0,34.5,FINESTEERING,2319,306872.350,02000000,10a2,17139;SOL_COMPUTED,INS_RTKFIXED,0.000,0.000,2.1157,8.794792,-0.0364,0*f0eabcbf
#BESTVELA,FILE,0,34.5,FINESTEERING,2319,306872.400,02000000,10a2,17139;SOL_COMPUTED,INS_RTKFIXED,0.000,0.000,2.1043,8.793799,-0.0415,0*34ca5b6d
#BESTVELA,FILE,0,34.5,FINESTEERING,2319,306872.450,02000000,10a2,17139;SOL_COMPUTED,INS_RTKFIXED,0.000,0.000,2.0971,8.965004,-0.0413,0*8efe85eb
#BESTVELA,FILE,0,34.5,FINESTEERING,2319,306872.500,02000000,10a2,17139;SOL_COMPUTED,INS_RTKFIXED,0.000,0.000,2.0823,8.990359,-0.0410,0*d2a19887
#BESTVELA,FILE,0,34.5,FINESTEERING,2319,306872.550,02000000,10a2,17139;SOL_COMPUTED,INS_RTKFIXED,0.000,0.000,2.0805,9.109774,-0.0397,0*fe196fdb
#BESTVELA,FILE,0,34.5,FINESTEERING,2319,306872.600,02000000,10a2,17139;SOL_COMPUTED,INS_RTKFIXED,0.000,0.000,2.0744,9.403411,-0.0399,0*64ccb451
#BESTVELA,FILE,0,34.5,FINESTEERING,2319,306872.650,02000000,10a2,17139;SOL_COMPUTED,INS_RTKFIXED,0.000,0.000,2.0635,9.475616,-0.0317,0*071d7d0f
#BESTVELA,FILE,0,34.5,FINESTEERING,2319,306872.700,02000000,10a2,17139;SOL_COMPUTED,INS_RTKFIXED,0.000,0.000,2.0636,9.499303,-0.0369,0*3fac3265
#BESTVELA,FILE,0,34.5,FINESTEERING,2319,306872.750,02000000,10a2,17139;SOL_COMPUTED,INS_RTKFIXED,0.000,0.000,2.0627,9.445391,-0.0389,0*ab076cfe
#BESTVELA,FILE,0,34.5,FINESTEERING,2319,306872.800,02000000,10a2,17139;SOL_COMPUTED,INS_RTKFIXED,0.000,0.000,2.0638,9.474916,-0.0387,0*de9e84b7
#BESTVELA,FILE,0,34.5,FINESTEERING,2319,306872.850,02000000,10a2,17139;SOL_COMPUTED,INS_RTKFIXED,0.000,0.000,2.0618,9.681457,-0.0407,0*02168c66
#BESTVELA,FILE,0,34.5,FINESTEERING,2319,306872.900,02000000,10a2,17139;SOL_COMPUTED,INS_RTKFIXED,0.000,0.000,2.0604,9.778206,-0.0388,0*af4696e5
#BESTVELA,FILE,0,34.5,FINESTEERING,2319,306872.950,02000000,10a2,17139;SOL_COMPUTED,INS_RTKFIXED,0.000,0.000,2.0554,9.792128,-0.0338,0*6d28d139
#BESTVELA,FILE,0,34.5,FINESTEERING,2319,306873.000,02000000,10a2,17139;SOL_COMPUTED,INS_RTKFIXED,0.000,0.000,2.0623,10.055865,-0.0321,0*f57d9961
#BESTVELA,FILE,0,34.5,FINESTEERING,2319,306873.050,02000000,10a2,17139;SOL_COMPUTED,INS_RTKFIXED,0.000,0.000,2.0578,10.317107,-0.0368,0*13cab443
#BESTVELA,FILE,0,31.5,FINESTEERING,2319,306873.100,02000000,10a2,17139;SOL_COMPUTED,INS_RTKFIXED,0.000,0.000,2.0629,10.203992,-0.0336,0*6ca11be5
#BESTVELA,FILE,0,31.5,FINESTEERING,2319,306873.150,02000000,10a2,17139;SOL_COMPUTED,INS_RTKFIXED,0.000,0.000,2.0664,10.314653,-0.0397,0*109eec4f
#BESTVELA,FILE,0,31.5,FINESTEERING,2319,306873.200,02000000,10a2,17139;SOL_COMPUTED,INS_RTKFIXED,0.000,0.000,2.0577,10.179820,-0.0377,0*607b59da
#BESTVELA,FILE,0,31.5,FINESTEERING,2319,306873.250,02000000,10a2,17139;SOL_COMPUTED,INS_RTKFIXED,0.000,0.000,2.0509,10.179650,-0.0490,0*7839f4d4
#BESTVELA,FILE,0,31.5,FINESTEERING,2319,306873.300,02000000,10a2,17139;SOL_COMPUTED,INS_RTKFIXED,0.000,0.000,2.0502,10.146038,-0.0537,0*e3ea6a99
#BESTVELA,FILE,0,31.5,FINESTEERING,2319,306873.350,02000000,10a2,17139;SOL_COMPUTED,INS_RTKFIXED,0.000,0.000,2.0505,9.983956,-0.0449,0*5f32201b
#BESTVELA,FILE,0,31.5,FINESTEERING,2319,306873.400,02000000,10a2,17139;SOL_COMPUTED,INS_RTKFIXED,0.000,0.000,2.0506,10.138456,-0.0456,0*b999329d
#BESTVELA,FILE,0,31.5,FINESTEERING,2319,306873.450,02000000,10a2,17139;SOL_COMPUTED,INS_RTKFIXED,0.000,0.000,2.0449,9.996434,-0.0375,0*1a6e8705
#BESTVELA,FILE,0,31.5,FINESTEERING,2319,306873.500,02000000,10a2,17139;SOL_COMPUTED,INS_RTKFIXED,0.000,0.000,2.0521,9.974230,-0.0322,0*781a6bf4
#BESTVELA,FILE,0,31.5,FINESTEERING,2319,306873.550,02000000,10a2,17139;SOL_COMPUTED,INS_RTKFIXED,0.000,0.000,2.0596,10.194974,-0.0293,0*4a71dccb
#BESTVELA,FILE,0,31.5,FINESTEERING,2319,306873.600,02000000,10a2,17139;SOL_COMPUTED,INS_RTKFIXED,0.000,0.000,2.0519,10.621855,-0.0355,0*1444282f
#BESTVELA,FILE,0,31.5,FINESTEERING,2319,306873.650,02000000,10a2,17139;SOL_COMPUTED,INS_RTKFIXED,0.000,0.000,2.0473,10.690782,-0.0420,0*b149f785
#BESTVELA,FILE,0,31.5,FINESTEERING,2319,306873.700,02000000,10a2,17139;SOL_COMPUTED,INS_RTKFIXED,0.000,0.000,2.0477,10.552504,-0.0346,0*139f5373
#BESTVELA,FILE,0,31.5,FINESTEERING,2319,306873.750,02000000,10a2,17139;SOL_COMPUTED,INS_RTKFIXED,0.000,0.000,2.0441,10.782107,-0.0417,0*0d89217f
#BESTVELA,FILE,0,31.5,FINESTEERING,2319,306873.800,02000000,10a2,17139;SOL_COMPUTED,INS_RTKFIXED,0.000,0.000,2.0412,10.879061,-0.0482,0*d1918333
#BESTVELA,FILE,0,31.5,FINESTEERING,2319,306873.850,02000000,10a2,17139;SOL_COMPUTED,INS_RTKFIXED,0.000,0.000,2.0400,11.020024,-0.0444,0*687d1dbb
#BESTVELA,FILE,0,31.5,FINESTEERING,2319,306873.900,02000000,10a2,17139;SOL_COMPUTED,INS_RTKFIXED,0.000,0.000,2.0410,10.833947,-0.0390,0*b0d84480
#BESTVELA,FILE,0,31.5,FINESTEERING,2319,306873.950,02000000,10a2,17139;SOL_COMPUTED,INS_RTKFIXED,0.000,0.000,2.0363,10.963676,-0.0427,0*c3dd1d61
#BESTVELA,FILE,0,31.5,FINESTEERING,2319,306874.000,02000000,10a2,17139;SOL_COMPUTED,INS_RTKFIXED,0.000,0.000,2.0344,11.033681,-0.0447,0*cc60cae8
#BESTVELA,FILE,0,31.5,FINESTEERING,2319,306874.050,02000000,10a2,17139;SOL_COMPUTED,INS_RTKFIXED,0.000,0.000,2.0304,10.711965,-0.0399,0*8854f949
#BESTVELA,FILE,0,31.5,FINESTEERING,2319,306874.100,02000000,10a2,17139;SOL_COMPUTED,INS_RTKFIXED,0.000,0.000,2.0354,10.648711,-0.0342,0*10a3f02c
#BESTVELA,FILE,0,31.5,FINESTEERING,2319,306874.150,02000000,10a2,17139;SOL_COMPUTED,INS_RTKFIXED,0.000,0.000,2.0304,10.744838,-0.0364,0*b6af0121
#BESTVELA,FILE,0,31.5,FINESTEERING,2319,306874.200,02000000,10a2,17139;SOL_COMPUTED,INS_RTKFIXED,0.000,0.000,2.0279,10.836530,-0.0398,0*3712802e
#BESTVELA,FILE,0,31.5,FINESTEERING,2319,306874.250,02000000,10a2,17139;SOL_COMPUTED,INS_RTKFIXED,0.000,0.000,2.0264,10.937940,-0.0420,0*490687e0
#BESTVELA,FILE,0,31.5,FINESTEERING,2319,306874.300,02000000,10a2,17139;SOL_COMPUTED,INS_RTKFIXED,0.000,0.000,2.0250,10.833083,-0.0376,0*6f12ce17
#BESTVELA,FILE,0,31.5,FINESTEERING,2319,306874.350,02000000,10a2,17139;SOL_COMPUTED,INS_RTKFIXED,0.000,0.000,2.0248,10.947285,-0.0371,0*8b311cdb
#BESTVELA,FILE,0,31.5,FINESTEERING,2319,306874.400,02000000,10a2,17139;SOL_COMPUTED,INS_RTKFIXED,0.000,0.000,2.0178,11.032126,-0.0418,0*b413326a
#BESTVELA,FILE,0,31.5,FINESTEERING,2319,306874.450,02000000,10a2,17139;SOL_COMPUTED,INS_RTKFIXED,0.000,0.000,2.0153,10.917525,-0.0346,0*7b02dd64
#BESTVELA,FILE,0,31.5,FINESTEERING,2319,306874.500,02000000,10a2,17139;SOL_COMPUTED,INS_RTKFIXED,0.000,0.000,2.0205,10.926622,-0.0316,0*bf519b51
#BESTVELA,FILE,0,31.5,FINESTEERING,2319,306874.550,02000000,10a2,17139;SOL_COMPUTED,INS_RTKFIXED,0.000,0.000,2.0142,10.902074,-0.0336,0*40b8e4dc
#BESTVELA,FILE,0,31.5,FINESTEERING,2319,306874.600,02000000,10a2,17139;SOL_COMPUTED,INS_RTKFIXED,0.000,0.000,2.0130,11.032972,-0.0349,0*948fa9c4
#BESTVELA,FILE,0,31.5,FINESTEERING,2319,306874.650,02000000,10a2,17139;SOL_COMPUTED,INS_RTKFIXED,0.000,0.000,2.0027,11.105324,-0.0282,0*eddb955b
#BESTVELA,FILE,0,31.5,FINESTEERING,2319,306874.700,02000000,10a2,17139;SOL_COMPUTED,INS_RTKFIXED,0.000,0.000,2.0035,11.094603,-0.0378,0*cbc69c2f
#BESTVELA,FILE,0,31.5,FINESTEERING,2319,306874.750,02000000,10a2,17139;SOL_COMPUTED,INS_RTKFIXED,0.000,0.000,1.9953,11.277665,-0.0472,0*aca83735
#BESTVELA,FILE,0,31.5,FINESTEERING,2319,306874.800,02000000,10a2,17139;SOL_COMPUTED,INS_RTKFIXED,0.000,0.000,1.9966,11.536118,-0.0444,0*fe3663de
#BESTVELA,FILE,0,31.5,FINESTEERING,2319,306874.850,02000000,10a2,17139;SOL_COMPUTED,INS_RTKFIXED,0.000,0.000,1.9977,11.517610,-0.0387,0*09d729ec
#BESTVELA,FILE,0,31.5,FINESTEERING,2319,306874.900,02000000,10a2,17139;SOL_COMPUTED,INS_RTKFIXED,0.000,0.000,1.9958,11.398692,-0.0371,0*83cf5272
#BESTVELA,FILE,0,31.5,FINESTEERING,2319,306874.950,02000000,10a2,17139;SOL_COMPUTED,INS_RTKFIXED,0.000,0.000,2.0012,11.352188,-0.0408,0*e0eaad67
#BESTVELA,FILE,0,31.5,FINESTEERING,2319,306875.000,02000000,10a2,17139;SOL_COMPUTED,INS_RTKFIXED,0.000,0.000,1.9967,11.537584,-0.0391,0*ddd678a4
#BESTVELA,FILE,0,31.5,FINESTEERING,2319,306875.050,02000000,10a2,17139;SOL_COMPUTED,INS_RTKFIXED,0.000,0.000,1.9992,11.608055,-0.0320,0*0119cad0
#BESTVELA,FILE,0,31.5,FINESTEERING,2319,306875.100,02000000,10a2,17139;SOL_COMPUTED,INS_RTKFIXED,0.000,0.000,1.9932,11.724295,-0.0350,0*62cfdb70
#BESTVELA,FILE,0,32.5,FINESTEERING,2319,306875.150,02000000,10a2,17139;SOL_COMPUTED,INS_RTKFIXED,0.000,0.000,1.9876,11.748033,-0.0373,0*2ae0d529
#BESTVELA,FILE,0,32.5,FINESTEERING,2319,306875.200,02000000,10a2,17139;SOL_COMPUTED,INS_RTKFIXED,0.000,0.000,1.9862,11.668722,-0.0336,0*08fb4a55
#BESTVELA,FILE,0,32.5,FINESTEERING,2319,306875.250,02000000,10a2,17139;SOL_COMPUTED,INS_RTKFIXED,0.000,0.000,1.9857,11.499838,-0.0301,0*cc9dd86a
#BESTVELA,FILE,0,32.5,FINESTEERING,2319,306875.300,02000000,10a2,17139;SOL_COMPUTED,INS_RTKFIXED,0.000,0.000,1.9825,11.418831,-0.0296,0*01330be2
#BESTVELA,FILE,0,32.5,FINESTEERING,2319,306875.350,02000000,10a2,17139;SOL_COMPUTED,INS_RTKFIXED,0.000,0.000,1.9827,11.327286,-0.0315,0*b01983af
#BESTVELA,FILE,0,32.5,FINESTEERING,2319,306875.400,02000000,10a2,17139;SOL_COMPUTED,INS_RTKFIXED,0.000,0.000,1.9804,11.286456,-0.0235,0*13adc35c
#BESTVELA,FILE,0,32.5,FINESTEERING,2319,306875.450,02000000,10a2,17139;SOL_COMPUTED,INS_RTKFIXED,0.000,0.000,1.9771,11.358578,-0.0288,0*df32a885
#BESTVELA,FILE,0,32.5,FINESTEERING,2319,306875.500,02000000,10a2,17139;SOL_COMPUTED,INS_RTKFIXED,0.000,0.000,1.9658,11.529162,-0.0306,0*ee005be7
#BESTVELA,FILE,0,32.5,FINESTEERING,2319,306875.550,02000000,10a2,17139;SOL_COMPUTED,INS_RTKFIXED,0.000,0.000,1.9735,11.483597,-0.0247,0*b32319ee
#BESTVELA,FILE,0,32.5,FINESTEERING,2319,306875.600,02000000,10a2,17139;SOL_COMPUTED,INS_RTKFIXED,0.000,0.000,1.9716,11.527512,-0.0233,0*54f66484
#BESTVELA,FILE,0,32.5,FINESTEERING,2319,306875.650,02000000,10a2,17139;SOL_COMPUTED,INS_RTKFIXED,0.000,0.000,1.9757,11.594751,-0.0281,0*6cbf8b02
#BESTVELA,FILE,0,32.5,FINESTEERING,2319,306875.700,02000000,10a2,17139;SOL_COMPUTED,INS_RTKFIXED,0.000,0.000,1.9683,11.700196,-0.0352,0*9e464e2f
#BESTVELA,FILE,0,32.5,FINESTEERING,2319,306875.750,02000000,10a2,17139;SOL_COMPUTED,INS_RTKFIXED,0.000,0.000,1.9679,11.954638,-0.0349,0*8f021383
#BESTVELA,FILE,0,32.5,FINESTEERING,2319,306875.800,02000000,10a2,17139;SOL_COMPUTED,INS_RTKFIXED,0.000,0.000,1.9674,11.838568,-0.0248,0*407762a5
#BESTVELA,FILE,0,32.5,FINESTEERING,2319,306875.850,02000000,10a2,17139;SOL_COMPUTED,INS_RTKFIXED,0.000,0.000,1.9679,11.771115,-0.0213,0*71c20745
#BESTVELA,FILE,0,32.5,FINESTEERING,2319,306875.900,02000000,10a2,17139;SOL_COMPUTED,INS_RTKFIXED,0.000,0.000,1.9697,11.804283,-0.0170,0*70f3f90f
#BESTVELA,FILE,0,32.5,FINESTEERING,2319,306875.950,02000000,10a2,17139;SOL_COMPUTED,INS_RTKFIXED,0.000,0.000,1.9696,12.148942,-0.0262,0*d0127e3d
#BESTVELA,FILE,0,32.5,FINESTEERING,2319,306876.000,02000000,10a2,17139;SOL_COMPUTED,INS_RTKFIXED,0.000,0.000,1.9602,12.202362,-0.0342,0*5190b07b
#BESTVELA,FILE,0,32.5,FINESTEERING,2319,306876.050,02000000,10a2,17139;SOL_COMPUTED,INS_RTKFIXED,0.000,0.000,1.9584,11.629096,-0.0263,0*2fb47d4f
#BESTVELA,FILE,0,32.0,FINESTEERING,2319,306876.100,02000000,10a2,17139;SOL_COMPUTED,INS_RTKFIXED,0.000,0.000,1.9587,11.304514,-0.0255,0*d09e927a
