#BESTPOSA,FILE,0,34.0,FINESTEERING,2319,306853.950,02000800,cdba,17139;SOL_COMPUTED,INS_RTKFIXED,17.59229403352,78.12172193520,531.7655,-76.2000,WGS84,0.6610,0.6646,1.2569,"",0.000,0.000,56,41,41,41,00,06,39,33*725f75fc
#BESTPOSA,FILE,0,34.0,FINESTEERING,2319,306854.000,02000800,cdba,17139;SOL_COMPUTED,INS_RTKFIXED,17.59229434630,78.12172222088,531.7648,-76.2000,WGS84,0.6610,0.6646,1.2569,"",0.000,0.000,56,41,41,41,00,06,39,33*00f85d04
#BESTPOSA,FILE,0,34.0,FINESTEERING,2319,306854.050,02000800,cdba,17139;SOL_COMPUTED,INS_RTKFIXED,17.59229466229,78.12172249699,531.7646,-76.2000,WGS84,0.6617,0.6655,1.2552,"",0.000,0.000,56,41,41,41,00,06,39,33*f47fb44e
#BESTPOSA,FILE,0,34.0,FINESTEERING,2319,306854.150,02000800,cdba,17139;SOL_COMPUTED,INS_RTKFIXED,17.59229530783,78.12172303841,531.7659,-76.2000,WGS84,0.6617,0.6655,1.2552,"",0.000,0.000,56,41,41,41,00,06,39,33*1e09d0e4
#BESTPOSA,FILE,0,35.5,FINESTEERING,2319,306854.200,02000800,cdba,17139;SOL_COMPUTED,INS_RTKFIXED,17.59229564410,78.12172331522,531.7665,-76.2000,WGS84,0.6617,0.6655,1.2552,"",0.000,0.000,56,41,41,41,00,06,39,33*7e7e8d9e
#BESTPOSA,FILE,0,35.5,FINESTEERING,2319,306854.250,02000800,cdba,17139;SOL_COMPUTED,INS_RTKFIXED,17.59229599091,78.12172359447,531.7671,-76.2000,WGS84,0.6617,0.6655,1.2552,"",0.000,0.000,56,41,41,41,00,06,39,33*7f5eb5e4
#BESTPOSA,FILE,0,35.5,FINESTEERING,2319,306854.300,02000800,cdba,17139;SOL_COMPUTED,INS_RTKFIXED,17.59229634906,78.12172387379,531.7677,-76.2000,WGS84,0.6617,0.6655,1.2552,"",0.000,0.000,56,41,41,41,00,06,39,33*4fd09960
#BESTPOSA,FILE,0,35.5,FINESTEERING,2319,306854.400,02000800,cdba,17139;SOL_COMPUTED,INS_RTKFIXED,17.59229709975,78.12172443140,531.7691,-76.2000,WGS84,0.6617,0.6655,1.2552,"",0.000,0.000,56,41,41,41,00,06,39,33*165677bf
#BESTPOSA,FILE,0,35.5,FINESTEERING,2319,306854.600,02000800,cdba,17139;SOL_COMPUTED,INS_RTKFIXED,17.59229872994,78.12172553727,531.7718,-76.2000,WGS84,0.6617,0.6655,1.2552,"",0.000,0.000,56,41,41,41,00,06,39,33*5d3488ce
#BESTPOSA,FILE,0,35.5,FINESTEERING,2319,306854.650,02000800,cdba,17139;SOL_COMPUTED,INS_RTKFIXED,17.59229916577,78.12172581022,531.7723,-76.2000,WGS84,0.6617,0.6655,1.2552,"",0.000,0.000,56,41,41,41,00,06,39,33*71ebbb2e
#BESTPOSA,FILE,0,35.5,FINESTEERING,2319,306854.750,02000800,cdba,17139;SOL_COMPUTED,INS_RTKFIXED,17.59230007280,78.12172635119,531.7733,-76.2000,WGS84,0.6617,0.6655,1.2552,"",0.000,0.000,56,41,41,41,00,06,39,33*9bdd5e8e
#BESTPOSA,FILE,0,35.5,FINESTEERING,2319,306854.800,02000800,cdba,17139;SOL_COMPUTED,INS_RTKFIXED,17.59230054676,78.12172661713,531.7740,-76.2000,WGS84,0.6617,0.6655,1.2552,"",0.000,0.000,56,41,41,41,00,06,39,33*44894932
#BESTPOSA,FILE,0,35.5,FINESTEERING,2319,306855.000,02000800,cdba,17139;SOL_COMPUTED,INS_RTKFIXED,17.59230258077,78.12172763970,531.7784,-76.2000,WGS84,0.6617,0.6655,1.2552,"",0.000,0.000,56,41,41,41,00,06,39,33*544ff59d
#BESTPOSA,FILE,0,33.0,FINESTEERING,2319,306855.100,02000800,cdba,17139;SOL_COMPUTED,INS_RTKFIXED,17.59230361110,78.12172808181,531.7806,-76.2000,WGS84,0.6627,0.6664,1.2539,"",0.000,0.000,56,41,41,41,00,06,39,33*d1aca2e4
#BESTPOSA,FILE,0,33.0,FINESTEERING,2319,306855.250,02000800,cdba,17139;SOL_COMPUTED,INS_RTKFIXED,17.59230518313,78.12172869168,531.7822,-76.2000,WGS84,0.6627,0.6664,1.2539,"",0.000,0.000,56,41,41,41,00,06,39,33*66237047
#BESTPOSA,FILE,0,33.0,FINESTEERING,2319,306855.350,02000800,cdba,17139;SOL_COMPUTED,INS_RTKFIXED,17.59230626679,78.12172906144,531.7835,-76.2000,WGS84,0.6627,0.6664,1.2539,"",0.000,0.000,56,41,41,41,00,06,39,33*a8071b10
#BESTPOSA,FILE,0,33.0,FINESTEERING,2319,306855.400,02000800,cdba,17139;SOL_COMPUTED,INS_RTKFIXED,17.59230681801,78.12172923279,531.7845,-76.2000,WGS84,0.6627,0.6664,1.2539,"",0.000,0.000,56,41,41,41,00,06,39,33*29669e4c
#BESTPOSA,FILE,0,33.0,FINESTEERING,2319,306855.500,02000800,cdba,17139;SOL_COMPUTED,INS_RTKFIXED,17.59230793385,78.12172954987,531.7866,-76.2000,WGS84,0.6627,0.6664,1.2539,"",0.000,0.000,56,41,41,41,00,06,39,33*d4f8e7a1
#BESTPOSA,FILE,0,33.0,FINESTEERING,2319,306855.650,02000800,cdba,17139;SOL_COMPUTED,INS_RTKFIXED,17.59230963688,78.12172995129,531.7904,-76.2000,WGS84,0.6627,0.6664,1.2539,"",0.000,0.000,56,41,41,41,00,06,39,33*9b4d1300
#BESTPOSA,FILE,0,33.0,FINESTEERING,2319,306855.700,02000800,cdba,17139;SOL_COMPUTED,INS_RTKFIXED,17.59231020877,78.12173007323,531.7913,-76.2000,WGS84,0.6627,0.6664,1.2539,"",0.000,0.000,56,41,41,41,00,06,39,33*d04c700c
#BESTPOSA,FILE,0,33.0,FINESTEERING,2319,306855.850,02000800,cdba,17139;SOL_COMPUTED,INS_RTKFIXED,17.59231194094,78.12173038210,531.7944,-76.2000,WGS84,0.6627,0.6664,1.2539,"",0.000,0.000,56,41,41,41,00,06,39,33*22adadaa
#BESTPOSA,FILE,0,33.0,FINESTEERING,2319,306855.950,02000800,cdba,17139;SOL_COMPUTED,INS_RTKFIXED,17.59231310119,78.12173053925,531.7957,-76.2000,WGS84,0.6627,0.6664,1.2539,"",0.000,0.000,56,41,41,41,00,06,39,33*b1d1be4a
#BESTPOSA,FILE,0,33.0,FINESTEERING,2319,306856.000,02000800,cdba,17139;SOL_COMPUTED,INS_RTKFIXED,17.59231368380,78.12173061114,531.7964,-76.2000,WGS84,0.6627,0.6664,1.2539,"",0.000,0.000,56,41,41,41,00,06,39,33*6046bc2b
#BESTPOSA,FILE,0,33.0,FINESTEERING,2319,306856.050,02000800,cdba,17139;SOL_COMPUTED,INS_RTKFIXED,17.59231425105,78.12173069820,531.7966,-76.2000,WGS84,0.6635,0.6673,1.2527,"",0.000,0.000,56,41,41,41,00,06,39,33*5e1364d1
#BESTPOSA,FILE,0,33.0,FINESTEERING,2319,306856.250,02000800,cdba,17139;SOL_COMPUTED,INS_RTKFIXED,17.59231649404,78.12173113140,531.7940,-76.2000,WGS84,0.6635,0.6673,1.2527,"",0.000,0.000,56,41,41,41,00,06,39,33*b28b2deb
#BESTPOSA,FILE,0,34.0,FINESTEERING,2319,306856.350,02000800,cdba,17139;SOL_COMPUTED,INS_RTKFIXED,17.59231761938,78.12173131221,531.7923,-76.2000,WGS84,0.6635,0.6673,1.2527,"",0.000,0.000,56,41,41,41,00,06,39,33*7f50a16a
#BESTPOSA,FILE,0,34.0,FINESTEERING,2319,306856.400,02000800,cdba,17139;SOL_COMPUTED,INS_RTKFIXED,17.59231818378,78.12173139809,531.7912,-76.2000,WGS84,0.6635,0.6673,1.2527,"",0.000,0.000,56,41,41,41,00,06,39,33*881214c2
#BESTPOSA,FILE,0,34.0,FINESTEERING,2319,306856.450,02000800,cdba,17139;SOL_COMPUTED,INS_RTKFIXED,17.59231874843,78.12173148158,531.7900,-76.2000,WGS84,0.6635,0.6673,1.2527,"",0.000,0.000,56,41,41,41,00,06,39,33*bb820016
#BESTPOSA,FILE,0,34.0,FINESTEERING,2319,306856.550,02000800,cdba,17139;SOL_COMPUTED,INS_RTKFIXED,17.59231988228,78.12173163203,531.7878,-76.2000,WGS84,0.6635,0.6673,1.2527,"",0.000,0.000,56,41,41,41,00,06,39,33*c145e412
#BESTPOSA,FILE,0,34.0,FINESTEERING,2319,306856.600,02000800,cdba,17139;SOL_COMPUTED,INS_RTKFIXED,17.59232044901,78.12173170101,531.7867,-76.2000,WGS84,0.6635,0.6673,1.2527,"",0.000,0.000,56,41,41,41,00,06,39,33*069d8b6f
#BESTPOSA,FILE,0,34.0,FINESTEERING,2319,306856.700,02000800,cdba,17139;SOL_COMPUTED,INS_RTKFIXED,17.59232158291,78.12173182173,531.7848,-76.2000,WGS84,0.6635,0.6673,1.2527,"",0.000,0.000,56,41,41,41,00,06,39,33*8b8c32b9
#BESTPOSA,FILE,0,34.0,FINESTEERING,2319,306856.800,02000800,cdba,17139;SOL_COMPUTED,INS_RTKFIXED,17.59232272152,78.12173191616,531.7829,-76.2000,WGS84,0.6635,0.6673,1.2527,"",0.000,0.000,56,41,41,41,00,06,39,33*fc5481b1
#BESTPOSA,FILE,0,34.0,FINESTEERING,2319,306857.000,02000800,cdba,17139;SOL_COMPUTED,INS_RTKFIXED,17.59232498192,78.12173205412,531.7812,-76.2000,WGS84,0.6635,0.6673,1.2527,"",0.000,0.000,56,41,41,41,00,06,39,33*5cae9075
#BESTPOSA,FILE,0,34.0,FINESTEERING,2319,306857.050,02000800,cdba,17139;SOL_COMPUTED,INS_RTKFIXED,17.59232553750,78.12173209583,531.7811,-76.2000,WGS84,0.6643,0.6682,1.2520,"",0.000,0.000,56,41,41,41,00,06,39,33*acd6e2b7
#BESTPOSA,FILE,0,34.0,FINESTEERING,2319,306857.250,02000800,cdba,17139;SOL_COMPUTED,INS_RTKFIXED,17.59232777403,78.12173232058,531.7849,-76.2000,WGS84,0.6643,0.6682,1.2520,"",0.000,0.000,56,41,41,41,00,06,39,33*65cd5a53
#BESTPOSA,FILE,0,34.5,FINESTEERING,2319,306857.350,02000800,cdba,17139;SOL_COMPUTED,INS_RTKFIXED,17.59232886952,78.12173240418,531.7871,-76.2000,WGS84,0.6643,0.6682,1.2520,"",0.000,0.000,56,41,41,41,00,06,39,33*795225ec
#BESTPOSA,FILE,0,34.5,FINESTEERING,2319,306857.400,02000800,cdba,17139;SOL_COMPUTED,INS_RTKFIXED,17.59232941515,78.12173243771,531.7882,-76.2000,WGS84,0.6643,0.6682,1.2520,"",0.000,0.000,56,41,41,41,00,06,39,33*da23ed6c
#BESTPOSA,FILE,0,34.5,FINESTEERING,2319,306857.450,02000800,cdba,17139;SOL_COMPUTED,INS_RTKFIXED,17.59232995665,78.12173247247,531.7888,-76.2000,WGS84,0.6643,0.6682,1.2520,"",0.000,0.000,56,41,41,41,00,06,39,33*88f59f46
#BESTPOSA,FILE,0,34.5,FINESTEERING,2319,306857.500,02000800,cdba,17139;SOL_COMPUTED,INS_RTKFIXED,17.59233049317,78.12173251267,531.7889,-76.2000,WGS84,0.6643,0.6682,1.2520,"",0.000,0.000,56,41,41,41,00,06,39,33*9c12cbb7
#BESTPOSA,FILE,0,34.5,FINESTEERING,2319,306857.550,02000800,cdba,17139;SOL_COMPUTED,INS_RTKFIXED,17.59233103041,78.12173255648,531.7891,-76.2000,WGS84,0.6643,0.6682,1.2520,"",0.000,0.000,56,41,41,41,00,06,39,33*4b36767f
#BESTPOSA,FILE,0,34.5,FINESTEERING,2319,306857.600,02000800,cdba,17139;SOL_COMPUTED,INS_RTKFIXED,17.59233156323,78.12173260275,531.7893,-76.2000,WGS84,0.6643,0.6682,1.2520,"",0.000,0.000,56,41,41,41,00,06,39,33*7e700d00
#BESTPOSA,FILE,0,34.5,FINESTEERING,2319,306857.650,02000800,cdba,17139;SOL_COMPUTED,INS_RTKFIXED,17.59233209215,78.12173264831,531.7896,-76.2000,WGS84,0.6643,0.6682,1.2520,"",0.000,0.000,56,41,41,41,00,06,39,33*e03bbb93
#BESTPOSA,FILE,0,34.5,FINESTEERING,2319,306857.700,02000800,cdba,17139;SOL_COMPUTED,INS_RTKFIXED,17.59233261615,78.12173269259,531.7896,-76.2000,WGS84,0.6643,0.6682,1.2520,"",0.000,0.000,56,41,41,41,00,06,39,33*7c3c52a5
#BESTPOSA,FILE,0,34.5,FINESTEERING,2319,306857.750,02000800,cdba,17139;SOL_COMPUTED,INS_RTKFIXED,17.59233313795,78.12173273099,531.7895,-76.2000,WGS84,0.6643,0.6682,1.2520,"",0.000,0.000,56,41,41,41,00,06,39,33*b327a34e
#BESTPOSA,FILE,0,34.5,FINESTEERING,2319,306857.800,02000800,cdba,17139;SOL_COMPUTED,INS_RTKFIXED,17.59233365666,78.12173276188,531.7894,-76.2000,WGS84,0.6643,0.6682,1.2520,"",0.000,0.000,56,41,41,41,00,06,39,33*9c4874ba
#BESTPOSA,FILE,0,34.5,FINESTEERING,2319,306857.850,02000800,cdba,17139;SOL_COMPUTED,INS_RTKFIXED,17.59233417357,78.12173278710,531.7894,-76.2000,WGS84,0.6643,0.6682,1.2520,"",0.000,0.000,56,41,41,41,00,06,39,33*6dfc682c
#BESTPOSA,FILE,0,34.5,FINESTEERING,2319,306857.900,02000800,cdba,17139;SOL_COMPUTED,INS_RTKFIXED,17.59233468789,78.12173280792,531.7893,-76.2000,WGS84,0.6643,0.6682,1.2520,"",0.000,0.000,56,41,41,41,00,06,39,33*b3cd084e
#BESTPOSA,FILE,0,34.5,FINESTEERING,2319,306857.950,02000000,cdba,17139;SOL_COMPUTED,INS_RTKFIXED,17.59233520484,78.12173282455,531.7893,-76.2000,WGS84,0.6643,0.6682,1.2520,"",0.000,0.000,56,41,41,41,00,06,39,33*7d5e9468
#BESTPOSA,FILE,0,34.5,FINESTEERING,2319,306858.000,02000000,cdba,17139;SOL_COMPUTED,INS_RTKFIXED,17.59233572492,78.12173284086,531.7894,-76.2000,WGS84,0.6643,0.6682,1.2520,"",0.000,0.000,56,41,41,41,00,06,39,33*1cea86e7
#BESTPOSA,FILE,0,34.5,FINESTEERING,2319,306858.050,02000000,cdba,17139;SOL_COMPUTED,INS_RTKFIXED,17.59233624641,78.12173288085,531.7897,-76.2000,WGS84,0.6648,0.6689,1.2513,"",0.000,0.000,56,41,41,41,00,06,39,33*93e945cd
#BESTPOSA,FILE,0,25.0,FINESTEERING,2319,306858.100,02000000,cdba,17139;SOL_COMPUTED,INS_RTKFIXED,17.59233677879,78.12173293718,531.7908,-76.2000,WGS84,0.6648,0.6689,1.2513,"",0.000,0.000,56,41,41,41,00,06,39,33*cc6e194f
#BESTPOSA,FILE,0,25.0,FINESTEERING,2319,306858.150,02000000,cdba,17139;SOL_COMPUTED,INS_RTKFIXED,17.59233731107,78.12173299360,531.7918,-76.2000,WGS84,0.6648,0.6689,1.2513,"",0.000,0.000,56,41,41,41,00,06,39,33*5da6ee3e
#BESTPOSA,FILE,0,25.0,FINESTEERING,2319,306858.200,02000000,cdba,17139;SOL_COMPUTED,INS_RTKFIXED,17.59233784742,78.12173304868,531.7929,-76.2000,WGS84,0.6648,0.6689,1.2513,"",0.000,0.000,56,41,41,41,00,06,39,33*05b49749
#BESTPOSA,FILE,0,25.0,FINESTEERING,2319,306858.250,02000000,cdba,17139;SOL_COMPUTED,INS_RTKFIXED,17.59233838936,78.12173310392,531.7941,-76.2000,WGS84,0.6648,0.6689,1.2513,"",0.000,0.000,56,41,41,41,00,06,39,33*b3c11386
#BESTPOSA,FILE,0,25.0,FINESTEERING,2319,306858.300,02000000,cdba,17139;SOL_COMPUTED,INS_RTKFIXED,17.59233893490,78.12173315921,531.7952,-76.2000,WGS84,0.6648,0.6689,1.2513,"",0.000,0.000,56,41,41,41,00,06,39,33*65e892d3
#BESTPOSA,FILE,0,25.0,FINESTEERING,2319,306858.350,02000000,cdba,17139;SOL_COMPUTED,INS_RTKFIXED,17.59233948313,78.12173321051,531.7966,-76.2000,WGS84,0.6648,0.6689,1.2513,"",0.000,0.000,56,41,41,41,00,06,39,33*8aef335a
#BESTPOSA,FILE,0,25.0,FINESTEERING,2319,306858.400,02000000,cdba,17139;SOL_COMPUTED,INS_RTKFIXED,17.59234002958,78.12173325974,531.7979,-76.2000,WGS84,0.6648,0.6689,1.2513,"",0.000,0.000,56,41,41,41,00,06,39,33*b63126ff
#BESTPOSA,FILE,0,25.0,FINESTEERING,2319,306858.450,02000000,cdba,17139;SOL_COMPUTED,INS_RTKFIXED,17.59234057807,78.12173330440,531.7994,-76.2000,WGS84,0.6648,0.6689,1.2513,"",0.000,0.000,56,41,41,41,00,06,39,33*766b9dac
#BESTPOSA,FILE,0,25.0,FINESTEERING,2319,306858.500,02000000,cdba,17139;SOL_COMPUTED,INS_RTKFIXED,17.59234112825,78.12173334989,531.8008,-76.2000,WGS84,0.6648,0.6689,1.2513,"",0.000,0.000,56,41,41,41,00,06,39,33*a1642460
#BESTPOSA,FILE,0,25.0,FINESTEERING,2319,306858.550,02000000,cdba,17139;SOL_COMPUTED,INS_RTKFIXED,17.59234168446,78.12173339005,531.8022,-76.2000,WGS84,0.6648,0.6689,1.2513,"",0.000,0.000,56,41,41,41,00,06,39,33*b2111d7c
#BESTPOSA,FILE,0,25.0,FINESTEERING,2319,306858.600,02000000,cdba,17139;SOL_COMPUTED,INS_RTKFIXED,17.59234224807,78.12173343247,531.8034,-76.2000,WGS84,0.6648,0.6689,1.2513,"",0.000,0.000,56,41,41,41,00,06,39,33*1286f881
#BESTPOSA,FILE,0,25.0,FINESTEERING,2319,306858.650,02000000,cdba,17139;SOL_COMPUTED,INS_RTKFIXED,17.59234281950,78.12173347473,531.8045,-76.2000,WGS84,0.6648,0.6689,1.2513,"",0.000,0.000,56,41,41,41,00,06,39,33*7eb543ba
#BESTPOSA,FILE,0,25.0,FINESTEERING,2319,306858.700,02000000,cdba,17139;SOL_COMPUTED,INS_RTKFIXED,17.59234339566,78.12173351667,531.8054,-76.2000,WGS84,0.6648,0.6689,1.2513,"",0.000,0.000,56,41,41,41,00,06,39,33*10858c6b
#BESTPOSA,FILE,0,25.0,FINESTEERING,2319,306858.750,02000000,cdba,17139;SOL_COMPUTED,INS_RTKFIXED,17.59234396945,78.12173355725,531.8062,-76.2000,WGS84,0.6648,0.6689,1.2513,"",0.000,0.000,56,41,41,41,00,06,39,33*9e00ac0f
#BESTPOSA,FILE,0,25.0,FINESTEERING,2319,306858.800,02000000,cdba,17139;SOL_COMPUTED,INS_RTKFIXED,17.59234454267,78.12173359968,531.8071,-76.2000,WGS84,0.6648,0.6689,1.2513,"",0.000,0.000,56,41,41,41,00,06,39,33*62b29456
#BESTPOSA,FILE,0,25.0,FINESTEERING,2319,306858.850,02000000,cdba,17139;SOL_COMPUTED,INS_RTKFIXED,17.59234512021,78.12173364555,531.8086,-76.2000,WGS84,0.6648,0.6689,1.2513,"",0.000,0.000,56,41,41,41,00,06,39,33*c6162159
#BESTPOSA,FILE,0,25.0,FINESTEERING,2319,306858.900,02000000,cdba,17139;SOL_COMPUTED,INS_RTKFIXED,17.59234570214,78.12173369072,531.8115,-76.2000,WGS84,0.6648,0.6689,1.2513,"",0.000,0.000,56,41,41,41,00,06,39,33*0007dac1
#BESTPOSA,FILE,0,25.0,FINESTEERING,2319,306858.950,02000000,cdba,17139;SOL_COMPUTED,INS_RTKFIXED,17.59234629144,78.12173373677,531.8152,-76.2000,WGS84,0.6648,0.6689,1.2513,"",0.000,0.000,56,41,41,41,00,06,39,33*3f8776e1
#BESTPOSA,FILE,0,25.0,FINESTEERING,2319,306859.000,02000000,cdba,17139;SOL_COMPUTED,INS_RTKFIXED,17.59234688463,78.12173377597,531.8195,-76.2000,WGS84,0.6648,0.6689,1.2513,"",0.000,0.000,56,41,41,41,00,06,39,33*ee494468
#BESTPOSA,FILE,0,25.0,FINESTEERING,2319,306859.050,02000000,cdba,17139;SOL_COMPUTED,INS_RTKFIXED,17.59234748783,78.12173381860,531.8231,-76.2000,WGS84,0.6653,0.6699,1.2508,"",0.000,0.000,55,40,40,40,00,06,39,33*ef9c8357
#BESTPOSA,FILE,0,25.0,FINESTEERING,2319,306859.100,02000000,cdba,17139;SOL_COMPUTED,INS_RTKFIXED,17.59234809408,78.12173386018,531.8254,-76.2000,WGS84,0.6653,0.6699,1.2508,"",0.000,0.000,55,40,40,40,00,06,39,33*d9e71c2f
#BESTPOSA,FILE,0,28.0,FINESTEERING,2319,306859.150,02000000,cdba,17139;SOL_COMPUTED,INS_RTKFIXED,17.59234869490,78.12173389607,531.8271,-76.2000,WGS84,0.6653,0.6699,1.2508,"",0.000,0.000,55,40,40,40,00,06,39,33*ede6bd21
#BESTPOSA,FILE,0,28.0,FINESTEERING,2319,306859.200,02000000,cdba,17139;SOL_COMPUTED,INS_RTKFIXED,17.59234929475,78.12173392536,531.8286,-76.2000,WGS84,0.6653,0.6699,1.2508,"",0.000,0.000,55,40,40,40,00,06,39,33*e1ba4cf0
#BESTPOSA,FILE,0,28.0,FINESTEERING,2319,306859.250,02000000,cdba,17139;SOL_COMPUTED,INS_RTKFIXED,17.59234989976,78.12173395309,531.8300,-76.2000,WGS84,0.6653,0.6699,1.2508,"",0.000,0.000,55,40,40,40,00,06,39,33*bbf945ec
#BESTPOSA,FILE,0,28.0,FINESTEERING,2319,306859.300,02000000,cdba,17139;SOL_COMPUTED,INS_RTKFIXED,17.59235050771,78.12173397538,531.8317,-76.2000,WGS84,0.6653,0.6699,1.2508,"",0.000,0.000,55,40,40,40,00,06,39,33*2cf2cdb4
#BESTPOSA,FILE,0,28.0,FINESTEERING,2319,306859.350,02000000,cdba,17139;SOL_COMPUTED,INS_RTKFIXED,17.59235113118,78.12173400735,531.8331,-76.2000,WGS84,0.6653,0.6699,1.2508,"",0.000,0.000,55,40,40,40,00,06,39,33*bb895340
#BESTPOSA,FILE,0,28.0,FINESTEERING,2319,306859.400,02000000,cdba,17139;SOL_COMPUTED,INS_RTKFIXED,17.59235176188,78.12173404189,531.8347,-76.2000,WGS84,0.6653,0.6699,1.2508,"",0.000,0.000,55,40,40,40,00,06,39,33*92a625fe
#BESTPOSA,FILE,0,28.0,FINESTEERING,2319,306859.450,02000000,cdba,17139;SOL_COMPUTED,INS_RTKFIXED,17.59235240207,78.12173408841,531.8370,-76.2000,WGS84,0.6653,0.6699,1.2508,"",0.000,0.000,55,40,40,40,00,06,39,33*89e9c79c
#BESTPOSA,FILE,0,28.0,FINESTEERING,2319,306859.500,02000000,cdba,17139;SOL_COMPUTED,INS_RTKFIXED,17.59235305036,78.12173415050,531.8399,-76.2000,WGS84,0.6653,0.6699,1.2508,"",0.000,0.000,55,40,40,40,00,06,39,33*35f51005
#BESTPOSA,FILE,0,28.0,FINESTEERING,2319,306859.550,02000000,cdba,17139;SOL_COMPUTED,INS_RTKFIXED,17.59235369749,78.12173421014,531.8439,-76.2000,WGS84,0.6653,0.6699,1.2508,"",0.000,0.000,55,40,40,40,00,06,39,33*c324e2dd
#BESTPOSA,FILE,0,28.0,FINESTEERING,2319,306859.600,02000000,cdba,17139;SOL_COMPUTED,INS_RTKFIXED,17.59235434988,78.12173428274,531.8475,-76.2000,WGS84,0.6653,0.6699,1.2508,"",0.000,0.000,55,40,40,40,00,06,39,33*48d312cb
#BESTPOSA,FILE,0,28.0,FINESTEERING,2319,306859.650,02000000,cdba,17139;SOL_COMPUTED,INS_RTKFIXED,17.59235499931,78.12173435464,531.8509,-76.2000,WGS84,0.6653,0.6699,1.2508,"",0.000,0.000,55,40,40,40,00,06,39,33*bbca7aa3
#BESTPOSA,FILE,0,28.0,FINESTEERING,2319,306859.700,02000000,cdba,17139;SOL_COMPUTED,INS_RTKFIXED,17.59235565078,78.12173442407,531.8543,-76.2000,WGS84,0.6653,0.6699,1.2508,"",0.000,0.000,55,40,40,40,00,06,39,33*d67e18c0
#BESTPOSA,FILE,0,28.0,FINESTEERING,2319,306859.750,02000000,cdba,17139;SOL_COMPUTED,INS_RTKFIXED,17.59235630660,78.12173448871,531.8572,-76.2000,WGS84,0.6653,0.6699,1.2508,"",0.000,0.000,55,40,40,40,00,06,39,33*9f22e2a9
#BESTPOSA,FILE,0,28.0,FINESTEERING,2319,306859.800,02000000,cdba,17139;SOL_COMPUTED,INS_RTKFIXED,17.59235696183,78.12173454232,531.8597,-76.2000,WGS84,0.6653,0.6699,1.2508,"",0.000,0.000,55,40,40,40,00,06,39,33*497fac6d
#BESTPOSA,FILE,0,28.0,FINESTEERING,2319,306859.850,02000000,cdba,17139;SOL_COMPUTED,INS_RTKFIXED,17.59235762051,78.12173459218,531.8621,-76.2000,WGS84,0.6653,0.6699,1.2508,"",0.000,0.000,55,40,40,40,00,06,39,33*f18c45b2
#BESTPOSA,FILE,0,28.0,FINESTEERING,2319,306859.900,02000000,cdba,17139;SOL_COMPUTED,INS_RTKFIXED,17.59235828313,78.12173463747,531.8650,-76.2000,WGS84,0.6653,0.6699,1.2508,"",0.000,0.000,55,40,40,40,00,06,39,33*f197ebe5
#BESTPOSA,FILE,0,28.0,FINESTEERING,2319,306859.950,02000000,cdba,17139;SOL_COMPUTED,INS_RTKFIXED,17.59235895074,78.12173468118,531.8687,-76.2000,WGS84,0.6653,0.6699,1.2508,"",0.000,0.000,55,40,40,40,00,06,39,33*5d010326
#BESTPOSA,FILE,0,28.0,FINESTEERING,2319,306860.000,02000000,cdba,17139;SOL_COMPUTED,INS_RTKFIXED,17.59235962633,78.12173472100,531.8723,-76.2000,WGS84,0.6653,0.6699,1.2508,"",0.000,0.000,55,40,40,40,00,06,39,33*fa2d5aae
#BESTPOSA,FILE,0,28.0,FINESTEERING,2319,306860.050,02000000,cdba,17139;SOL_COMPUTED,INS_RTKFIXED,17.59236030857,78.12173476392,531.8761,-76.2000,WGS84,0.6652,0.6711,1.2499,"",0.000,0.000,56,41,41,41,00,06,39,37*f269d97a
#BESTPOSA,FILE,0,28.0,FINESTEERING,2319,306860.100,02000000,cdba,17139;SOL_COMPUTED,INS_RTKFIXED,17.59236100011,78.12173481465,531.8796,-76.2000,WGS84,0.6652,0.6711,1.2499,"",0.000,0.000,56,41,41,41,00,06,39,37*1b783339
#BESTPOSA,FILE,0,30.0,FINESTEERING,2319,306860.150,02000000,cdba,17139;SOL_COMPUTED,INS_RTKFIXED,17.59236168492,78.12173486793,531.8832,-76.2000,WGS84,0.6652,0.6711,1.2499,"",0.000,0.000,56,41,41,41,00,06,39,37*9673cae7
#BESTPOSA,FILE,0,30.0,FINESTEERING,2319,306860.200,02000000,cdba,17139;SOL_COMPUTED,INS_RTKFIXED,17.59236237620,78.12173492893,531.8865,-76.2000,WGS84,0.6652,0.6711,1.2499,"",0.000,0.000,56,41,41,41,00,06,39,37*f52f711f
#BESTPOSA,FILE,0,30.0,FINESTEERING,2319,306860.250,02000000,cdba,17139;SOL_COMPUTED,INS_RTKFIXED,17.59236306938,78.12173499641,531.8896,-76.2000,WGS84,0.6652,0.6711,1.2499,"",0.000,0.000,56,41,41,41,00,06,39,37*05ce8c28
#BESTPOSA,FILE,0,30.0,FINESTEERING,2319,306860.300,02000000,cdba,17139;SOL_COMPUTED,INS_RTKFIXED,17.59236376841,78.12173505810,531.8931,-76.2000,WGS84,0.6652,0.6711,1.2499,"",0.000,0.000,56,41,41,41,00,06,39,37*1d366f6d
#BESTPOSA,FILE,0,30.0,FINESTEERING,2319,306860.350,02000000,cdba,17139;SOL_COMPUTED,INS_RTKFIXED,17.59236447702,78.12173512820,531.8956,-76.2000,WGS84,0.6652,0.6711,1.2499,"",0.000,0.000,56,41,41,41,00,06,39,37*c1eb0daf
#BESTPOSA,FILE,0,30.0,FINESTEERING,2319,306860.400,02000000,cdba,17139;SOL_COMPUTED,INS_RTKFIXED,17.59236519121,78.12173520328,531.8974,-76.2000,WGS84,0.6652,0.6711,1.2499,"",0.000,0.000,56,41,41,41,00,06,39,37*e8e9a8ba
#BESTPOSA,FILE,0,30.0,FINESTEERING,2319,306860.450,02000000,cdba,17139;SOL_COMPUTED,INS_RTKFIXED,17.59236590872,78.12173527251,531.9000,-76.2000,WGS84,0.6652,0.6711,1.2499,"",0.000,0.000,56,41,41,41,00,06,39,37*dfc008eb
#BESTPOSA,FILE,0,30.0,FINESTEERING,2319,306860.500,02000000,cdba,17139;SOL_COMPUTED,INS_RTKFIXED,17.59236663533,78.12173534043,531.9036,-76.2000,WGS84,0.6652,0.6711,1.2499,"",0.000,0.000,56,41,41,41,00,06,39,37*2e57b957
#BESTPOSA,FILE,0,30.0,FINESTEERING,2319,306860.550,02000000,cdba,17139;SOL_COMPUTED,INS_RTKFIXED,17.59236737048,78.12173540920,531.9079,-76.2000,WGS84,0.6652,0.6711,1.2499,"",0.000,0.000,56,41,41,41,00,06,39,37*c2049b17
#BESTPOSA,FILE,0,30.0,FINESTEERING,2319,306860.600,02000000,cdba,17139;SOL_COMPUTED,INS_RTKFIXED,17.59236811091,78.12173547629,531.9124,-76.2000,WGS84,0.6652,0.6711,1.2499,"",0.000,0.000,56,41,41,41,00,06,39,37*bd8a7c56
#BESTPOSA,FILE,0,30.0,FINESTEERING,2319,306860.650,02000000,cdba,17139;SOL_COMPUTED,INS_RTKFIXED,17.59236885640,78.12173553544,531.9177,-76.2000,WGS84,0.6652,0.6711,1.2499,"",0.000,0.000,56,41,41,41,00,06,39,37*771056ae
#BESTPOSA,FILE,0,30.0,FINESTEERING,2319,306860.700,02000000,cdba,17139;SOL_COMPUTED,INS_RTKFIXED,17.59236960874,78.12173559242,531.9230,-76.2000,WGS84,0.6652,0.6711,1.2499,"",0.000,0.000,56,41,41,41,00,06,39,37*e015c509
#BESTPOSA,FILE,0,30.0,FINESTEERING,2319,306860.750,02000000,cdba,17139;SOL_COMPUTED,INS_RTKFIXED,17.59237036424,78.12173564574,531.9289,-76.2000,WGS84,0.6652,0.6711,1.2499,"",0.000,0.000,56,41,41,41,00,06,39,37*2d880031
#BESTPOSA,FILE,0,30.0,FINESTEERING,2319,306860.800,02000000,cdba,17139;SOL_COMPUTED,INS_RTKFIXED,17.59237112250,78.12173569950,531.9351,-76.2000,WGS84,0.6652,0.6711,1.2499,"",0.000,0.000,56,41,41,41,00,06,39,37*f21293fb
#BESTPOSA,FILE,0,30.0,FINESTEERING,2319,306860.850,02000000,cdba,17139;SOL_COMPUTED,INS_RTKFIXED,17.59237188347,78.12173574435,531.9418,-76.2000,WGS84,0.6652,0.6711,1.2499,"",0.000,0.000,56,41,41,41,00,06,39,37*38f6c760
#BESTPOSA,FILE,0,30.0,FINESTEERING,2319,306860.900,02000000,cdba,17139;SOL_COMPUTED,INS_RTKFIXED,17.59237265082,78.12173579382,531.9474,-76.2000,WGS84,0.6652,0.6711,1.2499,"",0.000,0.000,56,41,41,41,00,06,39,37*96b4df95
#BESTPOSA,FILE,0,30.0,FINESTEERING,2319,306860.950,02000000,cdba,17139;SOL_COMPUTED,INS_RTKFIXED,17.59237341254,78.12173583971,531.9521,-76.2000,WGS84,0.6652,0.6711,1.2499,"",0.000,0.000,56,41,41,41,00,06,39,37*66284b7f
#BESTPOSA,FILE,0,30.0,FINESTEERING,2319,306861.000,02000000,cdba,17139;SOL_COMPUTED,INS_RTKFIXED,17.59237418180,78.12173589530,531.9548,-76.2000,WGS84,0.6652,0.6711,1.2499,"",0.000,0.000,56,41,41,41,00,06,39,37*ba6646b0
#BESTPOSA,FILE,0,30.0,FINESTEERING,2319,306861.050,02000000,cdba,17139;SOL_COMPUTED,INS_RTKFIXED,17.59237495292,78.12173594920,531.9564,-76.2000,WGS84,0.6658,0.6728,1.2502,"",0.000,0.000,55,40,40,40,00,06,39,37*a8509e4c
#BESTPOSA,FILE,0,27.5,FINESTEERING,2319,306861.100,02000000,cdba,17139;SOL_COMPUTED,INS_RTKFIXED,17.59237572839,78.12173599797,531.9572,-76.2000,WGS84,0.6658,0.6728,1.2502,"",0.000,0.000,55,40,40,40,00,06,39,37*369e1005
#BESTPOSA,FILE,0,27.5,FINESTEERING,2319,306861.150,02000000,cdba,17139;SOL_COMPUTED,INS_RTKFIXED,17.59237651168,78.12173604970,531.9585,-76.2000,WGS84,0.6658,0.6728,1.2502,"",0.000,0.000,55,40,40,40,00,06,39,37*a7dd793a
#BESTPOSA,FILE,0,27.5,FINESTEERING,2319,306861.200,02000000,cdba,17139;SOL_COMPUTED,INS_RTKFIXED,17.59237730314,78.12173610248,531.9611,-76.2000,WGS84,0.6658,0.6728,1.2502,"",0.000,0.000,55,40,40,40,00,06,39,37*aac351ce
#BESTPOSA,FILE,0,27.5,FINESTEERING,2319,306861.250,02000000,cdba,17139;SOL_COMPUTED,INS_RTKFIXED,17.59237810671,78.12173616369,531.9642,-76.2000,WGS84,0.6658,0.6728,1.2502,"",0.000,0.000,55,40,40,40,00,06,39,37*d2f97b59
#BESTPOSA,FILE,0,27.5,FINESTEERING,2319,306861.300,02000000,cdba,17139;SOL_COMPUTED,INS_RTKFIXED,17.59237891378,78.12173622270,531.9685,-76.2000,WGS84,0.6658,0.6728,1.2502,"",0.000,0.000,55,40,40,40,00,06,39,37*90c0b122
#BESTPOSA,FILE,0,27.5,FINESTEERING,2319,306861.350,02000000,cdba,17139;SOL_COMPUTED,INS_RTKFIXED,17.59237973340,78.12173628451,531.9731,-76.2000,WGS84,0.6658,0.6728,1.2502,"",0.000,0.000,55,40,40,40,00,06,39,37*ed323bc0
#BESTPOSA,FILE,0,27.5,FINESTEERING,2319,306861.400,02000000,cdba,17139;SOL_COMPUTED,INS_RTKFIXED,17.59238055784,78.12173633647,531.9783,-76.2000,WGS84,0.6658,0.6728,1.2502,"",0.000,0.000,55,40,40,40,00,06,39,37*4c152558
#BESTPOSA,FILE,0,27.5,FINESTEERING,2319,306861.450,02000000,cdba,17139;SOL_COMPUTED,INS_RTKFIXED,17.59238139348,78.12173638868,531.9832,-76.2000,WGS84,0.6658,0.6728,1.2502,"",0.000,0.000,55,40,40,40,00,06,39,37*4fe983f7
#BESTPOSA,FILE,0,27.5,FINESTEERING,2319,306861.500,02000000,cdba,17139;SOL_COMPUTED,INS_RTKFIXED,17.59238223325,78.12173643341,531.9875,-76.2000,WGS84,0.6658,0.6728,1.2502,"",0.000,0.000,55,40,40,40,00,06,39,37*d848400d
#BESTPOSA,FILE,0,27.5,FINESTEERING,2319,306861.550,02000000,cdba,17139;SOL_COMPUTED,INS_RTKFIXED,17.59238308004,78.12173647374,531.9909,-76.2000,WGS84,0.6658,0.6728,1.2502,"",0.000,0.000,55,40,40,40,00,06,39,37*ea19253f
#BESTPOSA,FILE,0,27.5,FINESTEERING,2319,306861.600,02000000,cdba,17139;SOL_COMPUTED,INS_RTKFIXED,17.59238393099,78.12173650323,531.9944,-76.2000,WGS84,0.6658,0.6728,1.2502,"",0.000,0.000,55,40,40,40,00,06,39,37*dcc03830
#BESTPOSA,FILE,0,27.5,FINESTEERING,2319,306861.650,02000000,cdba,17139;SOL_COMPUTED,INS_RTKFIXED,17.59238479045,78.12173652546,531.9981,-76.2000,WGS84,0.6658,0.6728,1.2502,"",0.000,0.000,55,40,40,40,00,06,39,37*dce4b9e6
#BESTPOSA,FILE,0,27.5,FINESTEERING,2319,306861.700,02000000,cdba,17139;SOL_COMPUTED,INS_RTKFIXED,17.59238565908,78.12173654871,532.0012,-76.2000,WGS84,0.6658,0.6728,1.2502,"",0.000,0.000,55,40,40,40,00,06,39,37*b56961f8
#BESTPOSA,FILE,0,27.5,FINESTEERING,2319,306861.750,02000000,cdba,17139;SOL_COMPUTED,INS_RTKFIXED,17.59238654013,78.12173657469,532.0043,-76.2000,WGS84,0.6658,0.6728,1.2502,"",0.000,0.000,55,40,40,40,00,06,39,37*8ac8dfc7
#BESTPOSA,FILE,0,27.5,FINESTEERING,2319,306861.800,02000000,cdba,17139;SOL_COMPUTED,INS_RTKFIXED,17.59238743402,78.12173660186,532.0075,-76.2000,WGS84,0.6658,0.6728,1.2502,"",0.000,0.000,55,40,40,40,00,06,39,37*cb2b24cf
#BESTPOSA,FILE,0,27.5,FINESTEERING,2319,306861.850,02000000,cdba,17139;SOL_COMPUTED,INS_RTKFIXED,17.59238833749,78.12173662846,532.0110,-76.2000,WGS84,0.6658,0.6728,1.2502,"",0.000,0.000,55,40,40,40,00,06,39,37*4706add0
#BESTPOSA,FILE,0,27.5,FINESTEERING,2319,306861.900,02000000,cdba,17139;SOL_COMPUTED,INS_RTKFIXED,17.59238925140,78.12173666118,532.0142,-76.2000,WGS84,0.6658,0.6728,1.2502,"",0.000,0.000,55,40,40,40,00,06,39,37*dc4cd055
#BESTPOSA,FILE,0,27.5,FINESTEERING,2319,306861.950,02000000,cdba,17139;SOL_COMPUTED,INS_RTKFIXED,17.59239017141,78.12173669691,532.0173,-76.2000,WGS84,0.6658,0.6728,1.2502,"",0.000,0.000,55,40,40,40,00,06,39,37*b2617605
#BESTPOSA,FILE,0,27.5,FINESTEERING,2319,306862.000,02000000,cdba,17139;SOL_COMPUTED,INS_RTKFIXED,17.59239109847,78.12173673275,532.0202,-76.2000,WGS84,0.6658,0.6728,1.2502,"",0.000,0.000,55,40,40,40,00,06,39,37*0a92c7f1
#BESTPOSA,FILE,0,27.5,FINESTEERING,2319,306862.050,02000000,cdba,17139;SOL_COMPUTED,INS_RTKFIXED,17.59239202145,78.12173676201,532.0226,-76.2000,WGS84,0.6669,0.6754,1.2519,"",0.000,0.000,54,39,39,39,00,06,39,33*bd51bfff
#BESTPOSA,FILE,0,27.5,FINESTEERING,2319,306862.100,02000000,cdba,17139;SOL_COMPUTED,INS_RTKFIXED,17.59239293532,78.12173677177,532.0242,-76.2000,WGS84,0.6669,0.6754,1.2519,"",0.000,0.000,54,39,39,39,00,06,39,33*77e8d8e1
#BESTPOSA,FILE,0,27.5,FINESTEERING,2319,306862.150,02000000,cdba,17139;SOL_COMPUTED,INS_RTKFIXED,17.59239385085,78.12173677328,532.0261,-76.2000,WGS84,0.6669,0.6754,1.2519,"",0.000,0.000,54,39,39,39,00,06,39,33*67b0e6da
#BESTPOSA,FILE,0,27.5,FINESTEERING,2319,306862.200,02000000,cdba,17139;SOL_COMPUTED,INS_RTKFIXED,17.59239477559,78.12173676524,532.0281,-76.2000,WGS84,0.6669,0.6754,1.2519,"",0.000,0.000,54,39,39,39,00,06,39,33*394803d4
#BESTPOSA,FILE,0,31.0,FINESTEERING,2319,306862.250,02000000,cdba,17139;SOL_COMPUTED,INS_RTKFIXED,17.59239570118,78.12173674163,532.0308,-76.2000,WGS84,0.6669,0.6754,1.2519,"",0.000,0.000,54,39,39,39,00,06,39,33*3e1a5c4c
#BESTPOSA,FILE,0,31.0,FINESTEERING,2319,306862.300,02000000,cdba,17139;SOL_COMPUTED,INS_RTKFIXED,17.59239663531,78.12173670254,532.0338,-76.2000,WGS84,0.6669,0.6754,1.2519,"",0.000,0.000,54,39,39,39,00,06,39,33*e758729a
#BESTPOSA,FILE,0,31.0,FINESTEERING,2319,306862.350,02000000,cdba,17139;SOL_COMPUTED,INS_RTKFIXED,17.59239756845,78.12173664149,532.0375,-76.2000,WGS84,0.6669,0.6754,1.2519,"",0.000,0.000,54,39,39,39,00,06,39,33*ab297430
#BESTPOSA,FILE,0,31.0,FINESTEERING,2319,306862.400,02000000,cdba,17139;SOL_COMPUTED,INS_RTKFIXED,17.59239850059,78.12173656804,532.0413,-76.2000,WGS84,0.6669,0.6754,1.2519,"",0.000,0.000,54,39,39,39,00,06,39,33*bff12d41
#BESTPOSA,FILE,0,31.0,FINESTEERING,2319,306862.450,02000000,cdba,17139;SOL_COMPUTED,INS_RTKFIXED,17.59239943410,78.12173648092,532.0456,-76.2000,WGS84,0.6669,0.6754,1.2519,"",0.000,0.000,54,39,39,39,00,06,39,33*2abf1603
#BESTPOSA,FILE,0,31.0,FINESTEERING,2319,306862.500,02000000,cdba,17139;SOL_COMPUTED,INS_RTKFIXED,17.59240037648,78.12173639434,532.0495,-76.2000,WGS84,0.6669,0.6754,1.2519,"",0.000,0.000,54,39,39,39,00,06,39,33*629c77f5
#BESTPOSA,FILE,0,31.0,FINESTEERING,2319,306862.550,02000000,cdba,17139;SOL_COMPUTED,INS_RTKFIXED,17.59240132685,78.12173631783,532.0528,-76.2000,WGS84,0.6669,0.6754,1.2519,"",0.000,0.000,54,39,39,39,00,06,39,33*f235462e
#BESTPOSA,FILE,0,31.0,FINESTEERING,2319,306862.600,02000000,cdba,17139;SOL_COMPUTED,INS_RTKFIXED,17.59240228608,78.12173625649,532.0553,-76.2000,WGS84,0.6669,0.6754,1.2519,"",0.000,0.000,54,39,39,39,00,06,39,33*2d86c8f4
#BESTPOSA,FILE,0,31.0,FINESTEERING,2319,306862.650,02000000,cdba,17139;SOL_COMPUTED,INS_RTKFIXED,17.59240325208,78.12173620654,532.0567,-76.2000,WGS84,0.6669,0.6754,1.2519,"",0.000,0.000,54,39,39,39,00,06,39,33*316f7b58
#BESTPOSA,FILE,0,31.0,FINESTEERING,2319,306862.700,02000000,cdba,17139;SOL_COMPUTED,INS_RTKFIXED,17.59240422981,78.12173615684,532.0575,-76.2000,WGS84,0.6669,0.6754,1.2519,"",0.000,0.000,54,39,39,39,00,06,39,33*fdc4f2ed
#BESTPOSA,FILE,0,31.0,FINESTEERING,2319,306862.750,02000000,cdba,17139;SOL_COMPUTED,INS_RTKFIXED,17.59240520895,78.12173610491,532.0579,-76.2000,WGS84,0.6669,0.6754,1.2519,"",0.000,0.000,54,39,39,39,00,06,39,33*f21b3e60
#BESTPOSA,FILE,0,31.0,FINESTEERING,2319,306862.800,02000000,cdba,17139;SOL_COMPUTED,INS_RTKFIXED,17.59240619909,78.12173604913,532.0584,-76.2000,WGS84,0.6669,0.6754,1.2519,"",0.000,0.000,54,39,39,39,00,06,39,33*50fa9538
#BESTPOSA,FILE,0,31.0,FINESTEERING,2319,306862.850,02000000,cdba,17139;SOL_COMPUTED,INS_RTKFIXED,17.59240719030,78.12173597613,532.0600,-76.2000,WGS84,0.6669,0.6754,1.2519,"",0.000,0.000,54,39,39,39,00,06,39,33*113ddfce
#BESTPOSA,FILE,0,31.0,FINESTEERING,2319,306862.900,02000000,cdba,17139;SOL_COMPUTED,INS_RTKFIXED,17.59240818617,78.12173589431,532.0622,-76.2000,WGS84,0.6669,0.6754,1.2519,"",0.000,0.000,54,39,39,39,00,06,39,33*1c12462b
#BESTPOSA,FILE,0,31.0,FINESTEERING,2319,306862.950,02000000,cdba,17139;SOL_COMPUTED,INS_RTKFIXED,17.59240917608,78.12173579228,532.0648,-76.2000,WGS84,0.6669,0.6754,1.2519,"",0.000,0.000,54,39,39,39,00,06,39,33*3d643418
#BESTPOSA,FILE,0,31.0,FINESTEERING,2319,306863.000,02000000,cdba,17139;SOL_COMPUTED,INS_RTKFIXED,17.59241016043,78.12173566760,532.0681,-76.2000,WGS84,0.6669,0.6754,1.2519,"",0.000,0.000,54,39,39,39,00,06,39,33*69c59404
#BESTPOSA,FILE,0,31.0,FINESTEERING,2319,306863.050,02000000,cdba,17139;SOL_COMPUTED,INS_RTKFIXED,17.59241113744,78.12173552331,532.0707,-76.2000,WGS84,0.6680,0.6779,1.2536,"",0.000,0.000,54,39,39,39,00,06,39,33*ff38fb4d
#BESTPOSA,FILE,0,29.0,FINESTEERING,2319,306863.100,02000000,cdba,17139;SOL_COMPUTED,INS_RTKFIXED,17.59241208253,78.12173533611,532.0742,-76.2000,WGS84,0.6680,0.6779,1.2536,"",0.000,0.000,54,39,39,39,00,06,39,33*0e1c5681
#BESTPOSA,FILE,0,29.0,FINESTEERING,2319,306863.150,02000000,cdba,17139;SOL_COMPUTED,INS_RTKFIXED,17.59241302791,78.12173513669,532.0774,-76.2000,WGS84,0.6680,0.6779,1.2536,"",0.000,0.000,54,39,39,39,00,06,39,33*9e132700
#BESTPOSA,FILE,0,29.0,FINESTEERING,2319,306863.200,02000000,cdba,17139;SOL_COMPUTED,INS_RTKFIXED,17.59241395809,78.12173493725,532.0804,-76.2000,WGS84,0.6680,0.6779,1.2536,"",0.000,0.000,54,39,39,39,00,06,39,33*58d808bb
#BESTPOSA,FILE,0,29.0,FINESTEERING,2319,306863.250,02000000,cdba,17139;SOL_COMPUTED,INS_RTKFIXED,17.59241489478,78.12173474971,532.0831,-76.2000,WGS84,0.6680,0.6779,1.2536,"",0.000,0.000,54,39,39,39,00,06,39,33*66c77b61
#BESTPOSA,FILE,0,29.0,FINESTEERING,2319,306863.300,02000000,cdba,17139;SOL_COMPUTED,INS_RTKFIXED,17.59241583160,78.12173456008,532.0866,-76.2000,WGS84,0.6680,0.6779,1.2536,"",0.000,0.000,54,39,39,39,00,06,39,33*8a4fc259
#BESTPOSA,FILE,0,29.0,FINESTEERING,2319,306863.350,02000000,cdba,17139;SOL_COMPUTED,INS_RTKFIXED,17.59241678420,78.12173437085,532.0906,-76.2000,WGS84,0.6680,0.6779,1.2536,"",0.000,0.000,54,39,39,39,00,06,39,33*2adcac9b
#BESTPOSA,FILE,0,29.0,FINESTEERING,2319,306863.400,02000000,cdba,17139;SOL_COMPUTED,INS_RTKFIXED,17.59241775516,78.12173418671,532.0950,-76.2000,WGS84,0.6680,0.6779,1.2536,"",0.000,0.000,54,39,39,39,00,06,39,33*6b330533
#BESTPOSA,FILE,0,29.0,FINESTEERING,2319,306863.450,02000000,cdba,17139;SOL_COMPUTED,INS_RTKFIXED,17.59241874634,78.12173401037,532.0993,-76.2000,WGS84,0.6680,0.6779,1.2536,"",0.000,0.000,54,39,39,39,00,06,39,33*586fd181
#BESTPOSA,FILE,0,29.0,FINESTEERING,2319,306863.500,02000000,cdba,17139;SOL_COMPUTED,INS_RTKFIXED,17.59241974921,78.12173383375,532.1040,-76.2000,WGS84,0.6680,0.6779,1.2536,"",0.000,0.000,54,39,39,39,00,06,39,33*1b88eee1
#BESTPOSA,FILE,0,29.0,FINESTEERING,2319,306863.550,02000000,cdba,17139;SOL_COMPUTED,INS_RTKFIXED,17.59242076117,78.12173365466,532.1087,-76.2000,WGS84,0.6680,0.6779,1.2536,"",0.000,0.000,54,39,39,39,00,06,39,33*a09a54e4
#BESTPOSA,FILE,0,29.0,FINESTEERING,2319,306863.600,02000000,cdba,17139;SOL_COMPUTED,INS_RTKFIXED,17.59242177548,78.12173347051,532.1131,-76.2000,WGS84,0.6680,0.6779,1.2536,"",0.000,0.000,54,39,39,39,00,06,39,33*10374620
#BESTPOSA,FILE,0,29.0,FINESTEERING,2319,306863.650,02000000,cdba,17139;SOL_COMPUTED,INS_RTKFIXED,17.59242279495,78.12173328003,532.1166,-76.2000,WGS84,0.6680,0.6779,1.2536,"",0.000,0.000,54,39,39,39,00,06,39,33*52b5e8ac
#BESTPOSA,FILE,0,29.0,FINESTEERING,2319,306863.700,02000000,cdba,17139;SOL_COMPUTED,INS_RTKFIXED,17.59242381987,78.12173307901,532.1194,-76.2000,WGS84,0.6680,0.6779,1.2536,"",0.000,0.000,54,39,39,39,00,06,39,33*a3b63ddb
#BESTPOSA,FILE,0,29.0,FINESTEERING,2319,306863.750,02000000,cdba,17139;SOL_COMPUTED,INS_RTKFIXED,17.59242484422,78.12173287912,532.1215,-76.2000,WGS84,0.6680,0.6779,1.2536,"",0.000,0.000,54,39,39,39,00,06,39,33*a43ed0a7
#BESTPOSA,FILE,0,29.0,FINESTEERING,2319,306863.800,02000000,cdba,17139;SOL_COMPUTED,INS_RTKFIXED,17.59242587959,78.12173268256,532.1223,-76.2000,WGS84,0.6680,0.6779,1.2536,"",0.000,0.000,54,39,39,39,00,06,39,33*54ca05e9
#BESTPOSA,FILE,0,29.0,FINESTEERING,2319,306863.850,02000000,cdba,17139;SOL_COMPUTED,INS_RTKFIXED,17.59242691907,78.12173249153,532.1224,-76.2000,WGS84,0.6680,0.6779,1.2536,"",0.000,0.000,54,39,39,39,00,06,39,33*987e3b92
#BESTPOSA,FILE,0,29.0,FINESTEERING,2319,306863.900,02000000,cdba,17139;SOL_COMPUTED,INS_RTKFIXED,17.59242796519,78.12173229485,532.1238,-76.2000,WGS84,0.6680,0.6779,1.2536,"",0.000,0.000,54,39,39,39,00,06,39,33*7049fd8c
#BESTPOSA,FILE,0,29.0,FINESTEERING,2319,306863.950,02000000,cdba,17139;SOL_COMPUTED,INS_RTKFIXED,17.59242901748,78.12173210352,532.1260,-76.2000,WGS84,0.6680,0.6779,1.2536,"",0.000,0.000,54,39,39,39,00,06,39,33*927abd72
#BESTPOSA,FILE,0,29.0,FINESTEERING,2319,306864.000,02000000,cdba,17139;SOL_COMPUTED,INS_RTKFIXED,17.59243007307,78.12173191142,532.1293,-76.2000,WGS84,0.6680,0.6779,1.2536,"",0.000,0.000,54,39,39,39,00,06,39,33*1558bb0c
#BESTPOSA,FILE,0,29.0,FINESTEERING,2319,306864.050,02000000,cdba,17139;SOL_COMPUTED,INS_RTKFIXED,17.59243114994,78.12173172908,532.1334,-76.2000,WGS84,0.6693,0.6805,1.2557,"",0.000,0.000,54,39,39,39,00,06,39,33*521d7920
#BESTPOSA,FILE,0,29.0,FINESTEERING,2319,306864.100,02000000,cdba,17139;SOL_COMPUTED,INS_RTKFIXED,17.59243224313,78.12173156116,532.1378,-76.2000,WGS84,0.6693,0.6805,1.2557,"",0.000,0.000,54,39,39,39,00,06,39,33*4deafda8
#BESTPOSA,FILE,0,30.5,FINESTEERING,2319,306864.150,02000000,cdba,17139;SOL_COMPUTED,INS_RTKFIXED,17.59243333451,78.12173138004,532.1439,-76.2000,WGS84,0.6693,0.6805,1.2557,"",0.000,0.000,54,39,39,39,00,06,39,33*f15b2f49
#BESTPOSA,FILE,0,30.5,FINESTEERING,2319,306864.200,02000000,cdba,17139;SOL_COMPUTED,INS_RTKFIXED,17.59243441225,78.12173116801,532.1524,-76.2000,WGS84,0.6693,0.6805,1.2557,"",0.000,0.000,54,39,39,39,00,06,39,33*a1370c95
#BESTPOSA,FILE,0,30.5,FINESTEERING,2319,306864.250,02000000,cdba,17139;SOL_COMPUTED,INS_RTKFIXED,17.59243549030,78.12173093767,532.1612,-76.2000,WGS84,0.6693,0.6805,1.2557,"",0.000,0.000,54,39,39,39,00,06,39,33*a50b9a7d
#BESTPOSA,FILE,0,30.5,FINESTEERING,2319,306864.300,02000000,cdba,17139;SOL_COMPUTED,INS_RTKFIXED,17.59243657307,78.12173070658,532.1700,-76.2000,WGS84,0.6693,0.6805,1.2557,"",0.000,0.000,54,39,39,39,00,06,39,33*03125b5e
#BESTPOSA,FILE,0,30.5,FINESTEERING,2319,306864.350,02000000,cdba,17139;SOL_COMPUTED,INS_RTKFIXED,17.59243765489,78.12173047809,532.1778,-76.2000,WGS84,0.6693,0.6805,1.2557,"",0.000,0.000,54,39,39,39,00,06,39,33*28de1bd6
#BESTPOSA,FILE,0,30.5,FINESTEERING,2319,306864.400,02000000,cdba,17139;SOL_COMPUTED,INS_RTKFIXED,17.59243874050,78.12173025595,532.1832,-76.2000,WGS84,0.6693,0.6805,1.2557,"",0.000,0.000,54,39,39,39,00,06,39,33*c03a5232
#BESTPOSA,FILE,0,30.5,FINESTEERING,2319,306864.450,02000000,cdba,17139;SOL_COMPUTED,INS_RTKFIXED,17.59243982563,78.12173004931,532.1850,-76.2000,WGS84,0.6693,0.6805,1.2557,"",0.000,0.000,54,39,39,39,00,06,39,33*9676d28d
#BESTPOSA,FILE,0,30.5,FINESTEERING,2319,306864.500,02000000,cdba,17139;SOL_COMPUTED,INS_RTKFIXED,17.59244090880,78.12172985986,532.1831,-76.2000,WGS84,0.6693,0.6805,1.2557,"",0.000,0.000,54,39,39,39,00,06,39,33*2e983a6b
#BESTPOSA,FILE,0,30.5,FINESTEERING,2319,306864.550,02000000,cdba,17139;SOL_COMPUTED,INS_RTKFIXED,17.59244200366,78.12172968670,532.1785,-76.2000,WGS84,0.6693,0.6805,1.2557,"",0.000,0.000,54,39,39,39,00,06,39,33*08d13a3f
#BESTPOSA,FILE,0,30.5,FINESTEERING,2319,306864.600,02000000,cdba,17139;SOL_COMPUTED,INS_RTKFIXED,17.59244310242,78.12172951812,532.1732,-76.2000,WGS84,0.6693,0.6805,1.2557,"",0.000,0.000,54,39,39,39,00,06,39,33*4d80ee6c
#BESTPOSA,FILE,0,30.5,FINESTEERING,2319,306864.650,02000000,cdba,17139;SOL_COMPUTED,INS_RTKFIXED,17.59244421848,78.12172934911,532.1680,-76.2000,WGS84,0.6693,0.6805,1.2557,"",0.000,0.000,54,39,39,39,00,06,39,33*cb23f35a
#BESTPOSA,FILE,0,30.5,FINESTEERING,2319,306864.700,02000000,cdba,17139;SOL_COMPUTED,INS_RTKFIXED,17.59244534981,78.12172917492,532.1633,-76.2000,WGS84,0.6693,0.6805,1.2557,"",0.000,0.000,54,39,39,39,00,06,39,33*5e0f6cc1
#BESTPOSA,FILE,0,30.5,FINESTEERING,2319,306864.750,02000000,cdba,17139;SOL_COMPUTED,INS_RTKFIXED,17.59244649820,78.12172899553,532.1590,-76.2000,WGS84,0.6693,0.6805,1.2557,"",0.000,0.000,54,39,39,39,00,06,39,33*b6f39d68
#BESTPOSA,FILE,0,30.5,FINESTEERING,2319,306864.800,02000000,cdba,17139;SOL_COMPUTED,INS_RTKFIXED,17.59244765485,78.12172880912,532.1553,-76.2000,WGS84,0.6693,0.6805,1.2557,"",0.000,0.000,54,39,39,39,00,06,39,33*dedde7f1
#BESTPOSA,FILE,0,30.5,FINESTEERING,2319,306864.850,02000000,cdba,17139;SOL_COMPUTED,INS_RTKFIXED,17.59244882908,78.12172861899,532.1523,-76.2000,WGS84,0.6693,0.6805,1.2557,"",0.000,0.000,54,39,39,39,00,06,39,33*899960f2
#BESTPOSA,FILE,0,30.5,FINESTEERING,2319,306864.900,02000000,cdba,17139;SOL_COMPUTED,INS_RTKFIXED,17.59245001581,78.12172840926,532.1509,-76.2000,WGS84,0.6693,0.6805,1.2557,"",0.000,0.000,54,39,39,39,00,06,39,33*08faeec9
#BESTPOSA,FILE,0,30.5,FINESTEERING,2319,306864.950,02000000,cdba,17139;SOL_COMPUTED,INS_RTKFIXED,17.59245121474,78.12172819226,532.1495,-76.2000,WGS84,0.6693,0.6805,1.2557,"",0.000,0.000,54,39,39,39,00,06,39,33*c7c7397a
#BESTPOSA,FILE,0,30.5,FINESTEERING,2319,306865.000,02000000,cdba,17139;SOL_COMPUTED,INS_RTKFIXED,17.59245242507,78.12172795969,532.1486,-76.2000,WGS84,0.6693,0.6805,1.2557,"",0.000,0.000,54,39,39,39,00,06,39,33*02de104b
#BESTPOSA,FILE,0,30.5,FINESTEERING,2319,306865.050,02000000,cdba,17139;SOL_COMPUTED,INS_RTKFIXED,17.59245365631,78.12172771924,532.1482,-76.2000,WGS84,0.6541,0.6664,1.2273,"",0.000,0.000,53,38,38,38,00,06,39,33*5004ae5e
#BESTPOSA,FILE,0,29.5,FINESTEERING,2319,306865.100,02000000,cdba,17139;SOL_COMPUTED,INS_RTKFIXED,17.59245490360,78.12172746963,532.1488,-76.2000,WGS84,0.6541,0.6664,1.2273,"",0.000,0.000,53,38,38,38,00,06,39,33*13df6315
#BESTPOSA,FILE,0,29.5,FINESTEERING,2319,306865.150,02000000,cdba,17139;SOL_COMPUTED,INS_RTKFIXED,17.59245616810,78.12172722250,532.1490,-76.2000,WGS84,0.6541,0.6664,1.2273,"",0.000,0.000,53,38,38,38,00,06,39,33*2ac3951a
#BESTPOSA,FILE,0,29.5,FINESTEERING,2319,306865.200,02000000,cdba,17139;SOL_COMPUTED,INS_RTKFIXED,17.59245744575,78.12172697708,532.1486,-76.2000,WGS84,0.6541,0.6664,1.2273,"",0.000,0.000,53,38,38,38,00,06,39,33*5f4e3d93
#BESTPOSA,FILE,0,29.5,FINESTEERING,2319,306865.250,02000000,cdba,17139;SOL_COMPUTED,INS_RTKFIXED,17.59245873606,78.12172673362,532.1479,-76.2000,WGS84,0.6541,0.6664,1.2273,"",0.000,0.000,53,38,38,38,00,06,39,33*ee4f552f
#BESTPOSA,FILE,0,29.5,FINESTEERING,2319,306865.300,02000000,cdba,17139;SOL_COMPUTED,INS_RTKFIXED,17.59246004014,78.12172649494,532.1468,-76.2000,WGS84,0.6541,0.6664,1.2273,"",0.000,0.000,53,38,38,38,00,06,39,33*75701d9f
#BESTPOSA,FILE,0,29.5,FINESTEERING,2319,306865.350,02000000,cdba,17139;SOL_COMPUTED,INS_RTKFIXED,17.59246136000,78.12172625905,532.1459,-76.2000,WGS84,0.6541,0.6664,1.2273,"",0.000,0.000,53,38,38,38,00,06,39,33*8c87a66c
#BESTPOSA,FILE,0,29.5,FINESTEERING,2319,306865.400,02000000,cdba,17139;SOL_COMPUTED,INS_RTKFIXED,17.59246269815,78.12172602911,532.1450,-76.2000,WGS84,0.6541,0.6664,1.2273,"",0.000,0.000,53,38,38,38,00,06,39,33*771e0b1d
#BESTPOSA,FILE,0,29.5,FINESTEERING,2319,306865.450,02000000,cdba,17139;SOL_COMPUTED,INS_RTKFIXED,17.59246405150,78.12172580761,532.1440,-76.2000,WGS84,0.6541,0.6664,1.2273,"",0.000,0.000,53,38,38,38,00,06,39,33*193f68a2
#BESTPOSA,FILE,0,29.5,FINESTEERING,2319,306865.500,02000000,cdba,17139;SOL_COMPUTED,INS_RTKFIXED,17.59246541637,78.12172559988,532.1425,-76.2000,WGS84,0.6541,0.6664,1.2273,"",0.000,0.000,53,38,38,38,00,06,39,33*f46f03eb
#BESTPOSA,FILE,0,29.5,FINESTEERING,2319,306865.550,02000000,cdba,17139;SOL_COMPUTED,INS_RTKFIXED,17.59246679506,78.12172539971,532.1409,-76.2000,WGS84,0.6541,0.6664,1.2273,"",0.000,0.000,53,38,38,38,00,06,39,33*ca7a492d
#BESTPOSA,FILE,0,29.5,FINESTEERING,2319,306865.600,02000000,cdba,17139;SOL_COMPUTED,INS_RTKFIXED,17.59246818220,78.12172520206,532.1392,-76.2000,WGS84,0.6541,0.6664,1.2273,"",0.000,0.000,53,38,38,38,00,06,39,33*44d2290d
#BESTPOSA,FILE,0,29.5,FINESTEERING,2319,306865.650,02000000,cdba,17139;SOL_COMPUTED,INS_RTKFIXED,17.59246958270,78.12172500584,532.1377,-76.2000,WGS84,0.6541,0.6664,1.2273,"",0.000,0.000,53,38,38,38,00,06,39,33*38a2aed7
#BESTPOSA,FILE,0,29.5,FINESTEERING,2319,306865.700,02000000,cdba,17139;SOL_COMPUTED,INS_RTKFIXED,17.59247098573,78.12172480408,532.1369,-76.2000,WGS84,0.6541,0.6664,1.2273,"",0.000,0.000,53,38,38,38,00,06,39,33*e9aa898b
#BESTPOSA,FILE,0,29.5,FINESTEERING,2319,306865.750,02000000,cdba,17139;SOL_COMPUTED,INS_RTKFIXED,17.59247239447,78.12172460004,532.1364,-76.2000,WGS84,0.6541,0.6664,1.2273,"",0.000,0.000,53,38,38,38,00,06,39,33*23106670
#BESTPOSA,FILE,0,29.5,FINESTEERING,2319,306865.800,02000000,cdba,17139;SOL_COMPUTED,INS_RTKFIXED,17.59247380440,78.12172439509,532.1360,-76.2000,WGS84,0.6541,0.6664,1.2273,"",0.000,0.000,53,38,38,38,00,06,39,33*6171b1fa
#BESTPOSA,FILE,0,29.5,FINESTEERING,2319,306865.850,02000000,cdba,17139;SOL_COMPUTED,INS_RTKFIXED,17.59247520949,78.12172418536,532.1357,-76.2000,WGS84,0.6541,0.6664,1.2273,"",0.000,0.000,53,38,38,38,00,06,39,33*8a248837
#BESTPOSA,FILE,0,29.5,FINESTEERING,2319,306865.900,02000000,cdba,17139;SOL_COMPUTED,INS_RTKFIXED,17.59247661164,78.12172397557,532.1351,-76.2000,WGS84,0.6541,0.6664,1.2273,"",0.000,0.000,53,38,38,38,00,06,39,33*8b6329ac
#BESTPOSA,FILE,0,29.5,FINESTEERING,2319,306865.950,02000000,cdba,17139;SOL_COMPUTED,INS_RTKFIXED,17.59247801208,78.12172377479,532.1339,-76.2000,WGS84,0.6541,0.6664,1.2273,"",0.000,0.000,53,38,38,38,00,06,39,33*585f6760
#BESTPOSA,FILE,0,29.5,FINESTEERING,2319,306866.000,02000000,cdba,17139;SOL_COMPUTED,INS_RTKFIXED,17.59247941214,78.12172358486,532.1325,-76.2000,WGS84,0.6541,0.6664,1.2273,"",0.000,0.000,53,38,38,38,00,06,39,33*ecc9c236
#BESTPOSA,FILE,0,29.5,FINESTEERING,2319,306866.050,02000000,cdba,17139;SOL_COMPUTED,INS_RTKFIXED,17.59248082741,78.12172341169,532.1310,-76.2000,WGS84,0.6563,0.6703,1.2319,"",0.000,0.000,50,37,37,37,00,06,39,33*8dc739d2
#BESTPOSA,FILE,0,29.5,FINESTEERING,2319,306866.100,02000000,cdba,17139;SOL_COMPUTED,INS_RTKFIXED,17.59248226089,78.12172324905,532.1301,-76.2000,WGS84,0.6563,0.6703,1.2319,"",0.000,0.000,50,37,37,37,00,06,39,33*1594e249
#BESTPOSA,FILE,0,31.0,FINESTEERING,2319,306866.150,02000000,cdba,17139;SOL_COMPUTED,INS_RTKFIXED,17.59248370100,78.12172309563,532.1298,-76.2000,WGS84,0.6563,0.6703,1.2319,"",0.000,0.000,50,37,37,37,00,06,39,33*43918b22
#BESTPOSA,FILE,0,31.0,FINESTEERING,2319,306866.200,02000000,cdba,17139;SOL_COMPUTED,INS_RTKFIXED,17.59248514177,78.12172295212,532.1291,-76.2000,WGS84,0.6563,0.6703,1.2319,"",0.000,0.000,50,37,37,37,00,06,39,33*b747f80d
#BESTPOSA,FILE,0,31.0,FINESTEERING,2319,306866.250,02000000,cdba,17139;SOL_COMPUTED,INS_RTKFIXED,17.59248658093,78.12172281326,532.1282,-76.2000,WGS84,0.6563,0.6703,1.2319,"",0.000,0.000,50,37,37,37,00,06,39,33*a571ead0
#BESTPOSA,FILE,0,31.0,FINESTEERING,2319,306866.300,02000000,cdba,17139;SOL_COMPUTED,INS_RTKFIXED,17.59248801724,78.12172267386,532.1272,-76.2000,WGS84,0.6563,0.6703,1.2319,"",0.000,0.000,50,37,37,37,00,06,39,33*afd4fd28
#BESTPOSA,FILE,0,31.0,FINESTEERING,2319,306866.350,02000000,cdba,17139;SOL_COMPUTED,INS_RTKFIXED,17.59248944702,78.12172253698,532.1260,-76.2000,WGS84,0.6563,0.6703,1.2319,"",0.000,0.000,50,37,37,37,00,06,39,33*0aa549b9
#BESTPOSA,FILE,0,31.0,FINESTEERING,2319,306866.400,02000000,cdba,17139;SOL_COMPUTED,INS_RTKFIXED,17.59249087036,78.12172239521,532.1249,-76.2000,WGS84,0.6563,0.6703,1.2319,"",0.000,0.000,50,37,37,37,00,06,39,33*bd25beec
#BESTPOSA,FILE,0,31.0,FINESTEERING,2319,306866.450,02000000,cdba,17139;SOL_COMPUTED,INS_RTKFIXED,17.59249228687,78.12172225354,532.1235,-76.2000,WGS84,0.6563,0.6703,1.2319,"",0.000,0.000,50,37,37,37,00,06,39,33*45a20b58
#BESTPOSA,FILE,0,31.0,FINESTEERING,2319,306866.500,02000000,cdba,17139;SOL_COMPUTED,INS_RTKFIXED,17.59249370340,78.12172210938,532.1223,-76.2000,WGS84,0.6563,0.6703,1.2319,"",0.000,0.000,50,37,37,37,00,06,39,33*cf2c1749
#BESTPOSA,FILE,0,31.0,FINESTEERING,2319,306866.550,02000000,cdba,17139;SOL_COMPUTED,INS_RTKFIXED,17.59249512087,78.12172197213,532.1211,-76.2000,WGS84,0.6563,0.6703,1.2319,"",0.000,0.000,50,37,37,37,00,06,39,33*74e2d1bd
#BESTPOSA,FILE,0,31.0,FINESTEERING,2319,306866.600,02000000,cdba,17139;SOL_COMPUTED,INS_RTKFIXED,17.59249654049,78.12172184183,532.1201,-76.2000,WGS84,0.6563,0.6703,1.2319,"",0.000,0.000,50,37,37,37,00,06,39,33*1b944994
#BESTPOSA,FILE,0,31.0,FINESTEERING,2319,306866.650,02000000,cdba,17139;SOL_COMPUTED,INS_RTKFIXED,17.59249796349,78.12172171920,532.1195,-76.2000,WGS84,0.6563,0.6703,1.2319,"",0.000,0.000,50,37,37,37,00,06,39,33*a67aca19
#BESTPOSA,FILE,0,31.0,FINESTEERING,2319,306866.700,02000000,cdba,17139;SOL_COMPUTED,INS_RTKFIXED,17.59249938955,78.12172159991,532.1197,-76.2000,WGS84,0.6563,0.6703,1.2319,"",0.000,0.000,50,37,37,37,00,06,39,33*6f3b329b
#BESTPOSA,FILE,0,31.0,FINESTEERING,2319,306866.750,02000000,cdba,17139;SOL_COMPUTED,INS_RTKFIXED,17.59250081527,78.12172148826,532.1199,-76.2000,WGS84,0.6563,0.6703,1.2319,"",0.000,0.000,50,37,37,37,00,06,39,33*3565f658
#BESTPOSA,FILE,0,31.0,FINESTEERING,2319,306866.800,02000000,cdba,17139;SOL_COMPUTED,INS_RTKFIXED,17.59250224318,78.12172138738,532.1200,-76.2000,WGS84,0.6563,0.6703,1.2319,"",0.000,0.000,50,37,37,37,00,06,39,33*0758eeb4
#BESTPOSA,FILE,0,31.0,FINESTEERING,2319,306866.850,02000000,cdba,17139;SOL_COMPUTED,INS_RTKFIXED,17.59250366732,78.12172129427,532.1197,-76.2000,WGS84,0.6563,0.6703,1.2319,"",0.000,0.000,50,37,37,37,00,06,39,33*cd3c8c55
#BESTPOSA,FILE,0,31.0,FINESTEERING,2319,306866.900,02000000,cdba,17139;SOL_COMPUTED,INS_RTKFIXED,17.59250508722,78.12172120740,532.1182,-76.2000,WGS84,0.6563,0.6703,1.2319,"",0.000,0.000,50,37,37,37,00,06,39,33*c2a1896a
#BESTPOSA,FILE,0,31.0,FINESTEERING,2319,306866.950,02000000,cdba,17139;SOL_COMPUTED,INS_RTKFIXED,17.59250650167,78.12172112390,532.1154,-76.2000,WGS84,0.6563,0.6703,1.2319,"",0.000,0.000,50,37,37,37,00,06,39,33*d8a610fd
#BESTPOSA,FILE,0,31.0,FINESTEERING,2319,306867.000,02000000,cdba,17139;SOL_COMPUTED,INS_RTKFIXED,17.59250791277,78.12172104391,532.1119,-76.2000,WGS84,0.6563,0.6703,1.2319,"",0.000,0.000,50,37,37,37,00,06,39,33*fadf43b1
#BESTPOSA,FILE,0,31.0,FINESTEERING,2319,306867.050,02000000,cdba,17139;SOL_COMPUTED,INS_RTKFIXED,17.59250932348,78.12172096729,532.1085,-76.2000,WGS84,0.6586,0.6742,1.2365,"",0.000,0.000,52,38,38,38,00,06,39,33*da43a8f8
#BESTPOSA,FILE,0,30.5,FINESTEERING,2319,306867.100,02000000,cdba,17139;SOL_COMPUTED,INS_RTKFIXED,17.59251072595,78.12172089207,532.1056,-76.2000,WGS84,0.6586,0.6742,1.2365,"",0.000,0.000,52,38,38,38,00,06,39,33*c64b75eb
#BESTPOSA,FILE,0,30.5,FINESTEERING,2319,306867.150,02000000,cdba,17139;SOL_COMPUTED,INS_RTKFIXED,17.59251213397,78.12172081701,532.1037,-76.2000,WGS84,0.6586,0.6742,1.2365,"",0.000,0.000,52,38,38,38,00,06,39,33*76739cb6
#BESTPOSA,FILE,0,30.5,FINESTEERING,2319,306867.200,02000000,cdba,17139;SOL_COMPUTED,INS_RTKFIXED,17.59251354329,78.12172074129,532.1030,-76.2000,WGS84,0.6586,0.6742,1.2365,"",0.000,0.000,52,38,38,38,00,06,39,33*db3ac7e0
#BESTPOSA,FILE,0,30.5,FINESTEERING,2319,306867.250,02000000,cdba,17139;SOL_COMPUTED,INS_RTKFIXED,17.59251495840,78.12172066399,532.1034,-76.2000,WGS84,0.6586,0.6742,1.2365,"",0.000,0.000,52,38,38,38,00,06,39,33*3936ab8e
#BESTPOSA,FILE,0,30.5,FINESTEERING,2319,306867.300,02000000,cdba,17139;SOL_COMPUTED,INS_RTKFIXED,17.59251637285,78.12172059212,532.1040,-76.2000,WGS84,0.6586,0.6742,1.2365,"",0.000,0.000,52,38,38,38,00,06,39,33*3147768e
#BESTPOSA,FILE,0,30.5,FINESTEERING,2319,306867.350,02000000,cdba,17139;SOL_COMPUTED,INS_RTKFIXED,17.59251778808,78.12172052462,532.1043,-76.2000,WGS84,0.6586,0.6742,1.2365,"",0.000,0.000,52,38,38,38,00,06,39,33*c0940dbd
#BESTPOSA,FILE,0,30.5,FINESTEERING,2319,306867.400,02000000,cdba,17139;SOL_COMPUTED,INS_RTKFIXED,17.59251919763,78.12172046660,532.1037,-76.2000,WGS84,0.6586,0.6742,1.2365,"",0.000,0.000,52,38,38,38,00,06,39,33*734dd75c
#BESTPOSA,FILE,0,30.5,FINESTEERING,2319,306867.450,02000000,cdba,17139;SOL_COMPUTED,INS_RTKFIXED,17.59252060497,78.12172041173,532.1027,-76.2000,WGS84,0.6586,0.6742,1.2365,"",0.000,0.000,52,38,38,38,00,06,39,33*801db16a
#BESTPOSA,FILE,0,30.5,FINESTEERING,2319,306867.500,02000000,cdba,17139;SOL_COMPUTED,INS_RTKFIXED,17.59252200703,78.12172035932,532.1010,-76.2000,WGS84,0.6586,0.6742,1.2365,"",0.000,0.000,52,38,38,38,00,06,39,33*7ad12b53
#BESTPOSA,FILE,0,30.5,FINESTEERING,2319,306867.550,02000000,cdba,17139;SOL_COMPUTED,INS_RTKFIXED,17.59252340911,78.12172030853,532.0991,-76.2000,WGS84,0.6586,0.6742,1.2365,"",0.000,0.000,52,38,38,38,00,06,39,33*3d252ece
#BESTPOSA,FILE,0,30.5,FINESTEERING,2319,306867.600,02000000,cdba,17139;SOL_COMPUTED,INS_RTKFIXED,17.59252481118,78.12172026137,532.0971,-76.2000,WGS84,0.6586,0.6742,1.2365,"",0.000,0.000,52,38,38,38,00,06,39,33*e0cfcbb0
#BESTPOSA,FILE,0,30.5,FINESTEERING,2319,306867.650,02000000,cdba,17139;SOL_COMPUTED,INS_RTKFIXED,17.59252621533,78.12172021969,532.0954,-76.2000,WGS84,0.6586,0.6742,1.2365,"",0.000,0.000,52,38,38,38,00,06,39,33*836c0934
#BESTPOSA,FILE,0,30.5,FINESTEERING,2319,306867.700,02000000,cdba,17139;SOL_COMPUTED,INS_RTKFIXED,17.59252762053,78.12172018059,532.0940,-76.2000,WGS84,0.6586,0.6742,1.2365,"",0.000,0.000,52,38,38,38,00,06,39,33*f07b0ddd
#BESTPOSA,FILE,0,30.5,FINESTEERING,2319,306867.750,02000000,cdba,17139;SOL_COMPUTED,INS_RTKFIXED,17.59252902936,78.12172014259,532.0934,-76.2000,WGS84,0.6586,0.6742,1.2365,"",0.000,0.000,52,38,38,38,00,06,39,33*9470331e
#BESTPOSA,FILE,0,30.5,FINESTEERING,2319,306867.800,02000000,cdba,17139;SOL_COMPUTED,INS_RTKFIXED,17.59253043571,78.12172010813,532.0929,-76.2000,WGS84,0.6586,0.6742,1.2365,"",0.000,0.000,52,38,38,38,00,06,39,33*d2743d4b
#BESTPOSA,FILE,0,30.5,FINESTEERING,2319,306867.850,02000000,cdba,17139;SOL_COMPUTED,INS_RTKFIXED,17.59253183913,78.12172008031,532.0920,-76.2000,WGS84,0.6586,0.6742,1.2365,"",0.000,0.000,52,38,38,38,00,06,39,33*c39838a5
#BESTPOSA,FILE,0,30.5,FINESTEERING,2319,306867.900,02000000,cdba,17139;SOL_COMPUTED,INS_RTKFIXED,17.59253324105,78.12172005599,532.0912,-76.2000,WGS84,0.6586,0.6742,1.2365,"",0.000,0.000,52,38,38,38,00,06,39,33*b455c803
#BESTPOSA,FILE,0,30.5,FINESTEERING,2319,306867.950,02000000,cdba,17139;SOL_COMPUTED,INS_RTKFIXED,17.59253463562,78.12172003394,532.0902,-76.2000,WGS84,0.6586,0.6742,1.2365,"",0.000,0.000,52,38,38,38,00,06,39,33*50d9d52f
#BESTPOSA,FILE,0,30.5,FINESTEERING,2319,306868.000,02000000,cdba,17139;SOL_COMPUTED,INS_RTKFIXED,17.59253602185,78.12172001225,532.0891,-76.2000,WGS84,0.6586,0.6742,1.2365,"",0.000,0.000,52,38,38,38,00,06,39,33*f720ba85
#BESTPOSA,FILE,0,30.5,FINESTEERING,2319,306868.050,02000000,cdba,17139;SOL_COMPUTED,INS_RTKFIXED,17.59253740204,78.12171998877,532.0875,-76.2000,WGS84,0.6608,0.6779,1.2409,"",0.000,0.000,52,38,38,38,00,06,39,33*ae790c81
#BESTPOSA,FILE,0,30.5,FINESTEERING,2319,306868.100,02000000,cdba,17139;SOL_COMPUTED,INS_RTKFIXED,17.59253876750,78.12171995551,532.0853,-76.2000,WGS84,0.6608,0.6779,1.2409,"",0.000,0.000,52,38,38,38,00,06,39,33*72ae8619
#BESTPOSA,FILE,0,31.0,FINESTEERING,2319,306868.150,02000000,cdba,17139;SOL_COMPUTED,INS_RTKFIXED,17.59254012807,78.12171992337,532.0830,-76.2000,WGS84,0.6608,0.6779,1.2409,"",0.000,0.000,52,38,38,38,00,06,39,33*370a2cc7
#BESTPOSA,FILE,0,31.0,FINESTEERING,2319,306868.200,02000000,cdba,17139;SOL_COMPUTED,INS_RTKFIXED,17.59254148137,78.12171988870,532.0813,-76.2000,WGS84,0.6608,0.6779,1.2409,"",0.000,0.000,52,38,38,38,00,06,39,33*8397cdb3
#BESTPOSA,FILE,0,31.0,FINESTEERING,2319,306868.250,02000000,cdba,17139;SOL_COMPUTED,INS_RTKFIXED,17.59254282973,78.12171986269,532.0795,-76.2000,WGS84,0.6608,0.6779,1.2409,"",0.000,0.000,52,38,38,38,00,06,39,33*de66bb92
#BESTPOSA,FILE,0,31.0,FINESTEERING,2319,306868.300,02000000,cdba,17139;SOL_COMPUTED,INS_RTKFIXED,17.59254417332,78.12171984160,532.0780,-76.2000,WGS84,0.6608,0.6779,1.2409,"",0.000,0.000,52,38,38,38,00,06,39,33*c77ba07a
#BESTPOSA,FILE,0,31.0,FINESTEERING,2319,306868.350,02000000,cdba,17139;SOL_COMPUTED,INS_RTKFIXED,17.59254551174,78.12171982859,532.0765,-76.2000,WGS84,0.6608,0.6779,1.2409,"",0.000,0.000,52,38,38,38,00,06,39,33*bbebbf89
#BESTPOSA,FILE,0,31.0,FINESTEERING,2319,306868.400,02000000,cdba,17139;SOL_COMPUTED,INS_RTKFIXED,17.59254683976,78.12171981461,532.0753,-76.2000,WGS84,0.6608,0.6779,1.2409,"",0.000,0.000,52,38,38,38,00,06,39,33*1d027c7b
#BESTPOSA,FILE,0,31.0,FINESTEERING,2319,306868.450,02000000,cdba,17139;SOL_COMPUTED,INS_RTKFIXED,17.59254816528,78.12171979811,532.0741,-76.2000,WGS84,0.6608,0.6779,1.2409,"",0.000,0.000,52,38,38,38,00,06,39,33*14bbd10d
#BESTPOSA,FILE,0,31.0,FINESTEERING,2319,306868.500,02000000,cdba,17139;SOL_COMPUTED,INS_RTKFIXED,17.59254948418,78.12171977913,532.0727,-76.2000,WGS84,0.6608,0.6779,1.2409,"",0.000,0.000,52,38,38,38,00,06,39,33*5ba9b2f5
#BESTPOSA,FILE,0,31.0,FINESTEERING,2319,306868.550,02000000,cdba,17139;SOL_COMPUTED,INS_RTKFIXED,17.59255079511,78.12171975949,532.0708,-76.2000,WGS84,0.6608,0.6779,1.2409,"",0.000,0.000,52,38,38,38,00,06,39,33*03565218
#BESTPOSA,FILE,0,31.0,FINESTEERING,2319,306868.600,02000000,cdba,17139;SOL_COMPUTED,INS_RTKFIXED,17.59255209899,78.12171974424,532.0684,-76.2000,WGS84,0.6608,0.6779,1.2409,"",0.000,0.000,52,38,38,38,00,06,39,33*10e773d3
#BESTPOSA,FILE,0,31.0,FINESTEERING,2319,306868.650,02000000,cdba,17139;SOL_COMPUTED,INS_RTKFIXED,17.59255339378,78.12171972950,532.0660,-76.2000,WGS84,0.6608,0.6779,1.2409,"",0.000,0.000,52,38,38,38,00,06,39,33*aab5f3e3
#BESTPOSA,FILE,0,31.0,FINESTEERING,2319,306868.700,02000000,cdba,17139;SOL_COMPUTED,INS_RTKFIXED,17.59255468317,78.12171970414,532.0641,-76.2000,WGS84,0.6608,0.6779,1.2409,"",0.000,0.000,52,38,38,38,00,06,39,33*a447eabf
#BESTPOSA,FILE,0,31.0,FINESTEERING,2319,306868.750,02000000,cdba,17139;SOL_COMPUTED,INS_RTKFIXED,17.59255596875,78.12171968087,532.0623,-76.2000,WGS84,0.6608,0.6779,1.2409,"",0.000,0.000,52,38,38,38,00,06,39,33*af11c3d3
#BESTPOSA,FILE,0,31.0,FINESTEERING,2319,306868.800,02000000,cdba,17139;SOL_COMPUTED,INS_RTKFIXED,17.59255724671,78.12171966273,532.0604,-76.2000,WGS84,0.6608,0.6779,1.2409,"",0.000,0.000,52,38,38,38,00,06,39,33*bc334ba2
#BESTPOSA,FILE,0,31.0,FINESTEERING,2319,306868.850,02000000,cdba,17139;SOL_COMPUTED,INS_RTKFIXED,17.59255851925,78.12171964894,532.0588,-76.2000,WGS84,0.6608,0.6779,1.2409,"",0.000,0.000,52,38,38,38,00,06,39,33*bb60f243
#BESTPOSA,FILE,0,31.0,FINESTEERING,2319,306868.900,02000000,cdba,17139;SOL_COMPUTED,INS_RTKFIXED,17.59255978262,78.12171963867,532.0572,-76.2000,WGS84,0.6608,0.6779,1.2409,"",0.000,0.000,52,38,38,38,00,06,39,33*bf2607f7
#BESTPOSA,FILE,0,31.0,FINESTEERING,2319,306868.950,02000000,cdba,17139;SOL_COMPUTED,INS_RTKFIXED,17.59256103942,78.12171963512,532.0556,-76.2000,WGS84,0.6608,0.6779,1.2409,"",0.000,0.000,52,38,38,38,00,06,39,33*c2f9cada
#BESTPOSA,FILE,0,31.0,FINESTEERING,2319,306869.000,02000000,cdba,17139;SOL_COMPUTED,INS_RTKFIXED,17.59256229074,78.12171963648,532.0541,-76.2000,WGS84,0.6608,0.6779,1.2409,"",0.000,0.000,52,38,38,38,00,06,39,33*179328e9
#BESTPOSA,FILE,0,31.0,FINESTEERING,2319,306869.050,02000000,cdba,17139;SOL_COMPUTED,INS_RTKFIXED,17.59256352969,78.12171963575,532.0526,-76.2000,WGS84,0.6626,0.6814,1.2450,"",0.000,0.000,52,38,38,38,00,06,39,33*d758f51f
#BESTPOSA,FILE,0,31.0,FINESTEERING,2319,306869.100,02000000,cdba,17139;SOL_COMPUTED,INS_RTKFIXED,17.59256475091,78.12171962436,532.0520,-76.2000,WGS84,0.6626,0.6814,1.2450,"",0.000,0.000,52,38,38,38,00,06,39,33*473941de
