#CORRIMUDATAA,FILE,0,34.0,FINESTEERING,2319,306853.900,02000800,e5fc,17139;2319,306853.900000000,-0.0002071224213436,0.0000087719627986,0.0120585997637071,-0.0068287107695176,0.0154333716846402,-0.0025246995022708*9c002f04
#CORRIMUDATAA,FILE,0,34.0,FINESTEERING,2319,306854.000,02000800,e5fc,17139;2319,306854.000000000,-0.0001300995724908,-0.0001675898596408,0.0123438292890679,-0.0117312629011327,0.0163695098584818,-0.0027817473176628*ca6f5b68
#CORRIMUDATAA,FILE,0,34.0,FINESTEERING,2319,306854.050,02000800,e5fc,17139;2319,306854.050000000,-0.0000766884780642,-0.0000895296720950,0.0125258811900156,-0.0091803664299887,0.0154587467184143,-0.0007015116587909*4ff5ba3e
#CORRIMUDATAA,FILE,0,34.0,FINESTEERING,2319,306854.250,02000800,e5fc,17139;2319,306854.250000000,-0.0002091733178896,0.0001568710253566,0.0135812709997117,-0.0106222876518327,0.0173560537476198,0.0003365630288209*1de54886
#CORRIMUDATAA,FILE,0,35.5,FINESTEERING,2319,306854.400,02000800,e5fc,17139;2319,306854.400000000,-0.0002729850205320,0.0000794619622038,0.0141095249682373,-0.0132049803125272,0.0145819522928740,0.0019803592472281*c5f876c8
#CORRIMUDATAA,FILE,0,35.5,FINESTEERING,2319,306854.450,02000800,e5fc,17139;2319,306854.450000000,-0.0002743410986637,0.0000532459619695,0.0143598092902087,-0.0109386489285327,0.0146296070592112,-0.0007612476297346*91b2dd4c
#CORRIMUDATAA,FILE,0,35.5,FINESTEERING,2319,306854.500,02000800,e5fc,17139;2319,306854.500000000,-0.0002284786601253,-0.0000085299357805,0.0146168735384529,-0.0125766229408689,0.0155482664752619,-0.0015252011379072*f3ff94ec
#CORRIMUDATAA,FILE,0,35.5,FINESTEERING,2319,306854.650,02000800,e5fc,17139;2319,306854.650000000,-0.0001928629183263,-0.0000070189862930,0.0151691633596160,-0.0153228231300125,0.0162789626182910,-0.0006481397286496*97772d12
#CORRIMUDATAA,FILE,0,35.5,FINESTEERING,2319,306854.750,02000800,e5fc,17139;2319,306854.750000000,-0.0001646888942476,0.0000375836544157,0.0154706614682728,-0.0133797414096176,0.0204617587144753,-0.0010374868014420*b4e24e32
#CORRIMUDATAA,FILE,0,35.5,FINESTEERING,2319,306854.800,02000800,e5fc,17139;2319,306854.800000000,-0.0001495345721488,-0.0001641298970818,0.0155532514658435,-0.0140671788754813,0.0220626762689024,0.0014543193447826*83f7a70c
#CORRIMUDATAA,FILE,0,35.5,FINESTEERING,2319,306854.850,02000800,e5fc,17139;2319,306854.850000000,-0.0001831602836628,-0.0004149000884214,0.0154797874592052,-0.0173951642795373,0.0236938739482445,0.0045191866897178*a1ae32ab
#CORRIMUDATAA,FILE,0,35.5,FINESTEERING,2319,306854.950,02000800,e5fc,17139;2319,306854.950000000,-0.0002027582065326,-0.0003457790822188,0.0150069983451681,-0.0212614739102946,0.0241235804075058,0.0003346039031544*741f9b09
#CORRIMUDATAA,FILE,0,35.5,FINESTEERING,2319,306855.050,02000800,e5fc,17139;2319,306855.050000000,-0.0003386601377706,-0.0001469998861078,0.0143138198426153,-0.0173256055197799,0.0218130865202414,0.0004869780714909*77c4eb46
#CORRIMUDATAA,FILE,0,33.0,FINESTEERING,2319,306855.150,02000800,e5fc,17139;2319,306855.150000000,-0.0002945671513730,0.0001115991161313,0.0136087775572454,-0.0142676920906528,0.0200896576592446,-0.0033528185031433*e8631e16
#CORRIMUDATAA,FILE,0,33.0,FINESTEERING,2319,306855.300,02000800,e5fc,17139;2319,306855.300000000,-0.0002531043778305,0.0003874856086364,0.0123414385654668,-0.0193344726361286,0.0101955154350954,0.0027679484608845*9ac1a6a6
#CORRIMUDATAA,FILE,0,33.0,FINESTEERING,2319,306855.350,02000800,e5fc,17139;2319,306855.350000000,-0.0002908723734857,0.0003334850666558,0.0120345606733698,-0.0184376981504332,0.0073219288460152,0.0023520797477225*7d8fb2e5
#CORRIMUDATAA,FILE,0,33.0,FINESTEERING,2319,306855.450,02000800,e5fc,17139;2319,306855.450000000,-0.0003791021772597,0.0001823733240490,0.0116701862090350,-0.0157618303584983,0.0045250123342396,-0.0004610228621255*37d237d2
#CORRIMUDATAA,FILE,0,33.0,FINESTEERING,2319,306855.650,02000800,e5fc,17139;2319,306855.650000000,-0.0003376695696585,-0.0002663317747909,0.0110504599052040,-0.0186426425878078,0.0003237366467989,-0.0001777536413425*843e29c5
#CORRIMUDATAA,FILE,0,33.0,FINESTEERING,2319,306855.700,02000800,e5fc,17139;2319,306855.700000000,-0.0003195006610450,-0.0000526707209246,0.0110542125241202,-0.0124497847285912,0.0002648061715745,-0.0028759475519807*d7afeac5
#CORRIMUDATAA,FILE,0,33.0,FINESTEERING,2319,306855.750,02000800,e5fc,17139;2319,306855.750000000,-0.0003292632400447,-0.0001321395684823,0.0111131771879134,-0.0077837696366824,0.0009940401186900,-0.0026773346864607*01113ed7
#CORRIMUDATAA,FILE,0,33.0,FINESTEERING,2319,306855.900,02000800,e5fc,17139;2319,306855.900000000,-0.0001228672025426,-0.0006117004335333,0.0098476076691118,-0.0267417468126481,0.0064233367038800,-0.0023258645257039*28e7684f
#CORRIMUDATAA,FILE,0,33.0,FINESTEERING,2319,306855.950,02000800,e5fc,17139;2319,306855.950000000,-0.0001040884432743,-0.0003078289283819,0.0092547317394087,-0.0205452424713075,0.0034750284073512,0.0024617706473508*309e9f0f
#CORRIMUDATAA,FILE,0,33.0,FINESTEERING,2319,306856.000,02000800,e5fc,17139;2319,306856.000000000,-0.0001226987686696,-0.0000152766942347,0.0089856476746596,-0.0112139278990656,0.0009731607807089,0.0032612252083883*23e3954c
#CORRIMUDATAA,FILE,0,33.0,FINESTEERING,2319,306856.100,02000800,e5fc,17139;2319,306856.100000000,-0.0002005686793028,-0.0003187245341852,0.0091390095620210,-0.0050194211661066,0.0011925696347150,-0.0016756038566920*5e8bd2c8
#CORRIMUDATAA,FILE,0,34.0,FINESTEERING,2319,306856.250,02000800,e5fc,17139;2319,306856.250000000,-0.0000922278659142,-0.0003217097533536,0.0082886879126487,-0.0177528626405963,0.0038037002369469,-0.0005547571759693*eb1d33f3
#CORRIMUDATAA,FILE,0,34.0,FINESTEERING,2319,306856.400,02000800,e5fc,17139;2319,306856.400000000,-0.0000144910156825,-0.0000414797185657,0.0073715733048246,-0.0063656549211704,0.0030238597734383,-0.0020841168029330*d3fa3619
#CORRIMUDATAA,FILE,0,34.0,FINESTEERING,2319,306856.450,02000800,e5fc,17139;2319,306856.450000000,0.0000295740616363,0.0000468796098809,0.0073108761954311,-0.0062281463490396,0.0021866162347957,-0.0022811159239078*36058795
#CORRIMUDATAA,FILE,0,34.0,FINESTEERING,2319,306856.600,02000800,e5fc,17139;2319,306856.600000000,-0.0000669933698364,0.0001521599502228,0.0068117607354374,-0.0127859877682359,0.0000093601092626,0.0039989137901046*3ee93fcf
#CORRIMUDATAA,FILE,0,34.0,FINESTEERING,2319,306856.800,02000800,e5fc,17139;2319,306856.800000000,-0.0001733446123780,-0.0000347472370574,0.0057300025967892,-0.0112962875636715,0.0017266354640522,0.0001020366338135*1a2c9f1d
#CORRIMUDATAA,FILE,0,34.0,FINESTEERING,2319,306856.850,02000800,e5fc,17139;2319,306856.850000000,-0.0003443757709055,0.0000214733584230,0.0055215952004880,-0.0103679448808233,-0.0025400565480376,0.0059779481566764*b9b698a5
#CORRIMUDATAA,FILE,0,34.0,FINESTEERING,2319,306856.900,02000800,e5fc,17139;2319,306856.900000000,-0.0003272616565130,0.0001864414548303,0.0053846843992760,-0.0081522537506195,-0.0053573155314995,0.0074490436635322*cc489aa6
#CORRIMUDATAA,FILE,0,34.0,FINESTEERING,2319,306856.950,02000800,e5fc,17139;2319,306856.950000000,-0.0002644226180094,0.0001129883768014,0.0052243193240315,-0.0082418189509451,-0.0051508645038009,0.0023059754176021*08bb5aad
#CORRIMUDATAA,FILE,0,34.0,FINESTEERING,2319,306857.000,02000800,e5fc,17139;2319,306857.000000000,-0.0002170652798299,0.0001418396089659,0.0050235743488826,-0.0070990268443094,-0.0054511391461769,0.0014201888547549*2668c60b
#CORRIMUDATAA,FILE,0,34.0,FINESTEERING,2319,306857.100,02000800,e5fc,17139;2319,306857.100000000,0.0003528273077719,-0.0000708771200672,0.0044741833796676,-0.0087997955065850,-0.0018670383941307,-0.0045355620431223*2f0ae9ac
#CORRIMUDATAA,FILE,0,34.5,FINESTEERING,2319,306857.150,02000800,e5fc,17139;2319,306857.150000000,0.0003694837629993,-0.0002227262419627,0.0042303783744176,-0.0086953177061600,-0.0033217844785606,-0.0013669110317707*6a6e762d
#CORRIMUDATAA,FILE,0,34.5,FINESTEERING,2319,306857.300,02000800,e5fc,17139;2319,306857.300000000,0.0005267808375821,-0.0007199170622709,0.0041934946519782,-0.0067603929597504,-0.0075653033749127,-0.0015190752685691*db96de76
#CORRIMUDATAA,FILE,0,34.5,FINESTEERING,2319,306857.400,02000800,e5fc,17139;2319,306857.400000000,0.0004439442251088,-0.0010751822891769,0.0037672667858518,-0.0082400575935810,-0.0018474858049106,-0.0031041227291280*06f1fde2
#CORRIMUDATAA,FILE,0,34.5,FINESTEERING,2319,306857.450,02000800,e5fc,17139;2319,306857.450000000,0.0004104162313864,-0.0007587875628578,0.0033324497501173,-0.0126486883054262,-0.0034034975343459,-0.0027506019657561*01c43f0c
#CORRIMUDATAA,FILE,0,34.5,FINESTEERING,2319,306857.500,02000800,e5fc,17139;2319,306857.500000000,0.0004349767870793,-0.0000201670839498,0.0030120933569076,-0.0054095513916102,-0.0049676621021575,-0.0010454488556549*81e0d403
#CORRIMUDATAA,FILE,0,34.5,FINESTEERING,2319,306857.550,02000800,e5fc,17139;2319,306857.550000000,0.0003806213561489,0.0003173600332941,0.0030043115969794,0.0053674828978933,-0.0044821929487224,0.0027298327271272*782484a1
#CORRIMUDATAA,FILE,0,34.5,FINESTEERING,2319,306857.600,02000800,e5fc,17139;2319,306857.600000000,0.0004633686707610,0.0002734648164802,0.0031244927257361,0.0060161437498385,-0.0054561979141839,0.0005342791513343*61b9fb2e
#CORRIMUDATAA,FILE,0,34.5,FINESTEERING,2319,306857.650,02000800,e5fc,17139;2319,306857.650000000,0.0005898980244800,0.0002772737519510,0.0032043940453321,0.0008372820738990,-0.0052506748060134,0.0002231799204157*bf7b8d70
#CORRIMUDATAA,FILE,0,34.5,FINESTEERING,2319,306857.700,02000800,e5fc,17139;2319,306857.700000000,0.0007870120433187,0.0003983068369963,0.0031268599582083,-0.0085017182620172,-0.0029462677427985,-0.0028467362583427*b0129210
#CORRIMUDATAA,FILE,0,34.5,FINESTEERING,2319,306857.750,02000800,e5fc,17139;2319,306857.750000000,0.0009233562472977,0.0003809391359976,0.0029626700601818,-0.0091493026104622,-0.0021276347673105,-0.0025512320902476*0d980d85
#CORRIMUDATAA,FILE,0,34.5,FINESTEERING,2319,306857.800,02000800,e5fc,17139;2319,306857.800000000,0.0010122703304755,0.0002286573583155,0.0027527862733024,-0.0082171400448024,-0.0022467517198828,-0.0033113104130131*894142f8
#CORRIMUDATAA,FILE,0,34.5,FINESTEERING,2319,306857.850,02000800,e5fc,17139;2319,306857.850000000,0.0010303049776510,0.0000353687340919,0.0025720185643991,-0.0095773877240998,-0.0028232552754749,0.0001439565157712*1187d4f9
#CORRIMUDATAA,FILE,0,34.5,FINESTEERING,2319,306857.900,02000800,e5fc,17139;2319,306857.900000000,0.0012507264473213,-0.0000439500301376,0.0024428192991731,-0.0045701229872930,0.0008865580541491,-0.0020659604424965*a99db409
#CORRIMUDATAA,FILE,0,34.5,FINESTEERING,2319,306857.950,02000000,e5fc,17139;2319,306857.950000000,0.0011057949107875,-0.0002550096922953,0.0024663890454796,-0.0025882355231274,0.0015216693855361,0.0000117692868211*2b97d831
#CORRIMUDATAA,FILE,0,34.5,FINESTEERING,2319,306858.000,02000000,e5fc,17139;2319,306858.000000000,0.0009499274933041,-0.0003581831167672,0.0025191253706574,-0.0002324064969825,-0.0008950848792684,0.0000609202450684*40272aa0
#CORRIMUDATAA,FILE,0,34.5,FINESTEERING,2319,306858.050,02000000,e5fc,17139;2319,306858.050000000,0.0010683979865051,-0.0003097092225093,0.0024870387139015,-0.0022077857143170,-0.0003251135492060,-0.0013715815454008*7bc7ba97
#CORRIMUDATAA,FILE,0,25.0,FINESTEERING,2319,306858.100,02000000,e5fc,17139;2319,306858.100000000,0.0012548242974855,-0.0000815279385543,0.0023003943435223,-0.0048466706144084,0.0008040828906711,0.0009152212613293*1dbfb426
#CORRIMUDATAA,FILE,0,25.0,FINESTEERING,2319,306858.150,02000000,e5fc,17139;2319,306858.150000000,0.0013731651071973,0.0001333674900229,0.0020318328273091,-0.0044078393633663,0.0044048630306718,-0.0000488049293325*7bae7e79
#CORRIMUDATAA,FILE,0,25.0,FINESTEERING,2319,306858.200,02000000,e5fc,17139;2319,306858.200000000,0.0012870729177010,0.0002052654242126,0.0018113022135328,-0.0035089542666976,0.0065847623145226,0.0016644295507258*e859f0f3
#CORRIMUDATAA,FILE,0,25.0,FINESTEERING,2319,306858.250,02000000,e5fc,17139;2319,306858.250000000,0.0011178786418408,0.0001678472893251,0.0018475049504434,0.0036393419520397,0.0049785860958480,0.0001775457430114*8382ca1b
#CORRIMUDATAA,FILE,0,25.0,FINESTEERING,2319,306858.300,02000000,e5fc,17139;2319,306858.300000000,0.0009909979556118,0.0000820827265732,0.0019991305463466,-0.0010359458600648,0.0050153468408935,-0.0009189388907337*28a94ee3
#CORRIMUDATAA,FILE,0,25.0,FINESTEERING,2319,306858.350,02000000,e5fc,17139;2319,306858.350000000,0.0009328780320325,0.0000318949612662,0.0020445568997374,-0.0036897643664824,0.0036620188500502,0.0027549652893436*76c3ff30
#CORRIMUDATAA,FILE,0,25.0,FINESTEERING,2319,306858.400,02000000,e5fc,17139;2319,306858.400000000,0.0011006746851603,-0.0000604830781338,0.0019465853998390,-0.0064199604018749,0.0045604187306710,-0.0011409531185422*9af4c488
#CORRIMUDATAA,FILE,0,25.0,FINESTEERING,2319,306858.450,02000000,e5fc,17139;2319,306858.450000000,0.0011234563695767,-0.0000651551225174,0.0017375996167032,-0.0080807288978192,0.0069114992873987,0.0029042866457510*bfb06b32
#CORRIMUDATAA,FILE,0,25.0,FINESTEERING,2319,306858.500,02000000,e5fc,17139;2319,306858.500000000,0.0011741130047321,0.0001351207906813,0.0014687781877926,-0.0041381348610825,0.0077338935909360,-0.0003002581813368*9cd8ffdd
#CORRIMUDATAA,FILE,0,25.0,FINESTEERING,2319,306858.550,02000000,e5fc,17139;2319,306858.550000000,0.0011100426139477,-0.0001262798881598,0.0013102940005015,-0.0016915276559224,0.0109925180576039,-0.0028761233180587*cbc15e6e
#CORRIMUDATAA,FILE,0,25.0,FINESTEERING,2319,306858.600,02000000,e5fc,17139;2319,306858.600000000,0.0009722162680128,-0.0000502966736262,0.0012685638383875,0.0006288140749064,0.0131861835396796,-0.0036969442469987*73a89fb4
#CORRIMUDATAA,FILE,0,25.0,FINESTEERING,2319,306858.650,02000000,e5fc,17139;2319,306858.650000000,0.0007979301790950,-0.0000750720821833,0.0013080556850908,0.0011753382681292,0.0128093804042886,-0.0033592416004797*ec56efe7
#CORRIMUDATAA,FILE,0,25.0,FINESTEERING,2319,306858.700,02000000,e5fc,17139;2319,306858.700000000,0.0007566991128424,-0.0001674605559706,0.0013220151362182,-0.0011786950877913,0.0093140725484462,-0.0034999270096298*0eef6776
#CORRIMUDATAA,FILE,0,25.0,FINESTEERING,2319,306858.750,02000000,e5fc,17139;2319,306858.750000000,0.0009685105470757,-0.0001658945603098,0.0013070784305219,-0.0028119956462354,0.0055351985024385,-0.0023688912765982*835375d5
#CORRIMUDATAA,FILE,0,25.0,FINESTEERING,2319,306858.800,02000000,e5fc,17139;2319,306858.800000000,0.0012786940081583,0.0000830902223209,0.0011976426210964,-0.0031672421075337,0.0064718304037917,0.0060011740727615*a352c783
#CORRIMUDATAA,FILE,0,25.0,FINESTEERING,2319,306858.850,02000000,e5fc,17139;2319,306858.850000000,0.0013062307032826,0.0002312536167309,0.0011371684530066,0.0036961851234895,0.0047874433205516,0.0155842190462681*f705a4fe
#CORRIMUDATAA,FILE,0,25.0,FINESTEERING,2319,306858.900,02000000,e5fc,17139;2319,306858.900000000,0.0009582164154658,0.0001671236266550,0.0011000741304605,0.0028970666449553,0.0004602527267682,0.0238023509252814*ffca6038
#CORRIMUDATAA,FILE,0,25.0,FINESTEERING,2319,306858.950,02000000,e5fc,17139;2319,306858.950000000,0.0004617293148257,0.0001505410313513,0.0009720408625389,-0.0006821563405326,0.0045252141475778,0.0177526070048096*5d529b57
#CORRIMUDATAA,FILE,0,25.0,FINESTEERING,2319,306859.000,02000000,e5fc,17139;2319,306859.000000000,0.0000663344888849,-0.0000518558858186,0.0007941566113690,-0.0078918712488980,0.0059662713546781,0.0058457269239422*395a33d3
#CORRIMUDATAA,FILE,0,25.0,FINESTEERING,2319,306859.050,02000000,e5fc,17139;2319,306859.050000000,-0.0000067655375117,0.0001335770256896,0.0005941171409948,-0.0100166924379407,0.0056790713159076,-0.0040430497900786*b71f44e4
#CORRIMUDATAA,FILE,0,25.0,FINESTEERING,2319,306859.100,02000000,e5fc,17139;2319,306859.100000000,0.0004586296990351,0.0000453570787483,0.0003900771455180,-0.0094245454427413,0.0019905313828233,-0.0134603778806428*797ea725
#CORRIMUDATAA,FILE,0,28.0,FINESTEERING,2319,306859.150,02000000,e5fc,17139;2319,306859.150000000,0.0010487692654181,-0.0002041085333180,0.0003375845061544,0.0004470844702814,0.0042182926352190,-0.0157582639811464*3bb09480
#CORRIMUDATAA,FILE,0,28.0,FINESTEERING,2319,306859.200,02000000,e5fc,17139;2319,306859.200000000,0.0015482190077653,-0.0007094224177619,0.0004918970925577,0.0054179543036354,0.0055382357105622,-0.0132793233002092*a5eb5184
#CORRIMUDATAA,FILE,0,28.0,FINESTEERING,2319,306859.250,02000000,e5fc,17139;2319,306859.250000000,0.0016467800657644,-0.0011359911947288,0.0006661700911518,0.0010905965738602,0.0057448311298167,-0.0041992038409628*da810d2f
#CORRIMUDATAA,FILE,0,28.0,FINESTEERING,2319,306859.300,02000000,e5fc,17139;2319,306859.300000000,0.0015096247860356,-0.0015370093619907,0.0007226001784802,0.0006119899414776,0.0065089287307765,0.0009186337847145*c8522794
#CORRIMUDATAA,FILE,0,28.0,FINESTEERING,2319,306859.350,02000000,e5fc,17139;2319,306859.350000000,0.0011444033078371,-0.0011554168975491,0.0007438206827421,0.0002930081083479,0.0142524974213807,0.0019084244495743*92c8cb8f
#CORRIMUDATAA,FILE,0,28.0,FINESTEERING,2319,306859.400,02000000,e5fc,17139;2319,306859.400000000,0.0007187916223242,-0.0009012978762143,0.0006008661132732,-0.0010843688390026,0.0107348471413965,0.0064550896840703*97546cc4
#CORRIMUDATAA,FILE,0,28.0,FINESTEERING,2319,306859.450,02000000,e5fc,17139;2319,306859.450000000,-0.0000627181707395,0.0000009685272686,0.0004468176584067,0.0018667292611111,0.0039091982219975,0.0215578202384649*3280c89f
#CORRIMUDATAA,FILE,0,28.0,FINESTEERING,2319,306859.500,02000000,e5fc,17139;2319,306859.500000000,-0.0003864853877538,0.0005483203005981,0.0004178099550102,0.0123050004003470,0.0027798967616208,0.0230003463883674*9b717d1c
#CORRIMUDATAA,FILE,0,28.0,FINESTEERING,2319,306859.550,02000000,e5fc,17139;2319,306859.550000000,-0.0005978331352843,0.0006291879893455,0.0003817355347160,0.0012879021484985,0.0069707899426684,0.0155723362783479*e138567e
#CORRIMUDATAA,FILE,0,28.0,FINESTEERING,2319,306859.600,02000000,e5fc,17139;2319,306859.600000000,-0.0007422101431498,0.0015668527332885,0.0001924255992765,-0.0035261969508956,0.0073942656021653,0.0051744738082433*fb95a44d
#CORRIMUDATAA,FILE,0,28.0,FINESTEERING,2319,306859.650,02000000,e5fc,17139;2319,306859.650000000,-0.0002402287875796,0.0015328452060513,0.0001338335744610,-0.0002906035748904,0.0085556953139572,-0.0040787643088146*3e56c466
#CORRIMUDATAA,FILE,0,28.0,FINESTEERING,2319,306859.700,02000000,e5fc,17139;2319,306859.700000000,-0.0001813704555591,0.0017398819197208,0.0002613326239082,0.0039845288453443,0.0084430861264325,-0.0048112291998432*ba891637
#CORRIMUDATAA,FILE,0,28.0,FINESTEERING,2319,306859.750,02000000,e5fc,17139;2319,306859.750000000,0.0000762288677259,0.0012233657812840,0.0003440678876397,-0.0023617168387172,0.0092903772996768,-0.0142287419152262*8edbf6e3
#CORRIMUDATAA,FILE,0,28.0,FINESTEERING,2319,306859.800,02000000,e5fc,17139;2319,306859.800000000,0.0003974150034971,0.0007091210240316,0.0002526942583404,-0.0065471170319798,0.0114059866761366,-0.0150497551989689*7a83a47b
#CORRIMUDATAA,FILE,0,28.0,FINESTEERING,2319,306859.850,02000000,e5fc,17139;2319,306859.850000000,0.0003758428130009,0.0004215200874744,0.0002496374659321,-0.0041513578605502,0.0038517917537732,-0.0016017311260690*38ab5e18
#CORRIMUDATAA,FILE,0,28.0,FINESTEERING,2319,306859.900,02000000,e5fc,17139;2319,306859.900000000,0.0003342382493560,0.0001541339258066,0.0002989407976707,-0.0045427183179637,0.0032196101014665,0.0072289124361843*eca0282a
#CORRIMUDATAA,FILE,0,28.0,FINESTEERING,2319,306859.950,02000000,e5fc,17139;2319,306859.950000000,0.0000741300357094,0.0003163591476164,0.0002875299419188,0.0001512229557044,0.0066111838598453,0.0141188211881135*009fd49f
#CORRIMUDATAA,FILE,0,28.0,FINESTEERING,2319,306860.000,02000000,e5fc,17139;2319,306860.000000000,-0.0000864913737570,-0.0003195252837264,0.0001738106101959,0.0004631814092840,0.0133190710924420,-0.0062475608086576*14cea9ac
#CORRIMUDATAA,FILE,0,28.0,FINESTEERING,2319,306860.050,02000000,e5fc,17139;2319,306860.050000000,-0.0002832797819060,-0.0005537631312477,0.0001225496343719,-0.0006393838799604,0.0081111101025675,-0.0041536732121128*363d98a7
#CORRIMUDATAA,FILE,0,28.0,FINESTEERING,2319,306860.100,02000000,e5fc,17139;2319,306860.100000000,-0.0001816346569228,-0.0000722879409115,0.0001609025233847,-0.0013152073122051,0.0082463295854517,0.0026844047766541*52b9b6ec
#CORRIMUDATAA,FILE,0,30.0,FINESTEERING,2319,306860.150,02000000,e5fc,17139;2319,306860.150000000,0.0001508264097682,0.0001074534343226,0.0002600632480071,0.0041813771965165,0.0033570053333934,0.0025349761320340*fb6787f0
#CORRIMUDATAA,FILE,0,30.0,FINESTEERING,2319,306860.200,02000000,e5fc,17139;2319,306860.200000000,0.0002220705852053,0.0005365997090869,0.0003876979262265,0.0067248467758306,0.0101325177869284,-0.0009202813537827*7a4f6442
#CORRIMUDATAA,FILE,0,30.0,FINESTEERING,2319,306860.250,02000000,e5fc,17139;2319,306860.250000000,0.0002833343740863,0.0007762020485669,0.0003515235615346,0.0024973520571455,0.0070483839382572,0.0004552860534888*a9833a46
#CORRIMUDATAA,FILE,0,30.0,FINESTEERING,2319,306860.300,02000000,e5fc,17139;2319,306860.300000000,0.0002701069260263,0.0006010810818108,0.0002782367617196,0.0037610209062238,0.0148220117824030,-0.0024225175327018*72573550
#CORRIMUDATAA,FILE,0,30.0,FINESTEERING,2319,306860.350,02000000,e5fc,17139;2319,306860.350000000,0.0000685564579235,0.0009510721880579,0.0002121313938795,-0.0017254748438120,0.0144365368277529,-0.0114976805703451*500b7a87
#CORRIMUDATAA,FILE,0,30.0,FINESTEERING,2319,306860.400,02000000,e5fc,17139;2319,306860.400000000,0.0002628709035034,0.0012498499589091,0.0001791063527534,-0.0005445669125401,0.0141627096352233,-0.0086595697735555*a09f2b10
#CORRIMUDATAA,FILE,0,30.0,FINESTEERING,2319,306860.450,02000000,e5fc,17139;2319,306860.450000000,-0.0000098234707913,0.0011746955160391,0.0002255772200010,0.0005854241781583,0.0038570222205814,0.0120904321390428*ab3de757
#CORRIMUDATAA,FILE,0,30.0,FINESTEERING,2319,306860.500,02000000,e5fc,17139;2319,306860.500000000,-0.0003401689142845,0.0010004995079046,0.0002205689377192,-0.0027623933941999,0.0074463891580728,0.0178929927899871*a2c72ba9
#CORRIMUDATAA,FILE,0,30.0,FINESTEERING,2319,306860.550,02000000,e5fc,17139;2319,306860.550000000,-0.0006068321793063,0.0010848762756325,0.0002491513772999,0.0022047371986213,0.0109365094561570,0.0132687477359632*1f6acbdf
#CORRIMUDATAA,FILE,0,30.0,FINESTEERING,2319,306860.600,02000000,e5fc,17139;2319,306860.600000000,-0.0006341216299334,0.0007827600499182,0.0002943524163190,0.0020693823122908,0.0132063155424185,0.0008638432958271*e7a4786e
#CORRIMUDATAA,FILE,0,30.0,FINESTEERING,2319,306860.650,02000000,e5fc,17139;2319,306860.650000000,-0.0009057181327828,0.0004252850200483,0.0002893664606550,-0.0008520534819705,0.0079863960392043,0.0068842851101218*d1b68f8b
#CORRIMUDATAA,FILE,0,30.0,FINESTEERING,2319,306860.700,02000000,e5fc,17139;2319,306860.700000000,-0.0008885130620654,0.0002203809091597,0.0002438692109576,-0.0071646633013951,0.0111685467233597,0.0000618908856139*b452c072
#CORRIMUDATAA,FILE,0,30.0,FINESTEERING,2319,306860.750,02000000,e5fc,17139;2319,306860.750000000,-0.0011143707106047,0.0002775918637043,0.0001955112126487,-0.0070386753677112,0.0028400364173812,0.0124363818230421*8c4a9168
#CORRIMUDATAA,FILE,0,30.0,FINESTEERING,2319,306860.800,02000000,e5fc,17139;2319,306860.800000000,-0.0010916859928702,0.0001858302329768,0.0002150064443045,-0.0020297548804615,0.0066028214906032,0.0083315253210289*4e3119da
#CORRIMUDATAA,FILE,0,30.0,FINESTEERING,2319,306860.850,02000000,e5fc,17139;2319,306860.850000000,-0.0012933257343610,-0.0001021065131724,0.0002394359122998,0.0000873109437901,0.0089168930635776,-0.0015752176628662*e880e21e
#CORRIMUDATAA,FILE,0,30.0,FINESTEERING,2319,306860.900,02000000,e5fc,17139;2319,306860.900000000,-0.0010056572830917,-0.0000505198075814,0.0001734251552309,-0.0007188291315746,0.0139345133896929,-0.0180063667010881*cadab874
#CORRIMUDATAA,FILE,0,30.0,FINESTEERING,2319,306860.950,02000000,e5fc,17139;2319,306860.950000000,-0.0003899886685774,-0.0001873685186155,0.0001375627368275,0.0027387948176212,0.0166455736137924,-0.0206842859274435*f2ebef88
#CORRIMUDATAA,FILE,0,30.0,FINESTEERING,2319,306861.000,02000000,e5fc,17139;2319,306861.000000000,-0.0000730052190736,0.0000876948650401,0.0001796405560979,0.0018982888651830,0.0178790708590100,-0.0343377044527348*070cf928
#CORRIMUDATAA,FILE,0,30.0,FINESTEERING,2319,306861.050,02000000,e5fc,17139;2319,306861.050000000,0.0005443335437253,0.0002580762534445,0.0002499374074492,0.0012646736295302,0.0150401587836998,-0.0189425287010416*1c37cb56
#CORRIMUDATAA,FILE,0,27.5,FINESTEERING,2319,306861.100,02000000,e5fc,17139;2319,306861.100000000,0.0006005944453133,0.0007619848111154,0.0004819829553430,0.0049515551011525,0.0090329810274412,-0.0020174392411652*41451431
#CORRIMUDATAA,FILE,0,27.5,FINESTEERING,2319,306861.150,02000000,e5fc,17139;2319,306861.150000000,0.0005985702876761,0.0007834964553913,0.0008270981636618,0.0099757268751108,0.0087650447958443,0.0076071638126168*bdb136ff
#CORRIMUDATAA,FILE,0,27.5,FINESTEERING,2319,306861.200,02000000,e5fc,17139;2319,306861.200000000,0.0002811032608039,0.0008105793084836,0.0011930270691136,0.0043798101574834,0.0079488193290856,0.0236614930876006*4a11432b
#CORRIMUDATAA,FILE,0,27.5,FINESTEERING,2319,306861.250,02000000,e5fc,17139;2319,306861.250000000,-0.0000120828902969,0.0010831982292862,0.0014625213070343,-0.0010406280568175,0.0104685372549813,0.0189738952614582*2962f48c
#CORRIMUDATAA,FILE,0,27.5,FINESTEERING,2319,306861.300,02000000,e5fc,17139;2319,306861.300000000,-0.0002384116552893,0.0013608126558513,0.0015956293868008,-0.0037362066415716,0.0084087655231456,0.0213347462561127*f4ab7980
#CORRIMUDATAA,FILE,0,27.5,FINESTEERING,2319,306861.350,02000000,e5fc,17139;2319,306861.350000000,-0.0005633093327528,0.0014853502697595,0.0016635911827943,-0.0020807880131546,0.0123230238303620,0.0081065695715434*d2758b67
#CORRIMUDATAA,FILE,0,27.5,FINESTEERING,2319,306861.400,02000000,e5fc,17139;2319,306861.400000000,-0.0007801724219550,0.0011639066670150,0.0017185175031065,-0.0036706026970362,0.0107514160558572,0.0038514021044416*e3719ea4
#CORRIMUDATAA,FILE,0,27.5,FINESTEERING,2319,306861.450,02000000,e5fc,17139;2319,306861.450000000,-0.0009403910611774,0.0010800629959596,0.0018733753783087,-0.0026490402462336,0.0143656369472192,-0.0077393971359358*e6890849
#CORRIMUDATAA,FILE,0,27.5,FINESTEERING,2319,306861.500,02000000,e5fc,17139;2319,306861.500000000,-0.0007398831129221,0.0006526019169688,0.0021789123806404,-0.0032494689380382,0.0166268651604402,-0.0203474064912071*81e4ce4f
#CORRIMUDATAA,FILE,0,27.5,FINESTEERING,2319,306861.550,02000000,e5fc,17139;2319,306861.550000000,-0.0006159242491108,0.0006943972652289,0.0024655170922886,-0.0066181024545659,0.0141433287302713,-0.0168018620556576*e35910d2
#CORRIMUDATAA,FILE,0,27.5,FINESTEERING,2319,306861.600,02000000,e5fc,17139;2319,306861.600000000,-0.0002964954595642,0.0000463220027443,0.0027426034973129,-0.0046234885942097,0.0127613576116884,-0.0066553269415525*8385cd94
#CORRIMUDATAA,FILE,0,27.5,FINESTEERING,2319,306861.650,02000000,e5fc,17139;2319,306861.650000000,-0.0002719162432845,-0.0005070896465074,0.0031013201408073,-0.0017269418283566,0.0160589281657866,-0.0011129801521691*909f8689
#CORRIMUDATAA,FILE,0,27.5,FINESTEERING,2319,306861.700,02000000,e5fc,17139;2319,306861.700000000,-0.0002267321029931,-0.0005457356865749,0.0034799527014298,-0.0085536680304395,0.0186641864801620,-0.0067021164987040*51d6852f
#CORRIMUDATAA,FILE,0,27.5,FINESTEERING,2319,306861.750,02000000,e5fc,17139;2319,306861.750000000,-0.0002377623740663,0.0000792847484109,0.0037643181796167,-0.0062676588388894,0.0205725895208048,0.0013454738614721*c1b96aac
#CORRIMUDATAA,FILE,0,27.5,FINESTEERING,2319,306861.800,02000000,e5fc,17139;2319,306861.800000000,-0.0003139646059202,0.0002919862488420,0.0040265292959709,0.0002104308612752,0.0197545120218524,0.0041696636654014*0c498ac4
#CORRIMUDATAA,FILE,0,27.5,FINESTEERING,2319,306861.850,02000000,e5fc,17139;2319,306861.850000000,-0.0004562326845565,0.0002461755915426,0.0043489397493901,0.0006418659770047,0.0167967560384985,0.0050232726799942*3b8a8e81
#CORRIMUDATAA,FILE,0,27.5,FINESTEERING,2319,306861.900,02000000,e5fc,17139;2319,306861.900000000,-0.0005555301964560,0.0006095436932565,0.0046252140208501,-0.0043037237327359,0.0153414802584013,0.0017675371373881*fc618c6a
#CORRIMUDATAA,FILE,0,27.5,FINESTEERING,2319,306861.950,02000000,e5fc,17139;2319,306861.950000000,-0.0005729674857043,0.0012060782548493,0.0048668567718184,-0.0079444044379543,0.0124730223928848,0.0046463369042606*ba0c35d9
#CORRIMUDATAA,FILE,0,27.5,FINESTEERING,2319,306862.000,02000000,e5fc,17139;2319,306862.000000000,-0.0006256988635751,0.0016137785498586,0.0050010416964908,-0.0070381672494517,0.0130198931825374,-0.0023924031023025*3e3d35c8
#CORRIMUDATAA,FILE,0,27.5,FINESTEERING,2319,306862.050,02000000,e5fc,17139;2319,306862.050000000,-0.0003826464592161,0.0019009350495044,0.0051110748011539,-0.0038790980673241,0.0132904552862410,-0.0029349755678493*af3becc8
#CORRIMUDATAA,FILE,0,27.5,FINESTEERING,2319,306862.100,02000000,e5fc,17139;2319,306862.100000000,-0.0001884602055573,0.0015791037759695,0.0051513643109430,-0.0101237269134408,0.0132776072692095,-0.0080431848388892*680b8b49
#CORRIMUDATAA,FILE,0,27.5,FINESTEERING,2319,306862.150,02000000,e5fc,17139;2319,306862.150000000,-0.0001073721326749,0.0014315490470675,0.0053009714347049,-0.0091061584605147,0.0079853129457794,0.0021005930380677*627c37c6
#CORRIMUDATAA,FILE,0,27.5,FINESTEERING,2319,306862.200,02000000,e5fc,17139;2319,306862.200000000,-0.0000045355527113,0.0009657501889311,0.0055773457740496,-0.0103177380690486,0.0108276668859788,-0.0001823599544303*90a8ffd8
#CORRIMUDATAA,FILE,0,31.0,FINESTEERING,2319,306862.250,02000000,e5fc,17139;2319,306862.250000000,0.0000143632073981,0.0004822792417531,0.0059079104574991,-0.0130596346740238,0.0090764461143213,0.0033080965838481*0d9e3f66
#CORRIMUDATAA,FILE,0,31.0,FINESTEERING,2319,306862.300,02000000,e5fc,17139;2319,306862.300000000,-0.0002064741991494,-0.0001859311126770,0.0060353485686981,-0.0171958291063545,0.0096993839312336,-0.0023819417982878*55c93657
#CORRIMUDATAA,FILE,0,31.0,FINESTEERING,2319,306862.350,02000000,e5fc,17139;2319,306862.350000000,-0.0001205320021188,-0.0009645987063584,0.0060098453861059,-0.0213883898402664,0.0068507974521772,0.0028494517342761*a44ff608
#CORRIMUDATAA,FILE,0,31.0,FINESTEERING,2319,306862.400,02000000,e5fc,17139;2319,306862.400000000,0.0000162769582362,-0.0013866696995357,0.0058416518954403,-0.0191474520110421,0.0088322401741586,-0.0007895163386981*1eee8200
#CORRIMUDATAA,FILE,0,31.0,FINESTEERING,2319,306862.450,02000000,e5fc,17139;2319,306862.450000000,0.0000671873834878,-0.0017687784549323,0.0056662904497104,-0.0167281494729170,0.0084268107109936,0.0024308125073253*69955cea
#CORRIMUDATAA,FILE,0,31.0,FINESTEERING,2319,306862.500,02000000,e5fc,17139;2319,306862.500000000,0.0000364397918370,-0.0016371396964442,0.0056545562065206,-0.0115166260112377,0.0134820150300997,-0.0006754745810522*30b7a351
#CORRIMUDATAA,FILE,0,31.0,FINESTEERING,2319,306862.550,02000000,e5fc,17139;2319,306862.550000000,-0.0001364710557015,-0.0007637848875724,0.0057791170775645,-0.0042186294144054,0.0113565100706694,0.0007416829168831*cef17e0d
#CORRIMUDATAA,FILE,0,31.0,FINESTEERING,2319,306862.600,02000000,e5fc,17139;2319,306862.600000000,-0.0001600256610196,0.0005132345575461,0.0058290166394255,0.0016452965852503,0.0153646240828760,-0.0033312445548215*6bb052e7
#CORRIMUDATAA,FILE,0,31.0,FINESTEERING,2319,306862.650,02000000,e5fc,17139;2319,306862.650000000,-0.0001746414410090,0.0015619426907968,0.0056143845948996,-0.0008544657530031,0.0164868933069899,-0.0088972333629415*37be6ffa
#CORRIMUDATAA,FILE,0,31.0,FINESTEERING,2319,306862.700,02000000,e5fc,17139;2319,306862.700000000,-0.0004147990517679,0.0019873555327210,0.0053491693242638,-0.0017896799737953,0.0154252654365815,-0.0089265171555979*b0379bf0
#CORRIMUDATAA,FILE,0,31.0,FINESTEERING,2319,306862.750,02000000,e5fc,17139;2319,306862.750000000,-0.0004522162769824,0.0024067496174119,0.0050400846697893,-0.0157709353787654,0.0134999176605321,-0.0019207360462123*181a72fd
#CORRIMUDATAA,FILE,0,31.0,FINESTEERING,2319,306862.800,02000000,e5fc,17139;2319,306862.800000000,-0.0007676905077261,0.0029019141401871,0.0048919905206895,-0.0142544384272760,0.0102269509453726,0.0041182474337638*877bc0fe
#CORRIMUDATAA,FILE,0,31.0,FINESTEERING,2319,306862.850,02000000,e5fc,17139;2319,306862.850000000,-0.0008215280862344,0.0022032023770585,0.0048507407454893,-0.0076533204481909,0.0086284395994041,0.0098977470837414*3a93469e
#CORRIMUDATAA,FILE,0,31.0,FINESTEERING,2319,306862.900,02000000,e5fc,17139;2319,306862.900000000,-0.0010660058520609,0.0018775807652279,0.0048097967925080,-0.0114015275034394,0.0073577753212577,0.0098889332906593*a0db67d4
#CORRIMUDATAA,FILE,0,31.0,FINESTEERING,2319,306862.950,02000000,e5fc,17139;2319,306862.950000000,-0.0006307010060020,0.0010021614034211,0.0044249553006273,-0.0176858537453650,0.0146699094293724,-0.0066355189831659*6c5793f0
#CORRIMUDATAA,FILE,0,31.0,FINESTEERING,2319,306863.000,02000000,e5fc,17139;2319,306863.000000000,-0.0006731170660884,0.0002001019273686,0.0039706523667477,-0.0217773688715999,0.0068780459394718,0.0006224096461619*326bf9dd
#CORRIMUDATAA,FILE,0,31.0,FINESTEERING,2319,306863.050,02000000,e5fc,17139;2319,306863.050000000,0.0000831801060803,-0.0003348162845320,0.0036512464610538,-0.0219143854350394,0.0104608457310180,-0.0200266584153154*0fa631b7
#CORRIMUDATAA,FILE,0,29.0,FINESTEERING,2319,306863.100,02000000,e5fc,17139;2319,306863.100000000,0.0007595372053045,-0.0007351442203070,0.0033345034624089,-0.0115884515971785,0.0010696729176979,-0.0079758735725248*84eacb0f
#CORRIMUDATAA,FILE,0,29.0,FINESTEERING,2319,306863.150,02000000,e5fc,17139;2319,306863.150000000,0.0012341416088282,-0.0020719416532495,0.0033341537683369,-0.0015963490762916,0.0014460296549960,-0.0179167180567215*09c21e98
#CORRIMUDATAA,FILE,0,29.0,FINESTEERING,2319,306863.200,02000000,e5fc,17139;2319,306863.200000000,0.0020689229726526,-0.0021992498504760,0.0034619890653413,-0.0088038961210941,-0.0024947567010796,-0.0001423215296730*266fff5a
#CORRIMUDATAA,FILE,0,29.0,FINESTEERING,2319,306863.250,02000000,e5fc,17139;2319,306863.250000000,0.0022524343219489,-0.0012845316960913,0.0034857123553101,-0.0045395232481623,0.0018420101409011,0.0103664834883651*6803386d
#CORRIMUDATAA,FILE,0,29.0,FINESTEERING,2319,306863.300,02000000,e5fc,17139;2319,306863.300000000,0.0022130534159579,-0.0010671366736911,0.0031560219169582,-0.0051364518528743,0.0055169988332037,0.0172745251348841*77147931
#CORRIMUDATAA,FILE,0,29.0,FINESTEERING,2319,306863.350,02000000,e5fc,17139;2319,306863.350000000,0.0010822699499938,-0.0006501348534975,0.0026696133897705,-0.0089011591349516,0.0071978872407296,0.0113745947053185*dfe59693
#CORRIMUDATAA,FILE,0,29.0,FINESTEERING,2319,306863.400,02000000,e5fc,17139;2319,306863.400000000,0.0000219258900483,0.0003186455348121,0.0021389358593577,-0.0102447234226253,0.0077790109683045,0.0186100327229864*ddea15ce
#CORRIMUDATAA,FILE,0,29.0,FINESTEERING,2319,306863.450,02000000,e5fc,17139;2319,306863.450000000,-0.0012288573415176,0.0012842399638873,0.0018386465824443,-0.0004674544238581,0.0079202028348395,0.0107713014932604*323dd575
#CORRIMUDATAA,FILE,0,29.0,FINESTEERING,2319,306863.500,02000000,e5fc,17139;2319,306863.500000000,-0.0022670959613839,0.0014852815044260,0.0018335849291330,0.0065222544851145,0.0061408363842158,0.0034838904236470*7a6d70f8
#CORRIMUDATAA,FILE,0,29.0,FINESTEERING,2319,306863.550,02000000,e5fc,17139;2319,306863.550000000,-0.0027339697492118,0.0013053264380219,0.0019950953698359,0.0045907250063707,0.0089706475532644,-0.0032192557240597*bd8c4700
#CORRIMUDATAA,FILE,0,29.0,FINESTEERING,2319,306863.600,02000000,e5fc,17139;2319,306863.600000000,-0.0025631540705387,0.0010389856816886,0.0021932196510599,0.0003279384430352,0.0187286081972580,-0.0130982225595080*5a39734a
#CORRIMUDATAA,FILE,0,29.0,FINESTEERING,2319,306863.650,02000000,e5fc,17139;2319,306863.650000000,-0.0023698414725915,0.0008868926243939,0.0022453938370372,-0.0036180149300189,0.0197226119558633,-0.0202336336644858*d13c0049
#CORRIMUDATAA,FILE,0,29.0,FINESTEERING,2319,306863.700,02000000,e5fc,17139;2319,306863.700000000,-0.0019143948101057,0.0003367428912271,0.0021546164817762,-0.0085297355941072,0.0228313526030851,-0.0199391690974799*d3c81c50
#CORRIMUDATAA,FILE,0,29.0,FINESTEERING,2319,306863.750,02000000,e5fc,17139;2319,306863.750000000,-0.0014792892416706,0.0005887916838200,0.0019297875008052,-0.0125980491617639,0.0207363056656062,-0.0030011491185748*fc9b52c9
#CORRIMUDATAA,FILE,0,29.0,FINESTEERING,2319,306863.800,02000000,e5fc,17139;2319,306863.800000000,-0.0013537385611386,0.0012152873507509,0.0016438798110060,-0.0084826899991062,0.0269055727830292,-0.0188034713868678*b658d7d9
#CORRIMUDATAA,FILE,0,29.0,FINESTEERING,2319,306863.850,02000000,e5fc,17139;2319,306863.850000000,-0.0011133169687338,0.0020509250653548,0.0012947745875502,0.0007814336589453,0.0157014001786068,-0.0067903546478635*64cfa505
#CORRIMUDATAA,FILE,0,29.0,FINESTEERING,2319,306863.900,02000000,e5fc,17139;2319,306863.900000000,-0.0010937008961398,0.0017232696969399,0.0011402328473286,0.0075306778199930,0.0079745345430557,0.0193111588079528*13f5e051
#CORRIMUDATAA,FILE,0,29.0,FINESTEERING,2319,306863.950,02000000,e5fc,17139;2319,306863.950000000,-0.0013558711891370,0.0015187003402141,0.0012149013254476,0.0114160649135766,0.0016161336316173,0.0211454773076795*60fc531f
#CORRIMUDATAA,FILE,0,29.0,FINESTEERING,2319,306864.000,02000000,e5fc,17139;2319,306864.000000000,-0.0019010808977652,0.0016409890036849,0.0014051271503201,-0.0068779443679285,-0.0025893337505309,0.0214622693490887*7f7cceb5
#CORRIMUDATAA,FILE,0,29.0,FINESTEERING,2319,306864.050,02000000,e5fc,17139;2319,306864.050000000,-0.0024207585194063,0.0020182828505299,0.0013997459451431,-0.0071115155450501,-0.0023495313377601,0.0217370506124420*8577bf29
#CORRIMUDATAA,FILE,0,29.0,FINESTEERING,2319,306864.100,02000000,e5fc,17139;2319,306864.100000000,-0.0025540552240463,0.0012205600620803,0.0012305612537974,-0.0081273898216681,-0.0045665188496357,0.0107844088636660*974d0027
#CORRIMUDATAA,FILE,0,30.5,FINESTEERING,2319,306864.150,02000000,e5fc,17139;2319,306864.150000000,-0.0029566320891304,0.0006441865672236,0.0009919428577167,-0.0107892297076728,-0.0122314514972684,0.0265556355129039*13522043
#CORRIMUDATAA,FILE,0,30.5,FINESTEERING,2319,306864.200,02000000,e5fc,17139;2319,306864.200000000,-0.0028669696034614,-0.0009940625518999,0.0004917573963286,-0.0209012843861151,-0.0009704756858132,0.0212877630035926*ca1e11a3
#CORRIMUDATAA,FILE,0,30.5,FINESTEERING,2319,306864.250,02000000,e5fc,17139;2319,306864.250000000,-0.0034235077172124,-0.0018877322399207,0.0000573047124552,-0.0264486384150520,0.0028198331109034,-0.0023227577750896*100850b8
#CORRIMUDATAA,FILE,0,30.5,FINESTEERING,2319,306864.300,02000000,e5fc,17139;2319,306864.300000000,-0.0031087427908117,-0.0016385410974648,-0.0000531414000265,-0.0087917432010344,0.0110718616615199,0.0043960402330725*c55ec138
#CORRIMUDATAA,FILE,0,30.5,FINESTEERING,2319,306864.350,02000000,e5fc,17139;2319,306864.350000000,-0.0027803361398146,-0.0017744027476060,0.0002634791912162,0.0158290742611094,0.0149613827079357,-0.0244261402395868*93575ac8
#CORRIMUDATAA,FILE,0,30.5,FINESTEERING,2319,306864.400,02000000,e5fc,17139;2319,306864.400000000,-0.0020202087868243,-0.0020036054205944,0.0006282458169967,0.0201717518661764,0.0245535953169998,-0.0492441417450536*d725e03b
#CORRIMUDATAA,FILE,0,30.5,FINESTEERING,2319,306864.450,02000000,e5fc,17139;2319,306864.450000000,-0.0008409972669440,-0.0016057874024119,0.0006793011327440,0.0078200004569940,0.0276409733978183,-0.0622639145446869*a5db737b
#CORRIMUDATAA,FILE,0,30.5,FINESTEERING,2319,306864.500,02000000,e5fc,17139;2319,306864.500000000,0.0003523067979952,-0.0002429925124371,0.0005230649818171,0.0008282871106051,0.0275970609640403,-0.0519910968398107*990a7f59
#CORRIMUDATAA,FILE,0,30.5,FINESTEERING,2319,306864.550,02000000,e5fc,17139;2319,306864.550000000,0.0007765984771405,0.0011545711757182,0.0002065182256962,-0.0005099908102955,0.0206315763492229,-0.0331231355652674*b1ac600f
#CORRIMUDATAA,FILE,0,30.5,FINESTEERING,2319,306864.600,02000000,e5fc,17139;2319,306864.600000000,0.0011556947752130,0.0017772506891663,0.0000108128115827,0.0069370579201903,0.0193444779198397,-0.0073120429656183*3142df6b
#CORRIMUDATAA,FILE,0,30.5,FINESTEERING,2319,306864.650,02000000,e5fc,17139;2319,306864.650000000,0.0007866680829427,0.0018156712701724,0.0000379839298371,0.0101662156963552,0.0230782769666622,0.0000180250532532*7c3e5d79
#CORRIMUDATAA,FILE,0,30.5,FINESTEERING,2319,306864.700,02000000,e5fc,17139;2319,306864.700000000,0.0006116052800545,0.0017181573808675,0.0001617025231598,0.0018830067052168,0.0283421830755873,0.0079738158738996*561b8687
#CORRIMUDATAA,FILE,0,30.5,FINESTEERING,2319,306864.750,02000000,e5fc,17139;2319,306864.750000000,0.0003196784365984,0.0014878310509216,0.0002517584402291,-0.0028774551013109,0.0299374771333685,0.0093914434460690*30a1d9b0
#CORRIMUDATAA,FILE,0,30.5,FINESTEERING,2319,306864.800,02000000,e5fc,17139;2319,306864.800000000,0.0005925321977861,0.0012330593924694,0.0003915966718650,0.0002290129804600,0.0349412148407411,0.0034417138936624*62f176b7
#CORRIMUDATAA,FILE,0,30.5,FINESTEERING,2319,306864.850,02000000,e5fc,17139;2319,306864.850000000,0.0003740737097372,0.0011754876155172,0.0004728994564609,0.0023352804563950,0.0280402109935485,0.0163008896781254*540fb009
#CORRIMUDATAA,FILE,0,30.5,FINESTEERING,2319,306864.900,02000000,e5fc,17139;2319,306864.900000000,0.0004346757065717,0.0000404139609511,0.0003361143880322,-0.0014733665711832,0.0352168908667596,0.0145725992434411*76fc2a85
#CORRIMUDATAA,FILE,0,30.5,FINESTEERING,2319,306864.950,02000000,e5fc,17139;2319,306864.950000000,0.0002458617599238,-0.0002124414332623,-0.0000393533533319,-0.0109496161237703,0.0349879479675393,-0.0000055233931231*ca100045
#CORRIMUDATAA,FILE,0,30.5,FINESTEERING,2319,306865.000,02000000,e5fc,17139;2319,306865.000000000,0.0001694297680106,-0.0006147350906647,-0.0005575293553933,-0.0147917465887211,0.0358872942297776,0.0029912269316298*6f213af6
#CORRIMUDATAA,FILE,0,30.5,FINESTEERING,2319,306865.050,02000000,e5fc,17139;2319,306865.050000000,-0.0001302804527109,-0.0007807094059392,-0.0010882650256290,-0.0081034242129432,0.0327935196521402,0.0054569237705249*575a39e3
#CORRIMUDATAA,FILE,0,29.5,FINESTEERING,2319,306865.100,02000000,e5fc,17139;2319,306865.100000000,-0.0002217917357289,-0.0011564728940585,-0.0014399245500729,-0.0009209420285451,0.0350707498407512,0.0075476244275870*0c64a4b6
#CORRIMUDATAA,FILE,0,29.5,FINESTEERING,2319,306865.150,02000000,e5fc,17139;2319,306865.150000000,-0.0004221253198640,-0.0011355332883600,-0.0015581086661362,0.0105203579102998,0.0347807354673902,-0.0088868548481982*ff3fd74c
#CORRIMUDATAA,FILE,0,29.5,FINESTEERING,2319,306865.200,02000000,e5fc,17139;2319,306865.200000000,-0.0000690950517668,-0.0012529440625174,-0.0016152526512546,0.0130627107006699,0.0374436666180613,-0.0098697105246156*2abfd2f8
#CORRIMUDATAA,FILE,0,29.5,FINESTEERING,2319,306865.250,02000000,e5fc,17139;2319,306865.250000000,0.0000969739331432,-0.0012360467901608,-0.0018055601468427,0.0075264841813614,0.0361770340260305,-0.0055066917830151*4396857a
#CORRIMUDATAA,FILE,0,29.5,FINESTEERING,2319,306865.300,02000000,e5fc,17139;2319,306865.300000000,0.0002688942108637,-0.0009147048335850,-0.0021366742584512,0.0022642362380020,0.0358502253530866,-0.0012173056250315*ba888cdc
#CORRIMUDATAA,FILE,0,29.5,FINESTEERING,2319,306865.350,02000000,e5fc,17139;2319,306865.350000000,0.0001348274352941,-0.0005202735310675,-0.0025717515170612,0.0062910666238272,0.0321248817429440,0.0081033570774681*9eb95545
#CORRIMUDATAA,FILE,0,29.5,FINESTEERING,2319,306865.400,02000000,e5fc,17139;2319,306865.400000000,-0.0001078173637236,-0.0002065138527695,-0.0028487301207942,0.0117805920812579,0.0301899301695879,0.0071230099600131*5bd03662
#CORRIMUDATAA,FILE,0,29.5,FINESTEERING,2319,306865.450,02000000,e5fc,17139;2319,306865.450000000,-0.0002530853003808,0.0001033757802937,-0.0030358179519440,0.0148768539965462,0.0290701085542731,-0.0006156153300116*1c2ae1c8
#CORRIMUDATAA,FILE,0,29.5,FINESTEERING,2319,306865.500,02000000,e5fc,17139;2319,306865.500000000,-0.0002657556910870,0.0007052346591062,-0.0030579097396110,0.0172930900770056,0.0236368906895371,0.0023671409544287*be7f0277
#CORRIMUDATAA,FILE,0,29.5,FINESTEERING,2319,306865.550,02000000,e5fc,17139;2319,306865.550000000,-0.0002280518865918,0.0008896394283688,-0.0030103204277056,0.0180690468256814,0.0223013875405172,-0.0020136655038545*c68fe054
#CORRIMUDATAA,FILE,0,29.5,FINESTEERING,2319,306865.600,02000000,e5fc,17139;2319,306865.600000000,-0.0003140894282172,0.0008591854747580,-0.0028715596922360,0.0132342083467438,0.0163482170438600,-0.0018481271374461*2e3ef8ca
#CORRIMUDATAA,FILE,0,29.5,FINESTEERING,2319,306865.650,02000000,e5fc,17139;2319,306865.650000000,-0.0005699862592067,0.0008432329389475,-0.0028315909352370,0.0071423301350080,0.0133101757281688,0.0037503206943413*284405cb
#CORRIMUDATAA,FILE,0,29.5,FINESTEERING,2319,306865.700,02000000,e5fc,17139;2319,306865.700000000,-0.0007664792684887,0.0004639189326537,-0.0028151878064069,0.0024740162920003,0.0084728468902177,0.0077979507224480*e993f6d2
#CORRIMUDATAA,FILE,0,29.5,FINESTEERING,2319,306865.750,02000000,e5fc,17139;2319,306865.750000000,-0.0009198260657596,0.0002890066800805,-0.0029056403609649,0.0011131366090552,0.0085194069515867,0.0022154439378899*d4fa70c9
#CORRIMUDATAA,FILE,0,29.5,FINESTEERING,2319,306865.800,02000000,e5fc,17139;2319,306865.800000000,-0.0008494470840692,0.0000219567800890,-0.0029743699416397,0.0045675041599565,0.0055570672494452,-0.0002082289785990*35b6c35e
#CORRIMUDATAA,FILE,0,29.5,FINESTEERING,2319,306865.850,02000000,e5fc,17139;2319,306865.850000000,-0.0006317051154097,-0.0004988057129624,-0.0030671878040319,0.0083139442122027,0.0045830962464036,-0.0055950573330914*6311a38f
#CORRIMUDATAA,FILE,0,29.5,FINESTEERING,2319,306865.900,02000000,e5fc,17139;2319,306865.900000000,-0.0002335982958684,-0.0010010251087975,-0.0030331778467170,0.0092667007098796,0.0023253321683354,-0.0119846053822451*76da3035
#CORRIMUDATAA,FILE,0,29.5,FINESTEERING,2319,306865.950,02000000,e5fc,17139;2319,306865.950000000,0.0001926279563837,-0.0008953463141245,-0.0029762437017560,0.0086044231466119,0.0019119014414752,-0.0060438769244793*91481388
#CORRIMUDATAA,FILE,0,29.5,FINESTEERING,2319,306866.000,02000000,e5fc,17139;2319,306866.000000000,0.0003699671819021,-0.0004662392706689,-0.0029065769260330,0.0111950427066604,-0.0006134257787259,0.0044926842561459*6ed29aff
#CORRIMUDATAA,FILE,0,29.5,FINESTEERING,2319,306866.050,02000000,e5fc,17139;2319,306866.050000000,0.0004619124527625,-0.0001343617717349,-0.0028470786141608,0.0160231414192865,0.0011863127554230,-0.0016867586990335*f3c5ab75
#CORRIMUDATAA,FILE,0,29.5,FINESTEERING,2319,306866.100,02000000,e5fc,17139;2319,306866.100000000,0.0001858444699537,0.0001721296602635,-0.0028619111203201,0.0157831832050212,-0.0026817358369190,0.0067527533708406*89afc384
#CORRIMUDATAA,FILE,0,31.0,FINESTEERING,2319,306866.150,02000000,e5fc,17139;2319,306866.150000000,-0.0005537973362984,0.0004349568512054,-0.0028807551076598,0.0121788137370928,-0.0094957145265388,0.0142810260146598*fbadef33
#CORRIMUDATAA,FILE,0,31.0,FINESTEERING,2319,306866.200,02000000,e5fc,17139;2319,306866.200000000,-0.0009200855520734,0.0006932129456838,-0.0029467828768582,0.0097097306451758,-0.0060409121284386,-0.0028318673481015*1c133357
#CORRIMUDATAA,FILE,0,31.0,FINESTEERING,2319,306866.250,02000000,e5fc,17139;2319,306866.250000000,-0.0008733500943415,0.0009003248580754,-0.0028808262754743,0.0111800992999348,-0.0022789858017438,-0.0045007163862425*256a159a
#CORRIMUDATAA,FILE,0,31.0,FINESTEERING,2319,306866.300,02000000,e5fc,17139;2319,306866.300000000,-0.0007458690359551,0.0005506764405673,-0.0027957579055878,0.0090137069480638,-0.0007205323920809,-0.0064085920698580*fc64e86c
#CORRIMUDATAA,FILE,0,31.0,FINESTEERING,2319,306866.350,02000000,e5fc,17139;2319,306866.350000000,-0.0004542399404272,0.0004310333289156,-0.0027840403338782,0.0047274234078955,-0.0061404371275738,-0.0047750085501420*ecf19445
#CORRIMUDATAA,FILE,0,31.0,FINESTEERING,2319,306866.400,02000000,e5fc,17139;2319,306866.400000000,-0.0001174569410020,0.0000192193350247,-0.0028307946849550,0.0036293085843083,-0.0022726575261817,-0.0085544246114522*bb096cc8
#CORRIMUDATAA,FILE,0,31.0,FINESTEERING,2319,306866.450,02000000,e5fc,17139;2319,306866.450000000,0.0002686209842203,-0.0002498521064560,-0.0029076274785826,0.0038295219667421,-0.0023177662664617,-0.0050644268560769*bb2f7e1d
#CORRIMUDATAA,FILE,0,31.0,FINESTEERING,2319,306866.500,02000000,e5fc,17139;2319,306866.500000000,0.0004822440529437,-0.0006474895348423,-0.0029540412374089,0.0058004365768021,0.0007586664638950,-0.0006256549990251*b7f3117b
#CORRIMUDATAA,FILE,0,31.0,FINESTEERING,2319,306866.550,02000000,e5fc,17139;2319,306866.550000000,0.0004258779994236,-0.0006298084852391,-0.0028877269287576,0.0077294911402943,-0.0022744919016512,0.0058708172153989*d2890074
#CORRIMUDATAA,FILE,0,31.0,FINESTEERING,2319,306866.600,02000000,e5fc,17139;2319,306866.600000000,0.0002701257502778,-0.0004308491662103,-0.0028059991337634,0.0107905542644836,-0.0041452202654782,0.0042556841740401*8bb41ed6
#CORRIMUDATAA,FILE,0,31.0,FINESTEERING,2319,306866.650,02000000,e5fc,17139;2319,306866.650000000,-0.0001041072764214,-0.0002258324031715,-0.0026937171276904,0.0142337621618849,-0.0080034587421112,0.0130900304018781*5ae8e549
#CORRIMUDATAA,FILE,0,31.0,FINESTEERING,2319,306866.700,02000000,e5fc,17139;2319,306866.700000000,-0.0003523173999142,-0.0004705653387657,-0.0026314936207734,0.0117723698387840,-0.0030163125738610,0.0101150864851728*73427a77
#CORRIMUDATAA,FILE,0,31.0,FINESTEERING,2319,306866.750,02000000,e5fc,17139;2319,306866.750000000,-0.0006214929670674,-0.0002625833813373,-0.0025526933155711,0.0110963188090412,-0.0044613069348563,0.0046711178255226*f55826ba
#CORRIMUDATAA,FILE,0,31.0,FINESTEERING,2319,306866.800,02000000,e5fc,17139;2319,306866.800000000,-0.0006656163000461,0.0000466260416835,-0.0023944219957510,0.0110707091884875,-0.0040873808456025,0.0020266661459647*313ca9a3
#CORRIMUDATAA,FILE,0,31.0,FINESTEERING,2319,306866.850,02000000,e5fc,17139;2319,306866.850000000,-0.0004886743009686,0.0002995140305205,-0.0022539656354942,0.0109888075743934,-0.0025553540278927,-0.0068681580584688*34b37512
#CORRIMUDATAA,FILE,0,31.0,FINESTEERING,2319,306866.900,02000000,e5fc,17139;2319,306866.900000000,-0.0001465302255678,0.0004624321488771,-0.0021360787552612,0.0106435683185125,0.0015646995201709,-0.0221419609411335*2165f220
#CORRIMUDATAA,FILE,0,31.0,FINESTEERING,2319,306866.950,02000000,e5fc,17139;2319,306866.950000000,0.0003746198029298,0.0004614482793595,-0.0021419174502454,0.0057794025563437,0.0023394689461314,-0.0277279099138166*3bc4c367
#CORRIMUDATAA,FILE,0,31.0,FINESTEERING,2319,306867.000,02000000,e5fc,17139;2319,306867.000000000,0.0007367571592222,0.0006039021365725,-0.0021503279537785,0.0041501970438246,-0.0009174240073675,-0.0081996005850932*07306c1c
#CORRIMUDATAA,FILE,0,31.0,FINESTEERING,2319,306867.050,02000000,e5fc,17139;2319,306867.050000000,0.0007528569680031,0.0004420116784287,-0.0022352731524927,0.0010148351887668,-0.0016337199125752,-0.0015834034903421*e46b8d01
#CORRIMUDATAA,FILE,0,30.5,FINESTEERING,2319,306867.100,02000000,e5fc,17139;2319,306867.100000000,0.0006499644972861,0.0004024910708397,-0.0022028532774334,0.0042863736473666,-0.0029612478824501,0.0069857874242916*2a06d948
#CORRIMUDATAA,FILE,0,30.5,FINESTEERING,2319,306867.150,02000000,e5fc,17139;2319,306867.150000000,0.0003293431958885,0.0002042392973099,-0.0020761161903961,0.0080600208456791,-0.0028271682675836,0.0168060039108983*e0c8a391
#CORRIMUDATAA,FILE,0,30.5,FINESTEERING,2319,306867.200,02000000,e5fc,17139;2319,306867.200000000,0.0000550801508719,-0.0002081813045550,-0.0019256589318798,0.0105621007340097,-0.0038755727634542,0.0177017577248988*0fe9afbf
#CORRIMUDATAA,FILE,0,30.5,FINESTEERING,2319,306867.250,02000000,e5fc,17139;2319,306867.250000000,-0.0004113621941070,-0.0005989190836763,-0.0018332423440564,0.0048966236969133,-0.0029404651799970,0.0189951572763929*d761cf51
#CORRIMUDATAA,FILE,0,30.5,FINESTEERING,2319,306867.300,02000000,e5fc,17139;2319,306867.300000000,-0.0005740303877075,-0.0004828785624455,-0.0018723566494604,0.0044111344964315,-0.0017775682888567,0.0057895317447457*f006d1b8
#CORRIMUDATAA,FILE,0,30.5,FINESTEERING,2319,306867.350,02000000,e5fc,17139;2319,306867.350000000,-0.0006016173412022,-0.0004205461324827,-0.0018556904933572,0.0078033363345663,0.0003919800597681,-0.0052777436412143*2dd0d883
#CORRIMUDATAA,FILE,0,30.5,FINESTEERING,2319,306867.400,02000000,e5fc,17139;2319,306867.400000000,-0.0003127084669933,-0.0000758601600907,-0.0018822543834436,0.0064191029002489,-0.0009704639813149,-0.0104809877488832*801e1b0a
#CORRIMUDATAA,FILE,0,30.5,FINESTEERING,2319,306867.450,02000000,e5fc,17139;2319,306867.450000000,-0.0000147717160818,0.0001126943786464,-0.0019018660875882,0.0084469810723393,0.0005164066822017,-0.0118452221550150*9d606b99
#CORRIMUDATAA,FILE,0,30.5,FINESTEERING,2319,306867.500,02000000,e5fc,17139;2319,306867.500000000,0.0002383509174797,0.0000539611421058,-0.0019613525348725,0.0051335996679918,-0.0014611127983921,-0.0110023732262717*8ee609b7
#CORRIMUDATAA,FILE,0,30.5,FINESTEERING,2319,306867.550,02000000,e5fc,17139;2319,306867.550000000,0.0003919212371085,-0.0000090598670914,-0.0019680785020144,0.0031993753261108,-0.0008410132079558,-0.0051628484855211*1c4a0e5a
#CORRIMUDATAA,FILE,0,30.5,FINESTEERING,2319,306867.600,02000000,e5fc,17139;2319,306867.600000000,0.0004019546703782,0.0001041973962484,-0.0019362183804857,0.0051027841314381,-0.0025742242652785,0.0011476476625401*c9f3a0a6
#CORRIMUDATAA,FILE,0,30.5,FINESTEERING,2319,306867.650,02000000,e5fc,17139;2319,306867.650000000,0.0002679788528321,0.0002737972401487,-0.0018065475701862,0.0074724508030273,-0.0024801345416129,0.0067513071294257*b5baec99
#CORRIMUDATAA,FILE,0,30.5,FINESTEERING,2319,306867.700,02000000,e5fc,17139;2319,306867.700000000,0.0000922379806293,0.0001733041312140,-0.0016766784506553,0.0111657544060967,-0.0037612788669574,0.0073526391539405*6e43ee8b
#CORRIMUDATAA,FILE,0,30.5,FINESTEERING,2319,306867.750,02000000,e5fc,17139;2319,306867.750000000,-0.0003126904552487,0.0000361614172956,-0.0015947342652829,0.0056250336780925,-0.0064643391591143,0.0115291772240905*66979633
#CORRIMUDATAA,FILE,0,30.5,FINESTEERING,2319,306867.800,02000000,e5fc,17139;2319,306867.800000000,-0.0003639459571574,-0.0000076993553082,-0.0015942025412029,0.0048200895193152,-0.0048843890704922,0.0029720918011666*86eeb2cc
#CORRIMUDATAA,FILE,0,30.5,FINESTEERING,2319,306867.850,02000000,e5fc,17139;2319,306867.850000000,-0.0003188537390801,0.0002261865728277,-0.0015551189577574,0.0058973437681165,-0.0053425542238365,-0.0042008302120003*a8d6b148
#CORRIMUDATAA,FILE,0,30.5,FINESTEERING,2319,306867.900,02000000,e5fc,17139;2319,306867.900000000,-0.0004471407174081,0.0003260392614691,-0.0014545456540552,0.0079904815275771,-0.0112843338404608,0.0007569677173181*e89c813a
#CORRIMUDATAA,FILE,0,30.5,FINESTEERING,2319,306867.950,02000000,e5fc,17139;2319,306867.950000000,-0.0003666568080488,0.0002195680276798,-0.0013325791442681,0.0057478867417988,-0.0142683345968249,-0.0033779115827566*4c2cd3e5
#CORRIMUDATAA,FILE,0,30.5,FINESTEERING,2319,306868.000,02000000,e5fc,17139;2319,306868.000000000,-0.0002902379429935,0.0001898638484440,-0.0012259332364888,0.0037122228478165,-0.0158832905066351,-0.0048039565293229*f6c2eeb1
#CORRIMUDATAA,FILE,0,30.5,FINESTEERING,2319,306868.050,02000000,e5fc,17139;2319,306868.050000000,-0.0000927199165087,0.0001399585873308,-0.0011647202179892,-0.0006724714069481,-0.0124138318086644,-0.0055038004025796*2110e841
#CORRIMUDATAA,FILE,0,30.5,FINESTEERING,2319,306868.100,02000000,e5fc,17139;2319,306868.100000000,0.0000592129909763,0.0001765758742697,-0.0012178373572657,-0.0021842220524336,-0.0137316732400624,-0.0046740611917792*8faf6fc4
#CORRIMUDATAA,FILE,0,31.0,FINESTEERING,2319,306868.150,02000000,e5fc,17139;2319,306868.150000000,0.0002126419096305,0.0001901224494319,-0.0012957049080379,0.0012594604886719,-0.0126386461576468,-0.0002351642978172*6a42ae64
#CORRIMUDATAA,FILE,0,31.0,FINESTEERING,2319,306868.200,02000000,e5fc,17139;2319,306868.200000000,0.0001515199053236,-0.0000417438922482,-0.0013035410717848,0.0045085870006404,-0.0153886077957653,0.0052586072743734*3481e5c9
#CORRIMUDATAA,FILE,0,31.0,FINESTEERING,2319,306868.250,02000000,e5fc,17139;2319,306868.250000000,0.0002012720498479,0.0000672139095256,-0.0011774465310631,0.0073871461527663,-0.0154502119107617,0.0054138660931618*a8993d40
#CORRIMUDATAA,FILE,0,31.0,FINESTEERING,2319,306868.300,02000000,e5fc,17139;2319,306868.300000000,0.0000017902325743,0.0002485382444781,-0.0010188721756756,0.0061796642641512,-0.0172625872828259,0.0080867910178253*3587f999
#CORRIMUDATAA,FILE,0,31.0,FINESTEERING,2319,306868.350,02000000,e5fc,17139;2319,306868.350000000,-0.0000718855895442,0.0005589092051974,-0.0009295128285222,0.0039952389647933,-0.0171827216736058,0.0036468037041167*774f727b
#CORRIMUDATAA,FILE,0,31.0,FINESTEERING,2319,306868.400,02000000,e5fc,17139;2319,306868.400000000,-0.0000144524254385,0.0006343381421007,-0.0009100636665494,0.0069728369733303,-0.0151309748103122,-0.0000929067546458*b499957b
#CORRIMUDATAA,FILE,0,31.0,FINESTEERING,2319,306868.450,02000000,e5fc,17139;2319,306868.450000000,-0.0001422988727491,0.0000893229705316,-0.0008058428554554,0.0070830147050811,-0.0149489957339425,-0.0070908286336615*d467a641
#CORRIMUDATAA,FILE,0,31.0,FINESTEERING,2319,306868.500,02000000,e5fc,17139;2319,306868.500000000,-0.0000854611158611,-0.0002382692862693,-0.0007269610187782,-0.0011311555032864,-0.0145910598201225,-0.0068402080291915*98db5f15
#CORRIMUDATAA,FILE,0,31.0,FINESTEERING,2319,306868.550,02000000,e5fc,17139;2319,306868.550000000,-0.0000586251455448,-0.0002875181792172,-0.0006221109159838,-0.0028904142645706,-0.0131787951839048,-0.0090125616328835*d0f427ad
#CORRIMUDATAA,FILE,0,31.0,FINESTEERING,2319,306868.600,02000000,e5fc,17139;2319,306868.600000000,0.0000138373047674,0.0000147344534344,-0.0005769891291987,-0.0020992613538690,-0.0158022231797722,-0.0032109332618025*7abe8fe2
#CORRIMUDATAA,FILE,0,31.0,FINESTEERING,2319,306868.650,02000000,e5fc,17139;2319,306868.650000000,0.0002705975704302,0.0000759382964075,-0.0005521106533921,0.0032538556840666,-0.0131405187437875,-0.0044815469928299*f382935c
#CORRIMUDATAA,FILE,0,31.0,FINESTEERING,2319,306868.700,02000000,e5fc,17139;2319,306868.700000000,0.0000994723609280,-0.0005549722279797,-0.0006221487768856,0.0008221485458830,-0.0149473624907481,0.0010772702372068*b0dd363f
#CORRIMUDATAA,FILE,0,31.0,FINESTEERING,2319,306868.750,02000000,e5fc,17139;2319,306868.750000000,-0.0000462124776993,-0.0006355602734287,-0.0007360056409945,-0.0060511075673034,-0.0133242244828024,0.0041979569064385*c6130cca
#CORRIMUDATAA,FILE,0,31.0,FINESTEERING,2319,306868.800,02000000,e5fc,17139;2319,306868.800000000,-0.0000667335466998,-0.0002427159736619,-0.0008207473786539,-0.0029327198094354,-0.0153147374938421,0.0055411963260822*0b7b409c
#CORRIMUDATAA,FILE,0,31.0,FINESTEERING,2319,306868.850,02000000,e5fc,17139;2319,306868.850000000,-0.0000613342203304,0.0000523369056814,-0.0007713530251553,0.0065791212871973,-0.0146073139069447,0.0053995268755243*fa968959
#CORRIMUDATAA,FILE,0,31.0,FINESTEERING,2319,306868.900,02000000,e5fc,17139;2319,306868.900000000,0.0000330340943536,0.0000033689381082,-0.0006743735346544,0.0098511042705975,-0.0156840511466531,0.0008515189554970*16a32ec3
#CORRIMUDATAA,FILE,0,31.0,FINESTEERING,2319,306868.950,02000000,e5fc,17139;2319,306868.950000000,0.0002080010941769,0.0000407045823505,-0.0005517730275448,0.0084769345345067,-0.0153366528706247,0.0011437522827831*13879a4a
