#INSPVAXA,FILE,0,34.0,FINESTEERING,2319,306853.900,02000800,46eb,17139;INS_SOLUTION_GOOD,INS_RTKFIXED,17.59229806091,78.12171811839,530.4029,-76.2000,0.5584,0.5578,-0.0022,0.299457250,0.364002925,46.012833286,0.6610,0.6646,1.2569,0.0224,0.0226,0.0214,0.0210,0.0209,0.5580,ab000342,0*da57eb7e
#INSPVAXA,FILE,0,34.0,FINESTEERING,2319,306853.950,02000800,46eb,17139;INS_SOLUTION_GOOD,INS_RTKFIXED,17.59229831971,78.12171834929,530.4022,-76.2000,0.5786,0.5594,-0.0027,0.280786743,0.356172790,45.307607661,0.6610,0.6646,1.2569,0.0224,0.0226,0.0214,0.0210,0.0209,0.5580,ab000342,0*dd70e751
#INSPVAXA,FILE,0,34.0,FINESTEERING,2319,306854.000,02000800,46eb,17139;INS_SOLUTION_GOOD,INS_RTKFIXED,17.59229858741,78.12171858177,530.4014,-76.2000,0.5984,0.5622,-0.0060,0.267565339,0.355257581,44.597456794,0.6610,0.6646,1.2569,0.0224,0.0226,0.0214,0.0210,0.0209,0.5580,ab000342,0*286f36d2
#INSPVAXA,FILE,0,34.0,FINESTEERING,2319,306854.200,02000800,46eb,17139;INS_SOLUTION_GOOD,INS_RTKFIXED,17.59229969078,78.12171945291,530.4028,-76.2000,0.6661,0.5769,-0.0038,0.241753033,0.336160911,41.606478739,0.6617,0.6655,1.2552,0.0227,0.0229,0.0206,0.0215,0.0214,0.5581,ab000342,0*285c7f47
#INSPVAXA,FILE,0,35.5,FINESTEERING,2319,306854.300,02000800,46eb,17139;INS_SOLUTION_GOOD,INS_RTKFIXED,17.59230029002,78.12171989319,530.4040,-76.2000,0.7082,0.5776,-0.0033,0.247235953,0.318442140,40.029279514,0.6617,0.6655,1.2552,0.0227,0.0229,0.0206,0.0215,0.0214,0.5581,ab000342,0*002b6fe6
#INSPVAXA,FILE,0,35.5,FINESTEERING,2319,306854.400,02000800,46eb,17139;INS_SOLUTION_GOOD,INS_RTKFIXED,17.59230092762,78.12172033344,530.4053,-76.2000,0.7476,0.5736,0.0009,0.246515588,0.296259369,38.413709262,0.6617,0.6655,1.2552,0.0227,0.0229,0.0206,0.0215,0.0214,0.5581,ab000342,0*cdcffea9
#INSPVAXA,FILE,0,35.5,FINESTEERING,2319,306854.450,02000800,46eb,17139;INS_SOLUTION_GOOD,INS_RTKFIXED,17.59230125921,78.12172055353,530.4061,-76.2000,0.7653,0.5730,-0.0009,0.244247171,0.285163887,37.583837946,0.6617,0.6655,1.2552,0.0227,0.0229,0.0206,0.0215,0.0214,0.5581,ab000342,0*b3a3180f
#INSPVAXA,FILE,0,35.5,FINESTEERING,2319,306854.600,02000800,46eb,17139;INS_SOLUTION_GOOD,INS_RTKFIXED,17.59230231019,78.12172121015,530.4078,-76.2000,0.8296,0.5632,-0.0059,0.224053727,0.265513990,35.020280818,0.6617,0.6655,1.2552,0.0227,0.0229,0.0206,0.0215,0.0214,0.5581,ab000342,0*28fc00b9
#INSPVAXA,FILE,0,35.5,FINESTEERING,2319,306854.700,02000800,46eb,17139;INS_SOLUTION_GOOD,INS_RTKFIXED,17.59230306118,78.12172164132,530.4087,-76.2000,0.8749,0.5558,-0.0055,0.214790307,0.253727700,33.264869754,0.6617,0.6655,1.2552,0.0227,0.0229,0.0206,0.0215,0.0214,0.5581,ab000342,0*dd7cf36e
#INSPVAXA,FILE,0,35.5,FINESTEERING,2319,306854.800,02000800,46eb,17139;INS_SOLUTION_GOOD,INS_RTKFIXED,17.59230385647,78.12172207101,530.4096,-76.2000,0.9263,0.5535,-0.0030,0.192864823,0.243152317,31.482963552,0.6617,0.6655,1.2552,0.0227,0.0229,0.0206,0.0215,0.0214,0.5581,ab000342,0*1bb9fe9f
#INSPVAXA,FILE,0,35.5,FINESTEERING,2319,306854.850,02000800,46eb,17139;INS_SOLUTION_GOOD,INS_RTKFIXED,17.59230427305,78.12172228477,530.4104,-76.2000,0.9561,0.5482,0.0022,0.158420392,0.233346392,30.598553277,0.6617,0.6655,1.2552,0.0227,0.0229,0.0206,0.0215,0.0214,0.5581,ab000342,0*f1ca6365
#INSPVAXA,FILE,0,35.5,FINESTEERING,2319,306854.900,02000800,46eb,17139;INS_SOLUTION_GOOD,INS_RTKFIXED,17.59230470340,78.12172249591,530.4113,-76.2000,0.9875,0.5402,0.0056,0.126411065,0.226300535,29.727863599,0.6617,0.6655,1.2552,0.0227,0.0229,0.0206,0.0215,0.0214,0.5581,ab000342,0*24758959
#INSPVAXA,FILE,0,35.5,FINESTEERING,2319,306855.050,02000800,46eb,17139;INS_SOLUTION_GOOD,INS_RTKFIXED,17.59230605908,78.12172309849,530.4141,-76.2000,1.0707,0.5209,0.0047,0.085196434,0.185695259,27.227938972,0.6627,0.6664,1.2539,0.0236,0.0238,0.0199,0.0218,0.0218,0.5581,ab000342,0*ddb8b17e
#INSPVAXA,FILE,0,33.0,FINESTEERING,2319,306855.100,02000800,46eb,17139;INS_SOLUTION_GOOD,INS_RTKFIXED,17.59230650027,78.12172326490,530.4151,-76.2000,1.0920,0.5168,0.0009,0.082711383,0.167829829,26.435114563,0.6627,0.6664,1.2539,0.0236,0.0238,0.0199,0.0218,0.0218,0.5581,ab000342,0*cb27fa40
#INSPVAXA,FILE,0,33.0,FINESTEERING,2319,306855.250,02000800,46eb,17139;INS_SOLUTION_GOOD,INS_RTKFIXED,17.59230788669,78.12172374660,530.4172,-76.2000,1.1535,0.4873,-0.0035,0.134937204,0.131214940,24.194940497,0.6627,0.6664,1.2539,0.0236,0.0238,0.0199,0.0218,0.0218,0.5581,ab000342,0*e9519d42
#INSPVAXA,FILE,0,33.0,FINESTEERING,2319,306855.300,02000800,46eb,17139;INS_SOLUTION_GOOD,INS_RTKFIXED,17.59230836627,78.12172389630,530.4179,-76.2000,1.1682,0.4722,0.0001,0.153941755,0.118345194,23.494991739,0.6627,0.6664,1.2539,0.0236,0.0238,0.0199,0.0218,0.0218,0.5581,ab000342,0*d6b54edb
#INSPVAXA,FILE,0,33.0,FINESTEERING,2319,306855.400,02000800,46eb,17139;INS_SOLUTION_GOOD,INS_RTKFIXED,17.59230934336,78.12172417547,530.4199,-76.2000,1.1878,0.4410,0.0060,0.182814713,0.082301036,22.136233346,0.6627,0.6664,1.2539,0.0236,0.0238,0.0199,0.0218,0.0218,0.5581,ab000342,0*1ef19411
#INSPVAXA,FILE,0,33.0,FINESTEERING,2319,306855.600,02000800,46eb,17139;INS_SOLUTION_GOOD,INS_RTKFIXED,17.59231135188,78.12172465591,530.4241,-76.2000,1.2190,0.3780,0.0063,0.148163854,0.014849289,19.519428439,0.6627,0.6664,1.2539,0.0236,0.0238,0.0199,0.0218,0.0218,0.5581,ab000342,0*f16e7b0c
#INSPVAXA,FILE,0,33.0,FINESTEERING,2319,306855.700,02000800,46eb,17139;INS_SOLUTION_GOOD,INS_RTKFIXED,17.59231237617,78.12172485181,530.4261,-76.2000,1.2259,0.3508,0.0025,0.136742490,-0.015821635,18.251199795,0.6627,0.6664,1.2539,0.0236,0.0238,0.0199,0.0218,0.0218,0.5581,ab000342,0*9083c570
#INSPVAXA,FILE,0,33.0,FINESTEERING,2319,306855.750,02000800,46eb,17139;INS_SOLUTION_GOOD,INS_RTKFIXED,17.59231289089,78.12172494333,530.4270,-76.2000,1.2277,0.3436,-0.0002,0.123776888,-0.032448008,17.612585124,0.6627,0.6664,1.2539,0.0236,0.0238,0.0199,0.0218,0.0218,0.5581,ab000342,0*9f0d958a
#INSPVAXA,FILE,0,33.0,FINESTEERING,2319,306855.850,02000800,46eb,17139;INS_SOLUTION_GOOD,INS_RTKFIXED,17.59231393072,78.12172510920,530.4282,-76.2000,1.2468,0.3075,-0.0075,0.036624597,-0.055731639,16.397468571,0.6627,0.6664,1.2539,0.0236,0.0238,0.0199,0.0218,0.0218,0.5581,ab000342,0*c899e8f9
#INSPVAXA,FILE,0,33.0,FINESTEERING,2319,306855.950,02000800,46eb,17139;INS_SOLUTION_GOOD,INS_RTKFIXED,17.59231499210,78.12172523598,530.4291,-76.2000,1.2640,0.2653,-0.0048,-0.000787687,-0.064637655,15.327366946,0.6627,0.6664,1.2539,0.0236,0.0238,0.0199,0.0218,0.0218,0.5581,ab000342,0*9b4bead1
#INSPVAXA,FILE,0,33.0,FINESTEERING,2319,306856.000,02000800,46eb,17139;INS_SOLUTION_GOOD,INS_RTKFIXED,17.59231552690,78.12172528944,530.4297,-76.2000,1.2645,0.2571,-0.0003,0.000672030,-0.075321163,14.814464290,0.6627,0.6664,1.2539,0.0236,0.0238,0.0199,0.0218,0.0218,0.5581,ab000342,0*094eb1e4
#INSPVAXA,FILE,0,33.0,FINESTEERING,2319,306856.100,02000800,46eb,17139;INS_SOLUTION_GOOD,INS_RTKFIXED,17.59231655654,78.12172546650,530.4292,-76.2000,1.2661,0.2487,-0.0040,-0.030635556,-0.091561693,13.768381113,0.6635,0.6673,1.2527,0.0244,0.0245,0.0199,0.0220,0.0220,0.5582,ab000342,0*1fcacaf9
#INSPVAXA,FILE,0,34.0,FINESTEERING,2319,306856.200,02000800,46eb,17139;INS_SOLUTION_GOOD,INS_RTKFIXED,17.59231758248,78.12172566299,530.4273,-76.2000,1.2788,0.2159,-0.0064,-0.086118631,-0.108383688,12.761445343,0.6635,0.6673,1.2527,0.0244,0.0245,0.0199,0.0220,0.0220,0.5582,ab000342,0*c69e6ee6
#INSPVAXA,FILE,0,34.0,FINESTEERING,2319,306856.350,02000800,46eb,17139;INS_SOLUTION_GOOD,INS_RTKFIXED,17.59231914601,78.12172590686,530.4245,-76.2000,1.2924,0.1847,-0.0084,-0.103305296,-0.118652926,11.429657911,0.6635,0.6673,1.2527,0.0244,0.0245,0.0199,0.0220,0.0220,0.5582,ab000342,0*2a339000
#INSPVAXA,FILE,0,34.0,FINESTEERING,2319,306856.400,02000800,46eb,17139;INS_SOLUTION_GOOD,INS_RTKFIXED,17.59231967187,78.12172598103,530.4235,-76.2000,1.2947,0.1796,-0.0114,-0.102595973,-0.120533066,11.009717545,0.6635,0.6673,1.2527,0.0244,0.0245,0.0199,0.0220,0.0220,0.5582,ab000342,0*e9bc8812
#INSPVAXA,FILE,0,34.0,FINESTEERING,2319,306856.600,02000800,46eb,17139;INS_SOLUTION_GOOD,INS_RTKFIXED,17.59232178953,78.12172623843,530.4192,-76.2000,1.2996,0.1396,-0.0050,-0.084521360,-0.124289074,9.395724267,0.6635,0.6673,1.2527,0.0244,0.0245,0.0199,0.0220,0.0220,0.5582,ab000342,0*5430cea6
#INSPVAXA,FILE,0,34.0,FINESTEERING,2319,306856.700,02000800,46eb,17139;INS_SOLUTION_GOOD,INS_RTKFIXED,17.59232285600,78.12172633755,530.4174,-76.2000,1.3028,0.1225,-0.0078,-0.065665608,-0.130483238,8.669838387,0.6635,0.6673,1.2527,0.0244,0.0245,0.0199,0.0220,0.0220,0.5582,ab000342,0*e1a47be6
#INSPVAXA,FILE,0,34.0,FINESTEERING,2319,306856.750,02000800,46eb,17139;INS_SOLUTION_GOOD,INS_RTKFIXED,17.59232339189,78.12172637989,530.4164,-76.2000,1.3057,0.1100,-0.0091,-0.066764749,-0.139143936,8.332601880,0.6635,0.6673,1.2527,0.0244,0.0245,0.0199,0.0220,0.0220,0.5582,ab000342,0*5c81e7bb
#INSPVAXA,FILE,0,34.0,FINESTEERING,2319,306856.900,02000800,46eb,17139;INS_SOLUTION_GOOD,INS_RTKFIXED,17.59232500184,78.12172647748,530.4144,-76.2000,1.2957,0.0819,0.0067,-0.048476170,-0.193535692,7.390955321,0.6635,0.6673,1.2527,0.0244,0.0245,0.0199,0.0220,0.0220,0.5582,ab000342,0*839cf989
#INSPVAXA,FILE,0,34.0,FINESTEERING,2319,306856.950,02000800,46eb,17139;INS_SOLUTION_GOOD,INS_RTKFIXED,17.59232553541,78.12172650129,530.4141,-76.2000,1.2897,0.0731,0.0081,-0.040912307,-0.201329945,7.095471569,0.6635,0.6673,1.2527,0.0244,0.0245,0.0199,0.0220,0.0220,0.5582,ab000342,0*aba4ff22
#INSPVAXA,FILE,0,34.0,FINESTEERING,2319,306857.000,02000800,46eb,17139;INS_SOLUTION_GOOD,INS_RTKFIXED,17.59232606696,78.12172652142,530.4140,-76.2000,1.2834,0.0658,0.0063,-0.036616021,-0.209490132,6.812432304,0.6635,0.6673,1.2527,0.0244,0.0245,0.0199,0.0220,0.0220,0.5582,ab000342,0*7a10ac85
#INSPVAXA,FILE,0,34.0,FINESTEERING,2319,306857.050,02000800,46eb,17139;INS_SOLUTION_GOOD,INS_RTKFIXED,17.59232660193,78.12172655408,530.4141,-76.2000,1.2799,0.0557,0.0037,-0.029147331,-0.201550151,6.546463371,0.6643,0.6682,1.2520,0.0240,0.0241,0.0200,0.0220,0.0220,0.5583,ab000342,0*49c5ebb6
#INSPVAXA,FILE,0,34.0,FINESTEERING,2319,306857.150,02000800,46eb,17139;INS_SOLUTION_GOOD,INS_RTKFIXED,17.59232769059,78.12172668061,530.4155,-76.2000,1.2736,0.0409,0.0005,-0.055897631,-0.155598292,6.059727435,0.6643,0.6682,1.2520,0.0240,0.0241,0.0200,0.0220,0.0220,0.5583,ab000342,0*996de103
#INSPVAXA,FILE,0,34.5,FINESTEERING,2319,306857.300,02000800,46eb,17139;INS_SOLUTION_GOOD,INS_RTKFIXED,17.59232929824,78.12172684062,530.4174,-76.2000,1.2456,0.0218,-0.0001,-0.182918514,-0.080135700,5.345808323,0.6643,0.6682,1.2520,0.0240,0.0241,0.0200,0.0220,0.0220,0.5583,ab000342,0*9a684ed0
#INSPVAXA,FILE,0,34.5,FINESTEERING,2319,306857.400,02000800,46eb,17139;INS_SOLUTION_GOOD,INS_RTKFIXED,17.59233035924,78.12172693277,530.4185,-76.2000,1.2413,0.0098,-0.0035,-0.305610376,-0.025750236,4.909611659,0.6643,0.6682,1.2520,0.0240,0.0241,0.0200,0.0220,0.0220,0.5583,ab000342,0*59f37733
#INSPVAXA,FILE,0,34.5,FINESTEERING,2319,306857.450,02000800,46eb,17139;INS_SOLUTION_GOOD,INS_RTKFIXED,17.59233088843,78.12172697086,530.4188,-76.2000,1.2368,-0.0015,-0.0074,-0.331681733,-0.002722317,4.728553002,0.6643,0.6682,1.2520,0.0240,0.0241,0.0200,0.0220,0.0220,0.5583,ab000342,0*d16bd1d7
#INSPVAXA,FILE,0,34.5,FINESTEERING,2319,306857.500,02000800,46eb,17139;INS_SOLUTION_GOOD,INS_RTKFIXED,17.59233141570,78.12172700594,530.4191,-76.2000,1.2316,-0.0018,-0.0065,-0.318612499,0.025572430,4.560754791,0.6643,0.6682,1.2520,0.0240,0.0241,0.0200,0.0220,0.0220,0.5583,ab000342,0*e418b5a3
#INSPVAXA,FILE,0,34.5,FINESTEERING,2319,306857.550,02000800,46eb,17139;INS_SOLUTION_GOOD,INS_RTKFIXED,17.59233194076,78.12172704301,530.4195,-76.2000,1.2255,0.0079,-0.0049,-0.299628164,0.042393451,4.387172008,0.6643,0.6682,1.2520,0.0240,0.0241,0.0200,0.0220,0.0220,0.5583,ab000342,0*1aa55d33
#INSPVAXA,FILE,0,34.5,FINESTEERING,2319,306857.600,02000800,46eb,17139;INS_SOLUTION_GOOD,INS_RTKFIXED,17.59233246318,78.12172708271,530.4199,-76.2000,1.2184,0.0135,-0.0029,-0.280977114,0.070916344,4.205925165,0.6643,0.6682,1.2520,0.0240,0.0241,0.0200,0.0220,0.0220,0.5583,ab000342,0*62bf8013
#INSPVAXA,FILE,0,34.5,FINESTEERING,2319,306857.650,02000800,46eb,17139;INS_SOLUTION_GOOD,INS_RTKFIXED,17.59233298318,78.12172712283,530.4204,-76.2000,1.2129,0.0111,-0.0032,-0.266900775,0.108266862,4.021174112,0.6643,0.6682,1.2520,0.0240,0.0241,0.0200,0.0220,0.0220,0.5583,ab000342,0*98b6823b
#INSPVAXA,FILE,0,34.5,FINESTEERING,2319,306857.700,02000800,46eb,17139;INS_SOLUTION_GOOD,INS_RTKFIXED,17.59233350202,78.12172715917,530.4207,-76.2000,1.2110,0.0023,-0.0074,-0.240111979,0.158266628,3.846095559,0.6643,0.6682,1.2520,0.0240,0.0241,0.0200,0.0220,0.0220,0.5583,ab000342,0*41723d4b
#INSPVAXA,FILE,0,34.5,FINESTEERING,2319,306857.750,02000800,46eb,17139;INS_SOLUTION_GOOD,INS_RTKFIXED,17.59233402014,78.12172719119,530.4209,-76.2000,1.2086,-0.0054,-0.0100,-0.219560177,0.211587120,3.680563989,0.6643,0.6682,1.2520,0.0240,0.0241,0.0200,0.0220,0.0220,0.5583,ab000342,0*617d44a0
#INSPVAXA,FILE,0,34.5,FINESTEERING,2319,306857.800,02000800,46eb,17139;INS_SOLUTION_GOOD,INS_RTKFIXED,17.59233453744,78.12172721923,530.4209,-76.2000,1.2055,-0.0118,-0.0140,-0.213431015,0.270701260,3.528475284,0.6643,0.6682,1.2520,0.0240,0.0241,0.0200,0.0220,0.0220,0.5583,ab000342,0*11c0cac7
#INSPVAXA,FILE,0,34.5,FINESTEERING,2319,306857.850,02000800,46eb,17139;INS_SOLUTION_GOOD,INS_RTKFIXED,17.59233505382,78.12172724280,530.4210,-76.2000,1.2028,-0.0210,-0.0129,-0.212141630,0.330573213,3.384760200,0.6643,0.6682,1.2520,0.0240,0.0241,0.0200,0.0220,0.0220,0.5583,ab000342,0*8c0e27a5
#INSPVAXA,FILE,0,34.5,FINESTEERING,2319,306857.900,02000800,46eb,17139;INS_SOLUTION_GOOD,INS_RTKFIXED,17.59233557055,78.12172726401,530.4209,-76.2000,1.2043,-0.0221,-0.0130,-0.219091097,0.402279696,3.246368642,0.6643,0.6682,1.2520,0.0240,0.0241,0.0200,0.0220,0.0220,0.5583,ab000342,0*8e895db8
#INSPVAXA,FILE,0,34.5,FINESTEERING,2319,306857.950,02000000,46eb,17139;INS_SOLUTION_GOOD,INS_RTKFIXED,17.59233608798,78.12172728385,530.4208,-76.2000,1.2049,-0.0220,-0.0131,-0.239373504,0.467489429,3.103860767,0.6643,0.6682,1.2520,0.0240,0.0241,0.0200,0.0220,0.0220,0.5583,ab000342,0*8c252416
#INSPVAXA,FILE,0,34.5,FINESTEERING,2319,306858.000,02000000,46eb,17139;INS_SOLUTION_GOOD,INS_RTKFIXED,17.59233660513,78.12172730355,530.4207,-76.2000,1.2027,-0.0209,-0.0142,-0.261562283,0.517596916,2.959497652,0.6643,0.6682,1.2520,0.0240,0.0241,0.0200,0.0220,0.0220,0.5583,ab000342,0*ba17c826
#INSPVAXA,FILE,0,34.5,FINESTEERING,2319,306858.050,02000000,46eb,17139;INS_SOLUTION_GOOD,INS_RTKFIXED,17.59233712796,78.12172734146,530.4211,-76.2000,1.2024,-0.0222,-0.0157,-0.275207424,0.579842418,2.819310412,0.6648,0.6689,1.2513,0.0225,0.0226,0.0195,0.0219,0.0218,0.5584,ab000342,0*78182219
#INSPVAXA,FILE,0,25.0,FINESTEERING,2319,306858.100,02000000,46eb,17139;INS_SOLUTION_GOOD,INS_RTKFIXED,17.59233766532,78.12172739669,530.4223,-76.2000,1.2043,-0.0266,-0.0120,-0.274691099,0.657087444,2.693939938,0.6648,0.6689,1.2513,0.0225,0.0226,0.0195,0.0219,0.0218,0.5584,ab000342,0*28e9d7fe
#INSPVAXA,FILE,0,25.0,FINESTEERING,2319,306858.150,02000000,46eb,17139;INS_SOLUTION_GOOD,INS_RTKFIXED,17.59233820459,78.12172744993,530.4235,-76.2000,1.2105,-0.0289,-0.0114,-0.263989806,0.736774557,2.583649922,0.6648,0.6689,1.2513,0.0225,0.0226,0.0195,0.0219,0.0218,0.5584,ab000342,0*0de719e3
#INSPVAXA,FILE,0,25.0,FINESTEERING,2319,306858.200,02000000,46eb,17139;INS_SOLUTION_GOOD,INS_RTKFIXED,17.59233874681,78.12172750150,530.4248,-76.2000,1.2171,-0.0281,-0.0099,-0.251681363,0.806741312,2.483845496,0.6648,0.6689,1.2513,0.0225,0.0226,0.0195,0.0219,0.0218,0.5584,ab000342,0*dbd9d6d9
#INSPVAXA,FILE,0,25.0,FINESTEERING,2319,306858.250,02000000,46eb,17139;INS_SOLUTION_GOOD,INS_RTKFIXED,17.59233929124,78.12172755465,530.4261,-76.2000,1.2218,-0.0213,-0.0083,-0.246992606,0.865498766,2.374508057,0.6648,0.6689,1.2513,0.0225,0.0226,0.0195,0.0219,0.0218,0.5584,ab000342,0*fa9d40bd
#INSPVAXA,FILE,0,25.0,FINESTEERING,2319,306858.300,02000000,46eb,17139;INS_SOLUTION_GOOD,INS_RTKFIXED,17.59233983799,78.12172760750,530.4273,-76.2000,1.2261,-0.0218,-0.0094,-0.241543392,0.921270285,2.258153793,0.6648,0.6689,1.2513,0.0225,0.0226,0.0195,0.0219,0.0218,0.5584,ab000342,0*af6115ec
#INSPVAXA,FILE,0,25.0,FINESTEERING,2319,306858.350,02000000,46eb,17139;INS_SOLUTION_GOOD,INS_RTKFIXED,17.59234038649,78.12172765884,530.4287,-76.2000,1.2292,-0.0241,-0.0063,-0.247403236,0.973111565,2.141813494,0.6648,0.6689,1.2513,0.0225,0.0226,0.0195,0.0219,0.0218,0.5584,ab000342,0*239d0e70
#INSPVAXA,FILE,0,25.0,FINESTEERING,2319,306858.400,02000000,46eb,17139;INS_SOLUTION_GOOD,INS_RTKFIXED,17.59234093709,78.12172770733,530.4301,-76.2000,1.2351,-0.0290,-0.0087,-0.248726927,1.038825206,2.034797192,0.6648,0.6689,1.2513,0.0225,0.0226,0.0195,0.0219,0.0218,0.5584,ab000342,0*d1e2be33
#INSPVAXA,FILE,0,25.0,FINESTEERING,2319,306858.450,02000000,46eb,17139;INS_SOLUTION_GOOD,INS_RTKFIXED,17.59234149085,78.12172775225,530.4316,-76.2000,1.2431,-0.0363,-0.0040,-0.253656665,1.103970537,1.941246022,0.6648,0.6689,1.2513,0.0225,0.0226,0.0195,0.0219,0.0218,0.5584,ab000342,0*49439356
#INSPVAXA,FILE,0,25.0,FINESTEERING,2319,306858.500,02000000,46eb,17139;INS_SOLUTION_GOOD,INS_RTKFIXED,17.59234204814,78.12172779511,530.4331,-76.2000,1.2513,-0.0349,-0.0047,-0.244690833,1.170575512,1.863406814,0.6648,0.6689,1.2513,0.0225,0.0226,0.0195,0.0219,0.0218,0.5584,ab000342,0*c3bee9d0
#INSPVAXA,FILE,0,25.0,FINESTEERING,2319,306858.550,02000000,46eb,17139;INS_SOLUTION_GOOD,INS_RTKFIXED,17.59234261032,78.12172783730,530.4345,-76.2000,1.2634,-0.0344,-0.0091,-0.256376554,1.230100474,1.790760490,0.6648,0.6689,1.2513,0.0225,0.0226,0.0195,0.0219,0.0218,0.5584,ab000342,0*55c9f970
#INSPVAXA,FILE,0,25.0,FINESTEERING,2319,306858.600,02000000,46eb,17139;INS_SOLUTION_GOOD,INS_RTKFIXED,17.59234317828,78.12172787984,530.4358,-76.2000,1.2771,-0.0300,-0.0118,-0.259908791,1.281687595,1.718691130,0.6648,0.6689,1.2513,0.0225,0.0226,0.0195,0.0219,0.0218,0.5584,ab000342,0*b6ef079a
#INSPVAXA,FILE,0,25.0,FINESTEERING,2319,306858.650,02000000,46eb,17139;INS_SOLUTION_GOOD,INS_RTKFIXED,17.59234375202,78.12172792311,530.4368,-76.2000,1.2895,-0.0265,-0.0153,-0.267965792,1.325253389,1.643500118,0.6648,0.6689,1.2513,0.0225,0.0226,0.0195,0.0219,0.0218,0.5584,ab000342,0*59018be6
#INSPVAXA,FILE,0,25.0,FINESTEERING,2319,306858.700,02000000,46eb,17139;INS_SOLUTION_GOOD,INS_RTKFIXED,17.59234433028,78.12172796608,530.4377,-76.2000,1.2970,-0.0262,-0.0167,-0.276164639,1.367775382,1.568220694,0.6648,0.6689,1.2513,0.0225,0.0226,0.0195,0.0219,0.0218,0.5584,ab000342,0*41484e5b
#INSPVAXA,FILE,0,25.0,FINESTEERING,2319,306858.750,02000000,46eb,17139;INS_SOLUTION_GOOD,INS_RTKFIXED,17.59234491123,78.12172800787,530.4385,-76.2000,1.3016,-0.0285,-0.0177,-0.284531176,1.432976409,1.494984121,0.6648,0.6689,1.2513,0.0225,0.0226,0.0195,0.0219,0.0218,0.5584,ab000342,0*c9d60ae7
#INSPVAXA,FILE,0,25.0,FINESTEERING,2319,306858.800,02000000,46eb,17139;INS_SOLUTION_GOOD,INS_RTKFIXED,17.59234549508,78.12172804816,530.4396,-76.2000,1.3084,-0.0274,-0.0079,-0.277214459,1.510689743,1.429426437,0.6648,0.6689,1.2513,0.0225,0.0226,0.0195,0.0219,0.0218,0.5584,ab000342,0*69ce9518
#INSPVAXA,FILE,0,25.0,FINESTEERING,2319,306858.850,02000000,46eb,17139;INS_SOLUTION_GOOD,INS_RTKFIXED,17.59234608105,78.12172808990,530.4414,-76.2000,1.3100,-0.0188,0.0119,-0.261393328,1.577527677,1.365250803,0.6648,0.6689,1.2513,0.0225,0.0226,0.0195,0.0219,0.0218,0.5584,ab000342,0*93ba3123
#INSPVAXA,FILE,0,25.0,FINESTEERING,2319,306858.900,02000000,46eb,17139;INS_SOLUTION_GOOD,INS_RTKFIXED,17.59234666698,78.12172813313,530.4443,-76.2000,1.3104,-0.0170,0.0369,-0.255570139,1.622454352,1.304683933,0.6648,0.6689,1.2513,0.0225,0.0226,0.0195,0.0219,0.0218,0.5584,ab000342,0*601833db
#INSPVAXA,FILE,0,25.0,FINESTEERING,2319,306858.950,02000000,46eb,17139;INS_SOLUTION_GOOD,INS_RTKFIXED,17.59234725463,78.12172817624,530.4482,-76.2000,1.3159,-0.0172,0.0554,-0.245367798,1.637026659,1.253548371,0.6648,0.6689,1.2513,0.0225,0.0226,0.0195,0.0219,0.0218,0.5584,ab000342,0*8017b612
#INSPVAXA,FILE,0,25.0,FINESTEERING,2319,306859.000,02000000,46eb,17139;INS_SOLUTION_GOOD,INS_RTKFIXED,17.59234784484,78.12172821596,530.4524,-76.2000,1.3224,-0.0248,0.0514,-0.249879578,1.640837764,1.213344822,0.6648,0.6689,1.2513,0.0225,0.0226,0.0195,0.0219,0.0218,0.5584,ab000342,0*42203935
#INSPVAXA,FILE,0,25.0,FINESTEERING,2319,306859.050,02000000,46eb,17139;INS_SOLUTION_GOOD,INS_RTKFIXED,17.59234844378,78.12172825453,530.4562,-76.2000,1.3272,-0.0346,0.0463,-0.248004489,1.638187610,1.184617691,0.6653,0.6699,1.2508,0.0211,0.0213,0.0190,0.0218,0.0217,0.5585,ab000342,0*9cd6a982
#INSPVAXA,FILE,0,25.0,FINESTEERING,2319,306859.100,02000000,46eb,17139;INS_SOLUTION_GOOD,INS_RTKFIXED,17.59234905680,78.12172829486,530.4586,-76.2000,1.3306,-0.0393,0.0314,-0.242344790,1.677394386,1.165968646,0.6653,0.6699,1.2508,0.0211,0.0213,0.0190,0.0218,0.0217,0.5585,ab000342,0*2ebf71da
#INSPVAXA,FILE,0,28.0,FINESTEERING,2319,306859.150,02000000,46eb,17139;INS_SOLUTION_GOOD,INS_RTKFIXED,17.59234967191,78.12172833504,530.4603,-76.2000,1.3355,-0.0327,0.0164,-0.260762144,1.752592710,1.145210973,0.6653,0.6699,1.2508,0.0211,0.0213,0.0190,0.0218,0.0217,0.5585,ab000342,0*5e5e8953
#INSPVAXA,FILE,0,28.0,FINESTEERING,2319,306859.200,02000000,46eb,17139;INS_SOLUTION_GOOD,INS_RTKFIXED,17.59235028955,78.12172837757,530.4613,-76.2000,1.3430,-0.0254,0.0005,-0.319545062,1.849345357,1.112518464,0.6653,0.6699,1.2508,0.0211,0.0213,0.0190,0.0218,0.0217,0.5585,ab000342,0*6244b47d
#INSPVAXA,FILE,0,28.0,FINESTEERING,2319,306859.250,02000000,46eb,17139;INS_SOLUTION_GOOD,INS_RTKFIXED,17.59235090993,78.12172842075,530.4621,-76.2000,1.3476,-0.0242,0.0064,-0.389037895,1.938553045,1.071097895,0.6653,0.6699,1.2508,0.0211,0.0213,0.0190,0.0218,0.0217,0.5585,ab000342,0*b6c2546a
#INSPVAXA,FILE,0,28.0,FINESTEERING,2319,306859.300,02000000,46eb,17139;INS_SOLUTION_GOOD,INS_RTKFIXED,17.59235153303,78.12172846441,530.4630,-76.2000,1.3584,-0.0206,0.0018,-0.485004009,2.027234398,1.028343114,0.6653,0.6699,1.2508,0.0211,0.0213,0.0190,0.0218,0.0217,0.5585,ab000342,0*a123549e
#INSPVAXA,FILE,0,28.0,FINESTEERING,2319,306859.350,02000000,46eb,17139;INS_SOLUTION_GOOD,INS_RTKFIXED,17.59235216236,78.12172850849,530.4639,-76.2000,1.3730,-0.0213,0.0131,-0.540623821,2.071933555,0.986947611,0.6653,0.6699,1.2508,0.0211,0.0213,0.0190,0.0218,0.0217,0.5585,ab000342,0*44663c53
#INSPVAXA,FILE,0,28.0,FINESTEERING,2319,306859.400,02000000,46eb,17139;INS_SOLUTION_GOOD,INS_RTKFIXED,17.59235279660,78.12172855196,530.4652,-76.2000,1.3814,-0.0194,0.0200,-0.581582091,2.101472856,0.955625827,0.6653,0.6699,1.2508,0.0211,0.0213,0.0190,0.0218,0.0217,0.5585,ab000342,0*df90d8ea
#INSPVAXA,FILE,0,28.0,FINESTEERING,2319,306859.450,02000000,46eb,17139;INS_SOLUTION_GOOD,INS_RTKFIXED,17.59235343250,78.12172859614,530.4675,-76.2000,1.3831,-0.0134,0.0418,-0.572466744,2.090498089,0.934163894,0.6653,0.6699,1.2508,0.0211,0.0213,0.0190,0.0218,0.0217,0.5585,ab000342,0*cf9e326c
#INSPVAXA,FILE,0,28.0,FINESTEERING,2319,306859.500,02000000,46eb,17139;INS_SOLUTION_GOOD,INS_RTKFIXED,17.59235406918,78.12172864567,530.4709,-76.2000,1.3861,0.0022,0.0715,-0.518835762,2.047136532,0.909049539,0.6653,0.6699,1.2508,0.0211,0.0213,0.0190,0.0218,0.0217,0.5585,ab000342,0*c54268ce
#INSPVAXA,FILE,0,28.0,FINESTEERING,2319,306859.550,02000000,46eb,17139;INS_SOLUTION_GOOD,INS_RTKFIXED,17.59235470860,78.12172869629,530.4752,-76.2000,1.3948,-0.0000,0.0765,-0.480011804,2.018556628,0.891751945,0.6653,0.6699,1.2508,0.0211,0.0213,0.0190,0.0218,0.0217,0.5585,ab000342,0*a2e2d429
#INSPVAXA,FILE,0,28.0,FINESTEERING,2319,306859.600,02000000,46eb,17139;INS_SOLUTION_GOOD,INS_RTKFIXED,17.59235535130,78.12172874550,530.4797,-76.2000,1.4021,-0.0015,0.0841,-0.376726959,1.976334691,0.884811549,0.6653,0.6699,1.2508,0.0211,0.0213,0.0190,0.0218,0.0217,0.5585,ab000342,0*6d217658
#INSPVAXA,FILE,0,28.0,FINESTEERING,2319,306859.650,02000000,46eb,17139;INS_SOLUTION_GOOD,INS_RTKFIXED,17.59235599785,78.12172879459,530.4842,-76.2000,1.4120,0.0013,0.0759,-0.275551548,1.966205123,0.876639209,0.6653,0.6699,1.2508,0.0211,0.0213,0.0190,0.0218,0.0217,0.5585,ab000342,0*f20d1cd7
#INSPVAXA,FILE,0,28.0,FINESTEERING,2319,306859.700,02000000,46eb,17139;INS_SOLUTION_GOOD,INS_RTKFIXED,17.59235664825,78.12172884539,530.4884,-76.2000,1.4206,0.0079,0.0689,-0.193532557,1.968953932,0.858222406,0.6653,0.6699,1.2508,0.0211,0.0213,0.0190,0.0218,0.0217,0.5585,ab000342,0*ea9b0601
#INSPVAXA,FILE,0,28.0,FINESTEERING,2319,306859.750,02000000,46eb,17139;INS_SOLUTION_GOOD,INS_RTKFIXED,17.59235730294,78.12172889548,530.4920,-76.2000,1.4323,0.0035,0.0516,-0.129608893,1.971801393,0.839110328,0.6653,0.6699,1.2508,0.0211,0.0213,0.0190,0.0218,0.0217,0.5585,ab000342,0*c77440cc
#INSPVAXA,FILE,0,28.0,FINESTEERING,2319,306859.800,02000000,46eb,17139;INS_SOLUTION_GOOD,INS_RTKFIXED,17.59235796303,78.12172894266,530.4948,-76.2000,1.4444,-0.0006,0.0378,-0.100882921,1.999471910,0.826821748,0.6653,0.6699,1.2508,0.0211,0.0213,0.0190,0.0218,0.0217,0.5585,ab000342,0*1de90428
#INSPVAXA,FILE,0,28.0,FINESTEERING,2319,306859.850,02000000,46eb,17139;INS_SOLUTION_GOOD,INS_RTKFIXED,17.59235862534,78.12172898785,530.4975,-76.2000,1.4453,-0.0039,0.0474,-0.080297697,2.022780638,0.811626258,0.6653,0.6699,1.2508,0.0211,0.0213,0.0190,0.0218,0.0217,0.5585,ab000342,0*f4cce7ea
#INSPVAXA,FILE,0,28.0,FINESTEERING,2319,306859.900,02000000,46eb,17139;INS_SOLUTION_GOOD,INS_RTKFIXED,17.59235928911,78.12172903078,530.5005,-76.2000,1.4497,-0.0058,0.0527,-0.070250256,2.035461818,0.794191383,0.6653,0.6699,1.2508,0.0211,0.0213,0.0190,0.0218,0.0217,0.5585,ab000342,0*bdbd35a5
#INSPVAXA,FILE,0,28.0,FINESTEERING,2319,306859.950,02000000,46eb,17139;INS_SOLUTION_GOOD,INS_RTKFIXED,17.59235995542,78.12172907364,530.5042,-76.2000,1.4592,-0.0017,0.0700,-0.066976641,2.035759567,0.779191521,0.6653,0.6699,1.2508,0.0211,0.0213,0.0190,0.0218,0.0217,0.5585,ab000342,0*621f9273
#INSPVAXA,FILE,0,28.0,FINESTEERING,2319,306860.000,02000000,46eb,17139;INS_SOLUTION_GOOD,INS_RTKFIXED,17.59236062754,78.12172911684,530.5077,-76.2000,1.4736,0.0004,0.0596,-0.082064462,2.022489997,0.772097830,0.6653,0.6699,1.2508,0.0211,0.0213,0.0190,0.0218,0.0217,0.5585,ab000342,0*a34e6ec7
#INSPVAXA,FILE,0,28.0,FINESTEERING,2319,306860.050,02000000,46eb,17139;INS_SOLUTION_GOOD,INS_RTKFIXED,17.59236130705,78.12172916652,530.5111,-76.2000,1.4813,0.0008,0.0535,-0.123905950,2.018001489,0.765484158,0.6652,0.6711,1.2499,0.0202,0.0205,0.0187,0.0218,0.0216,0.5587,ab000342,0*eec7f502
#INSPVAXA,FILE,0,28.0,FINESTEERING,2319,306860.100,02000000,46eb,17139;INS_SOLUTION_GOOD,INS_RTKFIXED,17.59236199294,78.12172921476,530.5147,-76.2000,1.4876,0.0015,0.0620,-0.113361773,1.996014026,0.755036951,0.6652,0.6711,1.2499,0.0202,0.0205,0.0187,0.0218,0.0216,0.5587,ab000342,0*1cc4da8b
#INSPVAXA,FILE,0,30.0,FINESTEERING,2319,306860.150,02000000,46eb,17139;INS_SOLUTION_GOOD,INS_RTKFIXED,17.59236268033,78.12172926475,530.5184,-76.2000,1.4926,0.0096,0.0597,-0.099398538,2.015885175,0.736392047,0.6652,0.6711,1.2499,0.0202,0.0205,0.0187,0.0218,0.0216,0.5587,ab000342,0*35b7566e
#INSPVAXA,FILE,0,30.0,FINESTEERING,2319,306860.200,02000000,46eb,17139;INS_SOLUTION_GOOD,INS_RTKFIXED,17.59236337207,78.12172931794,530.5221,-76.2000,1.5039,0.0159,0.0611,-0.065773943,2.027836465,0.713392857,0.6652,0.6711,1.2499,0.0202,0.0205,0.0187,0.0218,0.0216,0.5587,ab000342,0*593a60f7
#INSPVAXA,FILE,0,30.0,FINESTEERING,2319,306860.250,02000000,46eb,17139;INS_SOLUTION_GOOD,INS_RTKFIXED,17.59236406708,78.12172937245,530.5259,-76.2000,1.5107,0.0211,0.0646,-0.008708335,2.044329734,0.694969771,0.6652,0.6711,1.2499,0.0202,0.0205,0.0187,0.0218,0.0216,0.5587,ab000342,0*4b57d458
#INSPVAXA,FILE,0,30.0,FINESTEERING,2319,306860.300,02000000,46eb,17139;INS_SOLUTION_GOOD,INS_RTKFIXED,17.59236476843,78.12172942891,530.5296,-76.2000,1.5297,0.0242,0.0555,0.014189842,2.061017471,0.681056723,0.6652,0.6711,1.2499,0.0202,0.0205,0.0187,0.0218,0.0216,0.5587,ab000342,0*a36e2904
#INSPVAXA,FILE,0,30.0,FINESTEERING,2319,306860.350,02000000,46eb,17139;INS_SOLUTION_GOOD,INS_RTKFIXED,17.59236547650,78.12172948484,530.5327,-76.2000,1.5445,0.0226,0.0433,0.077014770,2.063316391,0.669959781,0.6652,0.6711,1.2499,0.0202,0.0205,0.0187,0.0218,0.0216,0.5587,ab000342,0*890e4f96
#INSPVAXA,FILE,0,30.0,FINESTEERING,2319,306860.400,02000000,46eb,17139;INS_SOLUTION_GOOD,INS_RTKFIXED,17.59236619117,78.12172954059,530.5354,-76.2000,1.5575,0.0252,0.0426,0.162982343,2.070033758,0.659991113,0.6652,0.6711,1.2499,0.0202,0.0205,0.0187,0.0218,0.0216,0.5587,ab000342,0*d232bddd
#INSPVAXA,FILE,0,30.0,FINESTEERING,2319,306860.450,02000000,46eb,17139;INS_SOLUTION_GOOD,INS_RTKFIXED,17.59236690777,78.12172959677,530.5386,-76.2000,1.5580,0.0251,0.0634,0.220664066,2.071757822,0.646449529,0.6652,0.6711,1.2499,0.0202,0.0205,0.0187,0.0218,0.0216,0.5587,ab000342,0*61c09021
#INSPVAXA,FILE,0,30.0,FINESTEERING,2319,306860.500,02000000,46eb,17139;INS_SOLUTION_GOOD,INS_RTKFIXED,17.59236762727,78.12172965177,530.5428,-76.2000,1.5681,0.0249,0.0757,0.277515208,2.044259739,0.633769372,0.6652,0.6711,1.2499,0.0202,0.0205,0.0187,0.0218,0.0216,0.5587,ab000342,0*06748d77
#INSPVAXA,FILE,0,30.0,FINESTEERING,2319,306860.550,02000000,46eb,17139;INS_SOLUTION_GOOD,INS_RTKFIXED,17.59236835134,78.12172970770,530.5476,-76.2000,1.5798,0.0297,0.0869,0.333686645,1.999471656,0.618195208,0.6652,0.6711,1.2499,0.0202,0.0205,0.0187,0.0218,0.0216,0.5587,ab000342,0*a5a8a480
#INSPVAXA,FILE,0,30.0,FINESTEERING,2319,306860.600,02000000,46eb,17139;INS_SOLUTION_GOOD,INS_RTKFIXED,17.59236908128,78.12172976462,530.5525,-76.2000,1.5935,0.0335,0.0883,0.377808600,1.958405947,0.600380229,0.6652,0.6711,1.2499,0.0202,0.0205,0.0187,0.0218,0.0216,0.5587,ab000342,0*62fb741c
#INSPVAXA,FILE,0,30.0,FINESTEERING,2319,306860.650,02000000,46eb,17139;INS_SOLUTION_GOOD,INS_RTKFIXED,17.59236981498,78.12172982137,530.5578,-76.2000,1.6004,0.0311,0.0956,0.387362714,1.910383321,0.584321652,0.6652,0.6711,1.2499,0.0202,0.0205,0.0187,0.0218,0.0216,0.5587,ab000342,0*a2d82fea
#INSPVAXA,FILE,0,30.0,FINESTEERING,2319,306860.700,02000000,46eb,17139;INS_SOLUTION_GOOD,INS_RTKFIXED,17.59237055364,78.12172987498,530.5631,-76.2000,1.6129,0.0246,0.0939,0.401431021,1.852182309,0.571320492,0.6652,0.6711,1.2499,0.0202,0.0205,0.0187,0.0218,0.0216,0.5587,ab000342,0*9baebc3d
#INSPVAXA,FILE,0,30.0,FINESTEERING,2319,306860.750,02000000,46eb,17139;INS_SOLUTION_GOOD,INS_RTKFIXED,17.59237129374,78.12172992519,530.5690,-76.2000,1.6125,0.0205,0.1119,0.414383346,1.785227963,0.559798101,0.6652,0.6711,1.2499,0.0202,0.0205,0.0187,0.0218,0.0216,0.5587,ab000342,0*ff232f22
#INSPVAXA,FILE,0,30.0,FINESTEERING,2319,306860.800,02000000,46eb,17139;INS_SOLUTION_GOOD,INS_RTKFIXED,17.59237203648,78.12172997441,530.5754,-76.2000,1.6225,0.0213,0.1207,0.433619892,1.718607534,0.546500770,0.6652,0.6711,1.2499,0.0202,0.0205,0.0187,0.0218,0.0216,0.5587,ab000342,0*2b9b8235
#INSPVAXA,FILE,0,30.0,FINESTEERING,2319,306860.850,02000000,46eb,17139;INS_SOLUTION_GOOD,INS_RTKFIXED,17.59237278306,78.12173002369,530.5817,-76.2000,1.6335,0.0217,0.1059,0.412866110,1.656921593,0.533562669,0.6652,0.6711,1.2499,0.0202,0.0205,0.0187,0.0218,0.0216,0.5587,ab000342,0*dc9487a6
#INSPVAXA,FILE,0,30.0,FINESTEERING,2319,306860.900,02000000,46eb,17139;INS_SOLUTION_GOOD,INS_RTKFIXED,17.59237353615,78.12173007261,530.5872,-76.2000,1.6477,0.0234,0.0901,0.414717767,1.594146568,0.524501231,0.6652,0.6711,1.2499,0.0202,0.0205,0.0187,0.0218,0.0216,0.5587,ab000342,0*3b1aa110
#INSPVAXA,FILE,0,30.0,FINESTEERING,2319,306860.950,02000000,46eb,17139;INS_SOLUTION_GOOD,INS_RTKFIXED,17.59237429670,78.12173012274,530.5918,-76.2000,1.6699,0.0281,0.0642,0.395773346,1.591941964,0.516586138,0.6652,0.6711,1.2499,0.0202,0.0205,0.0187,0.0218,0.0216,0.5587,ab000342,0*a0d32565
#INSPVAXA,FILE,0,30.0,FINESTEERING,2319,306861.000,02000000,46eb,17139;INS_SOLUTION_GOOD,INS_RTKFIXED,17.59237506585,78.12173017379,530.5947,-76.2000,1.6865,0.0301,0.0348,0.415840003,1.596242321,0.505267534,0.6652,0.6711,1.2499,0.0202,0.0205,0.0187,0.0218,0.0216,0.5587,ab000342,0*6d8dfb6e
#INSPVAXA,FILE,0,30.0,FINESTEERING,2319,306861.050,02000000,46eb,17139;INS_SOLUTION_GOOD,INS_RTKFIXED,17.59237584304,78.12173022187,530.5965,-76.2000,1.7025,0.0342,0.0196,0.437198537,1.635359091,0.488005944,0.6658,0.6728,1.2502,0.0195,0.0199,0.0184,0.0216,0.0215,0.5588,ab000342,0*99107b59
#INSPVAXA,FILE,0,27.5,FINESTEERING,2319,306861.100,02000000,46eb,17139;INS_SOLUTION_GOOD,INS_RTKFIXED,17.59237662322,78.12173025828,530.5980,-76.2000,1.7086,0.0404,0.0271,0.490488608,1.672364555,0.454599957,0.6658,0.6728,1.2502,0.0195,0.0199,0.0184,0.0216,0.0215,0.5588,ab000342,0*20123d36
#INSPVAXA,FILE,0,27.5,FINESTEERING,2319,306861.150,02000000,46eb,17139;INS_SOLUTION_GOOD,INS_RTKFIXED,17.59237740734,78.12173029913,530.5999,-76.2000,1.7168,0.0534,0.0361,0.535458006,1.701652209,0.398217671,0.6658,0.6728,1.2502,0.0195,0.0199,0.0184,0.0216,0.0215,0.5588,ab000342,0*3c582cb4
#INSPVAXA,FILE,0,27.5,FINESTEERING,2319,306861.200,02000000,46eb,17139;INS_SOLUTION_GOOD,INS_RTKFIXED,17.59237819465,78.12173034233,530.6028,-76.2000,1.7260,0.0538,0.0627,0.573136223,1.716126892,0.323135358,0.6658,0.6728,1.2502,0.0195,0.0199,0.0184,0.0216,0.0215,0.5588,ab000342,0*57e70423
#INSPVAXA,FILE,0,27.5,FINESTEERING,2319,306861.250,02000000,46eb,17139;INS_SOLUTION_GOOD,INS_RTKFIXED,17.59237898644,78.12173038520,530.6067,-76.2000,1.7345,0.0531,0.0836,0.648810574,1.701956567,0.233666713,0.6658,0.6728,1.2502,0.0195,0.0199,0.0184,0.0216,0.0215,0.5588,ab000342,0*bc121ebb
#INSPVAXA,FILE,0,27.5,FINESTEERING,2319,306861.300,02000000,46eb,17139;INS_SOLUTION_GOOD,INS_RTKFIXED,17.59237978175,78.12173042660,530.6118,-76.2000,1.7448,0.0485,0.1033,0.721084783,1.689863575,0.140216186,0.6658,0.6728,1.2502,0.0195,0.0199,0.0184,0.0216,0.0215,0.5588,ab000342,0*1b4f11dd
#INSPVAXA,FILE,0,27.5,FINESTEERING,2319,306861.350,02000000,46eb,17139;INS_SOLUTION_GOOD,INS_RTKFIXED,17.59238058243,78.12173046729,530.6172,-76.2000,1.7565,0.0462,0.1119,0.809018535,1.646123590,0.043472497,0.6658,0.6728,1.2502,0.0195,0.0199,0.0184,0.0216,0.0215,0.5588,ab000342,0*e607644e
#INSPVAXA,FILE,0,27.5,FINESTEERING,2319,306861.400,02000000,46eb,17139;INS_SOLUTION_GOOD,INS_RTKFIXED,17.59238138787,78.12173050630,530.6230,-76.2000,1.7686,0.0442,0.1082,0.860325978,1.603963135,359.942129263,0.6658,0.6728,1.2502,0.0195,0.0199,0.0184,0.0216,0.0215,0.5588,ab000342,0*7f796a3c
#INSPVAXA,FILE,0,27.5,FINESTEERING,2319,306861.450,02000000,46eb,17139;INS_SOLUTION_GOOD,INS_RTKFIXED,17.59238219988,78.12173054389,530.6284,-76.2000,1.7841,0.0426,0.0991,0.918564556,1.545846992,359.828836427,0.6658,0.6728,1.2502,0.0195,0.0199,0.0184,0.0216,0.0215,0.5588,ab000342,0*cd840818
#INSPVAXA,FILE,0,27.5,FINESTEERING,2319,306861.500,02000000,46eb,17139;INS_SOLUTION_GOOD,INS_RTKFIXED,17.59238301945,78.12173057990,530.6329,-76.2000,1.8031,0.0375,0.0704,0.949375047,1.512550369,359.695970057,0.6658,0.6728,1.2502,0.0195,0.0199,0.0184,0.0216,0.0215,0.5588,ab000342,0*50ece0b0
#INSPVAXA,FILE,0,27.5,FINESTEERING,2319,306861.550,02000000,46eb,17139;INS_SOLUTION_GOOD,INS_RTKFIXED,17.59238384568,78.12173061273,530.6366,-76.2000,1.8155,0.0303,0.0591,0.974089500,1.484418157,359.548210858,0.6658,0.6728,1.2502,0.0195,0.0199,0.0184,0.0216,0.0215,0.5588,ab000342,0*123f30f0
#INSPVAXA,FILE,0,27.5,FINESTEERING,2319,306861.600,02000000,46eb,17139;INS_SOLUTION_GOOD,INS_RTKFIXED,17.59238467776,78.12173064325,530.6399,-76.2000,1.8296,0.0273,0.0577,0.959673708,1.470619544,359.384796513,0.6658,0.6728,1.2502,0.0195,0.0199,0.0184,0.0216,0.0215,0.5588,ab000342,0*9c9b93e4
#INSPVAXA,FILE,0,27.5,FINESTEERING,2319,306861.650,02000000,46eb,17139;INS_SOLUTION_GOOD,INS_RTKFIXED,17.59238551701,78.12173067269,530.6431,-76.2000,1.8475,0.0259,0.0620,0.916346466,1.461262513,359.196354409,0.6658,0.6728,1.2502,0.0195,0.0199,0.0184,0.0216,0.0215,0.5588,ab000342,0*989c94bb
#INSPVAXA,FILE,0,27.5,FINESTEERING,2319,306861.700,02000000,46eb,17139;INS_SOLUTION_GOOD,INS_RTKFIXED,17.59238636460,78.12173069816,530.6460,-76.2000,1.8670,0.0150,0.0546,0.894643043,1.456572995,358.990152316,0.6658,0.6728,1.2502,0.0195,0.0199,0.0184,0.0216,0.0215,0.5588,ab000342,0*73944072
#INSPVAXA,FILE,0,27.5,FINESTEERING,2319,306861.750,02000000,46eb,17139;INS_SOLUTION_GOOD,INS_RTKFIXED,17.59238722141,78.12173072030,530.6491,-76.2000,1.8875,0.0121,0.0555,0.899702515,1.445095768,358.767664662,0.6658,0.6728,1.2502,0.0195,0.0199,0.0184,0.0216,0.0215,0.5588,ab000342,0*3ecb4e28
#INSPVAXA,FILE,0,27.5,FINESTEERING,2319,306861.800,02000000,46eb,17139;INS_SOLUTION_GOOD,INS_RTKFIXED,17.59238808707,78.12173074214,530.6524,-76.2000,1.9070,0.0145,0.0592,0.911349406,1.422339255,358.529963288,0.6658,0.6728,1.2502,0.0195,0.0199,0.0184,0.0216,0.0215,0.5588,ab000342,0*3df876c4
#INSPVAXA,FILE,0,27.5,FINESTEERING,2319,306861.850,02000000,46eb,17139;INS_SOLUTION_GOOD,INS_RTKFIXED,17.59238896037,78.12173076420,530.6559,-76.2000,1.9228,0.0135,0.0656,0.919230754,1.399003694,358.273526801,0.6658,0.6728,1.2502,0.0195,0.0199,0.0184,0.0216,0.0215,0.5588,ab000342,0*63b3e850
#INSPVAXA,FILE,0,27.5,FINESTEERING,2319,306861.900,02000000,46eb,17139;INS_SOLUTION_GOOD,INS_RTKFIXED,17.59238984062,78.12173078414,530.6596,-76.2000,1.9369,0.0083,0.0679,0.964283858,1.368481677,358.001180645,0.6658,0.6728,1.2502,0.0195,0.0199,0.0184,0.0216,0.0215,0.5588,ab000342,0*6f889fe6
#INSPVAXA,FILE,0,27.5,FINESTEERING,2319,306861.950,02000000,46eb,17139;INS_SOLUTION_GOOD,INS_RTKFIXED,17.59239072641,78.12173080034,530.6635,-76.2000,1.9491,-0.0016,0.0730,1.039934308,1.342306247,357.718111354,0.6658,0.6728,1.2502,0.0195,0.0199,0.0184,0.0216,0.0215,0.5588,ab000342,0*471e27c1
#INSPVAXA,FILE,0,27.5,FINESTEERING,2319,306862.000,02000000,46eb,17139;INS_SOLUTION_GOOD,INS_RTKFIXED,17.59239161791,78.12173081297,530.6673,-76.2000,1.9624,-0.0069,0.0667,1.132898248,1.314733380,357.428291931,0.6658,0.6728,1.2502,0.0195,0.0199,0.0184,0.0216,0.0215,0.5588,ab000342,0*28b565cc
#INSPVAXA,FILE,0,27.5,FINESTEERING,2319,306862.050,02000000,46eb,17139;INS_SOLUTION_GOOD,INS_RTKFIXED,17.59239250812,78.12173081819,530.6708,-76.2000,1.9763,-0.0121,0.0669,1.230083506,1.301109607,357.132888374,0.6669,0.6754,1.2519,0.0193,0.0198,0.0180,0.0215,0.0213,0.5590,ab000342,0*4bcd90c4
#INSPVAXA,FILE,0,27.5,FINESTEERING,2319,306862.100,02000000,46eb,17139;INS_SOLUTION_GOOD,INS_RTKFIXED,17.59239339081,78.12173080737,530.6733,-76.2000,1.9871,-0.0245,0.0585,1.311392938,1.298985700,356.835939752,0.6669,0.6754,1.2519,0.0193,0.0198,0.0180,0.0215,0.0213,0.5590,ab000342,0*0fa7eca5
#INSPVAXA,FILE,0,27.5,FINESTEERING,2319,306862.150,02000000,46eb,17139;INS_SOLUTION_GOOD,INS_RTKFIXED,17.59239427690,78.12173079219,530.6758,-76.2000,1.9950,-0.0328,0.0607,1.374882936,1.310092501,356.527469198,0.6669,0.6754,1.2519,0.0193,0.0198,0.0180,0.0215,0.0213,0.5590,ab000342,0*4e7d6912
#INSPVAXA,FILE,0,27.5,FINESTEERING,2319,306862.200,02000000,46eb,17139;INS_SOLUTION_GOOD,INS_RTKFIXED,17.59239516767,78.12173077180,530.6784,-76.2000,2.0031,-0.0461,0.0626,1.419720395,1.308059196,356.200215613,0.6669,0.6754,1.2519,0.0193,0.0198,0.0180,0.0215,0.0213,0.5590,ab000342,0*d7f15b50
#INSPVAXA,FILE,0,31.0,FINESTEERING,2319,306862.250,02000000,46eb,17139;INS_SOLUTION_GOOD,INS_RTKFIXED,17.59239606205,78.12173074539,530.6811,-76.2000,2.0126,-0.0618,0.0663,1.420604549,1.323881612,355.856241688,0.6669,0.6754,1.2519,0.0193,0.0198,0.0180,0.0215,0.0213,0.5590,ab000342,0*51e1ca61
#INSPVAXA,FILE,0,31.0,FINESTEERING,2319,306862.300,02000000,46eb,17139;INS_SOLUTION_GOOD,INS_RTKFIXED,17.59239696039,78.12173071059,530.6838,-76.2000,2.0192,-0.0801,0.0647,1.391949474,1.317436116,355.508251923,0.6669,0.6754,1.2519,0.0193,0.0198,0.0180,0.0215,0.0213,0.5590,ab000342,0*4d3830c4
#INSPVAXA,FILE,0,31.0,FINESTEERING,2319,306862.350,02000000,46eb,17139;INS_SOLUTION_GOOD,INS_RTKFIXED,17.59239786110,78.12173066557,530.6866,-76.2000,2.0229,-0.1026,0.0702,1.310771522,1.318542825,355.166567186,0.6669,0.6754,1.2519,0.0193,0.0198,0.0180,0.0215,0.0213,0.5590,ab000342,0*8441d326
#INSPVAXA,FILE,0,31.0,FINESTEERING,2319,306862.400,02000000,46eb,17139;INS_SOLUTION_GOOD,INS_RTKFIXED,17.59239876503,78.12173061112,530.6894,-76.2000,2.0306,-0.1223,0.0722,1.216184637,1.332065770,354.836005197,0.6669,0.6754,1.2519,0.0193,0.0198,0.0180,0.0215,0.0213,0.5590,ab000342,0*6fa1d69f
#INSPVAXA,FILE,0,31.0,FINESTEERING,2319,306862.450,02000000,46eb,17139;INS_SOLUTION_GOOD,INS_RTKFIXED,17.59239967197,78.12173054830,530.6924,-76.2000,2.0384,-0.1365,0.0703,1.098522789,1.345724132,354.514015677,0.6669,0.6754,1.2519,0.0193,0.0198,0.0180,0.0215,0.0213,0.5590,ab000342,0*e8f6a38c
#INSPVAXA,FILE,0,31.0,FINESTEERING,2319,306862.500,02000000,46eb,17139;INS_SOLUTION_GOOD,INS_RTKFIXED,17.59240058435,78.12173047933,530.6954,-76.2000,2.0518,-0.1482,0.0735,1.012919187,1.347156007,354.188560242,0.6669,0.6754,1.2519,0.0193,0.0198,0.0180,0.0215,0.0213,0.5590,ab000342,0*93730947
#INSPVAXA,FILE,0,31.0,FINESTEERING,2319,306862.550,02000000,46eb,17139;INS_SOLUTION_GOOD,INS_RTKFIXED,17.59240150168,78.12173040750,530.6984,-76.2000,2.0609,-0.1506,0.0714,0.986825906,1.344330350,353.854494186,0.6669,0.6754,1.2519,0.0193,0.0198,0.0180,0.0215,0.0213,0.5590,ab000342,0*5e899c82
#INSPVAXA,FILE,0,31.0,FINESTEERING,2319,306862.600,02000000,46eb,17139;INS_SOLUTION_GOOD,INS_RTKFIXED,17.59240242564,78.12173033541,530.7013,-76.2000,2.0787,-0.1510,0.0646,1.031590517,1.339544443,353.520597784,0.6669,0.6754,1.2519,0.0193,0.0198,0.0180,0.0215,0.0213,0.5590,ab000342,0*694fb22e
#INSPVAXA,FILE,0,31.0,FINESTEERING,2319,306862.650,02000000,46eb,17139;INS_SOLUTION_GOOD,INS_RTKFIXED,17.59240335695,78.12173026200,530.7038,-76.2000,2.0965,-0.1543,0.0559,1.134933229,1.336351344,353.206478544,0.6669,0.6754,1.2519,0.0193,0.0198,0.0180,0.0215,0.0213,0.5590,ab000342,0*d4b8a7e9
#INSPVAXA,FILE,0,31.0,FINESTEERING,2319,306862.700,02000000,46eb,17139;INS_SOLUTION_GOOD,INS_RTKFIXED,17.59240429542,78.12173018695,530.7059,-76.2000,2.1075,-0.1613,0.0521,1.251027471,1.308797279,352.904211882,0.6669,0.6754,1.2519,0.0193,0.0198,0.0180,0.0215,0.0213,0.5590,ab000342,0*3e8ac77d
#INSPVAXA,FILE,0,31.0,FINESTEERING,2319,306862.750,02000000,46eb,17139;INS_SOLUTION_GOOD,INS_RTKFIXED,17.59240523902,78.12173010424,530.7078,-76.2000,2.1200,-0.1814,0.0494,1.391459250,1.293940606,352.622020904,0.6669,0.6754,1.2519,0.0193,0.0198,0.0180,0.0215,0.0213,0.5590,ab000342,0*a73a1a6d
#INSPVAXA,FILE,0,31.0,FINESTEERING,2319,306862.800,02000000,46eb,17139;INS_SOLUTION_GOOD,INS_RTKFIXED,17.59240618673,78.12173001420,530.7100,-76.2000,2.1244,-0.1942,0.0595,1.552926534,1.249649858,352.341944991,0.6669,0.6754,1.2519,0.0193,0.0198,0.0180,0.0215,0.0213,0.5590,ab000342,0*db6b0d31
#INSPVAXA,FILE,0,31.0,FINESTEERING,2319,306862.850,02000000,46eb,17139;INS_SOLUTION_GOOD,INS_RTKFIXED,17.59240713763,78.12172992002,530.7127,-76.2000,2.1333,-0.2026,0.0659,1.655916012,1.207732053,352.062796890,0.6669,0.6754,1.2519,0.0193,0.0198,0.0180,0.0215,0.0213,0.5590,ab000342,0*e2d38cfd
#INSPVAXA,FILE,0,31.0,FINESTEERING,2319,306862.900,02000000,46eb,17139;INS_SOLUTION_GOOD,INS_RTKFIXED,17.59240809114,78.12172982036,530.7159,-76.2000,2.1367,-0.2172,0.0801,1.746830408,1.152278678,351.789264161,0.6669,0.6754,1.2519,0.0193,0.0198,0.0180,0.0215,0.0213,0.5590,ab000342,0*83328400
#INSPVAXA,FILE,0,31.0,FINESTEERING,2319,306862.950,02000000,46eb,17139;INS_SOLUTION_GOOD,INS_RTKFIXED,17.59240904990,78.12172971165,530.7189,-76.2000,2.1499,-0.2385,0.0707,1.783159267,1.128027981,351.545218529,0.6669,0.6754,1.2519,0.0193,0.0198,0.0180,0.0215,0.0213,0.5590,ab000342,0*c7ef52f0
#INSPVAXA,FILE,0,31.0,FINESTEERING,2319,306863.000,02000000,46eb,17139;INS_SOLUTION_GOOD,INS_RTKFIXED,17.59241001040,78.12172959255,530.7219,-76.2000,2.1537,-0.2619,0.0666,1.761833590,1.117064520,351.326696190,0.6669,0.6754,1.2519,0.0193,0.0198,0.0180,0.0215,0.0213,0.5590,ab000342,0*bf1b72e9
#INSPVAXA,FILE,0,31.0,FINESTEERING,2319,306863.050,02000000,46eb,17139;INS_SOLUTION_GOOD,INS_RTKFIXED,17.59241096951,78.12172945265,530.7242,-76.2000,2.1572,-0.2851,0.0443,1.752370107,1.123939825,351.125018126,0.6680,0.6779,1.2536,0.0194,0.0200,0.0176,0.0213,0.0211,0.5592,ab000342,0*7021bfe3
#INSPVAXA,FILE,0,29.0,FINESTEERING,2319,306863.100,02000000,46eb,17139;INS_SOLUTION_GOOD,INS_RTKFIXED,17.59241191594,78.12172928176,530.7269,-76.2000,2.1569,-0.2917,0.0425,1.667052422,1.205502665,350.940646124,0.6680,0.6779,1.2536,0.0194,0.0200,0.0176,0.0213,0.0211,0.5592,ab000342,0*f7001385
#INSPVAXA,FILE,0,29.0,FINESTEERING,2319,306863.150,02000000,46eb,17139;INS_SOLUTION_GOOD,INS_RTKFIXED,17.59241286335,78.12172910935,530.7288,-76.2000,2.1541,-0.2929,0.0245,1.532860687,1.285446949,350.747492934,0.6680,0.6779,1.2536,0.0194,0.0200,0.0176,0.0213,0.0211,0.5592,ab000342,0*08e4cb32
#INSPVAXA,FILE,0,29.0,FINESTEERING,2319,306863.200,02000000,46eb,17139;INS_SOLUTION_GOOD,INS_RTKFIXED,17.59241380904,78.12172893326,530.7306,-76.2000,2.1524,-0.3041,0.0247,1.404239371,1.431325179,350.550635510,0.6680,0.6779,1.2536,0.0194,0.0200,0.0176,0.0213,0.0211,0.5592,ab000342,0*d492c72a
#INSPVAXA,FILE,0,29.0,FINESTEERING,2319,306863.250,02000000,46eb,17139;INS_SOLUTION_GOOD,INS_RTKFIXED,17.59241475510,78.12172875504,530.7328,-76.2000,2.1521,-0.3087,0.0434,1.342129727,1.558285278,350.355560681,0.6680,0.6779,1.2536,0.0194,0.0200,0.0176,0.0213,0.0211,0.5592,ab000342,0*81151c72
#INSPVAXA,FILE,0,29.0,FINESTEERING,2319,306863.300,02000000,46eb,17139;INS_SOLUTION_GOOD,INS_RTKFIXED,17.59241570259,78.12172857429,530.7359,-76.2000,2.1580,-0.3140,0.0627,1.282216137,1.679064777,350.186443522,0.6680,0.6779,1.2536,0.0194,0.0200,0.0176,0.0213,0.0211,0.5592,ab000342,0*bbbecc9b
#INSPVAXA,FILE,0,29.0,FINESTEERING,2319,306863.350,02000000,46eb,17139;INS_SOLUTION_GOOD,INS_RTKFIXED,17.59241665253,78.12172838920,530.7396,-76.2000,2.1615,-0.3276,0.0690,1.255800534,1.728053407,350.047232826,0.6680,0.6779,1.2536,0.0194,0.0200,0.0176,0.0213,0.0211,0.5592,ab000342,0*7342b654
#INSPVAXA,FILE,0,29.0,FINESTEERING,2319,306863.400,02000000,46eb,17139;INS_SOLUTION_GOOD,INS_RTKFIXED,17.59241760486,78.12172819916,530.7443,-76.2000,2.1680,-0.3378,0.0842,1.288706295,1.699836754,349.933965788,0.6680,0.6779,1.2536,0.0194,0.0200,0.0176,0.0213,0.0211,0.5592,ab000342,0*ccfab943
#INSPVAXA,FILE,0,29.0,FINESTEERING,2319,306863.450,02000000,46eb,17139;INS_SOLUTION_GOOD,INS_RTKFIXED,17.59241856056,78.12172800789,530.7495,-76.2000,2.1750,-0.3369,0.0974,1.376289738,1.597705161,349.829354914,0.6680,0.6779,1.2536,0.0194,0.0200,0.0176,0.0213,0.0211,0.5592,ab000342,0*2e1e7c5d
#INSPVAXA,FILE,0,29.0,FINESTEERING,2319,306863.500,02000000,46eb,17139;INS_SOLUTION_GOOD,INS_RTKFIXED,17.59241951934,78.12172781889,530.7549,-76.2000,2.1822,-0.3301,0.1014,1.459875707,1.457234523,349.717573705,0.6680,0.6779,1.2536,0.0194,0.0200,0.0176,0.0213,0.0211,0.5592,ab000342,0*152e9278
#INSPVAXA,FILE,0,29.0,FINESTEERING,2319,306863.550,02000000,46eb,17139;INS_SOLUTION_GOOD,INS_RTKFIXED,17.59242048248,78.12172763138,530.7601,-76.2000,2.1914,-0.3297,0.0956,1.529957953,1.296951186,349.594536968,0.6680,0.6779,1.2536,0.0194,0.0200,0.0176,0.0213,0.0211,0.5592,ab000342,0*f04f912c
#INSPVAXA,FILE,0,29.0,FINESTEERING,2319,306863.600,02000000,46eb,17139;INS_SOLUTION_GOOD,INS_RTKFIXED,17.59242145371,78.12172744254,530.7648,-76.2000,2.2139,-0.3385,0.0782,1.578793704,1.165045033,349.461060805,0.6680,0.6779,1.2536,0.0194,0.0200,0.0176,0.0213,0.0211,0.5592,ab000342,0*88a16e8d
#INSPVAXA,FILE,0,29.0,FINESTEERING,2319,306863.650,02000000,46eb,17139;INS_SOLUTION_GOOD,INS_RTKFIXED,17.59242243337,78.12172725018,530.7685,-76.2000,2.2328,-0.3477,0.0554,1.613224637,1.045391922,349.328814305,0.6680,0.6779,1.2536,0.0194,0.0200,0.0176,0.0213,0.0211,0.5592,ab000342,0*ed2f33ce
#INSPVAXA,FILE,0,29.0,FINESTEERING,2319,306863.700,02000000,46eb,17139;INS_SOLUTION_GOOD,INS_RTKFIXED,17.59242342263,78.12172705169,530.7713,-76.2000,2.2513,-0.3627,0.0394,1.625593684,0.937229270,349.204767097,0.6680,0.6779,1.2536,0.0194,0.0200,0.0176,0.0213,0.0211,0.5592,ab000342,0*71d07e26
#INSPVAXA,FILE,0,29.0,FINESTEERING,2319,306863.750,02000000,46eb,17139;INS_SOLUTION_GOOD,INS_RTKFIXED,17.59242442003,78.12172684576,530.7739,-76.2000,2.2708,-0.3811,0.0457,1.669716560,0.868816544,349.097897239,0.6680,0.6779,1.2536,0.0194,0.0200,0.0176,0.0213,0.0211,0.5592,ab000342,0*76fb62a4
#INSPVAXA,FILE,0,29.0,FINESTEERING,2319,306863.800,02000000,46eb,17139;INS_SOLUTION_GOOD,INS_RTKFIXED,17.59242542854,78.12172663310,530.7756,-76.2000,2.2942,-0.3952,0.0178,1.759631825,0.801291441,349.009205028,0.6680,0.6779,1.2536,0.0194,0.0200,0.0176,0.0213,0.0211,0.5592,ab000342,0*badbec39
#INSPVAXA,FILE,0,29.0,FINESTEERING,2319,306863.850,02000000,46eb,17139;INS_SOLUTION_GOOD,INS_RTKFIXED,17.59242644448,78.12172641860,530.7770,-76.2000,2.3062,-0.3911,0.0231,1.880519471,0.747305161,348.938377562,0.6680,0.6779,1.2536,0.0194,0.0200,0.0176,0.0213,0.0211,0.5592,ab000342,0*57610e38
#INSPVAXA,FILE,0,29.0,FINESTEERING,2319,306863.900,02000000,46eb,17139;INS_SOLUTION_GOOD,INS_RTKFIXED,17.59242746503,78.12172620677,530.7792,-76.2000,2.3121,-0.3845,0.0497,1.966921725,0.674146599,348.872947914,0.6680,0.6779,1.2536,0.0194,0.0200,0.0176,0.0213,0.0211,0.5592,ab000342,0*767f40d7
#INSPVAXA,FILE,0,29.0,FINESTEERING,2319,306863.950,02000000,46eb,17139;INS_SOLUTION_GOOD,INS_RTKFIXED,17.59242848734,78.12172600014,530.7824,-76.2000,2.3119,-0.3721,0.0731,2.057591643,0.587921998,348.792733829,0.6680,0.6779,1.2536,0.0194,0.0200,0.0176,0.0213,0.0211,0.5592,ab000342,0*302981c9
#INSPVAXA,FILE,0,29.0,FINESTEERING,2319,306864.000,02000000,46eb,17139;INS_SOLUTION_GOOD,INS_RTKFIXED,17.59242950808,78.12172579157,530.7867,-76.2000,2.3063,-0.3854,0.0880,2.158071002,0.482568278,348.707888327,0.6680,0.6779,1.2536,0.0194,0.0200,0.0176,0.0213,0.0211,0.5592,ab000342,0*d30e07b6
#INSPVAXA,FILE,0,29.0,FINESTEERING,2319,306864.050,02000000,46eb,17139;INS_SOLUTION_GOOD,INS_RTKFIXED,17.59243053981,78.12172559390,530.7918,-76.2000,2.3019,-0.3909,0.1083,2.260147717,0.331561778,348.621787530,0.6693,0.6805,1.2557,0.0193,0.0200,0.0175,0.0211,0.0209,0.5594,ab000342,0*15e66614
#INSPVAXA,FILE,0,29.0,FINESTEERING,2319,306864.100,02000000,46eb,17139;INS_SOLUTION_GOOD,INS_RTKFIXED,17.59243159315,78.12172542110,530.7967,-76.2000,2.2967,-0.3962,0.1145,2.316068273,0.185623386,348.551098697,0.6693,0.6805,1.2557,0.0193,0.0200,0.0175,0.0211,0.0209,0.5594,ab000342,0*5f1f5279
#INSPVAXA,FILE,0,30.5,FINESTEERING,2319,306864.150,02000000,46eb,17139;INS_SOLUTION_GOOD,INS_RTKFIXED,17.59243264071,78.12172524510,530.8028,-76.2000,2.2780,-0.4060,0.1588,2.332377481,0.005221323,348.494844558,0.6693,0.6805,1.2557,0.0193,0.0200,0.0175,0.0211,0.0209,0.5594,ab000342,0*ae40f8df
#INSPVAXA,FILE,0,30.5,FINESTEERING,2319,306864.200,02000000,46eb,17139;INS_SOLUTION_GOOD,INS_RTKFIXED,17.59243368553,78.12172506030,530.8101,-76.2000,2.2799,-0.4302,0.1673,2.241746959,-0.160912223,348.472218823,0.6693,0.6805,1.2557,0.0193,0.0200,0.0175,0.0211,0.0209,0.5594,ab000342,0*b3ba6ee6
#INSPVAXA,FILE,0,30.5,FINESTEERING,2319,306864.250,02000000,46eb,17139;INS_SOLUTION_GOOD,INS_RTKFIXED,17.59243472917,78.12172486315,530.8175,-76.2000,2.2777,-0.4558,0.1624,2.126988425,-0.348879196,348.469801987,0.6693,0.6805,1.2557,0.0193,0.0200,0.0175,0.0211,0.0209,0.5594,ab000342,0*043bdcab
#INSPVAXA,FILE,0,30.5,FINESTEERING,2319,306864.300,02000000,46eb,17139;INS_SOLUTION_GOOD,INS_RTKFIXED,17.59243577643,78.12172466014,530.8251,-76.2000,2.2923,-0.4547,0.1631,2.035938018,-0.535275409,348.463862282,0.6693,0.6805,1.2557,0.0193,0.0200,0.0175,0.0211,0.0209,0.5594,ab000342,0*509309ef
#INSPVAXA,FILE,0,30.5,FINESTEERING,2319,306864.350,02000000,46eb,17139;INS_SOLUTION_GOOD,INS_RTKFIXED,17.59243683113,78.12172446178,530.8316,-76.2000,2.3143,-0.4376,0.1238,1.927372683,-0.673187421,348.434334747,0.6693,0.6805,1.2557,0.0193,0.0200,0.0175,0.0211,0.0209,0.5594,ab000342,0*8722d8ce
#INSPVAXA,FILE,0,30.5,FINESTEERING,2319,306864.400,02000000,46eb,17139;INS_SOLUTION_GOOD,INS_RTKFIXED,17.59243789771,78.12172426988,530.8357,-76.2000,2.3447,-0.4266,0.0645,1.810469748,-0.766702452,348.390167560,0.6693,0.6805,1.2557,0.0193,0.0200,0.0175,0.0211,0.0209,0.5594,ab000342,0*963bf3d1
#INSPVAXA,FILE,0,30.5,FINESTEERING,2319,306864.450,02000000,46eb,17139;INS_SOLUTION_GOOD,INS_RTKFIXED,17.59243897677,78.12172407861,530.8367,-76.2000,2.3698,-0.4311,0.0010,1.747406698,-0.790535765,348.352609477,0.6693,0.6805,1.2557,0.0193,0.0200,0.0175,0.0211,0.0209,0.5594,ab000342,0*5e314341
#INSPVAXA,FILE,0,30.5,FINESTEERING,2319,306864.500,02000000,46eb,17139;INS_SOLUTION_GOOD,INS_RTKFIXED,17.59244006752,78.12172388494,530.8350,-76.2000,2.3981,-0.4402,-0.0468,1.758444755,-0.741358256,348.330262979,0.6693,0.6805,1.2557,0.0193,0.0200,0.0175,0.0211,0.0209,0.5594,ab000342,0*fb56d211
#INSPVAXA,FILE,0,30.5,FINESTEERING,2319,306864.550,02000000,46eb,17139;INS_SOLUTION_GOOD,INS_RTKFIXED,17.59244116750,78.12172368851,530.8315,-76.2000,2.4135,-0.4414,-0.0651,1.856547290,-0.695322188,348.326275657,0.6693,0.6805,1.2557,0.0193,0.0200,0.0175,0.0211,0.0209,0.5594,ab000342,0*e0691bb7
#INSPVAXA,FILE,0,30.5,FINESTEERING,2319,306864.600,02000000,46eb,17139;INS_SOLUTION_GOOD,INS_RTKFIXED,17.59244227647,78.12172349298,530.8275,-76.2000,2.4377,-0.4350,-0.0673,1.966389517,-0.626734922,348.331228581,0.6693,0.6805,1.2557,0.0193,0.0200,0.0175,0.0211,0.0209,0.5594,ab000342,0*ce196bf3
#INSPVAXA,FILE,0,30.5,FINESTEERING,2319,306864.650,02000000,46eb,17139;INS_SOLUTION_GOOD,INS_RTKFIXED,17.59244339643,78.12172329989,530.8235,-76.2000,2.4628,-0.4328,-0.0680,2.069432258,-0.585686991,348.327787649,0.6693,0.6805,1.2557,0.0193,0.0200,0.0175,0.0211,0.0209,0.5594,ab000342,0*f5bf138f
#INSPVAXA,FILE,0,30.5,FINESTEERING,2319,306864.700,02000000,46eb,17139;INS_SOLUTION_GOOD,INS_RTKFIXED,17.59244452893,78.12172310554,530.8198,-76.2000,2.4944,-0.4399,-0.0578,2.157569282,-0.557474580,348.317630790,0.6693,0.6805,1.2557,0.0193,0.0200,0.0175,0.0211,0.0209,0.5594,ab000342,0*2289f097
#INSPVAXA,FILE,0,30.5,FINESTEERING,2319,306864.750,02000000,46eb,17139;INS_SOLUTION_GOOD,INS_RTKFIXED,17.59244567456,78.12172290728,530.8165,-76.2000,2.5213,-0.4479,-0.0446,2.243600550,-0.545491523,348.301205664,0.6693,0.6805,1.2557,0.0193,0.0200,0.0175,0.0211,0.0209,0.5594,ab000342,0*34ba173f
#INSPVAXA,FILE,0,30.5,FINESTEERING,2319,306864.800,02000000,46eb,17139;INS_SOLUTION_GOOD,INS_RTKFIXED,17.59244683534,78.12172270578,530.8135,-76.2000,2.5594,-0.4542,-0.0493,2.306028138,-0.501434558,348.277612567,0.6693,0.6805,1.2557,0.0193,0.0200,0.0175,0.0211,0.0209,0.5594,ab000342,0*f82fe8ca
#INSPVAXA,FILE,0,30.5,FINESTEERING,2319,306864.850,02000000,46eb,17139;INS_SOLUTION_GOOD,INS_RTKFIXED,17.59244800901,78.12172250277,530.8111,-76.2000,2.5858,-0.4558,-0.0214,2.363082438,-0.479733762,348.251466864,0.6693,0.6805,1.2557,0.0193,0.0200,0.0175,0.0211,0.0209,0.5594,ab000342,0*d54149c8
#INSPVAXA,FILE,0,30.5,FINESTEERING,2319,306864.900,02000000,46eb,17139;INS_SOLUTION_GOOD,INS_RTKFIXED,17.59244919822,78.12172229620,530.8095,-76.2000,2.6228,-0.4672,-0.0163,2.346432995,-0.464889193,348.238484050,0.6693,0.6805,1.2557,0.0193,0.0200,0.0175,0.0211,0.0209,0.5594,ab000342,0*e6a6861f
#INSPVAXA,FILE,0,30.5,FINESTEERING,2319,306864.950,02000000,46eb,17139;INS_SOLUTION_GOOD,INS_RTKFIXED,17.59245040191,78.12172208168,530.8080,-76.2000,2.6536,-0.4879,-0.0131,2.331474242,-0.452118187,348.252633653,0.6693,0.6805,1.2557,0.0193,0.0200,0.0175,0.0211,0.0209,0.5594,ab000342,0*af862bb0
#INSPVAXA,FILE,0,30.5,FINESTEERING,2319,306865.000,02000000,46eb,17139;INS_SOLUTION_GOOD,INS_RTKFIXED,17.59245162016,78.12172185710,530.8066,-76.2000,2.6867,-0.5096,-0.0117,2.290082115,-0.444763498,348.297799673,0.6693,0.6805,1.2557,0.0193,0.0200,0.0175,0.0211,0.0209,0.5594,ab000342,0*c17cab3f
#INSPVAXA,FILE,0,30.5,FINESTEERING,2319,306865.050,02000000,46eb,17139;INS_SOLUTION_GOOD,INS_RTKFIXED,17.59245285649,78.12172162699,530.8056,-76.2000,2.7157,-0.5190,-0.0032,2.238507805,-0.462497010,348.370122410,0.6541,0.6664,1.2273,0.0190,0.0198,0.0175,0.0208,0.0206,0.5596,ab000342,0*bee1de30
#INSPVAXA,FILE,0,29.5,FINESTEERING,2319,306865.100,02000000,46eb,17139;INS_SOLUTION_GOOD,INS_RTKFIXED,17.59245411168,78.12172139313,530.8054,-76.2000,2.7549,-0.5232,-0.0025,2.164141788,-0.482869417,348.458297203,0.6541,0.6664,1.2273,0.0190,0.0198,0.0175,0.0208,0.0206,0.5596,ab000342,0*014dcc2c
#INSPVAXA,FILE,0,29.5,FINESTEERING,2319,306865.150,02000000,46eb,17139;INS_SOLUTION_GOOD,INS_RTKFIXED,17.59245538312,78.12172116041,530.8048,-76.2000,2.7906,-0.5172,-0.0165,2.096739348,-0.506856923,348.547872578,0.6541,0.6664,1.2273,0.0190,0.0198,0.0175,0.0208,0.0206,0.5596,ab000342,0*49470a54
#INSPVAXA,FILE,0,29.5,FINESTEERING,2319,306865.200,02000000,46eb,17139;INS_SOLUTION_GOOD,INS_RTKFIXED,17.59245667205,78.12172092993,530.8036,-76.2000,2.8317,-0.5116,-0.0252,2.023046411,-0.513382352,348.642355442,0.6541,0.6664,1.2273,0.0190,0.0198,0.0175,0.0208,0.0206,0.5596,ab000342,0*5ae0f8ba
#INSPVAXA,FILE,0,29.5,FINESTEERING,2319,306865.250,02000000,46eb,17139;INS_SOLUTION_GOOD,INS_RTKFIXED,17.59245797775,78.12172069948,530.8021,-76.2000,2.8666,-0.5121,-0.0297,1.954822222,-0.506414246,348.752280609,0.6541,0.6664,1.2273,0.0190,0.0198,0.0175,0.0208,0.0206,0.5596,ab000342,0*097cdb08
#INSPVAXA,FILE,0,29.5,FINESTEERING,2319,306865.300,02000000,46eb,17139;INS_SOLUTION_GOOD,INS_RTKFIXED,17.59245929971,78.12172046705,530.8006,-76.2000,2.9025,-0.5176,-0.0283,1.915134042,-0.492800126,348.885227366,0.6541,0.6664,1.2273,0.0190,0.0198,0.0175,0.0208,0.0206,0.5596,ab000342,0*d7a4af2e
#INSPVAXA,FILE,0,29.5,FINESTEERING,2319,306865.350,02000000,46eb,17139;INS_SOLUTION_GOOD,INS_RTKFIXED,17.59246063660,78.12172023456,530.7993,-76.2000,2.9357,-0.5141,-0.0210,1.889859959,-0.491739638,349.041445808,0.6541,0.6664,1.2273,0.0190,0.0198,0.0175,0.0208,0.0206,0.5596,ab000342,0*92c13f5c
#INSPVAXA,FILE,0,29.5,FINESTEERING,2319,306865.400,02000000,46eb,17139;INS_SOLUTION_GOOD,INS_RTKFIXED,17.59246198791,78.12172000476,530.7984,-76.2000,2.9678,-0.5076,-0.0153,1.883080894,-0.511905440,349.210685137,0.6541,0.6664,1.2273,0.0190,0.0198,0.0175,0.0208,0.0206,0.5596,ab000342,0*3d69b7c6
#INSPVAXA,FILE,0,29.5,FINESTEERING,2319,306865.450,02000000,46eb,17139;INS_SOLUTION_GOOD,INS_RTKFIXED,17.59246335339,78.12171977924,530.7975,-76.2000,2.9985,-0.4971,-0.0205,1.896006271,-0.536305855,349.385855789,0.6541,0.6664,1.2273,0.0190,0.0198,0.0175,0.0208,0.0206,0.5596,ab000342,0*a4dc446c
#INSPVAXA,FILE,0,29.5,FINESTEERING,2319,306865.500,02000000,46eb,17139;INS_SOLUTION_GOOD,INS_RTKFIXED,17.59246473078,78.12171955963,530.7966,-76.2000,3.0250,-0.4830,-0.0163,1.943585892,-0.552476946,349.560719857,0.6541,0.6664,1.2273,0.0190,0.0198,0.0175,0.0208,0.0206,0.5596,ab000342,0*209b3d49
#INSPVAXA,FILE,0,29.5,FINESTEERING,2319,306865.550,02000000,46eb,17139;INS_SOLUTION_GOOD,INS_RTKFIXED,17.59246611974,78.12171934633,530.7955,-76.2000,3.0483,-0.4683,-0.0204,1.998701001,-0.576052661,349.730579093,0.6541,0.6664,1.2273,0.0190,0.0198,0.0175,0.0208,0.0206,0.5596,ab000342,0*6bda7f0a
#INSPVAXA,FILE,0,29.5,FINESTEERING,2319,306865.600,02000000,46eb,17139;INS_SOLUTION_GOOD,INS_RTKFIXED,17.59246751731,78.12171913795,530.7944,-76.2000,3.0662,-0.4616,-0.0220,2.042830595,-0.596773317,349.891560036,0.6541,0.6664,1.2273,0.0190,0.0198,0.0175,0.0208,0.0206,0.5596,ab000342,0*a9117dc8
#INSPVAXA,FILE,0,29.5,FINESTEERING,2319,306865.650,02000000,46eb,17139;INS_SOLUTION_GOOD,INS_RTKFIXED,17.59246892165,78.12171893184,530.7933,-76.2000,3.0774,-0.4563,-0.0143,2.088661966,-0.648802264,350.052069213,0.6541,0.6664,1.2273,0.0190,0.0198,0.0175,0.0208,0.0206,0.5596,ab000342,0*c742a620
#INSPVAXA,FILE,0,29.5,FINESTEERING,2319,306865.700,02000000,46eb,17139;INS_SOLUTION_GOOD,INS_RTKFIXED,17.59247033023,78.12171872632,530.7927,-76.2000,3.0868,-0.4571,-0.0073,2.105684842,-0.697540688,350.212183252,0.6541,0.6664,1.2273,0.0190,0.0198,0.0175,0.0208,0.0206,0.5596,ab000342,0*cb85f79c
#INSPVAXA,FILE,0,29.5,FINESTEERING,2319,306865.750,02000000,46eb,17139;INS_SOLUTION_GOOD,INS_RTKFIXED,17.59247174273,78.12171852085,530.7922,-76.2000,3.0950,-0.4568,-0.0086,2.113904683,-0.759953664,350.379693045,0.6541,0.6664,1.2273,0.0190,0.0198,0.0175,0.0208,0.0206,0.5596,ab000342,0*70f2f3a1
