#CORRIMUDATAA,FILE,0,34.0,FINESTEERING,2319,303858.250,02000800,e5fc,17139;2319,303858.250000000,0.0000014787209903,-0.0000089343236900,-0.0000151778464672,-0.0002690235509135,0.0005623888271176,-0.0005173641225467*ca5faf74
#CORRIMUDATAA,FILE,0,34.0,FINESTEERING,2319,303858.350,02000800,e5fc,17139;2319,303858.350000000,-0.0000010090034194,-0.0000051550269277,-0.0000000143172604,0.0003691122516975,0.0002544990223716,0.0002227018162393*5310f74a
#CORRIMUDATAA,FILE,0,34.0,FINESTEERING,2319,303858.450,02000800,e5fc,17139;2319,303858.450000000,-0.0000048917262154,0.0000043315916261,0.0000051175325335,0.0000367488243230,0.0001381540250874,-0.0000871286805325*3c6b5e3f
#CORRIMUDATAA,FILE,0,34.0,FINESTEERING,2319,303858.550,02000800,e5fc,17139;2319,303858.550000000,0.0000036805426175,-0.0000025761995143,-0.0000045580183957,-0.0003850472658491,-0.0000249281821750,-0.0000255577969060*befcb6d0
#CORRIMUDATAA,FILE,0,34.0,FINESTEERING,2319,303858.600,02000800,e5fc,17139;2319,303858.600000000,0.0000027241675904,0.0000128790572836,-0.0000071794565912,-0.0003016482095442,0.0002943083463637,0.0002617314863927*3534abf7
#CORRIMUDATAA,FILE,0,34.0,FINESTEERING,2319,303858.750,02000800,e5fc,17139;2319,303858.750000000,0.0001691938817229,0.0000380781699069,-0.0000196622209889,-0.0016683496803199,0.0087763047346279,-0.0011818737542783*fbfe49c3
#CORRIMUDATAA,FILE,0,34.0,FINESTEERING,2319,303858.850,02000800,e5fc,17139;2319,303858.850000000,0.0000565520154397,0.0000467080757147,0.0000605522306382,0.0028007746677560,0.0125328501325092,0.0023195752032636*86a31bee
#CORRIMUDATAA,FILE,0,34.0,FINESTEERING,2319,303858.950,02000800,e5fc,17139;2319,303858.950000000,-0.0001033115942938,0.0000352038291380,0.0002642772219119,0.0005035029001426,0.0112457097930289,0.0009695778393122*688ed556
#CORRIMUDATAA,FILE,0,34.0,FINESTEERING,2319,303859.050,02000800,e5fc,17139;2319,303859.050000000,-0.0000667345307790,-0.0000065540805958,0.0002886840919976,-0.0008834035209495,0.0098247032191148,-0.0006638558989906*7f1de229
#CORRIMUDATAA,FILE,0,33.0,FINESTEERING,2319,303859.150,02000800,e5fc,17139;2319,303859.150000000,-0.0007118691246058,-0.0001588023839896,0.0001881111039426,-0.0017627928399330,-0.0210475341384951,0.0102114799989799*fe1a887d
#CORRIMUDATAA,FILE,0,33.0,FINESTEERING,2319,303859.250,02000800,e5fc,17139;2319,303859.250000000,-0.0008539873149995,-0.0001339641919454,-0.0001760518121642,-0.0021324319871646,-0.0342626874242055,0.0025795733375130*b2b6e90b
#CORRIMUDATAA,FILE,0,33.0,FINESTEERING,2319,303859.350,02000800,e5fc,17139;2319,303859.350000000,0.0003110591218843,0.0002098928659126,0.0000694038887303,0.0058022699936370,0.0047376067786193,-0.0130351902521376*87f54174
#CORRIMUDATAA,FILE,0,33.0,FINESTEERING,2319,303859.400,02000800,e5fc,17139;2319,303859.400000000,0.0007550197189954,0.0001818502805370,0.0002327527367985,0.0020718305338594,0.0181622061514627,-0.0118042146947922*695e7507
#CORRIMUDATAA,FILE,0,33.0,FINESTEERING,2319,303859.500,02000800,e5fc,17139;2319,303859.500000000,0.0004051970612701,-0.0001382603762596,-0.0000810978510892,-0.0060358744483240,0.0008359717503685,0.0022351312323892*be9701d6
#CORRIMUDATAA,FILE,0,33.0,FINESTEERING,2319,303859.600,02000800,e5fc,17139;2319,303859.600000000,-0.0002453597737034,-0.0000287816897547,-0.0001235716995777,0.0037921967489052,-0.0028843054759284,0.0077847953914171*05ff1333
#CORRIMUDATAA,FILE,0,33.0,FINESTEERING,2319,303859.700,02000800,e5fc,17139;2319,303859.700000000,-0.0000741396443045,0.0001424555388680,0.0001980411111355,0.0010409743241608,0.0005967787562397,-0.0033127879442657*30ede03a
#CORRIMUDATAA,FILE,0,33.0,FINESTEERING,2319,303859.800,02000800,e5fc,17139;2319,303859.800000000,0.0000698269851084,-0.0000493506543712,-0.0001020489460115,-0.0053556845658901,0.0003505583435581,-0.0011731987306229*a2b9aa9b
#CORRIMUDATAA,FILE,0,33.0,FINESTEERING,2319,303859.900,02000800,e5fc,17139;2319,303859.900000000,-0.0000387710435703,0.0000658873700666,-0.0000656050082375,0.0041337034247640,0.0008686448916765,0.0015221361938578*323ff22a
#CORRIMUDATAA,FILE,0,33.0,FINESTEERING,2319,303860.000,02000800,e5fc,17139;2319,303860.000000000,0.0000140235340812,-0.0000002469015369,0.0001194548483158,-0.0022055358577849,-0.0009241183703709,-0.0005226633883471*aa283b03
#CORRIMUDATAA,FILE,0,33.0,FINESTEERING,2319,303860.100,02000800,e5fc,17139;2319,303860.100000000,0.0000187378853646,0.0000500891490248,-0.0000703551757364,-0.0000505407548171,0.0004328211934543,0.0000781706437608*6991f707
#CORRIMUDATAA,FILE,0,35.0,FINESTEERING,2319,303860.200,02000800,e5fc,17139;2319,303860.200000000,-0.0000217901820070,0.0000848458822906,0.0000566008309748,0.0024264090829926,0.0008581155858539,-0.0003172657628178*02800c99
#CORRIMUDATAA,FILE,0,35.0,FINESTEERING,2319,303860.300,02000800,e5fc,17139;2319,303860.300000000,-0.0000525359257994,0.0000809251957199,0.0001123220123745,-0.0015955051764007,-0.0003489308852594,0.0004476336283920*03dbdc39
#CORRIMUDATAA,FILE,0,35.0,FINESTEERING,2319,303860.400,02000800,e5fc,17139;2319,303860.400000000,0.0001018390299121,0.0000971846239808,0.0000985621375066,0.0021303533088390,0.0058746607209285,-0.0032688306558983*823b7a62
#CORRIMUDATAA,FILE,0,35.0,FINESTEERING,2319,303860.500,02000800,e5fc,17139;2319,303860.500000000,0.0004571115793491,0.0003031208638938,0.0003492254729293,0.0015878775809241,0.0142301756220686,-0.0077106948921304*c92280f9
#CORRIMUDATAA,FILE,0,35.0,FINESTEERING,2319,303860.600,02000800,e5fc,17139;2319,303860.600000000,0.0005150661353032,0.0000066244988067,0.0004968478431766,-0.0008017116459814,0.0228413202225757,0.0001608872404896*9f69af8c
#CORRIMUDATAA,FILE,0,35.0,FINESTEERING,2319,303860.700,02000800,e5fc,17139;2319,303860.700000000,0.0002480090275939,0.0001175649884277,0.0005833525276364,0.0000007635748133,0.0238892703653797,0.0085389368458505*becb36e3
#CORRIMUDATAA,FILE,0,35.0,FINESTEERING,2319,303860.750,02000800,e5fc,17139;2319,303860.750000000,-0.0000246605759144,0.0000573688460093,0.0007091422674632,0.0030674158160777,0.0213295508118702,0.0105807297198487*28acc792
#CORRIMUDATAA,FILE,0,35.0,FINESTEERING,2319,303860.850,02000800,e5fc,17139;2319,303860.850000000,-0.0002252710591806,-0.0000284293328289,0.0010779287831057,0.0014808564003627,0.0221181098577941,0.0000453122875058*8ff8124e
#CORRIMUDATAA,FILE,0,35.0,FINESTEERING,2319,303860.950,02000800,e5fc,17139;2319,303860.950000000,-0.0000419421762223,-0.0000009155800832,0.0014308248003527,0.0009827396835013,0.0227050537115479,-0.0042522679866215*4ff04a23
#CORRIMUDATAA,FILE,0,35.0,FINESTEERING,2319,303861.050,02000800,e5fc,17139;2319,303861.050000000,0.0000750077861062,-0.0000863338382159,0.0017205370126218,-0.0000423450977528,0.0225492647639945,-0.0005318025261441*00eba805
#CORRIMUDATAA,FILE,0,33.0,FINESTEERING,2319,303861.150,02000800,e5fc,17139;2319,303861.150000000,0.0000230675721717,-0.0001261925289226,0.0020462611322200,0.0013182581570485,0.0227069956226954,0.0023683325331525*e76d5382
#CORRIMUDATAA,FILE,0,33.0,FINESTEERING,2319,303861.200,02000800,e5fc,17139;2319,303861.200000000,0.0000095837713898,-0.0001948838823733,0.0022258391229141,0.0016949660616424,0.0236721031098329,0.0014334376077629*190efefc
#CORRIMUDATAA,FILE,0,33.0,FINESTEERING,2319,303861.350,02000800,e5fc,17139;2319,303861.350000000,0.0001063254224034,-0.0002434381360730,0.0026099140297774,-0.0004041432401938,0.0248749289317213,-0.0006954321759895*486e4a3f
#CORRIMUDATAA,FILE,0,33.0,FINESTEERING,2319,303861.450,02000800,e5fc,17139;2319,303861.450000000,0.0000855444878255,-0.0002191503459491,0.0028199644617476,0.0007730427569222,0.0235885406241887,0.0007185712864383*cf4da272
#CORRIMUDATAA,FILE,0,33.0,FINESTEERING,2319,303861.550,02000800,e5fc,17139;2319,303861.550000000,0.0000461465426189,-0.0002866406981639,0.0029263407265863,-0.0015899900491355,0.0238180351602244,-0.0008149911000678*cc0fc332
#CORRIMUDATAA,FILE,0,33.0,FINESTEERING,2319,303861.650,02000800,e5fc,17139;2319,303861.650000000,0.0001158644874732,-0.0002437039546276,0.0029699685866347,-0.0005602143743742,0.0245152481969909,-0.0008733323572079*d2ac67c8
#CORRIMUDATAA,FILE,0,33.0,FINESTEERING,2319,303861.750,02000800,e5fc,17139;2319,303861.750000000,0.0001640275380752,-0.0001631492874909,0.0029376770967042,-0.0000463149564177,0.0241097779427729,-0.0010230296179939*c04c7388
#CORRIMUDATAA,FILE,0,33.0,FINESTEERING,2319,303861.800,02000800,e5fc,17139;2319,303861.800000000,0.0001515268934443,-0.0000808447012050,0.0029101983772919,-0.0006928627423825,0.0237645835367236,0.0005789480638853*a1723ff5
#CORRIMUDATAA,FILE,0,33.0,FINESTEERING,2319,303861.850,02000800,e5fc,17139;2319,303861.850000000,0.0001197814396972,-0.0000002449182322,0.0028765768083942,-0.0007051259494156,0.0235680326996719,0.0010317036238373*d4fb657c
#CORRIMUDATAA,FILE,0,33.0,FINESTEERING,2319,303861.900,02000800,e5fc,17139;2319,303861.900000000,0.0000765860092815,0.0000314108455466,0.0028512634767731,-0.0003003967613600,0.0226279700844219,0.0005391956952094*1c177a68
#CORRIMUDATAA,FILE,0,33.0,FINESTEERING,2319,303861.950,02000800,e5fc,17139;2319,303861.950000000,0.0001007318123917,0.0000931229038614,0.0028159683659348,-0.0009508120658451,0.0231755546527471,-0.0002197111697840*36f4bd46
#CORRIMUDATAA,FILE,0,33.0,FINESTEERING,2319,303862.000,02000800,e5fc,17139;2319,303862.000000000,0.0001054659672569,0.0001635934275146,0.0027660163176686,-0.0015111322154883,0.0231812986719785,-0.0003747819182511*71edea7b
#CORRIMUDATAA,FILE,0,33.0,FINESTEERING,2319,303862.050,02000800,e5fc,17139;2319,303862.050000000,0.0000919180133745,0.0001546319159322,0.0026732198252650,-0.0020714256149061,0.0240279064818377,-0.0002280337079009*76181a60
#CORRIMUDATAA,FILE,0,33.0,FINESTEERING,2319,303862.100,02000800,e5fc,17139;2319,303862.100000000,0.0000860413229369,0.0001215512132838,0.0025529544500725,-0.0031277174122610,0.0248127497062007,-0.0019652529140673*b487c754
#CORRIMUDATAA,FILE,0,33.0,FINESTEERING,2319,303862.150,02000800,e5fc,17139;2319,303862.150000000,0.0000784371036856,0.0000682333876405,0.0024034059650147,-0.0038294536226616,0.0257987925651441,-0.0017146479470351*79c958db
#CORRIMUDATAA,FILE,0,33.0,FINESTEERING,2319,303862.200,02000800,e5fc,17139;2319,303862.200000000,0.0000146006474329,0.0000200401860725,0.0022651866304916,-0.0023834691069207,0.0253311953693769,0.0015289254202505*c7690e33
#CORRIMUDATAA,FILE,0,32.5,FINESTEERING,2319,303862.250,02000800,e5fc,17139;2319,303862.250000000,-0.0000629723716198,-0.0001171964024824,0.0021819943717792,-0.0003664918247324,0.0256377642203804,0.0004919310308708*370f2b2a
#CORRIMUDATAA,FILE,0,32.5,FINESTEERING,2319,303862.300,02000800,e5fc,17139;2319,303862.300000000,-0.0001185016071976,-0.0002848175601540,0.0021160500806148,-0.0010094701459607,0.0256360603804142,-0.0008765586485874*f002e64f
#CORRIMUDATAA,FILE,0,32.5,FINESTEERING,2319,303862.350,02000800,e5fc,17139;2319,303862.350000000,-0.0001435634833768,-0.0003671732333816,0.0020267643631016,-0.0026204250278456,0.0265176814135419,-0.0017765141281829*ae39f88f
#CORRIMUDATAA,FILE,0,32.5,FINESTEERING,2319,303862.400,02000800,e5fc,17139;2319,303862.400000000,-0.0001474312030109,-0.0004767961008974,0.0018518171764173,-0.0042007165509817,0.0271077456418263,-0.0023848043775058*240007a3
#CORRIMUDATAA,FILE,0,32.5,FINESTEERING,2319,303862.450,02000800,e5fc,17139;2319,303862.450000000,-0.0001571563390036,-0.0005475734886971,0.0015973803545543,-0.0041780827873917,0.0268994806483133,0.0002357334520251*3128397b
#CORRIMUDATAA,FILE,0,32.5,FINESTEERING,2319,303862.500,02000000,e5fc,17139;2319,303862.500000000,-0.0002198976834000,-0.0005896971105402,0.0013188719088624,-0.0023280662083222,0.0250603371104275,0.0019656430311230*fa905a83
#CORRIMUDATAA,FILE,0,32.5,FINESTEERING,2319,303862.550,02000000,e5fc,17139;2319,303862.550000000,-0.0002194769277295,-0.0006029687705105,0.0010750035498713,-0.0006998670900082,0.0239226967650543,0.0020898545818986*f72fb8f8
#CORRIMUDATAA,FILE,0,32.5,FINESTEERING,2319,303862.600,02000000,e5fc,17139;2319,303862.600000000,-0.0002347637611363,-0.0005274311487710,0.0008694827104731,0.0002423592713981,0.0226974590747611,0.0023883551572219*da4a4531
#CORRIMUDATAA,FILE,0,32.5,FINESTEERING,2319,303862.650,02000000,e5fc,17139;2319,303862.650000000,-0.0002427477082256,-0.0004342341932209,0.0006966380098575,0.0005032261181258,0.0213613905061974,0.0041060021079528*e3b9db96
#CORRIMUDATAA,FILE,0,32.5,FINESTEERING,2319,303862.700,02000000,e5fc,17139;2319,303862.700000000,-0.0002857897181815,-0.0003837186107653,0.0005010421616333,-0.0002004768139392,0.0204816007443794,0.0014190330856295*6d4f585a
#CORRIMUDATAA,FILE,0,32.5,FINESTEERING,2319,303862.750,02000000,e5fc,17139;2319,303862.750000000,-0.0002835464403053,-0.0004374920143476,0.0002599936535203,-0.0010909286301394,0.0192793242268724,0.0006122259165090*820abbcb
#CORRIMUDATAA,FILE,0,32.5,FINESTEERING,2319,303862.800,02000000,e5fc,17139;2319,303862.800000000,-0.0002416121653441,-0.0004394218224729,-0.0000183983809134,-0.0035488403603238,0.0185369971647320,0.0018288269642750*75f4ca5c
#CORRIMUDATAA,FILE,0,32.5,FINESTEERING,2319,303862.850,02000000,e5fc,17139;2319,303862.850000000,-0.0001634723570349,-0.0003339835887607,-0.0002994083713576,-0.0037805967198706,0.0192501105995834,0.0008810889494072*4646cf6f
#CORRIMUDATAA,FILE,0,32.5,FINESTEERING,2319,303862.900,02000000,e5fc,17139;2319,303862.900000000,-0.0000800806917095,-0.0000877441670108,-0.0004813952516580,-0.0017991756580707,0.0185139255469866,-0.0017681262944520*4f88e40e
#CORRIMUDATAA,FILE,0,32.5,FINESTEERING,2319,303862.950,02000000,e5fc,17139;2319,303862.950000000,-0.0000275623492761,0.0000430168866052,-0.0005187372396422,0.0034402274118755,0.0177645841820866,-0.0015049144619636*be262bd9
#CORRIMUDATAA,FILE,0,32.5,FINESTEERING,2319,303863.000,02000000,e5fc,17139;2319,303863.000000000,-0.0000397696610663,0.0000266865724278,-0.0003845641002369,0.0058868341936315,0.0173231579111708,-0.0020899134329919*40106a94
#CORRIMUDATAA,FILE,0,32.5,FINESTEERING,2319,303863.050,02000000,e5fc,17139;2319,303863.050000000,-0.0000108677336729,-0.0000961028739182,-0.0002118146790917,0.0036828299752379,0.0185286021816141,-0.0042004336540761*bd63bd96
#CORRIMUDATAA,FILE,0,19.5,FINESTEERING,2319,303863.100,02000000,e5fc,17139;2319,303863.100000000,0.0000329714981845,-0.0001565732606825,-0.0001007574975821,-0.0001914191608018,0.0186178242205278,-0.0036409410171469*a691c849
#CORRIMUDATAA,FILE,0,19.5,FINESTEERING,2319,303863.150,02000000,e5fc,17139;2319,303863.150000000,0.0001497583459963,-0.0001989574805537,-0.0001226599377541,-0.0018290634614724,0.0192580510196485,-0.0038257093133372*72a3d5b5
#CORRIMUDATAA,FILE,0,19.5,FINESTEERING,2319,303863.200,02000000,e5fc,17139;2319,303863.200000000,0.0001605654486375,-0.0002165683343871,-0.0002306771404045,-0.0019781682052014,0.0163875434774748,0.0000795667863145*d1821ee3
#CORRIMUDATAA,FILE,0,19.5,FINESTEERING,2319,303863.250,02000000,e5fc,17139;2319,303863.250000000,0.0001738576534895,-0.0003383404027627,-0.0003529744918832,0.0009389686767022,0.0158132339206493,0.0029288157308488*b487b539
#CORRIMUDATAA,FILE,0,19.5,FINESTEERING,2319,303863.300,02000000,e5fc,17139;2319,303863.300000000,0.0001449593262459,-0.0003563146785081,-0.0004546594309408,0.0009070718172271,0.0150168782206115,0.0051585556376291*b255489f
#CORRIMUDATAA,FILE,0,19.5,FINESTEERING,2319,303863.350,02000000,e5fc,17139;2319,303863.350000000,0.0000940531608140,-0.0004178330431424,-0.0005494328710439,0.0005099137915092,0.0150861569565003,0.0031981528507403*0930e3e7
#CORRIMUDATAA,FILE,0,19.5,FINESTEERING,2319,303863.400,02000000,e5fc,17139;2319,303863.400000000,-0.0000409435712749,-0.0002804525325645,-0.0006883992221919,-0.0004635977501668,0.0136587617132089,0.0035043334466695*3bd818e2
#CORRIMUDATAA,FILE,0,19.5,FINESTEERING,2319,303863.450,02000000,e5fc,17139;2319,303863.450000000,-0.0001306934065134,-0.0003675057588354,-0.0008991040028315,0.0007823150827902,0.0141326350255153,0.0013812687640483*9ba14293
#CORRIMUDATAA,FILE,0,19.5,FINESTEERING,2319,303863.500,02000000,e5fc,17139;2319,303863.500000000,-0.0002398199321302,-0.0005146526732123,-0.0011097302144155,0.0012756331206298,0.0129997737070945,0.0006553863334536*b8c6e207
#CORRIMUDATAA,FILE,0,19.5,FINESTEERING,2319,303863.550,02000000,e5fc,17139;2319,303863.550000000,-0.0002292410334932,-0.0004764228228483,-0.0013064585207092,0.0005067935875351,0.0138039496030076,0.0010051112376548*618bae29
#CORRIMUDATAA,FILE,0,19.5,FINESTEERING,2319,303863.600,02000000,e5fc,17139;2319,303863.600000000,-0.0001846434572391,-0.0002288177220127,-0.0014693431785576,0.0019879679175091,0.0122605701828535,0.0008139882971812*13419781
#CORRIMUDATAA,FILE,0,19.5,FINESTEERING,2319,303863.650,02000000,e5fc,17139;2319,303863.650000000,-0.0001274136434950,-0.0000441839182381,-0.0016181762008687,0.0050727716012139,0.0111386690296128,-0.0006973199448779*178e99d3
#CORRIMUDATAA,FILE,0,19.5,FINESTEERING,2319,303863.700,02000000,e5fc,17139;2319,303863.700000000,-0.0000509873511005,0.0000238234548673,-0.0017544447170903,0.0051517130924586,0.0104017155813937,-0.0001676358741612*f05f1102
#CORRIMUDATAA,FILE,0,19.5,FINESTEERING,2319,303863.750,02000000,e5fc,17139;2319,303863.750000000,-0.0000207346228970,0.0000312980621886,-0.0019571412920644,0.0020421807385681,0.0109135663661565,-0.0007699541069754*31281428
#CORRIMUDATAA,FILE,0,19.5,FINESTEERING,2319,303863.800,02000000,e5fc,17139;2319,303863.800000000,-0.0000177617630405,0.0000474479308492,-0.0022221778035114,-0.0009421762095405,0.0099855689607695,-0.0004974755717634*18ddd0c3
#CORRIMUDATAA,FILE,0,19.5,FINESTEERING,2319,303863.850,02000000,e5fc,17139;2319,303863.850000000,-0.0000083853622072,0.0000926668483881,-0.0024623111960320,-0.0004211770070778,0.0088932537187642,-0.0015682919373141*a297ee04
#CORRIMUDATAA,FILE,0,19.5,FINESTEERING,2319,303863.900,02000000,e5fc,17139;2319,303863.900000000,0.0000133206457437,0.0002074574892223,-0.0025590328919355,0.0033296635739171,0.0086481764932227,0.0017815340144883*3519e1f6
#CORRIMUDATAA,FILE,0,19.5,FINESTEERING,2319,303863.950,02000000,e5fc,17139;2319,303863.950000000,0.0000049767812325,0.0003617076657877,-0.0024592615554958,0.0075902469269885,0.0082013084008204,0.0024398572819332*a9b2cc3d
#CORRIMUDATAA,FILE,0,19.5,FINESTEERING,2319,303864.000,02000000,e5fc,17139;2319,303864.000000000,-0.0000537546438693,0.0004348841370091,-0.0022231701185107,0.0082196197779660,0.0075562295105182,0.0034225247402635*2d7e7e12
#CORRIMUDATAA,FILE,0,19.5,FINESTEERING,2319,303864.050,02000000,e5fc,17139;2319,303864.050000000,-0.0001212913994712,0.0004959538120596,-0.0019388801184815,0.0070876369261502,0.0078933903075701,0.0031900325731801*fe666d89
#CORRIMUDATAA,FILE,0,19.5,FINESTEERING,2319,303864.100,02000000,e5fc,17139;2319,303864.100000000,-0.0001593893868272,0.0005719769654008,-0.0016589039986613,0.0046641556597818,0.0077099802003388,0.0022711928771786*df8105db
#CORRIMUDATAA,FILE,0,29.5,FINESTEERING,2319,303864.150,02000000,e5fc,17139;2319,303864.150000000,-0.0001532700917628,0.0007033618207077,-0.0013979856962427,0.0034599878251376,0.0082343407627902,-0.0023314923673883*3313b6ec
#CORRIMUDATAA,FILE,0,29.5,FINESTEERING,2319,303864.200,02000000,e5fc,17139;2319,303864.200000000,0.0000099832678475,0.0007474383519127,-0.0011124262787333,0.0038903877300909,0.0096354924611504,-0.0074210760991916*d7d3329d
#CORRIMUDATAA,FILE,0,29.5,FINESTEERING,2319,303864.250,02000000,e5fc,17139;2319,303864.250000000,0.0002586825042204,0.0007394282544648,-0.0008014647546363,0.0015602999198486,0.0113673557735972,-0.0104483499998605*6dcf8a22
#CORRIMUDATAA,FILE,0,29.5,FINESTEERING,2319,303864.300,02000000,e5fc,17139;2319,303864.300000000,0.0005520728256471,0.0006525446866200,-0.0004590054885469,0.0008291709918527,0.0119473928693549,-0.0119666051166638*daf94448
#CORRIMUDATAA,FILE,0,29.5,FINESTEERING,2319,303864.350,02000000,e5fc,17139;2319,303864.350000000,0.0008019803293126,0.0004179598576266,-0.0000599544868184,0.0006121571445401,0.0126154621359613,-0.0108883839241403*550a6de5
#CORRIMUDATAA,FILE,0,29.5,FINESTEERING,2319,303864.400,02000000,e5fc,17139;2319,303864.400000000,0.0010024888039937,0.0001804133679235,0.0004241449639878,0.0009113790072181,0.0130949284736035,-0.0088390580712090*76b5a906
#CORRIMUDATAA,FILE,0,29.5,FINESTEERING,2319,303864.450,02000000,e5fc,17139;2319,303864.450000000,0.0010836655275661,-0.0000915568895620,0.0008764884372784,-0.0010771797496500,0.0122004499401315,-0.0025559166752442*d187e0a5
#CORRIMUDATAA,FILE,0,29.5,FINESTEERING,2319,303864.500,02000000,e5fc,17139;2319,303864.500000000,0.0010215122916466,-0.0003362093317883,0.0012453058531119,-0.0017432383279930,0.0128500117650557,0.0042164513701175*327b5278
#CORRIMUDATAA,FILE,0,29.5,FINESTEERING,2319,303864.550,02000000,e5fc,17139;2319,303864.550000000,0.0008730978725780,-0.0007092146179615,0.0014184874025102,-0.0027119883374423,0.0153169426408993,0.0068692687303893*fd525197
#CORRIMUDATAA,FILE,0,29.5,FINESTEERING,2319,303864.600,02000000,e5fc,17139;2319,303864.600000000,0.0006463639804679,-0.0010401018626491,0.0014107631618873,-0.0043915053412887,0.0157569460655929,0.0115422581339248*2147a748
#CORRIMUDATAA,FILE,0,29.5,FINESTEERING,2319,303864.650,02000000,e5fc,17139;2319,303864.650000000,0.0004151447694556,-0.0011389411143749,0.0012848636017057,-0.0054052102594912,0.0156430945873256,0.0126332789792188*e24fe2db
#CORRIMUDATAA,FILE,0,29.5,FINESTEERING,2319,303864.700,02000000,e5fc,17139;2319,303864.700000000,0.0000250130944926,-0.0008604639270852,0.0011873770510065,-0.0022480005834845,0.0154983973619158,0.0136932817156502*1a67e66a
#CORRIMUDATAA,FILE,0,29.5,FINESTEERING,2319,303864.750,02000000,e5fc,17139;2319,303864.750000000,-0.0003076616616268,-0.0004489581971784,0.0011937965365353,0.0024424581496828,0.0141356680305990,0.0100433248462411*b1702322
#CORRIMUDATAA,FILE,0,29.5,FINESTEERING,2319,303864.800,02000000,e5fc,17139;2319,303864.800000000,-0.0004791787451224,-0.0001876014380681,0.0012708776889537,0.0054484630300605,0.0143477381393073,0.0001162167650664*4af03165
#CORRIMUDATAA,FILE,0,29.5,FINESTEERING,2319,303864.850,02000000,e5fc,17139;2319,303864.850000000,-0.0004952471000937,0.0001246430675615,0.0013837964044392,0.0041910797436221,0.0143695203247601,-0.0051767300452317*617a4106
#CORRIMUDATAA,FILE,0,29.5,FINESTEERING,2319,303864.900,02000000,e5fc,17139;2319,303864.900000000,-0.0003464769400167,0.0004477121543531,0.0014495632142131,0.0016646264086708,0.0135961308765284,-0.0073327958948509*a6189a84
#CORRIMUDATAA,FILE,0,29.5,FINESTEERING,2319,303864.950,02000000,e5fc,17139;2319,303864.950000000,-0.0001421240314164,0.0005228424024709,0.0014461364897989,-0.0011799577783669,0.0135164554606005,-0.0049525217983976*4fb0cdb8
#CORRIMUDATAA,FILE,0,29.5,FINESTEERING,2319,303865.000,02000000,e5fc,17139;2319,303865.000000000,-0.0000334122804892,0.0004292450885411,0.0013686295608505,-0.0034842096712773,0.0124461236232866,-0.0032242533608632*2283fecd
#CORRIMUDATAA,FILE,0,29.5,FINESTEERING,2319,303865.050,02000000,e5fc,17139;2319,303865.050000000,0.0000220776936852,0.0003307043995206,0.0012662034506915,-0.0049612548334007,0.0111961123206151,-0.0005288537279220*22f43126
#CORRIMUDATAA,FILE,0,29.0,FINESTEERING,2319,303865.100,02000000,e5fc,17139;2319,303865.100000000,0.0000624254237431,0.0000678395454335,0.0011076757332322,-0.0057096168440643,0.0114875148814923,-0.0000927457617714*19fef745
#CORRIMUDATAA,FILE,0,29.0,FINESTEERING,2319,303865.150,02000000,e5fc,17139;2319,303865.150000000,0.0001772887001323,-0.0004212004892463,0.0008332187729114,-0.0070455999899752,0.0120259753260872,-0.0014022082956281*2df502be
#CORRIMUDATAA,FILE,0,29.0,FINESTEERING,2319,303865.200,02000000,e5fc,17139;2319,303865.200000000,0.0002062821727525,-0.0007579414641557,0.0004314638229783,-0.0077920237953956,0.0123610906435542,0.0009403474176329*dc015631
#CORRIMUDATAA,FILE,0,29.0,FINESTEERING,2319,303865.250,02000000,e5fc,17139;2319,303865.250000000,0.0002141670863600,-0.0009479983515424,-0.0000449846204750,-0.0060220802900062,0.0102992123161717,0.0014749711781684*7fbd5104
#CORRIMUDATAA,FILE,0,29.0,FINESTEERING,2319,303865.300,02000000,e5fc,17139;2319,303865.300000000,0.0001548100923101,-0.0010784370731461,-0.0005331179601160,-0.0005672326871029,0.0097822960006608,0.0025388480599965*404f5f0c
#CORRIMUDATAA,FILE,0,29.0,FINESTEERING,2319,303865.350,02000000,e5fc,17139;2319,303865.350000000,0.0000075907588489,-0.0011698109796473,-0.0009851781611405,-0.0000892786993577,0.0099180263514656,0.0047226781655488*586031ff
#CORRIMUDATAA,FILE,0,29.0,FINESTEERING,2319,303865.400,02000000,e5fc,17139;2319,303865.400000000,-0.0001234239661435,-0.0009244250830977,-0.0014991967948470,-0.0027021922448336,0.0094676979993768,0.0026941389763851*43736f78
#CORRIMUDATAA,FILE,0,29.0,FINESTEERING,2319,303865.450,02000000,e5fc,17139;2319,303865.450000000,-0.0002830442069576,-0.0003923661301786,-0.0019398335193597,0.0029838737203946,0.0077436594426446,0.0037107919845283*ca6c39cf
#CORRIMUDATAA,FILE,0,29.0,FINESTEERING,2319,303865.500,02000000,e5fc,17139;2319,303865.500000000,-0.0002674644208266,0.0000294759564741,-0.0022301182531609,0.0102394974071198,0.0086558994776744,-0.0036576881458758*6696f5a5
#CORRIMUDATAA,FILE,0,29.0,FINESTEERING,2319,303865.550,02000000,e5fc,17139;2319,303865.550000000,-0.0001735755146608,0.0000697198684872,-0.0024388635469242,0.0106295709843392,0.0079090445836837,-0.0057535332044025*8a166343
#CORRIMUDATAA,FILE,0,29.0,FINESTEERING,2319,303865.600,02000000,e5fc,17139;2319,303865.600000000,-0.0000361093372535,0.0000075371511472,-0.0027257889452019,0.0042022728123739,0.0077657531030695,-0.0017823427618655*c2fcef8a
#CORRIMUDATAA,FILE,0,29.0,FINESTEERING,2319,303865.650,02000000,e5fc,17139;2319,303865.650000000,0.0000723336239453,-0.0000303231966392,-0.0031736145805045,-0.0030113316399565,0.0071705073703665,0.0004349159275388*d00567aa
#CORRIMUDATAA,FILE,0,29.0,FINESTEERING,2319,303865.700,02000000,e5fc,17139;2319,303865.700000000,0.0000671280618700,0.0000953116301660,-0.0036825140304498,-0.0029357786961933,0.0053038639961307,0.0059463488493369*f303b35e
#CORRIMUDATAA,FILE,0,29.0,FINESTEERING,2319,303865.750,02000000,e5fc,17139;2319,303865.750000000,-0.0000144970105679,0.0002927050062875,-0.0041006966080701,0.0033049869007001,0.0040298262208846,0.0081311104451283*e4504f6b
#CORRIMUDATAA,FILE,0,29.0,FINESTEERING,2319,303865.800,02000000,e5fc,17139;2319,303865.800000000,-0.0001923199240308,0.0004648580503865,-0.0043418803712338,0.0111962800740892,0.0035595279784870,0.0096555150149522*21f576dc
#CORRIMUDATAA,FILE,0,29.0,FINESTEERING,2319,303865.850,02000000,e5fc,17139;2319,303865.850000000,-0.0003499513566886,0.0002998479791042,-0.0044064800842373,0.0141417138248757,0.0021533130253082,0.0049821663316226*70a30daf
#CORRIMUDATAA,FILE,0,29.0,FINESTEERING,2319,303865.900,02000000,e5fc,17139;2319,303865.900000000,-0.0004270618948017,0.0001555430485928,-0.0043164262980812,0.0103523996577416,0.0035639306623158,0.0014616886234018*d6bafe45
#CORRIMUDATAA,FILE,0,29.0,FINESTEERING,2319,303865.950,02000000,e5fc,17139;2319,303865.950000000,-0.0004490677094327,0.0002799509935346,-0.0042254575540133,0.0055045458591175,0.0042958501134385,-0.0028624768875164*59a0639c
#CORRIMUDATAA,FILE,0,29.0,FINESTEERING,2319,303866.000,02000000,e5fc,17139;2319,303866.000000000,-0.0004034100651351,0.0003199183978156,-0.0041374392205551,0.0066357896007571,0.0053421328437388,-0.0074634644076734*b38e7cc8
#CORRIMUDATAA,FILE,0,29.0,FINESTEERING,2319,303866.050,02000000,e5fc,17139;2319,303866.050000000,-0.0002982967259272,0.0000244422418644,-0.0041000970432809,0.0080230880477355,0.0062398850580888,-0.0111654064919867*f6d91af9
#CORRIMUDATAA,FILE,0,29.0,FINESTEERING,2319,303866.100,02000000,e5fc,17139;2319,303866.100000000,-0.0000706793774485,-0.0002321473540092,-0.0040948032791446,0.0058992454035018,0.0066454392089081,-0.0129382523147700*6d8459e1
#CORRIMUDATAA,FILE,0,30.5,FINESTEERING,2319,303866.150,02000000,e5fc,17139;2319,303866.150000000,0.0002491633333473,-0.0001020521098435,-0.0040912115684836,0.0055401539680145,0.0057316450047953,-0.0091566818788145*608e6e46
#CORRIMUDATAA,FILE,0,30.5,FINESTEERING,2319,303866.200,02000000,e5fc,17139;2319,303866.200000000,0.0004397274732940,0.0001958926225954,-0.0040257748739132,0.0100583201263454,0.0042956837690438,-0.0025490221941165*d0fd2e29
#CORRIMUDATAA,FILE,0,30.5,FINESTEERING,2319,303866.250,02000000,e5fc,17139;2319,303866.250000000,0.0004744093621627,0.0001630809765170,-0.0038821817292733,0.0138084252221813,0.0027989750759076,0.0029762297737298*c5514872
#CORRIMUDATAA,FILE,0,30.5,FINESTEERING,2319,303866.300,02000000,e5fc,17139;2319,303866.300000000,0.0002951336749986,0.0002168210141374,-0.0037223488286780,0.0109486705621060,0.0028032483296304,0.0050629799672711*d72c713b
#CORRIMUDATAA,FILE,0,30.5,FINESTEERING,2319,303866.350,02000000,e5fc,17139;2319,303866.350000000,0.0000043771249535,0.0003904235400611,-0.0036430073163023,0.0060864677525626,0.0040029119311091,0.0080980263770868*5f62a8de
#CORRIMUDATAA,FILE,0,30.5,FINESTEERING,2319,303866.400,02000000,e5fc,17139;2319,303866.400000000,-0.0002964144090991,0.0005268797509924,-0.0035952108596147,0.0053527698497726,0.0029991136338444,0.0088577132473310*f7bf4e90
#CORRIMUDATAA,FILE,0,30.5,FINESTEERING,2319,303866.450,02000000,e5fc,17139;2319,303866.450000000,-0.0003942852167882,0.0004808511234935,-0.0035136311449147,0.0047962958621082,0.0037497946062335,0.0027403079908531*85c3114b
#CORRIMUDATAA,FILE,0,30.5,FINESTEERING,2319,303866.500,02000000,e5fc,17139;2319,303866.500000000,-0.0005044133654133,0.0004113502135962,-0.0033450505415939,0.0057189182061927,0.0003373779801310,0.0006325391242907*87a47e65
#CORRIMUDATAA,FILE,0,30.5,FINESTEERING,2319,303866.550,02000000,e5fc,17139;2319,303866.550000000,-0.0003168975012672,0.0001205797565728,-0.0031256689679918,0.0059926872114178,0.0012826185152521,0.0020076225685560*6f083d50
#CORRIMUDATAA,FILE,0,30.5,FINESTEERING,2319,303866.600,02000000,e5fc,17139;2319,303866.600000000,-0.0002856487204559,-0.0001925663862446,-0.0028499733392093,0.0093350596857204,0.0047450693424172,-0.0018984173328387*d569a6a6
#CORRIMUDATAA,FILE,0,30.5,FINESTEERING,2319,303866.650,02000000,e5fc,17139;2319,303866.650000000,-0.0001350512333977,-0.0001090574354167,-0.0028491627279079,-0.0012915812782897,0.0026649506290128,-0.0029568552999959*d05b3003
#CORRIMUDATAA,FILE,0,30.5,FINESTEERING,2319,303866.700,02000000,e5fc,17139;2319,303866.700000000,0.0000595058486351,-0.0003137602645218,-0.0029643103155151,0.0012354535062158,-0.0005737513191284,-0.0012134920383044*5124e2ac
#CORRIMUDATAA,FILE,0,30.5,FINESTEERING,2319,303866.750,02000000,e5fc,17139;2319,303866.750000000,0.0002793701043901,-0.0010154733057338,-0.0031479418562656,0.0013023031627297,0.0108882798100454,-0.0071847346268187*0cf25181
#CORRIMUDATAA,FILE,0,30.5,FINESTEERING,2319,303866.800,02000000,e5fc,17139;2319,303866.800000000,-0.0003191885940331,-0.0015162631055646,-0.0031307553092456,0.0075522781459976,0.0110789202341107,-0.0013314872872336*3a6dac11
#CORRIMUDATAA,FILE,0,30.5,FINESTEERING,2319,303866.850,02000000,e5fc,17139;2319,303866.850000000,-0.0008859498267612,-0.0015288540276101,-0.0030147429262400,0.0004129532277882,-0.0084204871445911,0.0057596008190439*61caeb36
#CORRIMUDATAA,FILE,0,30.5,FINESTEERING,2319,303866.900,02000000,e5fc,17139;2319,303866.900000000,-0.0008026450897318,-0.0009245471966655,-0.0029571999778103,0.0081244664319407,-0.0081294195288891,-0.0011691282532597*1ec72788
#CORRIMUDATAA,FILE,0,30.5,FINESTEERING,2319,303866.950,02000000,e5fc,17139;2319,303866.950000000,0.0001542458053402,-0.0005925660771067,-0.0030445095150500,0.0118676970297376,-0.0094411318650766,-0.0020504293849130*91557b01
#CORRIMUDATAA,FILE,0,30.5,FINESTEERING,2319,303867.000,02000000,e5fc,17139;2319,303867.000000000,0.0009348384044951,-0.0001776681637867,-0.0033220083932565,0.0093453720531939,-0.0149043430815564,0.0019547719111723*8858b281
#CORRIMUDATAA,FILE,0,30.5,FINESTEERING,2319,303867.050,02000000,e5fc,17139;2319,303867.050000000,0.0020563054550343,0.0002506024978214,-0.0036096771755140,0.0068500982425674,-0.0155974248924095,0.0028961945241801*a2de1851
#CORRIMUDATAA,FILE,0,28.5,FINESTEERING,2319,303867.100,02000000,e5fc,17139;2319,303867.100000000,0.0025981107600586,0.0007501488323451,-0.0038468012154064,0.0088604436478473,-0.0138665590857751,0.0027541271150975*99dcf03f
#CORRIMUDATAA,FILE,0,28.5,FINESTEERING,2319,303867.150,02000000,e5fc,17139;2319,303867.150000000,0.0031722145691325,0.0009491063254586,-0.0038716479821110,0.0112291909474641,-0.0108413165974557,-0.0020586598052356*a510ab79
#CORRIMUDATAA,FILE,0,28.5,FINESTEERING,2319,303867.200,02000000,e5fc,17139;2319,303867.200000000,0.0032204775574213,0.0009853908190563,-0.0038538468762014,0.0087796489000067,-0.0090788053418873,-0.0043022379589294*2570b620
#CORRIMUDATAA,FILE,0,28.5,FINESTEERING,2319,303867.250,02000000,e5fc,17139;2319,303867.250000000,0.0031358811152846,0.0007238969144490,-0.0038697581669279,0.0055188431911028,-0.0118562328801928,-0.0060026059108176*13d1c168
#CORRIMUDATAA,FILE,0,28.5,FINESTEERING,2319,303867.300,02000000,e5fc,17139;2319,303867.300000000,0.0027240545621790,0.0002895594326471,-0.0039972012923018,0.0020611342893106,-0.0115766673942784,-0.0077009238385773*e6177636
#CORRIMUDATAA,FILE,0,28.5,FINESTEERING,2319,303867.350,02000000,e5fc,17139;2319,303867.350000000,0.0023389953511752,-0.0000063950696462,-0.0042026819881309,-0.0019507366384604,-0.0132023616626346,-0.0031570791175121*1cd44c86
#CORRIMUDATAA,FILE,0,28.5,FINESTEERING,2319,303867.400,02000000,e5fc,17139;2319,303867.400000000,0.0018999233355952,-0.0002888954621833,-0.0045277845266374,-0.0013969467118910,-0.0095901634784281,-0.0047153087022063*0293d88b
#CORRIMUDATAA,FILE,0,28.5,FINESTEERING,2319,303867.450,02000000,e5fc,17139;2319,303867.450000000,0.0016445768349570,-0.0006073860542020,-0.0048216279919532,0.0046707851152122,-0.0114115897775475,-0.0012576534961399*59d8114a
#CORRIMUDATAA,FILE,0,28.5,FINESTEERING,2319,303867.500,02000000,e5fc,17139;2319,303867.500000000,0.0014449981803604,-0.0007180854723308,-0.0050518269665533,0.0066070104933311,-0.0096409865793660,0.0025231751611271*25c2ec05
#CORRIMUDATAA,FILE,0,28.5,FINESTEERING,2319,303867.550,02000000,e5fc,17139;2319,303867.550000000,0.0014419913253288,-0.0005805354832963,-0.0052382503671523,0.0073946127459602,-0.0115182676544900,0.0047751933386643*2419b193
#CORRIMUDATAA,FILE,0,28.5,FINESTEERING,2319,303867.600,02000000,e5fc,17139;2319,303867.600000000,0.0014097389779828,-0.0003395117548607,-0.0053902384081066,0.0095207176795437,-0.0097502519014862,0.0069422630645167*74f27dc8
#CORRIMUDATAA,FILE,0,28.5,FINESTEERING,2319,303867.650,02000000,e5fc,17139;2319,303867.650000000,0.0015186199404247,-0.0001991598842141,-0.0054638922907863,0.0136328727492032,-0.0101349796886738,0.0049842938063251*b19cdcca
#CORRIMUDATAA,FILE,0,28.5,FINESTEERING,2319,303867.700,02000000,e5fc,17139;2319,303867.700000000,0.0016894489630143,-0.0000743303906091,-0.0055065731697461,0.0117980181136057,-0.0067283499570776,-0.0043752574193059*e0f03763
#CORRIMUDATAA,FILE,0,28.5,FINESTEERING,2319,303867.750,02000000,e5fc,17139;2319,303867.750000000,0.0018438360694600,-0.0000828977631475,-0.0056105755896779,0.0114074090060947,-0.0077651524848081,-0.0053337741611235*c60b3d5e
#CORRIMUDATAA,FILE,0,28.5,FINESTEERING,2319,303867.800,02000000,e5fc,17139;2319,303867.800000000,0.0020049644582551,-0.0002702640003931,-0.0058225321946623,0.0064737017661404,-0.0031885723566338,-0.0090957546175560*d66e04b3
#CORRIMUDATAA,FILE,0,28.5,FINESTEERING,2319,303867.850,02000000,e5fc,17139;2319,303867.850000000,0.0022332779504894,-0.0002856371711402,-0.0061478305820310,0.0063918530758909,-0.0003871070037532,-0.0096407999621901*b1cb8f96
#CORRIMUDATAA,FILE,0,28.5,FINESTEERING,2319,303867.900,02000000,e5fc,17139;2319,303867.900000000,0.0024198232907962,-0.0002548075857474,-0.0065298428264544,0.0037329454517225,-0.0003864346681372,-0.0022290464601212*2d200397
#CORRIMUDATAA,FILE,0,28.5,FINESTEERING,2319,303867.950,02000000,e5fc,17139;2319,303867.950000000,0.0022400306499729,-0.0003501174224432,-0.0069836562818830,0.0087394995742876,-0.0072090267721968,0.0110669647766782*8d23494d
#CORRIMUDATAA,FILE,0,28.5,FINESTEERING,2319,303868.000,02000000,e5fc,17139;2319,303868.000000000,0.0019954734940342,-0.0006479106519186,-0.0073159595505863,0.0140989581872957,-0.0059937013413895,0.0115377879286625*4ba4ed43
#CORRIMUDATAA,FILE,0,28.5,FINESTEERING,2319,303868.050,02000000,e5fc,17139;2319,303868.050000000,0.0016491839779529,-0.0005952699070961,-0.0076452275607673,0.0089138177628847,-0.0047131307336689,0.0136550688850789*3333ca99
#CORRIMUDATAA,FILE,0,28.5,FINESTEERING,2319,303868.100,02000000,e5fc,17139;2319,303868.100000000,0.0016355329130906,-0.0006209119309067,-0.0082149677649383,0.0029240618285880,0.0015503163280939,-0.0047110060827885*b5dd65d1
#CORRIMUDATAA,FILE,0,28.5,FINESTEERING,2319,303868.150,02000000,e5fc,17139;2319,303868.150000000,0.0018044093857672,-0.0015821092014291,-0.0091229048156637,-0.0007187654887228,0.0028693069868143,-0.0281225192140258*beb72ca0
#CORRIMUDATAA,FILE,0,28.5,FINESTEERING,2319,303868.200,02000000,e5fc,17139;2319,303868.200000000,0.0018471748885572,-0.0019940459735869,-0.0098004235082536,0.0069563575152663,-0.0076489417959310,0.0070535865040888*f7297861
#CORRIMUDATAA,FILE,0,28.5,FINESTEERING,2319,303868.250,02000000,e5fc,17139;2319,303868.250000000,0.0017227451611210,-0.0017989293443561,-0.0103019491138268,0.0190074150814964,-0.0067489607217543,0.0120319251054519*2563ac1a
#CORRIMUDATAA,FILE,0,28.5,FINESTEERING,2319,303868.300,02000000,e5fc,17139;2319,303868.300000000,0.0015014278985676,-0.0010133231809293,-0.0103669650713227,0.0360252631909371,-0.0058387064097211,0.0144732105715122*4a19a1ff
#CORRIMUDATAA,FILE,0,28.5,FINESTEERING,2319,303868.350,02000000,e5fc,17139;2319,303868.350000000,0.0005269930239500,-0.0004470556385466,-0.0106284951953695,0.0294826791281234,-0.0181206853377254,0.0430534475781001*824d5a05
#CORRIMUDATAA,FILE,0,28.5,FINESTEERING,2319,303868.400,02000000,e5fc,17139;2319,303868.400000000,-0.0005120905583156,0.0000426117407876,-0.0110318498949956,0.0204386670434752,-0.0176715235497984,0.0561023052271413*1a251d5a
#CORRIMUDATAA,FILE,0,28.5,FINESTEERING,2319,303868.450,02000000,e5fc,17139;2319,303868.450000000,-0.0016021160741269,0.0008736590620733,-0.0115916938184871,0.0096650572931398,-0.0107417657640761,0.0358961383980448*83656e9b
#CORRIMUDATAA,FILE,0,28.5,FINESTEERING,2319,303868.500,02000000,e5fc,17139;2319,303868.500000000,-0.0020806677977800,0.0020403965184390,-0.0118914574560500,0.0145416716427659,-0.0101557442784774,0.0198867599537564*a1db397f
#CORRIMUDATAA,FILE,0,28.5,FINESTEERING,2319,303868.550,02000000,e5fc,17139;2319,303868.550000000,-0.0021046611645594,0.0023641198533915,-0.0120143665214657,0.0252978234589083,-0.0069272229791896,-0.0008738010506870*ddfb6bb4
#CORRIMUDATAA,FILE,0,28.5,FINESTEERING,2319,303868.600,02000000,e5fc,17139;2319,303868.600000000,-0.0016604944437827,0.0017022806309199,-0.0118691835711662,0.0267803330826717,-0.0046785285015171,-0.0166289737573618*6a70e2ca
#CORRIMUDATAA,FILE,0,28.5,FINESTEERING,2319,303868.650,02000000,e5fc,17139;2319,303868.650000000,-0.0012149618627009,0.0008250974191763,-0.0118513181669671,0.0157929575605156,-0.0004061552849651,-0.0257907982994405*022fdc8b
#CORRIMUDATAA,FILE,0,28.5,FINESTEERING,2319,303868.700,02000000,e5fc,17139;2319,303868.700000000,-0.0006397508472118,0.0002448490411334,-0.0120232974999285,0.0059555634933733,0.0018119211961454,-0.0297881289012997*f3f99d31
#CORRIMUDATAA,FILE,0,28.5,FINESTEERING,2319,303868.750,02000000,e5fc,17139;2319,303868.750000000,-0.0004145373475886,-0.0002002367016543,-0.0124377218999191,0.0046478868575624,0.0002240000888008,-0.0216467418095363*8ccc351b
#CORRIMUDATAA,FILE,0,28.5,FINESTEERING,2319,303868.800,02000000,e5fc,17139;2319,303868.800000000,-0.0002965936624933,-0.0007571747929003,-0.0129048743502927,0.0084962329524027,-0.0020313731337864,-0.0075548116138894*6e977d74
#CORRIMUDATAA,FILE,0,28.5,FINESTEERING,2319,303868.850,02000000,e5fc,17139;2319,303868.850000000,-0.0004283765766629,-0.0010373019170816,-0.0133368488902973,0.0149357561109503,-0.0022431632384113,-0.0017412363007313*48c45468
#CORRIMUDATAA,FILE,0,28.5,FINESTEERING,2319,303868.900,02000000,e5fc,17139;2319,303868.900000000,-0.0004874459084349,-0.0009562761489374,-0.0135660616108673,0.0212313211493056,-0.0010630347558713,0.0055642416331261*2b65fbad
#CORRIMUDATAA,FILE,0,28.5,FINESTEERING,2319,303868.950,02000000,e5fc,17139;2319,303868.950000000,-0.0006026511082476,-0.0006529223933282,-0.0137070471002443,0.0276182569899187,-0.0006492405555475,0.0122288084138652*d7671370
#CORRIMUDATAA,FILE,0,28.5,FINESTEERING,2319,303869.000,02000000,e5fc,17139;2319,303869.000000000,-0.0007651717548336,-0.0004515434375653,-0.0138982171968050,0.0274987717827105,-0.0019330732861216,0.0135444803866534*6bde6789
#CORRIMUDATAA,FILE,0,28.5,FINESTEERING,2319,303869.050,02000000,e5fc,17139;2319,303869.050000000,-0.0009809604465438,-0.0002204463730362,-0.0142854780902378,0.0231617794118478,-0.0004427442945593,0.0079446520650475*4a552629
#CORRIMUDATAA,FILE,0,28.5,FINESTEERING,2319,303869.100,02000000,e5fc,17139;2319,303869.100000000,-0.0010889168358052,-0.0001191797116221,-0.0147835946096885,0.0204448151340986,-0.0011538285898748,0.0053285991029443*c17fdafc
#CORRIMUDATAA,FILE,0,28.5,FINESTEERING,2319,303869.150,02000000,e5fc,17139;2319,303869.150000000,-0.0011139415944008,-0.0000018286802535,-0.0153049878598167,0.0200311539526002,0.0038648494673630,-0.0006835006742477*0387e835
#CORRIMUDATAA,FILE,0,28.5,FINESTEERING,2319,303869.200,02000000,e5fc,17139;2319,303869.200000000,-0.0010171116511949,0.0001401520489445,-0.0157913612636519,0.0211846125158909,0.0055908436716235,-0.0040737256163018*2f8239b6
#CORRIMUDATAA,FILE,0,28.5,FINESTEERING,2319,303869.250,02000000,e5fc,17139;2319,303869.250000000,-0.0008157714366690,0.0003138318202051,-0.0162357724691579,0.0238641495860229,0.0080389651178510,-0.0061075851659030*ddd42260
#CORRIMUDATAA,FILE,0,28.5,FINESTEERING,2319,303869.300,02000000,e5fc,17139;2319,303869.300000000,-0.0007024837204102,0.0004716986132552,-0.0166262509880183,0.0288987051440938,0.0083082415391800,-0.0051641828563498*7793292b
#CORRIMUDATAA,FILE,0,28.5,FINESTEERING,2319,303869.350,02000000,e5fc,17139;2319,303869.350000000,-0.0005777152045269,0.0004877470789009,-0.0169941974254285,0.0285022021202628,0.0106315643056242,-0.0043721905446286*628359d3
#CORRIMUDATAA,FILE,0,28.5,FINESTEERING,2319,303869.400,02000000,e5fc,17139;2319,303869.400000000,-0.0005583456106851,0.0004117916574808,-0.0174828882464922,0.0239308955480705,0.0118958410637593,-0.0001568700421150*63612819
#CORRIMUDATAA,FILE,0,28.5,FINESTEERING,2319,303869.450,02000000,e5fc,17139;2319,303869.450000000,-0.0004924317169520,0.0004207443549393,-0.0180596848694281,0.0218697626440099,0.0154836938928627,-0.0011400940173196*63e6753b
#CORRIMUDATAA,FILE,0,28.5,FINESTEERING,2319,303869.500,02000000,e5fc,17139;2319,303869.500000000,-0.0004786940562640,0.0003146582770788,-0.0186493549726681,0.0233059594990862,0.0189499830261133,-0.0047862699929727*ad37975b
#CORRIMUDATAA,FILE,0,28.5,FINESTEERING,2319,303869.550,02000000,e5fc,17139;2319,303869.550000000,-0.0004791474485698,-0.0000446293031590,-0.0191368315443555,0.0283315705911338,0.0232412592467604,-0.0058903574671996*3bc1f919
#CORRIMUDATAA,FILE,0,28.5,FINESTEERING,2319,303869.600,02000000,e5fc,17139;2319,303869.600000000,-0.0004963985162704,-0.0004497730146496,-0.0195342377748634,0.0280782004284133,0.0241515406304957,-0.0040666321681948*53a8e0d1
#CORRIMUDATAA,FILE,0,28.5,FINESTEERING,2319,303869.650,02000000,e5fc,17139;2319,303869.650000000,-0.0006422469347169,-0.0006421554027657,-0.0198448591267173,0.0287039337648752,0.0229465168250534,0.0014205964181521*719a8210
#CORRIMUDATAA,FILE,0,28.5,FINESTEERING,2319,303869.700,02000000,e5fc,17139;2319,303869.700000000,-0.0007590964294559,-0.0006614590725045,-0.0201501640914405,0.0310674411730647,0.0246560684529606,0.0007545271217634*d73e7e8a
#CORRIMUDATAA,FILE,0,28.5,FINESTEERING,2319,303869.750,02000000,e5fc,17139;2319,303869.750000000,-0.0009111260128318,-0.0007212188730086,-0.0205231771428856,0.0348286644113438,0.0214390817868689,0.0037801613978074*565ca473
#CORRIMUDATAA,FILE,0,28.5,FINESTEERING,2319,303869.800,02000000,e5fc,17139;2319,303869.800000000,-0.0009694064473109,-0.0009718659704574,-0.0209512145028871,0.0361844817374607,0.0238644920523763,0.0032014026299582*b326577b
#CORRIMUDATAA,FILE,0,28.5,FINESTEERING,2319,303869.850,02000000,e5fc,17139;2319,303869.850000000,-0.0011292429965416,-0.0011905760034156,-0.0215147061070780,0.0345361140068483,0.0267276302547274,0.0000316021630626*a015f234
#CORRIMUDATAA,FILE,0,28.5,FINESTEERING,2319,303869.900,02000000,e5fc,17139;2319,303869.900000000,-0.0010892556560761,-0.0013240947437765,-0.0220996232876896,0.0322812132049759,0.0312199200137459,-0.0098674278939445*60eaaa30
#CORRIMUDATAA,FILE,0,28.5,FINESTEERING,2319,303869.950,02000000,e5fc,17139;2319,303869.950000000,-0.0008654897654068,-0.0012302349779183,-0.0226798116552290,0.0352234699001137,0.0323217035596603,-0.0146320419388068*884ff346
#CORRIMUDATAA,FILE,0,28.5,FINESTEERING,2319,303870.000,02000000,e5fc,17139;2319,303870.000000000,-0.0005845331436161,-0.0010141387496356,-0.0230368176643253,0.0470391569248368,0.0306840813437580,-0.0031658647476384*a53ddd86
#CORRIMUDATAA,FILE,0,28.5,FINESTEERING,2319,303870.050,02000000,e5fc,17139;2319,303870.050000000,-0.0004662361714581,-0.0010304825607146,-0.0232922139102623,0.0502993699246418,0.0323832127923277,-0.0035721435260967*b0a9f102
#CORRIMUDATAA,FILE,0,28.5,FINESTEERING,2319,303870.100,02000000,e5fc,17139;2319,303870.100000000,-0.0003756028867656,-0.0012095345802639,-0.0236041646324159,0.0440652156566024,0.0366086158479794,-0.0072894943557854*299246a4
#CORRIMUDATAA,FILE,0,30.0,FINESTEERING,2319,303870.150,02000000,e5fc,17139;2319,303870.150000000,-0.0006565925208012,-0.0010292769042082,-0.0240435752561247,0.0410243677573651,0.0315638124562205,0.0009119742828922*51e8c842
#CORRIMUDATAA,FILE,0,30.0,FINESTEERING,2319,303870.200,02000000,e5fc,17139;2319,303870.200000000,-0.0007548607389294,-0.0009103546205636,-0.0244524252967694,0.0441750937965341,0.0327925813626501,0.0075399426754003*2236df31
#CORRIMUDATAA,FILE,0,30.0,FINESTEERING,2319,303870.250,02000000,e5fc,17139;2319,303870.250000000,-0.0010866044509313,-0.0004139924772067,-0.0247944128651595,0.0488398812369555,0.0316617782686324,0.0112705531942477*a50b7cfa
#CORRIMUDATAA,FILE,0,30.0,FINESTEERING,2319,303870.300,02000000,e5fc,17139;2319,303870.300000000,-0.0011722155880595,-0.0000290886979364,-0.0251168183912366,0.0535817466771378,0.0304669019681887,0.0063561872644645*28b200bf
#CORRIMUDATAA,FILE,0,30.0,FINESTEERING,2319,303870.350,02000000,e5fc,17139;2319,303870.350000000,-0.0011536462853828,0.0000055247073886,-0.0254019188479693,0.0575493388969347,0.0307451313358019,-0.0012810120456708*b8c669ce
#CORRIMUDATAA,FILE,0,30.0,FINESTEERING,2319,303870.400,02000000,e5fc,17139;2319,303870.400000000,-0.0011183768364798,-0.0001694379871527,-0.0255599155947906,0.0587140808367091,0.0317523470592619,-0.0031335128370044*91ff1593
#CORRIMUDATAA,FILE,0,30.0,FINESTEERING,2319,303870.450,02000000,e5fc,17139;2319,303870.450000000,-0.0009585454871708,-0.0004140512041504,-0.0257315668965757,0.0506861805168740,0.0358897875395036,-0.0124846664402999*0546eccd
#CORRIMUDATAA,FILE,0,30.0,FINESTEERING,2319,303870.500,02000000,e5fc,17139;2319,303870.500000000,-0.0008276723323190,-0.0004238504562778,-0.0259493516654781,0.0469805361410176,0.0341930243475946,-0.0153804889910582*d61053ea
#CORRIMUDATAA,FILE,0,30.0,FINESTEERING,2319,303870.550,02000000,e5fc,17139;2319,303870.550000000,-0.0006728329505925,-0.0004932969806562,-0.0261674421340859,0.0533604937724641,0.0344012309158416,-0.0116982010123901*9357e255
#CORRIMUDATAA,FILE,0,30.0,FINESTEERING,2319,303870.600,02000000,e5fc,17139;2319,303870.600000000,-0.0006091014324511,-0.0007550060340870,-0.0262987403195716,0.0575106571969493,0.0291518038562027,-0.0052169932080328*7c0822dc
#CORRIMUDATAA,FILE,0,30.0,FINESTEERING,2319,303870.650,02000000,e5fc,17139;2319,303870.650000000,-0.0005287005285728,-0.0009571316019944,-0.0264421048205189,0.0597133791012727,0.0308652478382768,-0.0008110133674698*857797f5
#CORRIMUDATAA,FILE,0,30.0,FINESTEERING,2319,303870.700,02000000,e5fc,17139;2319,303870.700000000,-0.0006699770939001,-0.0009008101562168,-0.0265736233838275,0.0614767398863936,0.0267319733095785,0.0026648678082885*ecae7bc7
#CORRIMUDATAA,FILE,0,30.0,FINESTEERING,2319,303870.750,02000000,e5fc,17139;2319,303870.750000000,-0.0008827104303661,-0.0007135429859604,-0.0267394893220345,0.0587802097270227,0.0265791706500006,0.0114917600593170*e3380327
#CORRIMUDATAA,FILE,0,30.0,FINESTEERING,2319,303870.800,02000000,e5fc,17139;2319,303870.800000000,-0.0011754029828101,-0.0005549581013374,-0.0268832154445226,0.0651455439872703,0.0257410155676358,0.0086300934867108*a4a8ed79
#CORRIMUDATAA,FILE,0,30.0,FINESTEERING,2319,303870.850,02000000,e5fc,17139;2319,303870.850000000,-0.0011537845487771,-0.0005854150843861,-0.0269354110414665,0.0675950928486904,0.0249810017840535,0.0070320860537859*07eeaee0
#CORRIMUDATAA,FILE,0,30.0,FINESTEERING,2319,303870.900,02000000,e5fc,17139;2319,303870.900000000,-0.0011145452792271,-0.0005003454224128,-0.0268936102771103,0.0665336548899131,0.0309992544875809,-0.0050006964318300*4a4b7471
#CORRIMUDATAA,FILE,0,30.0,FINESTEERING,2319,303870.950,02000000,e5fc,17139;2319,303870.950000000,-0.0008087501884387,-0.0001129706196558,-0.0267600870193141,0.0667971872461828,0.0349645875099051,-0.0177991930806997*54e10a15
#CORRIMUDATAA,FILE,0,30.0,FINESTEERING,2319,303871.000,02000000,e5fc,17139;2319,303871.000000000,-0.0004521644667070,0.0001412992744823,-0.0264922917444527,0.0681199072213621,0.0331153293452258,-0.0186390847078915*04e5d9e8
#CORRIMUDATAA,FILE,0,30.0,FINESTEERING,2319,303871.050,02000000,e5fc,17139;2319,303871.050000000,-0.0002087816910733,0.0000250210253060,-0.0261701377181081,0.0654005173702717,0.0322232383159646,-0.0103715086996610*00bebd34
#CORRIMUDATAA,FILE,0,26.0,FINESTEERING,2319,303871.100,02000000,e5fc,17139;2319,303871.100000000,-0.0001986498493357,-0.0000948273783476,-0.0258975268414565,0.0608386503586180,0.0323283373851898,-0.0027696319029129*81ce77ea
#CORRIMUDATAA,FILE,0,26.0,FINESTEERING,2319,303871.150,02000000,e5fc,17139;2319,303871.150000000,-0.0002154439388825,0.0000683064558161,-0.0256940716062878,0.0616560342542928,0.0312164832692458,0.0046901126118034*d4faf24e
#CORRIMUDATAA,FILE,0,26.0,FINESTEERING,2319,303871.200,02000000,e5fc,17139;2319,303871.200000000,-0.0003853575231107,0.0001801573163515,-0.0253889745824142,0.0643034049121655,0.0306658247230899,0.0083653709334776*c2690138
#CORRIMUDATAA,FILE,0,26.0,FINESTEERING,2319,303871.250,02000000,e5fc,17139;2319,303871.250000000,-0.0005901124914081,0.0001078058716040,-0.0248217371163625,0.0730057118935648,0.0298087311146284,0.0077477346839932*c642f664
#CORRIMUDATAA,FILE,0,26.0,FINESTEERING,2319,303871.300,02000000,e5fc,17139;2319,303871.300000000,-0.0004903768420188,-0.0001271125870257,-0.0240088952442636,0.0745509596195266,0.0362795180440939,-0.0033199534969009*b1bdf8d8
#CORRIMUDATAA,FILE,0,26.0,FINESTEERING,2319,303871.350,02000000,e5fc,17139;2319,303871.350000000,-0.0006857604921725,-0.0001063954016916,-0.0231502741922033,0.0702982893922787,0.0308631412469848,-0.0031863295205735*607d1aa4
#CORRIMUDATAA,FILE,0,26.0,FINESTEERING,2319,303871.400,02000000,e5fc,17139;2319,303871.400000000,-0.0004140914717413,0.0000697030606011,-0.0222334774823427,0.0679494330316302,0.0337099651844439,-0.0060643589717381*ed3d9fa1
#CORRIMUDATAA,FILE,0,26.0,FINESTEERING,2319,303871.450,02000000,e5fc,17139;2319,303871.450000000,-0.0004755108644312,0.0003973572408527,-0.0213345767559780,0.0648930637898459,0.0282896932166334,0.0017220825616587*1cab338e
#CORRIMUDATAA,FILE,0,26.0,FINESTEERING,2319,303871.500,02000000,e5fc,17139;2319,303871.500000000,-0.0001642131084366,0.0004728287255527,-0.0205354299628966,0.0615479384616854,0.0332519045727253,-0.0024019711392159*a2e040c7
#CORRIMUDATAA,FILE,0,26.0,FINESTEERING,2319,303871.550,02000000,e5fc,17139;2319,303871.550000000,-0.0003097048080619,0.0006125792639507,-0.0198279793318519,0.0553715517154106,0.0291918422332425,-0.0000406607733727*77a123fe
#CORRIMUDATAA,FILE,0,26.0,FINESTEERING,2319,303871.600,02000000,e5fc,17139;2319,303871.600000000,-0.0001925362400965,0.0009644856023528,-0.0190433682809430,0.0558754036406941,0.0326525578226122,0.0007469807374731*d7174d3b
#CORRIMUDATAA,FILE,0,26.0,FINESTEERING,2319,303871.650,02000000,e5fc,17139;2319,303871.650000000,-0.0002824738777679,0.0009418460454794,-0.0181616503190947,0.0588066928741675,0.0308785850094030,-0.0023696610423384*19a846e1
#CORRIMUDATAA,FILE,0,26.0,FINESTEERING,2319,303871.700,02000000,e5fc,17139;2319,303871.700000000,-0.0003066031077811,0.0008865814686985,-0.0170125527914268,0.0592830973682791,0.0313799683645588,0.0017059781997846*e1702b88
#CORRIMUDATAA,FILE,0,26.0,FINESTEERING,2319,303871.750,02000000,e5fc,17139;2319,303871.750000000,-0.0002944043703241,0.0010020326957233,-0.0156693130289435,0.0566379673634573,0.0330977252138794,-0.0080979578429003*93f06cb9
#CORRIMUDATAA,FILE,0,26.0,FINESTEERING,2319,303871.800,02000000,e5fc,17139;2319,303871.800000000,-0.0001861707582282,0.0013570783638731,-0.0141204088703126,0.0556790611357350,0.0300299306200421,-0.0097256126446055*e9276e42
#CORRIMUDATAA,FILE,0,26.0,FINESTEERING,2319,303871.850,02000000,e5fc,17139;2319,303871.850000000,-0.0002061063011798,0.0013463432489410,-0.0126630511643382,0.0492155044330415,0.0271873567017059,0.0034442365978241*688b0f9c
#CORRIMUDATAA,FILE,0,26.0,FINESTEERING,2319,303871.900,02000000,e5fc,17139;2319,303871.900000000,-0.0002248053567631,0.0008852370352766,-0.0114166391569148,0.0429031270290071,0.0258215222143325,0.0026821660754027*743faba1
#CORRIMUDATAA,FILE,0,26.0,FINESTEERING,2319,303871.950,02000000,e5fc,17139;2319,303871.950000000,-0.0005294226117839,0.0006024688406410,-0.0105237696428624,0.0319898615914070,0.0287243281331413,0.0102148161425051*5cb3b8ec
#CORRIMUDATAA,FILE,0,26.0,FINESTEERING,2319,303872.000,02000000,e5fc,17139;2319,303872.000000000,-0.0008475591673285,0.0004416869832719,-0.0099346180375733,0.0273135315242433,0.0253699522305980,0.0026054440810757*c065b728
#CORRIMUDATAA,FILE,0,26.0,FINESTEERING,2319,303872.050,02000000,e5fc,17139;2319,303872.050000000,-0.0009179260906713,0.0002681844104174,-0.0093972806185101,0.0275183944543652,0.0282887457471537,0.0002404750780624*6dbe0c9b
#CORRIMUDATAA,FILE,0,26.0,FINESTEERING,2319,303872.100,02000000,e5fc,17139;2319,303872.100000000,-0.0008436810774968,0.0004743463284753,-0.0087750189722880,0.0290920751323825,0.0274061109129808,-0.0024479188679218*e875bd2c
#CORRIMUDATAA,FILE,0,29.5,FINESTEERING,2319,303872.150,02000000,e5fc,17139;2319,303872.150000000,-0.0006328782567099,0.0010694675760418,-0.0078537233317166,0.0334386508525943,0.0293509605387171,-0.0050460022533077*0f4116a6
#CORRIMUDATAA,FILE,0,29.5,FINESTEERING,2319,303872.200,02000000,e5fc,17139;2319,303872.200000000,-0.0003188801743123,0.0016976701251120,-0.0066965883490281,0.0393214081209102,0.0267993318832334,-0.0029709852958951*efb531da
#CORRIMUDATAA,FILE,0,29.5,FINESTEERING,2319,303872.250,02000000,e5fc,17139;2319,303872.250000000,-0.0001538033131998,0.0016373491093396,-0.0054287286829411,0.0373724153900440,0.0261960536558533,-0.0009209212402272*062153f1
#CORRIMUDATAA,FILE,0,29.5,FINESTEERING,2319,303872.300,02000000,e5fc,17139;2319,303872.300000000,-0.0002491057076999,0.0013105356121077,-0.0042857347179477,0.0238169215613641,0.0258458200398308,0.0077031013988723*c8614adb
#CORRIMUDATAA,FILE,0,29.5,FINESTEERING,2319,303872.350,02000000,e5fc,17139;2319,303872.350000000,-0.0003900104089157,0.0012086469296234,-0.0032917259934179,0.0148418708332530,0.0258256529920391,0.0046643603383442*87cdec03
#CORRIMUDATAA,FILE,0,29.5,FINESTEERING,2319,303872.400,02000000,e5fc,17139;2319,303872.400000000,-0.0006344486836291,0.0011674755539817,-0.0023541695398893,0.0106973206957347,0.0256986668473391,0.0060963368461462*6103f764
#CORRIMUDATAA,FILE,0,29.5,FINESTEERING,2319,303872.450,02000000,e5fc,17139;2319,303872.450000000,-0.0005788804330873,0.0012267478945910,-0.0013674696780663,0.0089894719557474,0.0278889043686011,-0.0014932970776649*291dbcde
#CORRIMUDATAA,FILE,0,29.5,FINESTEERING,2319,303872.500,02000000,e5fc,17139;2319,303872.500000000,-0.0006535331814540,0.0013556535777281,-0.0004153303312820,0.0075595243162108,0.0264229364461438,-0.0046656147750304*dc3c4092
#CORRIMUDATAA,FILE,0,29.5,FINESTEERING,2319,303872.550,02000000,e5fc,17139;2319,303872.550000000,-0.0005942831270507,0.0013282644562066,0.0004922566295420,0.0024735704735457,0.0254556585146218,-0.0043409704510678*125c35fb
#CORRIMUDATAA,FILE,0,29.5,FINESTEERING,2319,303872.600,02000000,e5fc,17139;2319,303872.600000000,-0.0003941146294888,0.0011421634537610,0.0012940912280807,0.0004423433749130,0.0276580351026953,-0.0142936847156999*b57cfa9c
#CORRIMUDATAA,FILE,0,29.5,FINESTEERING,2319,303872.650,02000000,e5fc,17139;2319,303872.650000000,-0.0001632832652406,0.0006876130532166,0.0019432213629565,-0.0019752070845895,0.0269572488044048,-0.0012488633123473*20f540a4
#CORRIMUDATAA,FILE,0,29.5,FINESTEERING,2319,303872.700,02000000,e5fc,17139;2319,303872.700000000,-0.0002433161063816,-0.0000937216068671,0.0025337413531111,-0.0056372192851237,0.0285603619781814,-0.0092064757445597*b6eb0bfc
#CORRIMUDATAA,FILE,0,29.5,FINESTEERING,2319,303872.750,02000000,e5fc,17139;2319,303872.750000000,-0.0000615726966979,-0.0003340493581308,0.0029753509817154,-0.0146778410806651,0.0309937929286758,-0.0087375949939667*2f574e19
#CORRIMUDATAA,FILE,0,29.5,FINESTEERING,2319,303872.800,02000000,e5fc,17139;2319,303872.800000000,-0.0000104120290614,-0.0000966629604716,0.0031816479007200,-0.0148074331185793,0.0278424450211181,-0.0018949000026177*c65fd4dc
#CORRIMUDATAA,FILE,0,29.5,FINESTEERING,2319,303872.850,02000000,e5fc,17139;2319,303872.850000000,0.0000981919238162,-0.0003602778461471,0.0033464768456716,-0.0073571152591908,0.0280323083645928,-0.0013531713674943*3904c516
#CORRIMUDATAA,FILE,0,29.5,FINESTEERING,2319,303872.900,02000000,e5fc,17139;2319,303872.900000000,0.0002349991394837,-0.0002642035247953,0.0035509420830964,-0.0060886567959140,0.0280959090868160,0.0016546862521147*2f52f295
#CORRIMUDATAA,FILE,0,29.5,FINESTEERING,2319,303872.950,02000000,e5fc,17139;2319,303872.950000000,0.0001257732819814,0.0001726540634519,0.0038267757820591,-0.0074721973011780,0.0267957940551030,0.0098846132951794*92f1fb41
#CORRIMUDATAA,FILE,0,29.5,FINESTEERING,2319,303873.000,02000000,e5fc,17139;2319,303873.000000000,-0.0000321688467118,0.0003167651848663,0.0040886931875987,-0.0096417967980897,0.0276136821770083,0.0120578639790702*69cc7c3d
#CORRIMUDATAA,FILE,0,29.5,FINESTEERING,2319,303873.050,02000000,e5fc,17139;2319,303873.050000000,-0.0003155250516103,0.0004644714335340,0.0044023360558194,-0.0158019423067078,0.0261039406474668,0.0043155642718482*9a3b4332
#CORRIMUDATAA,FILE,0,29.0,FINESTEERING,2319,303873.100,02000000,e5fc,17139;2319,303873.100000000,-0.0005836510639573,0.0007037632115708,0.0048289101428837,-0.0149610227332929,0.0253125836767237,0.0097123704391463*77ac47b6
#CORRIMUDATAA,FILE,0,29.0,FINESTEERING,2319,303873.150,02000000,e5fc,17139;2319,303873.150000000,-0.0006351180626960,0.0008999530257951,0.0054236050392162,-0.0115682717345661,0.0249881740471230,-0.0049982124433579*b78f9399
#CORRIMUDATAA,FILE,0,29.0,FINESTEERING,2319,303873.200,02000000,e5fc,17139;2319,303873.200000000,-0.0005287862542735,0.0009963191678638,0.0061381209265843,-0.0104946705805527,0.0250951986427028,-0.0096197028591646*dd2a7226
#CORRIMUDATAA,FILE,0,29.0,FINESTEERING,2319,303873.250,02000000,e5fc,17139;2319,303873.250000000,-0.0004733954155318,0.0011016753133564,0.0069036821923316,-0.0156451771528595,0.0236513687357817,-0.0057060469508503*ae977335
#CORRIMUDATAA,FILE,0,29.0,FINESTEERING,2319,303873.300,02000000,e5fc,17139;2319,303873.300000000,-0.0004506360365859,0.0009528512310378,0.0076212793293775,-0.0228917733341524,0.0240453615565870,-0.0027195496998129*523467d0
