#INSPVAXA,FILE,0,34.0,FINESTEERING,2319,303858.250,02000800,46eb,17139;INS_SOLUTION_GOOD,INS_RTKFIXED,17.60121473523,78.12662275164,526.9071,-76.2000,-0.0040,0.0025,0.0003,0.460417761,-1.484544179,175.560869792,0.0313,0.0316,0.0306,0.0023,0.0023,0.0022,0.0234,0.0236,0.1982,ab000045,0*cd593c6a
#INSPVAXA,FILE,0,34.0,FINESTEERING,2319,303858.350,02000800,46eb,17139;INS_SOLUTION_GOOD,INS_RTKFIXED,17.60121473412,78.12662275241,526.9071,-76.2000,-0.0043,0.0016,0.0009,0.458898969,-1.485094645,175.561333129,0.0313,0.0316,0.0306,0.0023,0.0023,0.0022,0.0234,0.0236,0.1982,ab000045,0*b4e08bb9
#INSPVAXA,FILE,0,34.0,FINESTEERING,2319,303858.450,02000800,46eb,17139;INS_SOLUTION_GOOD,INS_RTKFIXED,17.60121473317,78.12662275272,526.9071,-76.2000,-0.0037,0.0017,0.0017,0.459622935,-1.486195445,175.560668543,0.0313,0.0316,0.0306,0.0023,0.0023,0.0022,0.0234,0.0236,0.1982,ab000045,0*e8ee1e3c
#INSPVAXA,FILE,0,34.0,FINESTEERING,2319,303858.500,02000800,46eb,17139;INS_SOLUTION_GOOD,INS_RTKFIXED,17.60121473263,78.12662275283,526.9071,-76.2000,-0.0034,0.0015,0.0010,0.459987471,-1.484887692,175.560641021,0.0313,0.0316,0.0306,0.0023,0.0023,0.0022,0.0234,0.0236,0.1982,ab000045,0*19c4e206
#INSPVAXA,FILE,0,34.0,FINESTEERING,2319,303858.600,02000800,46eb,17139;INS_SOLUTION_GOOD,INS_RTKFIXED,17.60121473153,78.12662275362,526.9072,-76.2000,-0.0038,0.0019,0.0001,0.460249483,-1.484448486,175.561713270,0.0313,0.0316,0.0306,0.0023,0.0023,0.0022,0.0234,0.0236,0.1982,ab000045,0*02126b1a
#INSPVAXA,FILE,0,34.0,FINESTEERING,2319,303858.750,02000800,46eb,17139;INS_SOLUTION_GOOD,INS_RTKFIXED,17.60121472319,78.12662275652,526.9071,-76.2000,-0.0192,0.0056,-0.0026,0.464158871,-1.466264352,175.564248749,0.0313,0.0316,0.0306,0.0023,0.0023,0.0022,0.0234,0.0236,0.1982,ab000045,0*001b0397
#INSPVAXA,FILE,0,34.0,FINESTEERING,2319,303858.850,02000800,46eb,17139;INS_SOLUTION_GOOD,INS_RTKFIXED,17.60121469580,78.12662275993,526.9069,-76.2000,-0.0445,0.0023,0.0016,0.470317573,-1.455485416,175.559083087,0.0313,0.0316,0.0306,0.0023,0.0023,0.0022,0.0234,0.0236,0.1982,ab000045,0*c803924f
#INSPVAXA,FILE,0,34.0,FINESTEERING,2319,303858.950,02000800,46eb,17139;INS_SOLUTION_GOOD,INS_RTKFIXED,17.60121464666,78.12662276094,526.9072,-76.2000,-0.0667,0.0026,0.0024,0.474484643,-1.466544791,175.529893054,0.0313,0.0316,0.0306,0.0023,0.0023,0.0022,0.0234,0.0236,0.1982,ab000045,0*09b4d9b2
#INSPVAXA,FILE,0,34.0,FINESTEERING,2319,303859.050,02000800,46eb,17139;INS_SOLUTION_GOOD,INS_RTKFIXED,17.60121457753,78.12662276439,526.9073,-76.2000,-0.0863,0.0055,0.0006,0.476623970,-1.475438153,175.496729621,0.0304,0.0307,0.0299,0.0050,0.0050,0.0047,0.0236,0.0238,0.1986,ab000041,0*3ab94e7a
#INSPVAXA,FILE,0,33.0,FINESTEERING,2319,303859.150,02000800,46eb,17139;INS_SOLUTION_GOOD,INS_RTKFIXED,17.60121450929,78.12662276961,526.9082,-76.2000,-0.0531,0.0059,0.0189,0.459805390,-1.543717749,175.473253560,0.0304,0.0307,0.0299,0.0050,0.0050,0.0047,0.0236,0.0238,0.1986,ab000041,0*443f4cb1
#INSPVAXA,FILE,0,33.0,FINESTEERING,2319,303859.250,02000800,46eb,17139;INS_SOLUTION_GOOD,INS_RTKFIXED,17.60121449344,78.12662277600,526.9105,-76.2000,0.0148,0.0053,0.0244,0.440832724,-1.643333186,175.489528018,0.0304,0.0307,0.0299,0.0050,0.0050,0.0047,0.0236,0.0238,0.1986,ab000041,0*8f279aaa
#INSPVAXA,FILE,0,33.0,FINESTEERING,2319,303859.350,02000800,46eb,17139;INS_SOLUTION_GOOD,INS_RTKFIXED,17.60121451113,78.12662277556,526.9118,-76.2000,0.0121,-0.0052,-0.0014,0.463408430,-1.617540666,175.485310299,0.0304,0.0307,0.0299,0.0050,0.0050,0.0047,0.0236,0.0238,0.1986,ab000041,0*3d9c15ad
#INSPVAXA,FILE,0,33.0,FINESTEERING,2319,303859.400,02000800,46eb,17139;INS_SOLUTION_GOOD,INS_RTKFIXED,17.60121451203,78.12662277346,526.9115,-76.2000,-0.0070,-0.0035,-0.0129,0.470932248,-1.568982292,175.471213621,0.0304,0.0307,0.0299,0.0050,0.0050,0.0047,0.0236,0.0238,0.1986,ab000041,0*0994e130
#INSPVAXA,FILE,0,33.0,FINESTEERING,2319,303859.500,02000800,46eb,17139;INS_SOLUTION_GOOD,INS_RTKFIXED,17.60121450254,78.12662277643,526.9104,-76.2000,-0.0104,0.0086,-0.0074,0.458595905,-1.518020247,175.476688042,0.0304,0.0307,0.0299,0.0050,0.0050,0.0047,0.0236,0.0238,0.1986,ab000041,0*55864c76
#INSPVAXA,FILE,0,33.0,FINESTEERING,2319,303859.600,02000800,46eb,17139;INS_SOLUTION_GOOD,INS_RTKFIXED,17.60121449726,78.12662278180,526.9105,-76.2000,-0.0044,0.0018,0.0071,0.452511941,-1.541555200,175.492927158,0.0304,0.0307,0.0299,0.0050,0.0050,0.0047,0.0236,0.0238,0.1986,ab000041,0*c0c0a0ee
#INSPVAXA,FILE,0,33.0,FINESTEERING,2319,303859.700,02000800,46eb,17139;INS_SOLUTION_GOOD,INS_RTKFIXED,17.60121449230,78.12662278048,526.9110,-76.2000,-0.0059,-0.0017,0.0009,0.469338350,-1.554210235,175.471796516,0.0304,0.0307,0.0299,0.0050,0.0050,0.0047,0.0236,0.0238,0.1986,ab000041,0*b4f0b2bc
#INSPVAXA,FILE,0,33.0,FINESTEERING,2319,303859.800,02000800,46eb,17139;INS_SOLUTION_GOOD,INS_RTKFIXED,17.60121448830,78.12662278394,526.9110,-76.2000,-0.0049,0.0087,-0.0008,0.465009091,-1.546087684,175.480246219,0.0304,0.0307,0.0299,0.0050,0.0050,0.0047,0.0236,0.0238,0.1986,ab000041,0*e2d5e4b5
#INSPVAXA,FILE,0,33.0,FINESTEERING,2319,303859.900,02000800,46eb,17139;INS_SOLUTION_GOOD,INS_RTKFIXED,17.60121448262,78.12662278940,526.9111,-76.2000,-0.0077,0.0018,0.0007,0.470480669,-1.549372453,175.490262330,0.0304,0.0307,0.0299,0.0050,0.0050,0.0047,0.0236,0.0238,0.1986,ab000041,0*7ad0fbda
#INSPVAXA,FILE,0,33.0,FINESTEERING,2319,303860.000,02000800,46eb,17139;INS_SOLUTION_GOOD,INS_RTKFIXED,17.60121447690,78.12662279114,526.9112,-76.2000,-0.0054,0.0046,0.0012,0.471985582,-1.548750141,175.476417363,0.0304,0.0307,0.0299,0.0050,0.0050,0.0047,0.0236,0.0238,0.1986,ab000041,0*712c8a96
#INSPVAXA,FILE,0,33.0,FINESTEERING,2319,303860.100,02000800,46eb,17139;INS_SOLUTION_GOOD,INS_RTKFIXED,17.60121447252,78.12662279641,526.9113,-76.2000,-0.0061,0.0056,0.0006,0.476668565,-1.546009206,175.483166625,0.0299,0.0303,0.0298,0.0071,0.0071,0.0064,0.0239,0.0240,0.1989,ab001041,0*a60b26cc
#INSPVAXA,FILE,0,35.0,FINESTEERING,2319,303860.200,02000800,46eb,17139;INS_SOLUTION_GOOD,INS_RTKFIXED,17.60121446666,78.12662279879,526.9114,-76.2000,-0.0082,0.0009,-0.0004,0.486190189,-1.548309145,175.478745915,0.0299,0.0303,0.0298,0.0071,0.0071,0.0064,0.0239,0.0240,0.1989,ab001041,0*e46b7751
#INSPVAXA,FILE,0,35.0,FINESTEERING,2319,303860.300,02000800,46eb,17139;INS_SOLUTION_GOOD,INS_RTKFIXED,17.60121446037,78.12662280034,526.9115,-76.2000,-0.0073,0.0036,0.0017,0.496166258,-1.553703921,175.465345987,0.0299,0.0303,0.0298,0.0071,0.0071,0.0064,0.0239,0.0240,0.1989,ab001041,0*b04bf0d4
#INSPVAXA,FILE,0,35.0,FINESTEERING,2319,303860.400,02000800,46eb,17139;INS_SOLUTION_GOOD,INS_RTKFIXED,17.60121445194,78.12662280273,526.9115,-76.2000,-0.0164,0.0019,-0.0042,0.508719218,-1.546526751,175.455189063,0.0299,0.0303,0.0298,0.0071,0.0071,0.0064,0.0239,0.0240,0.1989,ab001041,0*bd8497c1
#INSPVAXA,FILE,0,35.0,FINESTEERING,2319,303860.500,02000800,46eb,17139;INS_SOLUTION_GOOD,INS_RTKFIXED,17.60121442751,78.12662280350,526.9104,-76.2000,-0.0423,0.0008,-0.0199,0.543066608,-1.498989733,175.417664075,0.0299,0.0303,0.0298,0.0071,0.0071,0.0064,0.0239,0.0240,0.1989,ab001041,0*3d2b1f75
#INSPVAXA,FILE,0,35.0,FINESTEERING,2319,303860.600,02000800,46eb,17139;INS_SOLUTION_GOOD,INS_RTKFIXED,17.60121437121,78.12662280514,526.9085,-76.2000,-0.0859,0.0052,-0.0181,0.549088876,-1.440785933,175.362071072,0.0299,0.0303,0.0298,0.0071,0.0071,0.0064,0.0239,0.0240,0.1989,ab001041,0*7039fcd4
#INSPVAXA,FILE,0,35.0,FINESTEERING,2319,303860.650,02000800,46eb,17139;INS_SOLUTION_GOOD,INS_RTKFIXED,17.60121432749,78.12662280851,526.9077,-76.2000,-0.1095,0.0097,-0.0139,0.551899132,-1.417515950,175.332101007,0.0299,0.0303,0.0298,0.0071,0.0071,0.0064,0.0239,0.0240,0.1989,ab001041,0*b8e9de28
#INSPVAXA,FILE,0,35.0,FINESTEERING,2319,303860.750,02000800,46eb,17139;INS_SOLUTION_GOOD,INS_RTKFIXED,17.60121420835,78.12662281683,526.9074,-76.2000,-0.1546,0.0078,0.0054,0.561695486,-1.414320303,175.252841045,0.0299,0.0303,0.0298,0.0071,0.0071,0.0064,0.0239,0.0240,0.1989,ab001041,0*85aa706d
#INSPVAXA,FILE,0,35.0,FINESTEERING,2319,303860.850,02000800,46eb,17139;INS_SOLUTION_GOOD,INS_RTKFIXED,17.60121404935,78.12662282355,526.9081,-76.2000,-0.1988,0.0082,0.0059,0.561098868,-1.439392945,175.132094825,0.0299,0.0303,0.0298,0.0071,0.0071,0.0064,0.0239,0.0240,0.1989,ab001041,0*2a0549cb
#INSPVAXA,FILE,0,35.0,FINESTEERING,2319,303860.950,02000800,46eb,17139;INS_SOLUTION_GOOD,INS_RTKFIXED,17.60121384982,78.12662283179,526.9083,-76.2000,-0.2446,0.0102,-0.0039,0.565443143,-1.443670226,174.970444483,0.0299,0.0303,0.0298,0.0071,0.0071,0.0064,0.0239,0.0240,0.1989,ab001041,0*895d41f6
#INSPVAXA,FILE,0,35.0,FINESTEERING,2319,303861.050,02000800,46eb,17139;INS_SOLUTION_GOOD,INS_RTKFIXED,17.60121360938,78.12662284292,526.9077,-76.2000,-0.2897,0.0144,-0.0068,0.560866490,-1.434562216,174.775234710,0.0306,0.0309,0.0307,0.0091,0.0091,0.0079,0.0241,0.0243,0.1992,ab001041,0*54fbd8d1
#INSPVAXA,FILE,0,33.0,FINESTEERING,2319,303861.150,02000800,46eb,17139;INS_SOLUTION_GOOD,INS_RTKFIXED,17.60121332880,78.12662285686,526.9071,-76.2000,-0.3353,0.0162,-0.0038,0.552470242,-1.427598303,174.543431683,0.0306,0.0309,0.0307,0.0091,0.0091,0.0079,0.0241,0.0243,0.1992,ab001041,0*3fb9a8e6
#INSPVAXA,FILE,0,33.0,FINESTEERING,2319,303861.200,02000800,46eb,17139;INS_SOLUTION_GOOD,INS_RTKFIXED,17.60121317267,78.12662286426,526.9070,-76.2000,-0.3597,0.0164,-0.0045,0.542937310,-1.426249979,174.411843315,0.0306,0.0309,0.0307,0.0091,0.0091,0.0079,0.0241,0.0243,0.1992,ab001041,0*929ea8b6
#INSPVAXA,FILE,0,33.0,FINESTEERING,2319,303861.300,02000800,46eb,17139;INS_SOLUTION_GOOD,INS_RTKFIXED,17.60121282804,78.12662288136,526.9064,-76.2000,-0.4075,0.0211,-0.0069,0.519534036,-1.417920600,174.126069880,0.0306,0.0309,0.0307,0.0091,0.0091,0.0079,0.0241,0.0243,0.1992,ab001041,0*d36480c6
#INSPVAXA,FILE,0,33.0,FINESTEERING,2319,303861.450,02000800,46eb,17139;INS_SOLUTION_GOOD,INS_RTKFIXED,17.60121222916,78.12662291563,526.9054,-76.2000,-0.4796,0.0275,-0.0066,0.493590655,-1.394829327,173.652868733,0.0306,0.0309,0.0307,0.0091,0.0091,0.0079,0.0241,0.0243,0.1992,ab001041,0*701a4c24
#INSPVAXA,FILE,0,33.0,FINESTEERING,2319,303861.550,02000800,46eb,17139;INS_SOLUTION_GOOD,INS_RTKFIXED,17.60121177689,78.12662294530,526.9046,-76.2000,-0.5257,0.0359,-0.0102,0.468628819,-1.388138866,173.317596263,0.0306,0.0309,0.0307,0.0091,0.0091,0.0079,0.0241,0.0243,0.1992,ab001041,0*236e1ec1
#INSPVAXA,FILE,0,33.0,FINESTEERING,2319,303861.650,02000800,46eb,17139;INS_SOLUTION_GOOD,INS_RTKFIXED,17.60121128203,78.12662298211,526.9035,-76.2000,-0.5738,0.0429,-0.0133,0.449363618,-1.372794585,172.977445883,0.0306,0.0309,0.0307,0.0091,0.0091,0.0079,0.0241,0.0243,0.1992,ab001041,0*a08e3845
#INSPVAXA,FILE,0,33.0,FINESTEERING,2319,303861.750,02000800,46eb,17139;INS_SOLUTION_GOOD,INS_RTKFIXED,17.60121074389,78.12662302499,526.9021,-76.2000,-0.6217,0.0490,-0.0156,0.438519217,-1.350756162,172.640763466,0.0306,0.0309,0.0307,0.0091,0.0091,0.0079,0.0241,0.0243,0.1992,ab001041,0*ef5336f8
#INSPVAXA,FILE,0,33.0,FINESTEERING,2319,303861.800,02000800,46eb,17139;INS_SOLUTION_GOOD,INS_RTKFIXED,17.60121045883,78.12662304894,526.9013,-76.2000,-0.6449,0.0532,-0.0155,0.439193452,-1.340394759,172.474779991,0.0306,0.0309,0.0307,0.0091,0.0091,0.0079,0.0241,0.0243,0.1992,ab001041,0*ad088b25
#INSPVAXA,FILE,0,33.0,FINESTEERING,2319,303861.850,02000800,46eb,17139;INS_SOLUTION_GOOD,INS_RTKFIXED,17.60121016320,78.12662307461,526.9006,-76.2000,-0.6677,0.0567,-0.0149,0.444170800,-1.334373307,172.310683346,0.0306,0.0309,0.0307,0.0091,0.0091,0.0079,0.0241,0.0243,0.1992,ab001041,0*e31c91ab
#INSPVAXA,FILE,0,33.0,FINESTEERING,2319,303861.900,02000800,46eb,17139;INS_SOLUTION_GOOD,INS_RTKFIXED,17.60120985737,78.12662310186,526.8998,-76.2000,-0.6901,0.0600,-0.0145,0.451225224,-1.329786751,172.147756273,0.0306,0.0309,0.0307,0.0091,0.0091,0.0079,0.0241,0.0243,0.1992,ab001041,0*67b1cf12
#INSPVAXA,FILE,0,33.0,FINESTEERING,2319,303861.950,02000800,46eb,17139;INS_SOLUTION_GOOD,INS_RTKFIXED,17.60120954133,78.12662313110,526.8991,-76.2000,-0.7129,0.0647,-0.0161,0.461688554,-1.321622659,171.987309897,0.0306,0.0309,0.0307,0.0091,0.0091,0.0079,0.0241,0.0243,0.1992,ab001041,0*59e910b4
#INSPVAXA,FILE,0,33.0,FINESTEERING,2319,303862.000,02000800,46eb,17139;INS_SOLUTION_GOOD,INS_RTKFIXED,17.60120921501,78.12662316247,526.8983,-76.2000,-0.7358,0.0695,-0.0173,0.475606226,-1.314309987,171.830250735,0.0306,0.0309,0.0307,0.0091,0.0091,0.0079,0.0241,0.0243,0.1992,ab001041,0*546059bd
#INSPVAXA,FILE,0,33.0,FINESTEERING,2319,303862.050,02000800,46eb,17139;INS_SOLUTION_GOOD,INS_RTKFIXED,17.60120887970,78.12662319722,526.8974,-76.2000,-0.7599,0.0753,-0.0178,0.486721235,-1.307448202,171.679429393,0.0333,0.0337,0.0328,0.0109,0.0111,0.0091,0.0244,0.0245,0.1996,ab001241,0*45bc4373
#INSPVAXA,FILE,0,33.0,FINESTEERING,2319,303862.100,02000800,46eb,17139;INS_SOLUTION_GOOD,INS_RTKFIXED,17.60120853533,78.12662323611,526.8964,-76.2000,-0.7835,0.0828,-0.0202,0.496193297,-1.301666180,171.536048309,0.0333,0.0337,0.0328,0.0109,0.0111,0.0091,0.0244,0.0245,0.1996,ab001241,0*184fc13a
#INSPVAXA,FILE,0,33.0,FINESTEERING,2319,303862.150,02000800,46eb,17139;INS_SOLUTION_GOOD,INS_RTKFIXED,17.60120817974,78.12662327845,526.8954,-76.2000,-0.8085,0.0903,-0.0222,0.503396484,-1.297694358,171.401405889,0.0333,0.0337,0.0328,0.0109,0.0111,0.0091,0.0244,0.0245,0.1996,ab001241,0*f789d210
#INSPVAXA,FILE,0,33.0,FINESTEERING,2319,303862.200,02000800,46eb,17139;INS_SOLUTION_GOOD,INS_RTKFIXED,17.60120781300,78.12662332386,526.8943,-76.2000,-0.8337,0.0954,-0.0213,0.504484721,-1.295870214,171.274247165,0.0333,0.0337,0.0328,0.0109,0.0111,0.0091,0.0244,0.0245,0.1996,ab001241,0*42b8060c
#INSPVAXA,FILE,0,32.5,FINESTEERING,2319,303862.250,02000800,46eb,17139;INS_SOLUTION_GOOD,INS_RTKFIXED,17.60120743488,78.12662337143,526.8933,-76.2000,-0.8584,0.0997,-0.0208,0.496880220,-1.300745509,171.150336076,0.0333,0.0337,0.0328,0.0109,0.0111,0.0091,0.0244,0.0245,0.1996,ab001241,0*a2ef8677
#INSPVAXA,FILE,0,32.5,FINESTEERING,2319,303862.300,02000800,46eb,17139;INS_SOLUTION_GOOD,INS_RTKFIXED,17.60120704535,78.12662342119,526.8922,-76.2000,-0.8839,0.1049,-0.0236,0.480899308,-1.307902324,171.030457304,0.0333,0.0337,0.0328,0.0109,0.0111,0.0091,0.0244,0.0245,0.1996,ab001241,0*cb0e1c0c
#INSPVAXA,FILE,0,32.5,FINESTEERING,2319,303862.350,02000800,46eb,17139;INS_SOLUTION_GOOD,INS_RTKFIXED,17.60120664426,78.12662347407,526.8910,-76.2000,-0.9098,0.1125,-0.0257,0.460310789,-1.314690362,170.916841559,0.0333,0.0337,0.0328,0.0109,0.0111,0.0091,0.0244,0.0245,0.1996,ab001241,0*6fa593e0
#INSPVAXA,FILE,0,32.5,FINESTEERING,2319,303862.400,02000800,46eb,17139;INS_SOLUTION_GOOD,INS_RTKFIXED,17.60120623142,78.12662353082,526.8896,-76.2000,-0.9354,0.1218,-0.0284,0.433800769,-1.322462028,170.815279999,0.0333,0.0337,0.0328,0.0109,0.0111,0.0091,0.0244,0.0245,0.1996,ab001241,0*974d88b0
#INSPVAXA,FILE,0,32.5,FINESTEERING,2319,303862.450,02000800,46eb,17139;INS_SOLUTION_GOOD,INS_RTKFIXED,17.60120580685,78.12662359151,526.8882,-76.2000,-0.9615,0.1295,-0.0286,0.402465223,-1.331601065,170.729545157,0.0333,0.0337,0.0328,0.0109,0.0111,0.0091,0.0244,0.0245,0.1996,ab001241,0*149efa72
#INSPVAXA,FILE,0,32.5,FINESTEERING,2319,303862.500,02000000,46eb,17139;INS_SOLUTION_GOOD,INS_RTKFIXED,17.60120537122,78.12662365536,526.8869,-76.2000,-0.9850,0.1352,-0.0257,0.368774539,-1.344034296,170.659486525,0.0333,0.0337,0.0328,0.0109,0.0111,0.0091,0.0244,0.0245,0.1996,ab001241,0*3d706fac
#INSPVAXA,FILE,0,32.5,FINESTEERING,2319,303862.550,02000000,46eb,17139;INS_SOLUTION_GOOD,INS_RTKFIXED,17.60120492488,78.12662372140,526.8856,-76.2000,-1.0082,0.1391,-0.0248,0.337202895,-1.357606183,170.602652760,0.0333,0.0337,0.0328,0.0109,0.0111,0.0091,0.0244,0.0245,0.1996,ab001241,0*98bf367e
#INSPVAXA,FILE,0,32.5,FINESTEERING,2319,303862.600,02000000,46eb,17139;INS_SOLUTION_GOOD,INS_RTKFIXED,17.60120446830,78.12662378915,526.8845,-76.2000,-1.0301,0.1423,-0.0223,0.310277448,-1.370917795,170.556652064,0.0333,0.0337,0.0328,0.0109,0.0111,0.0091,0.0244,0.0245,0.1996,ab001241,0*571d90c3
#INSPVAXA,FILE,0,32.5,FINESTEERING,2319,303862.650,02000000,46eb,17139;INS_SOLUTION_GOOD,INS_RTKFIXED,17.60120400212,78.12662385838,526.8835,-76.2000,-1.0508,0.1457,-0.0178,0.287232445,-1.384667724,170.520492231,0.0333,0.0337,0.0328,0.0109,0.0111,0.0091,0.0244,0.0245,0.1996,ab001241,0*cc3722e8
#INSPVAXA,FILE,0,32.5,FINESTEERING,2319,303862.700,02000000,46eb,17139;INS_SOLUTION_GOOD,INS_RTKFIXED,17.60120352670,78.12662392920,526.8825,-76.2000,-1.0707,0.1491,-0.0187,0.267336806,-1.401675980,170.496141345,0.0333,0.0337,0.0328,0.0109,0.0111,0.0091,0.0244,0.0245,0.1996,ab001241,0*06f09014
#INSPVAXA,FILE,0,32.5,FINESTEERING,2319,303862.750,02000000,46eb,17139;INS_SOLUTION_GOOD,INS_RTKFIXED,17.60120304270,78.12662400201,526.8816,-76.2000,-1.0887,0.1540,-0.0194,0.239919458,-1.416855461,170.486875612,0.0333,0.0337,0.0328,0.0109,0.0111,0.0091,0.0244,0.0245,0.1996,ab001241,0*2eeaa130
#INSPVAXA,FILE,0,32.5,FINESTEERING,2319,303862.800,02000000,46eb,17139;INS_SOLUTION_GOOD,INS_RTKFIXED,17.60120255067,78.12662407778,526.8808,-76.2000,-1.1064,0.1613,-0.0172,0.215511547,-1.429305572,170.494031461,0.0333,0.0337,0.0328,0.0109,0.0111,0.0091,0.0244,0.0245,0.1996,ab001241,0*19a4a747
#INSPVAXA,FILE,0,32.5,FINESTEERING,2319,303862.850,02000000,46eb,17139;INS_SOLUTION_GOOD,INS_RTKFIXED,17.60120205030,78.12662415671,526.8799,-76.2000,-1.1248,0.1683,-0.0163,0.199373965,-1.437646240,170.516623761,0.0333,0.0337,0.0328,0.0109,0.0111,0.0091,0.0244,0.0245,0.1996,ab001241,0*caa6bb36
#INSPVAXA,FILE,0,32.5,FINESTEERING,2319,303862.900,02000000,46eb,17139;INS_SOLUTION_GOOD,INS_RTKFIXED,17.60120154186,78.12662423814,526.8790,-76.2000,-1.1425,0.1715,-0.0196,0.200108387,-1.440258798,170.546685882,0.0333,0.0337,0.0328,0.0109,0.0111,0.0091,0.0244,0.0245,0.1996,ab001241,0*2f4fee36
#INSPVAXA,FILE,0,32.5,FINESTEERING,2319,303862.950,02000000,46eb,17139;INS_SOLUTION_GOOD,INS_RTKFIXED,17.60120102523,78.12662431961,526.8779,-76.2000,-1.1602,0.1692,-0.0222,0.202614239,-1.443053478,170.575406916,0.0333,0.0337,0.0328,0.0109,0.0111,0.0091,0.0244,0.0245,0.1996,ab001241,0*4d945e1f
#INSPVAXA,FILE,0,32.5,FINESTEERING,2319,303863.000,02000000,46eb,17139;INS_SOLUTION_GOOD,INS_RTKFIXED,17.60120050052,78.12662439983,526.8768,-76.2000,-1.1786,0.1658,-0.0253,0.201253206,-1.444198576,170.593456071,0.0333,0.0337,0.0328,0.0109,0.0111,0.0091,0.0244,0.0245,0.1996,ab001241,0*9bc9bc82
#INSPVAXA,FILE,0,32.5,FINESTEERING,2319,303863.050,02000000,46eb,17139;INS_SOLUTION_GOOD,INS_RTKFIXED,17.60119996918,78.12662447965,526.8754,-76.2000,-1.1973,0.1669,-0.0295,0.193105642,-1.443920681,170.602108517,0.0372,0.0378,0.0359,0.0127,0.0130,0.0103,0.0248,0.0250,0.1999,ab001241,0*023cf9ee
#INSPVAXA,FILE,0,19.5,FINESTEERING,2319,303863.100,02000000,46eb,17139;INS_SOLUTION_GOOD,INS_RTKFIXED,17.60119943109,78.12662456059,526.8738,-76.2000,-1.2155,0.1712,-0.0347,0.183279088,-1.439999484,170.606790320,0.0372,0.0378,0.0359,0.0127,0.0130,0.0103,0.0248,0.0250,0.1999,ab001241,0*60653426
#INSPVAXA,FILE,0,19.5,FINESTEERING,2319,303863.150,02000000,46eb,17139;INS_SOLUTION_GOOD,INS_RTKFIXED,17.60119888463,78.12662464382,526.8720,-76.2000,-1.2335,0.1767,-0.0375,0.171215356,-1.429459269,170.615295117,0.0372,0.0378,0.0359,0.0127,0.0130,0.0103,0.0248,0.0250,0.1999,ab001241,0*f477dc9b
#INSPVAXA,FILE,0,19.5,FINESTEERING,2319,303863.200,02000000,46eb,17139;INS_SOLUTION_GOOD,INS_RTKFIXED,17.60119833082,78.12662472923,526.8702,-76.2000,-1.2478,0.1806,-0.0366,0.158941719,-1.421064088,170.631466309,0.0372,0.0378,0.0359,0.0127,0.0130,0.0103,0.0248,0.0250,0.1999,ab001241,0*b7610324
#INSPVAXA,FILE,0,19.5,FINESTEERING,2319,303863.250,02000000,46eb,17139;INS_SOLUTION_GOOD,INS_RTKFIXED,17.60119776994,78.12662481552,526.8685,-76.2000,-1.2643,0.1814,-0.0376,0.133053277,-1.410036158,170.654443906,0.0372,0.0378,0.0359,0.0127,0.0130,0.0103,0.0248,0.0250,0.1999,ab001241,0*b73e9d08
#INSPVAXA,FILE,0,19.5,FINESTEERING,2319,303863.300,02000000,46eb,17139;INS_SOLUTION_GOOD,INS_RTKFIXED,17.60119720225,78.12662490253,526.8669,-76.2000,-1.2790,0.1839,-0.0255,0.111873941,-1.403828034,170.681825794,0.0372,0.0378,0.0359,0.0127,0.0130,0.0103,0.0248,0.0250,0.1999,ab001241,0*99e9c76d
#INSPVAXA,FILE,0,19.5,FINESTEERING,2319,303863.350,02000000,46eb,17139;INS_SOLUTION_GOOD,INS_RTKFIXED,17.60119662763,78.12662499043,526.8656,-76.2000,-1.2936,0.1854,-0.0248,0.089054641,-1.400357398,170.715873867,0.0372,0.0378,0.0359,0.0127,0.0130,0.0103,0.0248,0.0250,0.1999,ab001241,0*94ad8a28
#INSPVAXA,FILE,0,19.5,FINESTEERING,2319,303863.400,02000000,46eb,17139;INS_SOLUTION_GOOD,INS_RTKFIXED,17.60119604687,78.12662507962,526.8644,-76.2000,-1.3064,0.1880,-0.0217,0.073795049,-1.403484033,170.758821781,0.0372,0.0378,0.0359,0.0127,0.0130,0.0103,0.0248,0.0250,0.1999,ab001241,0*02ba6233
#INSPVAXA,FILE,0,19.5,FINESTEERING,2319,303863.450,02000000,46eb,17139;INS_SOLUTION_GOOD,INS_RTKFIXED,17.60119545978,78.12662516964,526.8632,-76.2000,-1.3204,0.1890,-0.0227,0.048221292,-1.414179666,170.815215724,0.0372,0.0378,0.0359,0.0127,0.0130,0.0103,0.0248,0.0250,0.1999,ab001241,0*ef0e1d95
#INSPVAXA,FILE,0,19.5,FINESTEERING,2319,303863.500,02000000,46eb,17139;INS_SOLUTION_GOOD,INS_RTKFIXED,17.60119486672,78.12662526004,526.8621,-76.2000,-1.3335,0.1895,-0.0230,0.014620387,-1.427910127,170.883090324,0.0372,0.0378,0.0359,0.0127,0.0130,0.0103,0.0248,0.0250,0.1999,ab001241,0*4e8e23e1
#INSPVAXA,FILE,0,19.5,FINESTEERING,2319,303863.550,02000000,46eb,17139;INS_SOLUTION_GOOD,INS_RTKFIXED,17.60119426749,78.12662535129,526.8611,-76.2000,-1.3467,0.1913,-0.0222,-0.011884836,-1.441390012,170.961907006,0.0372,0.0378,0.0359,0.0127,0.0130,0.0103,0.0248,0.0250,0.1999,ab001241,0*36cbaf57
#INSPVAXA,FILE,0,19.5,FINESTEERING,2319,303863.600,02000000,46eb,17139;INS_SOLUTION_GOOD,INS_RTKFIXED,17.60119366260,78.12662544259,526.8600,-76.2000,-1.3589,0.1904,-0.0215,-0.021174734,-1.451159044,171.049405033,0.0372,0.0378,0.0359,0.0127,0.0130,0.0103,0.0248,0.0250,0.1999,ab001241,0*6d6df6ca
#INSPVAXA,FILE,0,19.5,FINESTEERING,2319,303863.650,02000000,46eb,17139;INS_SOLUTION_GOOD,INS_RTKFIXED,17.60119305233,78.12662553251,526.8589,-76.2000,-1.3702,0.1862,-0.0221,-0.023193323,-1.456393243,171.145195346,0.0372,0.0378,0.0359,0.0127,0.0130,0.0103,0.0248,0.0250,0.1999,ab001241,0*bbf0e076
#INSPVAXA,FILE,0,19.5,FINESTEERING,2319,303863.700,02000000,46eb,17139;INS_SOLUTION_GOOD,INS_RTKFIXED,17.60119243705,78.12662562080,526.8578,-76.2000,-1.3810,0.1837,-0.0227,-0.024190273,-1.457012467,171.248809753,0.0372,0.0378,0.0359,0.0127,0.0130,0.0103,0.0248,0.0250,0.1999,ab001241,0*dec49333
#INSPVAXA,FILE,0,19.5,FINESTEERING,2319,303863.750,02000000,46eb,17139;INS_SOLUTION_GOOD,INS_RTKFIXED,17.60119181675,78.12662570868,526.8567,-76.2000,-1.3918,0.1844,-0.0248,-0.025701585,-1.458135462,171.366231183,0.0372,0.0378,0.0359,0.0127,0.0130,0.0103,0.0248,0.0250,0.1999,ab001241,0*21325221
#INSPVAXA,FILE,0,19.5,FINESTEERING,2319,303863.800,02000000,46eb,17139;INS_SOLUTION_GOOD,INS_RTKFIXED,17.60119119202,78.12662579754,526.8555,-76.2000,-1.4008,0.1874,-0.0250,-0.025927667,-1.458772866,171.499409574,0.0372,0.0378,0.0359,0.0127,0.0130,0.0103,0.0248,0.0250,0.1999,ab001241,0*68afb3fe
#INSPVAXA,FILE,0,19.5,FINESTEERING,2319,303863.850,02000000,46eb,17139;INS_SOLUTION_GOOD,INS_RTKFIXED,17.60119056329,78.12662588732,526.8542,-76.2000,-1.4089,0.1885,-0.0259,-0.022020001,-1.458919814,171.644720866,0.0372,0.0378,0.0359,0.0127,0.0130,0.0103,0.0248,0.0250,0.1999,ab001241,0*ad3ed2d5
#INSPVAXA,FILE,0,19.5,FINESTEERING,2319,303863.900,02000000,46eb,17139;INS_SOLUTION_GOOD,INS_RTKFIXED,17.60118993042,78.12662597630,526.8530,-76.2000,-1.4184,0.1848,-0.0238,-0.010897420,-1.459300961,171.791461578,0.0372,0.0378,0.0359,0.0127,0.0130,0.0103,0.0248,0.0250,0.1999,ab001241,0*8a2e40fb
#INSPVAXA,FILE,0,19.5,FINESTEERING,2319,303863.950,02000000,46eb,17139;INS_SOLUTION_GOOD,INS_RTKFIXED,17.60118929345,78.12662606256,526.8518,-76.2000,-1.4273,0.1774,-0.0204,0.009036697,-1.458873885,171.928696342,0.0372,0.0378,0.0359,0.0127,0.0130,0.0103,0.0248,0.0250,0.1999,ab001241,0*2f4cd3a6
#INSPVAXA,FILE,0,19.5,FINESTEERING,2319,303864.000,02000000,46eb,17139;INS_SOLUTION_GOOD,INS_RTKFIXED,17.60118865250,78.12662614552,526.8509,-76.2000,-1.4358,0.1703,-0.0182,0.032474610,-1.463094563,172.050159434,0.0372,0.0378,0.0359,0.0127,0.0130,0.0103,0.0248,0.0250,0.1999,ab001241,0*c90f0c5a
#INSPVAXA,FILE,0,19.5,FINESTEERING,2319,303864.050,02000000,46eb,17139;INS_SOLUTION_GOOD,INS_RTKFIXED,17.60118800849,78.12662622422,526.8501,-76.2000,-1.4442,0.1651,-0.0154,0.058771064,-1.471587094,172.155209628,0.0415,0.0424,0.0396,0.0139,0.0144,0.0110,0.0252,0.0254,0.1999,ab001241,0*17eff035
#INSPVAXA,FILE,0,19.5,FINESTEERING,2319,303864.100,02000000,46eb,17139;INS_SOLUTION_GOOD,INS_RTKFIXED,17.60118736101,78.12662629954,526.8494,-76.2000,-1.4529,0.1628,-0.0132,0.091467903,-1.480468144,172.244394024,0.0415,0.0424,0.0396,0.0139,0.0144,0.0110,0.0252,0.0254,0.1999,ab001241,0*4f5cf8fa
#INSPVAXA,FILE,0,29.5,FINESTEERING,2319,303864.150,02000000,46eb,17139;INS_SOLUTION_GOOD,INS_RTKFIXED,17.60118670960,78.12662637370,526.8487,-76.2000,-1.4611,0.1599,-0.0173,0.132514094,-1.488757247,172.319116476,0.0415,0.0424,0.0396,0.0139,0.0144,0.0110,0.0252,0.0254,0.1999,ab001241,0*a3d817b0
#INSPVAXA,FILE,0,29.5,FINESTEERING,2319,303864.200,02000000,46eb,17139;INS_SOLUTION_GOOD,INS_RTKFIXED,17.60118605382,78.12662644670,526.8476,-76.2000,-1.4712,0.1575,-0.0281,0.174938906,-1.484368479,172.376350181,0.0415,0.0424,0.0396,0.0139,0.0144,0.0110,0.0252,0.0254,0.1999,ab001241,0*7ce49c1e
#INSPVAXA,FILE,0,29.5,FINESTEERING,2319,303864.250,02000000,46eb,17139;INS_SOLUTION_GOOD,INS_RTKFIXED,17.60118539305,78.12662651950,526.8460,-76.2000,-1.4827,0.1585,-0.0398,0.215015049,-1.464494166,172.415812746,0.0415,0.0424,0.0396,0.0139,0.0144,0.0110,0.0252,0.0254,0.1999,ab001241,0*8a68c05d
#INSPVAXA,FILE,0,29.5,FINESTEERING,2319,303864.300,02000000,46eb,17139;INS_SOLUTION_GOOD,INS_RTKFIXED,17.60118472709,78.12662659264,526.8438,-76.2000,-1.4947,0.1591,-0.0513,0.248568413,-1.425445746,172.434533014,0.0415,0.0424,0.0396,0.0139,0.0144,0.0110,0.0252,0.0254,0.1999,ab001241,0*6765e65b
#INSPVAXA,FILE,0,29.5,FINESTEERING,2319,303864.350,02000000,46eb,17139;INS_SOLUTION_GOOD,INS_RTKFIXED,17.60118405555,78.12662666628,526.8410,-76.2000,-1.5071,0.1603,-0.0624,0.267610528,-1.374058300,172.428870120,0.0415,0.0424,0.0396,0.0139,0.0144,0.0110,0.0252,0.0254,0.1999,ab001241,0*4948b269
#INSPVAXA,FILE,0,29.5,FINESTEERING,2319,303864.400,02000000,46eb,17139;INS_SOLUTION_GOOD,INS_RTKFIXED,17.60118337821,78.12662674029,526.8378,-76.2000,-1.5195,0.1612,-0.0701,0.272143197,-1.312979168,172.394408928,0.0415,0.0424,0.0396,0.0139,0.0144,0.0110,0.0252,0.0254,0.1999,ab001241,0*c0b93f21
#INSPVAXA,FILE,0,29.5,FINESTEERING,2319,303864.450,02000000,46eb,17139;INS_SOLUTION_GOOD,INS_RTKFIXED,17.60118269549,78.12662681547,526.8344,-76.2000,-1.5313,0.1646,-0.0697,0.263510562,-1.250910023,172.335393400,0.0415,0.0424,0.0396,0.0139,0.0144,0.0110,0.0252,0.0254,0.1999,ab001241,0*0e7f6a18
#INSPVAXA,FILE,0,29.5,FINESTEERING,2319,303864.500,02000000,46eb,17139;INS_SOLUTION_GOOD,INS_RTKFIXED,17.60118200711,78.12662689224,526.8311,-76.2000,-1.5442,0.1681,-0.0637,0.239747913,-1.194038689,172.258104034,0.0415,0.0424,0.0396,0.0139,0.0144,0.0110,0.0252,0.0254,0.1999,ab001241,0*3aab10d8
#INSPVAXA,FILE,0,29.5,FINESTEERING,2319,303864.550,02000000,46eb,17139;INS_SOLUTION_GOOD,INS_RTKFIXED,17.60118131214,78.12662697117,526.8281,-76.2000,-1.5599,0.1733,-0.0572,0.192777864,-1.147570527,172.175353727,0.0415,0.0424,0.0396,0.0139,0.0144,0.0110,0.0252,0.0254,0.1999,ab001241,0*4e479f0e
#INSPVAXA,FILE,0,29.5,FINESTEERING,2319,303864.600,02000000,46eb,17139;INS_SOLUTION_GOOD,INS_RTKFIXED,17.60118061027,78.12662705302,526.8257,-76.2000,-1.5747,0.1804,-0.0432,0.129034348,-1.115937870,172.096443159,0.0415,0.0424,0.0396,0.0139,0.0144,0.0110,0.0252,0.0254,0.1999,ab001241,0*27db0917
#INSPVAXA,FILE,0,29.5,FINESTEERING,2319,303864.650,02000000,46eb,17139;INS_SOLUTION_GOOD,INS_RTKFIXED,17.60117990164,78.12662713842,526.8239,-76.2000,-1.5898,0.1876,-0.0304,0.067543048,-1.097717653,172.025818393,0.0415,0.0424,0.0396,0.0139,0.0144,0.0110,0.0252,0.0254,0.1999,ab001241,0*aebe5fa8
#INSPVAXA,FILE,0,29.5,FINESTEERING,2319,303864.700,02000000,46eb,17139;INS_SOLUTION_GOOD,INS_RTKFIXED,17.60117918606,78.12662722609,526.8228,-76.2000,-1.6044,0.1903,-0.0202,0.026470129,-1.103742433,171.959053288,0.0415,0.0424,0.0396,0.0139,0.0144,0.0110,0.0252,0.0254,0.1999,ab001241,0*ec02bb2c
#INSPVAXA,FILE,0,29.5,FINESTEERING,2319,303864.750,02000000,46eb,17139;INS_SOLUTION_GOOD,INS_RTKFIXED,17.60117846393,78.12662731382,526.8221,-76.2000,-1.6190,0.1886,-0.0116,0.008384173,-1.127343698,171.889983278,0.0415,0.0424,0.0396,0.0139,0.0144,0.0110,0.0252,0.0254,0.1999,ab001241,0*d58b91e3
#INSPVAXA,FILE,0,29.5,FINESTEERING,2319,303864.800,02000000,46eb,17139;INS_SOLUTION_GOOD,INS_RTKFIXED,17.60117773506,78.12662740006,526.8215,-76.2000,-1.6339,0.1849,-0.0133,0.006872645,-1.156956266,171.814918531,0.0415,0.0424,0.0396,0.0139,0.0144,0.0110,0.0252,0.0254,0.1999,ab001241,0*0db16422
#INSPVAXA,FILE,0,29.5,FINESTEERING,2319,303864.850,02000000,46eb,17139;INS_SOLUTION_GOOD,INS_RTKFIXED,17.60117699953,78.12662748518,526.8207,-76.2000,-1.6483,0.1833,-0.0217,0.023626228,-1.183831817,171.733578775,0.0415,0.0424,0.0396,0.0139,0.0144,0.0110,0.0252,0.0254,0.1999,ab001241,0*e6246755
#INSPVAXA,FILE,0,29.5,FINESTEERING,2319,303864.900,02000000,46eb,17139;INS_SOLUTION_GOOD,INS_RTKFIXED,17.60117625779,78.12662757031,526.8195,-76.2000,-1.6610,0.1844,-0.0292,0.055857228,-1.199977491,171.649950354,0.0415,0.0424,0.0396,0.0139,0.0144,0.0110,0.0252,0.0254,0.1999,ab001241,0*67edfb19
#INSPVAXA,FILE,0,29.5,FINESTEERING,2319,303864.950,02000000,46eb,17139;INS_SOLUTION_GOOD,INS_RTKFIXED,17.60117551014,78.12662765673,526.8180,-76.2000,-1.6741,0.1886,-0.0332,0.086290609,-1.204348818,171.568058257,0.0415,0.0424,0.0396,0.0139,0.0144,0.0110,0.0252,0.0254,0.1999,ab001241,0*96b37605
#INSPVAXA,FILE,0,29.5,FINESTEERING,2319,303865.000,02000000,46eb,17139;INS_SOLUTION_GOOD,INS_RTKFIXED,17.60117475711,78.12662774554,526.8163,-76.2000,-1.6851,0.1941,-0.0353,0.110834054,-1.204647937,171.491533866,0.0415,0.0424,0.0396,0.0139,0.0144,0.0110,0.0252,0.0254,0.1999,ab001241,0*3a82f376
#INSPVAXA,FILE,0,29.5,FINESTEERING,2319,303865.050,02000000,46eb,17139;INS_SOLUTION_GOOD,INS_RTKFIXED,17.60117400204,78.12662783714,526.8147,-76.2000,-1.6952,0.2013,-0.0356,0.127703465,-1.200779629,171.421669619,0.0461,0.0473,0.0433,0.0149,0.0154,0.0116,0.0256,0.0257,0.1997,ab001241,0*28d3d802
#INSPVAXA,FILE,0,29.0,FINESTEERING,2319,303865.100,02000000,46eb,17139;INS_SOLUTION_GOOD,INS_RTKFIXED,17.60117324426,78.12662793209,526.8130,-76.2000,-1.7049,0.2089,-0.0354,0.125452100,-1.196711083,171.362750653,0.0461,0.0473,0.0433,0.0149,0.0154,0.0116,0.0256,0.0257,0.1997,ab001241,0*452cb122
#INSPVAXA,FILE,0,29.0,FINESTEERING,2319,303865.150,02000000,46eb,17139;INS_SOLUTION_GOOD,INS_RTKFIXED,17.60117248169,78.12662803107,526.8113,-76.2000,-1.7162,0.2181,-0.0385,0.092319584,-1.183212450,171.322173853,0.0461,0.0473,0.0433,0.0149,0.0154,0.0116,0.0256,0.0257,0.1997,ab001241,0*3ec271f9
#INSPVAXA,FILE,0,29.0,FINESTEERING,2319,303865.200,02000000,46eb,17139;INS_SOLUTION_GOOD,INS_RTKFIXED,17.60117171410,78.12662813455,526.8096,-76.2000,-1.7261,0.2277,-0.0360,0.041881704,-1.172140364,171.307313789,0.0461,0.0473,0.0433,0.0149,0.0154,0.0116,0.0256,0.0257,0.1997,ab001241,0*52d25f4b
#INSPVAXA,FILE,0,29.0,FINESTEERING,2319,303865.250,02000000,46eb,17139;INS_SOLUTION_GOOD,INS_RTKFIXED,17.60117094227,78.12662824175,526.8080,-76.2000,-1.7349,0.2342,-0.0336,-0.012687442,-1.161803543,171.319762767,0.0461,0.0473,0.0433,0.0149,0.0154,0.0116,0.0256,0.0257,0.1997,ab001241,0*723fb48c
#INSPVAXA,FILE,0,29.0,FINESTEERING,2319,303865.300,02000000,46eb,17139;INS_SOLUTION_GOOD,INS_RTKFIXED,17.60117016611,78.12662835028,526.8065,-76.2000,-1.7443,0.2343,-0.0323,-0.082500774,-1.152902862,171.360982666,0.0461,0.0473,0.0433,0.0149,0.0154,0.0116,0.0256,0.0257,0.1997,ab001241,0*c4db1a08
#INSPVAXA,FILE,0,29.0,FINESTEERING,2319,303865.350,02000000,46eb,17139;INS_SOLUTION_GOOD,INS_RTKFIXED,17.60116938548,78.12662845953,526.8053,-76.2000,-1.7546,0.2364,-0.0268,-0.149345923,-1.154131384,171.427102847,0.0461,0.0473,0.0433,0.0149,0.0154,0.0116,0.0256,0.0257,0.1997,ab001241,0*5a6509cd
#INSPVAXA,FILE,0,29.0,FINESTEERING,2319,303865.400,02000000,46eb,17139;INS_SOLUTION_GOOD,INS_RTKFIXED,17.60116860074,78.12662857054,526.8041,-76.2000,-1.7627,0.2403,-0.0252,-0.194469888,-1.164605593,171.524791891,0.0461,0.0473,0.0433,0.0149,0.0154,0.0116,0.0256,0.0257,0.1997,ab001241,0*45c04a77
#INSPVAXA,FILE,0,29.0,FINESTEERING,2319,303865.450,02000000,46eb,17139;INS_SOLUTION_GOOD,INS_RTKFIXED,17.60116781224,78.12662868106,526.8031,-76.2000,-1.7704,0.2355,-0.0234,-0.208767342,-1.182233620,171.643796582,0.0461,0.0473,0.0433,0.0149,0.0154,0.0116,0.0256,0.0257,0.1997,ab001241,0*8818b974
#INSPVAXA,FILE,0,29.0,FINESTEERING,2319,303865.500,02000000,46eb,17139;INS_SOLUTION_GOOD,INS_RTKFIXED,17.60116701932,78.12662878774,526.8020,-76.2000,-1.7811,0.2250,-0.0264,-0.202287023,-1.197699905,171.776918436,0.0461,0.0473,0.0433,0.0149,0.0154,0.0116,0.0256,0.0257,0.1997,ab001241,0*10c6d852
#INSPVAXA,FILE,0,29.0,FINESTEERING,2319,303865.550,02000000,46eb,17139;INS_SOLUTION_GOOD,INS_RTKFIXED,17.60116622219,78.12662888993,526.8006,-76.2000,-1.7899,0.2169,-0.0336,-0.201631809,-1.201571342,171.921190116,0.0461,0.0473,0.0433,0.0149,0.0154,0.0116,0.0256,0.0257,0.1997,ab001241,0*9b8c0de0
#INSPVAXA,FILE,0,29.0,FINESTEERING,2319,303865.600,02000000,46eb,17139;INS_SOLUTION_GOOD,INS_RTKFIXED,17.60116542124,78.12662899030,526.7990,-76.2000,-1.7968,0.2164,-0.0340,-0.207697458,-1.201412757,172.085402962,0.0461,0.0473,0.0433,0.0149,0.0154,0.0116,0.0256,0.0257,0.1997,ab001241,0*31302ab8
#INSPVAXA,FILE,0,29.0,FINESTEERING,2319,303865.650,02000000,46eb,17139;INS_SOLUTION_GOOD,INS_RTKFIXED,17.60116461719,78.12662909214,526.7975,-76.2000,-1.8030,0.2219,-0.0324,-0.211529059,-1.195794007,172.278057886,0.0461,0.0473,0.0433,0.0149,0.0154,0.0116,0.0256,0.0257,0.1997,ab001241,0*cff4eb00
#INSPVAXA,FILE,0,29.0,FINESTEERING,2319,303865.700,02000000,46eb,17139;INS_SOLUTION_GOOD,INS_RTKFIXED,17.60116381084,78.12662919581,526.7962,-76.2000,-1.8072,0.2238,-0.0254,-0.207155145,-1.191401007,172.499726227,0.0461,0.0473,0.0433,0.0149,0.0154,0.0116,0.0256,0.0257,0.1997,ab001241,0*f7d7cd2e
#INSPVAXA,FILE,0,29.0,FINESTEERING,2319,303865.750,02000000,46eb,17139;INS_SOLUTION_GOOD,INS_RTKFIXED,17.60116300239,78.12662929854,526.7953,-76.2000,-1.8116,0.2185,-0.0164,-0.191449801,-1.193653193,172.742102120,0.0461,0.0473,0.0433,0.0149,0.0154,0.0116,0.0256,0.0257,0.1997,ab001241,0*f8100bcc
#INSPVAXA,FILE,0,29.0,FINESTEERING,2319,303865.800,02000000,46eb,17139;INS_SOLUTION_GOOD,INS_RTKFIXED,17.60116219162,78.12662939677,526.7949,-76.2000,-1.8162,0.2050,-0.0066,-0.169740073,-1.209916318,172.994325746,0.0461,0.0473,0.0433,0.0149,0.0154,0.0116,0.0256,0.0257,0.1997,ab001241,0*8bd31a5a
#INSPVAXA,FILE,0,29.0,FINESTEERING,2319,303865.850,02000000,46eb,17139;INS_SOLUTION_GOOD,INS_RTKFIXED,17.60116137905,78.12662948872,526.7948,-76.2000,-1.8202,0.1910,-0.0043,-0.163083456,-1.231291105,173.246510382,0.0461,0.0473,0.0433,0.0149,0.0154,0.0116,0.0256,0.0257,0.1997,ab001241,0*2d8bbea3
#INSPVAXA,FILE,0,29.0,FINESTEERING,2319,303865.900,02000000,46eb,17139;INS_SOLUTION_GOOD,INS_RTKFIXED,17.60116056433,78.12662957570,526.7947,-76.2000,-1.8249,0.1839,-0.0034,-0.159771206,-1.255092842,173.491695994,0.0461,0.0473,0.0433,0.0149,0.0154,0.0116,0.0256,0.0257,0.1997,ab001241,0*c0a4c502
#INSPVAXA,FILE,0,29.0,FINESTEERING,2319,303865.950,02000000,46eb,17139;INS_SOLUTION_GOOD,INS_RTKFIXED,17.60115974742,78.12662966014,526.7946,-76.2000,-1.8298,0.1791,-0.0079,-0.144312293,-1.280442222,173.732072383,0.0461,0.0473,0.0433,0.0149,0.0154,0.0116,0.0256,0.0257,0.1997,ab001241,0*34792d7f
#INSPVAXA,FILE,0,29.0,FINESTEERING,2319,303866.000,02000000,46eb,17139;INS_SOLUTION_GOOD,INS_RTKFIXED,17.60115892793,78.12662974173,526.7941,-76.2000,-1.8354,0.1722,-0.0181,-0.134479692,-1.301061712,173.967982643,0.0461,0.0473,0.0433,0.0149,0.0154,0.0116,0.0256,0.0257,0.1997,ab001241,0*f68143bd
#INSPVAXA,FILE,0,29.0,FINESTEERING,2319,303866.050,02000000,46eb,17139;INS_SOLUTION_GOOD,INS_RTKFIXED,17.60115810556,78.12662981618,526.7931,-76.2000,-1.8426,0.1648,-0.0306,-0.147092908,-1.313184437,174.202535517,0.0500,0.0513,0.0466,0.0155,0.0159,0.0120,0.0259,0.0261,0.1993,ab001241,0*6308bb4e
#INSPVAXA,FILE,0,29.0,FINESTEERING,2319,303866.100,02000000,46eb,17139;INS_SOLUTION_GOOD,INS_RTKFIXED,17.60115727893,78.12662988428,526.7915,-76.2000,-1.8489,0.1602,-0.0433,-0.167469383,-1.310053662,174.437768633,0.0500,0.0513,0.0466,0.0155,0.0159,0.0120,0.0259,0.0261,0.1993,ab001241,0*d8d48a93
#INSPVAXA,FILE,0,30.5,FINESTEERING,2319,303866.150,02000000,46eb,17139;INS_SOLUTION_GOOD,INS_RTKFIXED,17.60115644957,78.12662995001,526.7894,-76.2000,-1.8550,0.1547,-0.0510,-0.172617705,-1.288302235,174.671919959,0.0500,0.0513,0.0466,0.0155,0.0159,0.0120,0.0259,0.0261,0.1993,ab001241,0*4b80c63a
#INSPVAXA,FILE,0,30.5,FINESTEERING,2319,303866.200,02000000,46eb,17139;INS_SOLUTION_GOOD,INS_RTKFIXED,17.60115561782,78.12663001147,526.7871,-76.2000,-1.8593,0.1423,-0.0496,-0.162564214,-1.261111658,174.900882517,0.0500,0.0513,0.0466,0.0155,0.0159,0.0120,0.0259,0.0261,0.1993,ab001241,0*98c9aa26
#INSPVAXA,FILE,0,30.5,FINESTEERING,2319,303866.250,02000000,46eb,17139;INS_SOLUTION_GOOD,INS_RTKFIXED,17.60115478420,78.12663006666,526.7850,-76.2000,-1.8628,0.1286,-0.0444,-0.158086278,-1.235456868,175.120188647,0.0500,0.0513,0.0466,0.0155,0.0159,0.0120,0.0259,0.0261,0.1993,ab001241,0*d7484924
#INSPVAXA,FILE,0,30.5,FINESTEERING,2319,303866.300,02000000,46eb,17139;INS_SOLUTION_GOOD,INS_RTKFIXED,17.60115394887,78.12663011670,526.7830,-76.2000,-1.8665,0.1197,-0.0389,-0.146562036,-1.221875770,175.330868442,0.0500,0.0513,0.0466,0.0155,0.0159,0.0120,0.0259,0.0261,0.1993,ab001241,0*c1e918c6
#INSPVAXA,FILE,0,30.5,FINESTEERING,2319,303866.350,02000000,46eb,17139;INS_SOLUTION_GOOD,INS_RTKFIXED,17.60115311147,78.12663016384,526.7815,-76.2000,-1.8715,0.1150,-0.0325,-0.126370547,-1.227422280,175.539225596,0.0500,0.0513,0.0466,0.0155,0.0159,0.0120,0.0259,0.0261,0.1993,ab001241,0*3f55a451
#INSPVAXA,FILE,0,30.5,FINESTEERING,2319,303866.400,02000000,46eb,17139;INS_SOLUTION_GOOD,INS_RTKFIXED,17.60115227236,78.12663020846,526.7804,-76.2000,-1.8743,0.1099,-0.0219,-0.101631102,-1.249532851,175.744341134,0.0500,0.0513,0.0466,0.0155,0.0159,0.0120,0.0259,0.0261,0.1993,ab001241,0*e1c6cc89
#INSPVAXA,FILE,0,30.5,FINESTEERING,2319,303866.450,02000000,46eb,17139;INS_SOLUTION_GOOD,INS_RTKFIXED,17.60115143143,78.12663025093,526.7795,-76.2000,-1.8787,0.1050,-0.0204,-0.076921791,-1.274297110,175.943915931,0.0500,0.0513,0.0466,0.0155,0.0159,0.0120,0.0259,0.0261,0.1993,ab001241,0*977b0b4f
#INSPVAXA,FILE,0,30.5,FINESTEERING,2319,303866.500,02000000,46eb,17139;INS_SOLUTION_GOOD,INS_RTKFIXED,17.60115058984,78.12663029078,526.7786,-76.2000,-1.8764,0.0988,-0.0207,-0.061058516,-1.303297568,176.131425905,0.0500,0.0513,0.0466,0.0155,0.0159,0.0120,0.0259,0.0261,0.1993,ab001241,0*6d4fdcda
#INSPVAXA,FILE,0,30.5,FINESTEERING,2319,303866.550,02000000,46eb,17139;INS_SOLUTION_GOOD,INS_RTKFIXED,17.60114974771,78.12663032796,526.7778,-76.2000,-1.8812,0.0909,-0.0199,-0.062568910,-1.318820538,176.306611499,0.0500,0.0513,0.0466,0.0155,0.0159,0.0120,0.0259,0.0261,0.1993,ab001241,0*c04e29a6
#INSPVAXA,FILE,0,30.5,FINESTEERING,2319,303866.600,02000000,46eb,17139;INS_SOLUTION_GOOD,INS_RTKFIXED,17.60114890323,78.12663036085,526.7770,-76.2000,-1.8847,0.0852,-0.0229,-0.084953891,-1.331984672,176.464550662,0.0500,0.0513,0.0466,0.0155,0.0159,0.0120,0.0259,0.0261,0.1993,ab001241,0*18f5a824
#INSPVAXA,FILE,0,30.5,FINESTEERING,2319,303866.650,02000000,46eb,17139;INS_SOLUTION_GOOD,INS_RTKFIXED,17.60114805764,78.12663039417,526.7760,-76.2000,-1.8873,0.0863,-0.0277,-0.092652594,-1.333910225,176.631038184,0.0500,0.0513,0.0466,0.0155,0.0159,0.0120,0.0259,0.0261,0.1993,ab001241,0*c80290e1
#INSPVAXA,FILE,0,30.5,FINESTEERING,2319,303866.700,02000000,46eb,17139;INS_SOLUTION_GOOD,INS_RTKFIXED,17.60114721215,78.12663042691,526.7749,-76.2000,-1.8868,0.0850,-0.0275,-0.124121676,-1.321604650,176.804870137,0.0500,0.0513,0.0466,0.0155,0.0159,0.0120,0.0259,0.0261,0.1993,ab001241,0*a0626e72
#INSPVAXA,FILE,0,30.5,FINESTEERING,2319,303866.750,02000000,46eb,17139;INS_SOLUTION_GOOD,INS_RTKFIXED,17.60114636240,78.12663045928,526.7735,-76.2000,-1.9019,0.0832,-0.0372,-0.200005959,-1.309646308,176.988754939,0.0500,0.0513,0.0466,0.0155,0.0159,0.0120,0.0259,0.0261,0.1993,ab001241,0*47467186
#INSPVAXA,FILE,0,30.5,FINESTEERING,2319,303866.800,02000000,46eb,17139;INS_SOLUTION_GOOD,INS_RTKFIXED,17.60114550721,78.12663048868,526.7719,-76.2000,-1.9066,0.0745,-0.0345,-0.298912165,-1.354607858,177.165864275,0.0500,0.0513,0.0466,0.0155,0.0159,0.0120,0.0259,0.0261,0.1993,ab001241,0*06b1a64c
#INSPVAXA,FILE,0,30.5,FINESTEERING,2319,303866.850,02000000,46eb,17139;INS_SOLUTION_GOOD,INS_RTKFIXED,17.60114465494,78.12663051727,526.7707,-76.2000,-1.8978,0.0756,-0.0284,-0.380763504,-1.396462618,177.338070051,0.0500,0.0513,0.0466,0.0155,0.0159,0.0120,0.0259,0.0261,0.1993,ab001241,0*92c72977
#INSPVAXA,FILE,0,30.5,FINESTEERING,2319,303866.900,02000000,46eb,17139;INS_SOLUTION_GOOD,INS_RTKFIXED,17.60114380578,78.12663054228,526.7693,-76.2000,-1.8866,0.0642,-0.0272,-0.427537539,-1.439824252,177.507272638,0.0500,0.0513,0.0466,0.0155,0.0159,0.0120,0.0259,0.0261,0.1993,ab001241,0*43b4e7be
#INSPVAXA,FILE,0,30.5,FINESTEERING,2319,303866.950,02000000,46eb,17139;INS_SOLUTION_GOOD,INS_RTKFIXED,17.60114296098,78.12663056177,526.7679,-76.2000,-1.8800,0.0513,-0.0312,-0.462242139,-1.405120541,177.685944478,0.0500,0.0513,0.0466,0.0155,0.0159,0.0120,0.0259,0.0261,0.1993,ab001241,0*d3e48042
#INSPVAXA,FILE,0,30.5,FINESTEERING,2319,303867.000,02000000,46eb,17139;INS_SOLUTION_GOOD,INS_RTKFIXED,17.60114212214,78.12663057652,526.7667,-76.2000,-1.8607,0.0419,-0.0239,-0.463910472,-1.331113355,177.882882401,0.0500,0.0513,0.0466,0.0155,0.0159,0.0120,0.0259,0.0261,0.1993,ab001241,0*2f91c845
#INSPVAXA,FILE,0,30.5,FINESTEERING,2319,303867.050,02000000,46eb,17139;INS_SOLUTION_GOOD,INS_RTKFIXED,17.60114128972,78.12663058367,526.7656,-76.2000,-1.8488,0.0352,-0.0242,-0.444199542,-1.186380524,178.095481510,0.0532,0.0546,0.0492,0.0159,0.0162,0.0124,0.0262,0.0264,0.1988,ab001241,0*df248bfe
#INSPVAXA,FILE,0,28.5,FINESTEERING,2319,303867.100,02000000,46eb,17139;INS_SOLUTION_GOOD,INS_RTKFIXED,17.60114046147,78.12663058343,526.7646,-76.2000,-1.8330,0.0231,-0.0222,-0.397038973,-1.026323464,178.318061862,0.0532,0.0546,0.0492,0.0159,0.0162,0.0124,0.0262,0.0264,0.1988,ab001241,0*90996cef
#INSPVAXA,FILE,0,28.5,FINESTEERING,2319,303867.150,02000000,46eb,17139;INS_SOLUTION_GOOD,INS_RTKFIXED,17.60113963828,78.12663057780,526.7636,-76.2000,-1.8258,0.0115,-0.0260,-0.343680188,-0.836584883,178.538929697,0.0532,0.0546,0.0492,0.0159,0.0162,0.0124,0.0262,0.0264,0.1988,ab001241,0*a242e879
#INSPVAXA,FILE,0,28.5,FINESTEERING,2319,303867.200,02000000,46eb,17139;INS_SOLUTION_GOOD,INS_RTKFIXED,17.60113881903,78.12663056785,526.7624,-76.2000,-1.8146,0.0041,-0.0284,-0.292552991,-0.654824107,178.759129452,0.0532,0.0546,0.0492,0.0159,0.0162,0.0124,0.0262,0.0264,0.1988,ab001241,0*b125f5ea
#INSPVAXA,FILE,0,28.5,FINESTEERING,2319,303867.250,02000000,46eb,17139;INS_SOLUTION_GOOD,INS_RTKFIXED,17.60113800509,78.12663055499,526.7609,-76.2000,-1.8042,-0.0012,-0.0350,-0.261199501,-0.475123759,178.981537121,0.0532,0.0546,0.0492,0.0159,0.0162,0.0124,0.0262,0.0264,0.1988,ab001241,0*785e4329
#INSPVAXA,FILE,0,28.5,FINESTEERING,2319,303867.300,02000000,46eb,17139;INS_SOLUTION_GOOD,INS_RTKFIXED,17.60113719630,78.12663054083,526.7591,-76.2000,-1.7904,-0.0020,-0.0434,-0.255748545,-0.328265604,179.214477145,0.0532,0.0546,0.0492,0.0159,0.0162,0.0124,0.0262,0.0264,0.1988,ab001241,0*b83ec791
#INSPVAXA,FILE,0,28.5,FINESTEERING,2319,303867.350,02000000,46eb,17139;INS_SOLUTION_GOOD,INS_RTKFIXED,17.60113639359,78.12663052721,526.7571,-76.2000,-1.7793,0.0007,-0.0465,-0.263138212,-0.198761523,179.460335611,0.0532,0.0546,0.0492,0.0159,0.0162,0.0124,0.0262,0.0264,0.1988,ab001241,0*660cab4d
#INSPVAXA,FILE,0,28.5,FINESTEERING,2319,303867.400,02000000,46eb,17139;INS_SOLUTION_GOOD,INS_RTKFIXED,17.60113559533,78.12663051428,526.7548,-76.2000,-1.7681,0.0002,-0.0493,-0.286091300,-0.100983790,179.727747941,0.0532,0.0546,0.0492,0.0159,0.0162,0.0124,0.0262,0.0264,0.1988,ab001241,0*c5ad64fa
#INSPVAXA,FILE,0,28.5,FINESTEERING,2319,303867.450,02000000,46eb,17139;INS_SOLUTION_GOOD,INS_RTKFIXED,17.60113480211,78.12663049946,526.7525,-76.2000,-1.7578,-0.0068,-0.0495,-0.326213896,-0.007328352,180.009022582,0.0532,0.0546,0.0492,0.0159,0.0162,0.0124,0.0262,0.0264,0.1988,ab001241,0*abec17b1
#INSPVAXA,FILE,0,28.5,FINESTEERING,2319,303867.500,02000000,46eb,17139;INS_SOLUTION_GOOD,INS_RTKFIXED,17.60113401322,78.12663048169,526.7502,-76.2000,-1.7472,-0.0136,-0.0449,-0.367508631,0.072488325,180.303724953,0.0532,0.0546,0.0492,0.0159,0.0162,0.0124,0.0262,0.0264,0.1988,ab001241,0*316bae0d
#INSPVAXA,FILE,0,28.5,FINESTEERING,2319,303867.550,02000000,46eb,17139;INS_SOLUTION_GOOD,INS_RTKFIXED,17.60113322960,78.12663046052,526.7482,-76.2000,-1.7364,-0.0220,-0.0389,-0.393917439,0.158792712,180.606839316,0.0532,0.0546,0.0492,0.0159,0.0162,0.0124,0.0262,0.0264,0.1988,ab001241,0*9354d2b9
#INSPVAXA,FILE,0,28.5,FINESTEERING,2319,303867.600,02000000,46eb,17139;INS_SOLUTION_GOOD,INS_RTKFIXED,17.60113245047,78.12663043511,526.7466,-76.2000,-1.7258,-0.0333,-0.0330,-0.406837463,0.242403937,180.919101305,0.0532,0.0546,0.0492,0.0159,0.0162,0.0124,0.0262,0.0264,0.1988,ab001241,0*4f4e5e72
#INSPVAXA,FILE,0,28.5,FINESTEERING,2319,303867.650,02000000,46eb,17139;INS_SOLUTION_GOOD,INS_RTKFIXED,17.60113167610,78.12663040360,526.7452,-76.2000,-1.7168,-0.0480,-0.0317,-0.415786327,0.336972624,181.232198489,0.0532,0.0546,0.0492,0.0159,0.0162,0.0124,0.0262,0.0264,0.1988,ab001241,0*d0120d64
#INSPVAXA,FILE,0,28.5,FINESTEERING,2319,303867.700,02000000,46eb,17139;INS_SOLUTION_GOOD,INS_RTKFIXED,17.60113090499,78.12663036643,526.7436,-76.2000,-1.7095,-0.0591,-0.0372,-0.414344837,0.436900957,181.549634290,0.0532,0.0546,0.0492,0.0159,0.0162,0.0124,0.0262,0.0264,0.1988,ab001241,0*d0b77b2f
#INSPVAXA,FILE,0,28.5,FINESTEERING,2319,303867.750,02000000,46eb,17139;INS_SOLUTION_GOOD,INS_RTKFIXED,17.60113013746,78.12663032387,526.7418,-76.2000,-1.7018,-0.0690,-0.0409,-0.418637250,0.547855148,181.873500202,0.0532,0.0546,0.0492,0.0159,0.0162,0.0124,0.0262,0.0264,0.1988,ab001241,0*2943a70b
#INSPVAXA,FILE,0,28.5,FINESTEERING,2319,303867.800,02000000,46eb,17139;INS_SOLUTION_GOOD,INS_RTKFIXED,17.60112937170,78.12663027805,526.7395,-76.2000,-1.7002,-0.0749,-0.0538,-0.432642494,0.669777419,182.213019854,0.0532,0.0546,0.0492,0.0159,0.0162,0.0124,0.0262,0.0264,0.1988,ab001241,0*96e78a3b
#INSPVAXA,FILE,0,28.5,FINESTEERING,2319,303867.850,02000000,46eb,17139;INS_SOLUTION_GOOD,INS_RTKFIXED,17.60112860635,78.12663022919,526.7368,-76.2000,-1.7007,-0.0817,-0.0630,-0.446396103,0.806249286,182.571856907,0.0532,0.0546,0.0492,0.0159,0.0162,0.0124,0.0262,0.0264,0.1988,ab001241,0*9ee37d48
#INSPVAXA,FILE,0,28.5,FINESTEERING,2319,303867.900,02000000,46eb,17139;INS_SOLUTION_GOOD,INS_RTKFIXED,17.60112784120,78.12663017844,526.7339,-76.2000,-1.6985,-0.0851,-0.0599,-0.453533224,0.947608221,182.955147715,0.0532,0.0546,0.0492,0.0159,0.0162,0.0124,0.0262,0.0264,0.1988,ab001241,0*ac3d7f81
#INSPVAXA,FILE,0,28.5,FINESTEERING,2319,303867.950,02000000,46eb,17139;INS_SOLUTION_GOOD,INS_RTKFIXED,17.60112707914,78.12663012419,526.7315,-76.2000,-1.6885,-0.0965,-0.0423,-0.470833332,1.074287501,183.363875685,0.0532,0.0546,0.0492,0.0159,0.0162,0.0124,0.0262,0.0264,0.1988,ab001241,0*3eed03ef
#INSPVAXA,FILE,0,28.5,FINESTEERING,2319,303868.000,02000000,46eb,17139;INS_SOLUTION_GOOD,INS_RTKFIXED,17.60112632039,78.12663006379,526.7296,-76.2000,-1.6825,-0.1117,-0.0334,-0.502660375,1.185275196,183.788636896,0.0532,0.0546,0.0492,0.0159,0.0162,0.0124,0.0262,0.0264,0.1988,ab001241,0*4e50bac1
#INSPVAXA,FILE,0,28.5,FINESTEERING,2319,303868.050,02000000,46eb,17139;INS_SOLUTION_GOOD,INS_RTKFIXED,17.60112556184,78.12662999147,526.7287,-76.2000,-1.6776,-0.1156,-0.0234,-0.526693786,1.279465336,184.235614653,0.0560,0.0572,0.0511,0.0161,0.0162,0.0124,0.0269,0.0267,0.1985,ab001241,0*607f6af2
#INSPVAXA,FILE,0,28.5,FINESTEERING,2319,303868.100,02000000,46eb,17139;INS_SOLUTION_GOOD,INS_RTKFIXED,17.60112479994,78.12662991072,526.7280,-76.2000,-1.6831,-0.1188,-0.0343,-0.560400696,1.378945352,184.721832951,0.0560,0.0572,0.0511,0.0161,0.0162,0.0124,0.0269,0.0267,0.1985,ab001241,0*c9569d3a
#INSPVAXA,FILE,0,28.5,FINESTEERING,2319,303868.150,02000000,46eb,17139;INS_SOLUTION_GOOD,INS_RTKFIXED,17.60112403621,78.12662982990,526.7259,-76.2000,-1.6822,-0.1201,-0.0634,-0.647662946,1.486122991,185.264126605,0.0560,0.0572,0.0511,0.0161,0.0162,0.0124,0.0269,0.0267,0.1985,ab001241,0*ab29068b
#INSPVAXA,FILE,0,28.5,FINESTEERING,2319,303868.200,02000000,46eb,17139;INS_SOLUTION_GOOD,INS_RTKFIXED,17.60112327619,78.12662974632,526.7240,-76.2000,-1.6745,-0.1281,-0.0489,-0.757308202,1.612881621,185.838429938,0.0560,0.0572,0.0511,0.0161,0.0162,0.0124,0.0269,0.0267,0.1985,ab001241,0*ad892769
#INSPVAXA,FILE,0,28.5,FINESTEERING,2319,303868.250,02000000,46eb,17139;INS_SOLUTION_GOOD,INS_RTKFIXED,17.60112251982,78.12662965529,526.7227,-76.2000,-1.6631,-0.1549,-0.0340,-0.829627019,1.708435242,186.434171204,0.0560,0.0572,0.0511,0.0161,0.0162,0.0124,0.0269,0.0267,0.1985,ab001241,0*338ea5b2
#INSPVAXA,FILE,0,28.5,FINESTEERING,2319,303868.300,02000000,46eb,17139;INS_SOLUTION_GOOD,INS_RTKFIXED,17.60112176789,78.12662954891,526.7221,-76.2000,-1.6504,-0.1931,-0.0109,-0.854858352,1.786132694,187.028710217,0.0560,0.0572,0.0511,0.0161,0.0162,0.0124,0.0269,0.0267,0.1985,ab001241,0*174b1ce8
#INSPVAXA,FILE,0,28.5,FINESTEERING,2319,303868.350,02000000,46eb,17139;INS_SOLUTION_GOOD,INS_RTKFIXED,17.60112102580,78.12662942958,526.7235,-76.2000,-1.6250,-0.2152,0.0398,-0.853958541,1.810202294,187.646852673,0.0560,0.0572,0.0511,0.0161,0.0162,0.0124,0.0269,0.0267,0.1985,ab001241,0*7019b6d1
#INSPVAXA,FILE,0,28.5,FINESTEERING,2319,303868.400,02000000,46eb,17139;INS_SOLUTION_GOOD,INS_RTKFIXED,17.60112029404,78.12662930134,526.7276,-76.2000,-1.6065,-0.2268,0.0928,-0.817100457,1.766531211,188.291401695,0.0560,0.0572,0.0511,0.0161,0.0162,0.0124,0.0269,0.0267,0.1985,ab001241,0*ec84f3bb
#INSPVAXA,FILE,0,28.5,FINESTEERING,2319,303868.450,02000000,46eb,17139;INS_SOLUTION_GOOD,INS_RTKFIXED,17.60111956842,78.12662916916,526.7336,-76.2000,-1.5937,-0.2338,0.1222,-0.715861152,1.661991107,188.969019220,0.0560,0.0572,0.0511,0.0161,0.0162,0.0124,0.0269,0.0267,0.1985,ab001241,0*d5f3150e
#INSPVAXA,FILE,0,28.5,FINESTEERING,2319,303868.500,02000000,46eb,17139;INS_SOLUTION_GOOD,INS_RTKFIXED,17.60111884871,78.12662903161,526.7407,-76.2000,-1.5830,-0.2503,0.1331,-0.562223290,1.548051990,189.657366815,0.0560,0.0572,0.0511,0.0161,0.0162,0.0124,0.0269,0.0267,0.1985,ab001241,0*1e4c8b1d
#INSPVAXA,FILE,0,28.5,FINESTEERING,2319,303868.550,02000000,46eb,17139;INS_SOLUTION_GOOD,INS_RTKFIXED,17.60111813394,78.12662888369,526.7478,-76.2000,-1.5700,-0.2788,0.1278,-0.413307502,1.432400188,190.346914511,0.0560,0.0572,0.0511,0.0161,0.0162,0.0124,0.0269,0.0267,0.1985,ab001241,0*ea850f1a
#INSPVAXA,FILE,0,28.5,FINESTEERING,2319,303868.600,02000000,46eb,17139;INS_SOLUTION_GOOD,INS_RTKFIXED,17.60111742357,78.12662872362,526.7542,-76.2000,-1.5642,-0.3026,0.1057,-0.318486649,1.354808455,191.025855069,0.0560,0.0572,0.0511,0.0161,0.0162,0.0124,0.0269,0.0267,0.1985,ab001241,0*fabd1d76
#INSPVAXA,FILE,0,28.5,FINESTEERING,2319,303868.650,02000000,46eb,17139;INS_SOLUTION_GOOD,INS_RTKFIXED,17.60111671467,78.12662855559,526.7594,-76.2000,-1.5626,-0.3143,0.0784,-0.271744628,1.299317740,191.707164598,0.0560,0.0572,0.0511,0.0161,0.0162,0.0124,0.0269,0.0267,0.1985,ab001241,0*e42b2378
#INSPVAXA,FILE,0,28.5,FINESTEERING,2319,303868.700,02000000,46eb,17139;INS_SOLUTION_GOOD,INS_RTKFIXED,17.60111600549,78.12662838412,526.7631,-76.2000,-1.5658,-0.3193,0.0487,-0.254025230,1.277673561,192.403470528,0.0560,0.0572,0.0511,0.0161,0.0162,0.0124,0.0269,0.0267,0.1985,ab001241,0*b4797e21
#INSPVAXA,FILE,0,28.5,FINESTEERING,2319,303868.750,02000000,46eb,17139;INS_SOLUTION_GOOD,INS_RTKFIXED,17.60111529624,78.12662821030,526.7657,-76.2000,-1.5623,-0.3248,0.0334,-0.258727812,1.258020660,193.126990127,0.0560,0.0572,0.0511,0.0161,0.0162,0.0124,0.0269,0.0267,0.1985,ab001241,0*0a24bc78
#INSPVAXA,FILE,0,28.5,FINESTEERING,2319,303868.800,02000000,46eb,17139;INS_SOLUTION_GOOD,INS_RTKFIXED,17.60111458861,78.12662803298,526.7679,-76.2000,-1.5593,-0.3352,0.0277,-0.296182515,1.244512260,193.877696630,0.0560,0.0572,0.0511,0.0161,0.0162,0.0124,0.0269,0.0267,0.1985,ab001241,0*f4f8fcf7
#INSPVAXA,FILE,0,28.5,FINESTEERING,2319,303868.850,02000000,46eb,17139;INS_SOLUTION_GOOD,INS_RTKFIXED,17.60111388347,78.12662784945,526.7699,-76.2000,-1.5528,-0.3519,0.0302,-0.342003472,1.221254779,194.650268094,0.0560,0.0572,0.0511,0.0161,0.0162,0.0124,0.0269,0.0267,0.1985,ab001241,0*181d6d46
#INSPVAXA,FILE,0,28.5,FINESTEERING,2319,303868.900,02000000,46eb,17139;INS_SOLUTION_GOOD,INS_RTKFIXED,17.60111318126,78.12662765678,526.7721,-76.2000,-1.5465,-0.3750,0.0381,-0.374591172,1.199497465,195.432452649,0.0560,0.0572,0.0511,0.0161,0.0162,0.0124,0.0269,0.0267,0.1985,ab001241,0*fb318a62
#INSPVAXA,FILE,0,28.5,FINESTEERING,2319,303868.950,02000000,46eb,17139;INS_SOLUTION_GOOD,INS_RTKFIXED,17.60111248267,78.12662745204,526.7750,-76.2000,-1.5367,-0.4032,0.0536,-0.388442167,1.165825891,196.221890998,0.0560,0.0572,0.0511,0.0161,0.0162,0.0124,0.0269,0.0267,0.1985,ab001241,0*9fd4a2e5
#INSPVAXA,FILE,0,28.5,FINESTEERING,2319,303869.000,02000000,46eb,17139;INS_SOLUTION_GOOD,INS_RTKFIXED,17.60111178851,78.12662723512,526.7785,-76.2000,-1.5271,-0.4280,0.0652,-0.393917540,1.123842326,197.025263663,0.0560,0.0572,0.0511,0.0161,0.0162,0.0124,0.0269,0.0267,0.1985,ab001241,0*c3e06e51
#INSPVAXA,FILE,0,28.5,FINESTEERING,2319,303869.050,02000000,46eb,17139;INS_SOLUTION_GOOD,INS_RTKFIXED,17.60111109223,78.12662699006,526.7824,-76.2000,-1.5202,-0.4500,0.0709,-0.384632185,1.067043410,197.855233174,0.0601,0.0608,0.0523,0.0168,0.0168,0.0124,0.0270,0.0267,0.1985,ab001241,0*270d5f53
#INSPVAXA,FILE,0,28.5,FINESTEERING,2319,303869.100,02000000,46eb,17139;INS_SOLUTION_GOOD,INS_RTKFIXED,17.60111039327,78.12662671819,526.7864,-76.2000,-1.5138,-0.4690,0.0750,-0.375536738,1.008911140,198.714850584,0.0601,0.0608,0.0523,0.0168,0.0168,0.0124,0.0270,0.0267,0.1985,ab001241,0*41fc650f
#INSPVAXA,FILE,0,28.5,FINESTEERING,2319,303869.150,02000000,46eb,17139;INS_SOLUTION_GOOD,INS_RTKFIXED,17.60110969582,78.12662643695,526.7905,-76.2000,-1.5126,-0.4913,0.0711,-0.358182466,0.950731244,199.603614053,0.0601,0.0608,0.0523,0.0168,0.0168,0.0124,0.0270,0.0267,0.1985,ab001241,0*13a5fca3
#INSPVAXA,FILE,0,28.5,FINESTEERING,2319,303869.200,02000000,46eb,17139;INS_SOLUTION_GOOD,INS_RTKFIXED,17.60110899928,78.12662614555,526.7944,-76.2000,-1.5116,-0.5152,0.0673,-0.331551809,0.902234641,200.519732663,0.0601,0.0608,0.0523,0.0168,0.0168,0.0124,0.0270,0.0267,0.1985,ab001241,0*e30ba36a
#INSPVAXA,FILE,0,28.5,FINESTEERING,2319,303869.250,02000000,46eb,17139;INS_SOLUTION_GOOD,INS_RTKFIXED,17.60110830322,78.12662584246,526.7980,-76.2000,-1.5108,-0.5420,0.0637,-0.293875228,0.862885047,201.460240483,0.0601,0.0608,0.0523,0.0168,0.0168,0.0124,0.0270,0.0267,0.1985,ab001241,0*547f634a
#INSPVAXA,FILE,0,28.5,FINESTEERING,2319,303869.300,02000000,46eb,17139;INS_SOLUTION_GOOD,INS_RTKFIXED,17.60110760827,78.12662552557,526.8013,-76.2000,-1.5074,-0.5749,0.0583,-0.248679985,0.831087982,202.421271413,0.0601,0.0608,0.0523,0.0168,0.0168,0.0124,0.0270,0.0267,0.1985,ab001241,0*9330ecac
#INSPVAXA,FILE,0,28.5,FINESTEERING,2319,303869.350,02000000,46eb,17139;INS_SOLUTION_GOOD,INS_RTKFIXED,17.60110691396,78.12662519431,526.8045,-76.2000,-1.5081,-0.6054,0.0529,-0.209551946,0.804165806,203.404924865,0.0601,0.0608,0.0523,0.0168,0.0168,0.0124,0.0270,0.0267,0.1985,ab001241,0*d4eaa32d
#INSPVAXA,FILE,0,28.5,FINESTEERING,2319,303869.400,02000000,46eb,17139;INS_SOLUTION_GOOD,INS_RTKFIXED,17.60110621915,78.12662485020,526.8076,-76.2000,-1.5104,-0.6316,0.0563,-0.172378288,0.774463699,204.418886337,0.0601,0.0608,0.0523,0.0168,0.0168,0.0124,0.0270,0.0267,0.1985,ab001241,0*18ac7d24
#INSPVAXA,FILE,0,28.5,FINESTEERING,2319,303869.450,02000000,46eb,17139;INS_SOLUTION_GOOD,INS_RTKFIXED,17.60110552225,78.12662449374,526.8107,-76.2000,-1.5170,-0.6593,0.0553,-0.131209206,0.749081226,205.467723783,0.0601,0.0608,0.0523,0.0168,0.0168,0.0124,0.0270,0.0267,0.1985,ab001241,0*1faefee3
#INSPVAXA,FILE,0,28.5,FINESTEERING,2319,303869.500,02000000,46eb,17139;INS_SOLUTION_GOOD,INS_RTKFIXED,17.60110482233,78.12662412372,526.8136,-76.2000,-1.5254,-0.6922,0.0475,-0.103964123,0.726883647,206.549185673,0.0601,0.0608,0.0523,0.0168,0.0168,0.0124,0.0270,0.0267,0.1985,ab001241,0*f987769d
#INSPVAXA,FILE,0,28.5,FINESTEERING,2319,303869.550,02000000,46eb,17139;INS_SOLUTION_GOOD,INS_RTKFIXED,17.60110411887,78.12662373703,526.8162,-76.2000,-1.5335,-0.7298,0.0437,-0.104298943,0.697681717,207.656063712,0.0601,0.0608,0.0523,0.0168,0.0168,0.0124,0.0270,0.0267,0.1985,ab001241,0*0ac30b21
#INSPVAXA,FILE,0,28.5,FINESTEERING,2319,303869.600,02000000,46eb,17139;INS_SOLUTION_GOOD,INS_RTKFIXED,17.60110341164,78.12662333346,526.8186,-76.2000,-1.5413,-0.7676,0.0430,-0.120356260,0.668988402,208.783597050,0.0601,0.0608,0.0523,0.0168,0.0168,0.0124,0.0270,0.0267,0.1985,ab001241,0*007d648a
#INSPVAXA,FILE,0,28.5,FINESTEERING,2319,303869.650,02000000,46eb,17139;INS_SOLUTION_GOOD,INS_RTKFIXED,17.60110270146,78.12662291281,526.8211,-76.2000,-1.5472,-0.8050,0.0426,-0.145835092,0.634635185,209.928012148,0.0601,0.0608,0.0523,0.0168,0.0168,0.0124,0.0270,0.0267,0.1985,ab001241,0*f4c63421
#INSPVAXA,FILE,0,28.5,FINESTEERING,2319,303869.700,02000000,46eb,17139;INS_SOLUTION_GOOD,INS_RTKFIXED,17.60110198869,78.12662247379,526.8236,-76.2000,-1.5526,-0.8464,0.0444,-0.171293617,0.588993258,211.090471244,0.0601,0.0608,0.0523,0.0168,0.0168,0.0124,0.0270,0.0267,0.1985,ab001241,0*19eeb20a
#INSPVAXA,FILE,0,28.5,FINESTEERING,2319,303869.750,02000000,46eb,17139;INS_SOLUTION_GOOD,INS_RTKFIXED,17.60110127549,78.12662201568,526.8263,-76.2000,-1.5503,-0.8894,0.0502,-0.204432746,0.536521626,212.275734423,0.0601,0.0608,0.0523,0.0168,0.0168,0.0124,0.0270,0.0267,0.1985,ab001241,0*386f5dbf
#INSPVAXA,FILE,0,28.5,FINESTEERING,2319,303869.800,02000000,46eb,17139;INS_SOLUTION_GOOD,INS_RTKFIXED,17.60110056207,78.12662153726,526.8292,-76.2000,-1.5531,-0.9340,0.0527,-0.253010715,0.483505446,213.487861590,0.0601,0.0608,0.0523,0.0168,0.0168,0.0124,0.0270,0.0267,0.1985,ab001241,0*3c38d8c9
#INSPVAXA,FILE,0,28.5,FINESTEERING,2319,303869.850,02000000,46eb,17139;INS_SOLUTION_GOOD,INS_RTKFIXED,17.60109984738,78.12662103851,526.8322,-76.2000,-1.5570,-0.9788,0.0491,-0.315609162,0.424265403,214.734136711,0.0601,0.0608,0.0523,0.0168,0.0168,0.0124,0.0270,0.0267,0.1985,ab001241,0*7434bade
#INSPVAXA,FILE,0,28.5,FINESTEERING,2319,303869.900,02000000,46eb,17139;INS_SOLUTION_GOOD,INS_RTKFIXED,17.60109912969,78.12662051881,526.8348,-76.2000,-1.5657,-1.0245,0.0355,-0.385540679,0.370171797,216.014423376,0.0601,0.0608,0.0523,0.0168,0.0168,0.0124,0.0270,0.0267,0.1985,ab001241,0*7a4d8aab
#INSPVAXA,FILE,0,28.5,FINESTEERING,2319,303869.950,02000000,46eb,17139;INS_SOLUTION_GOOD,INS_RTKFIXED,17.60109840944,78.12661997683,526.8366,-76.2000,-1.5680,-1.0755,0.0246,-0.440992276,0.334268022,217.325865411,0.0601,0.0608,0.0523,0.0168,0.0168,0.0124,0.0270,0.0267,0.1985,ab001241,0*60854566
#INSPVAXA,FILE,0,28.5,FINESTEERING,2319,303870.000,02000000,46eb,17139;INS_SOLUTION_GOOD,INS_RTKFIXED,17.60109769078,78.12661940889,526.8383,-76.2000,-1.5623,-1.1353,0.0238,-0.487782332,0.319786753,218.652982301,0.0601,0.0608,0.0523,0.0168,0.0168,0.0124,0.0270,0.0267,0.1985,ab001241,0*584d5ba3
