#BESTVELA,FILE,0,32.5,FINESTEERING,2319,303963.950,02000000,10a2,17139;SOL_COMPUTED,NARROW_INT,0.025,0.950,2.4079,134.742577,0.0014,0*46bec0b4
#BESTVELA,FILE,0,32.5,FINESTEERING,2319,303964.000,02000000,10a2,17139;SOL_COMPUTED,NARROW_INT,0.025,1.000,2.4345,139.173310,0.0278,0*1045f4d9
#BESTVELA,FILE,0,32.5,FINESTEERING,2319,303964.050,02000000,10a2,17139;SOL_COMPUTED,NARROW_INT,0.025,1.050,2.3568,142.178658,0.0625,0*19bfc36d
#BESTVELA,FILE,0,31.5,FINESTEERING,2319,303964.100,02000000,10a2,17139;SOL_COMPUTED,NARROW_INT,0.025,1.100,2.3561,142.858298,0.0030,0*7ea39500
#BESTVELA,FILE,0,31.5,FINESTEERING,2319,303964.150,02000000,10a2,17139;SOL_COMPUTED,NARROW_INT,0.025,1.150,2.2012,141.912350,0.0773,0*1f7f10a0
#BESTVELA,FILE,0,31.5,FINESTEERING,2319,303964.200,02000000,10a2,17139;SOL_COMPUTED,NARROW_INT,0.025,1.200,2.2067,142.298855,0.0096,0*91814aba
#BESTVELA,FILE,0,31.5,FINESTEERING,2319,303964.250,02000000,10a2,17139;SOL_COMPUTED,NARROW_INT,0.025,1.250,2.1060,142.856129,0.0398,0*e51b0877
#BESTVELA,FILE,0,31.5,FINESTEERING,2319,303964.300,02000000,10a2,17139;SOL_COMPUTED,NARROW_INT,0.025,1.300,2.0482,141.002553,0.0882,0*dbc28b43
#BESTVELA,FILE,0,31.5,FINESTEERING,2319,303964.350,02000000,10a2,17139;SOL_COMPUTED,NARROW_INT,0.025,0.350,2.0633,142.872349,-0.0460,0*9ad026dc
#BESTVELA,FILE,0,31.5,FINESTEERING,2319,303964.400,02000000,10a2,17139;SOL_COMPUTED,NARROW_INT,0.025,0.400,2.0295,141.202521,0.1566,0*2e839873
#BESTVELA,FILE,0,31.5,FINESTEERING,2319,303964.450,02000000,10a2,17139;SOL_COMPUTED,NARROW_INT,0.025,0.450,2.0600,144.222804,0.1049,0*40e7b2f9
#BESTVELA,FILE,0,31.5,FINESTEERING,2319,303964.500,02000000,10a2,17139;SOL_COMPUTED,NARROW_INT,0.025,0.500,2.0273,148.202059,0.1109,0*ad9628cc
#BESTVELA,FILE,0,31.5,FINESTEERING,2319,303964.550,02000000,10a2,17139;SOL_COMPUTED,NARROW_INT,0.025,0.550,1.9226,151.940168,0.1266,0*765e74cb
#BESTVELA,FILE,0,31.5,FINESTEERING,2319,303964.600,02000000,10a2,17139;SOL_COMPUTED,NARROW_INT,0.025,0.600,1.8802,155.559939,0.1132,0*c497da86
#BESTVELA,FILE,0,31.5,FINESTEERING,2319,303964.650,02000000,10a2,17139;SOL_COMPUTED,NARROW_INT,0.025,0.650,1.8332,159.246975,0.0964,0*4ca0cc4d
#BESTVELA,FILE,0,31.5,FINESTEERING,2319,303964.700,02000000,10a2,17139;SOL_COMPUTED,NARROW_INT,0.025,0.700,1.8021,161.346024,0.0441,0*034bad69
#BESTVELA,FILE,0,31.5,FINESTEERING,2319,303964.750,02000000,10a2,17139;SOL_COMPUTED,NARROW_INT,0.025,0.750,1.7766,165.684189,0.0044,0*c7d77874
#BESTVELA,FILE,0,31.5,FINESTEERING,2319,303964.800,02000000,10a2,17139;SOL_COMPUTED,NARROW_INT,0.025,0.800,1.8385,169.217968,-0.0585,0*881dde1e
#BESTVELA,FILE,0,31.5,FINESTEERING,2319,303964.850,02000000,10a2,17139;SOL_COMPUTED,NARROW_INT,0.025,0.850,1.7095,169.511582,0.0445,0*de6f9a06
#BESTVELA,FILE,0,31.5,FINESTEERING,2319,303964.900,02000000,10a2,17139;SOL_COMPUTED,NARROW_INT,0.025,0.900,1.7249,170.231033,0.0623,0*baee431f
#BESTVELA,FILE,0,31.5,FINESTEERING,2319,303964.950,02000000,10a2,17139;SOL_COMPUTED,NARROW_INT,0.025,0.950,1.6878,171.602308,-0.0238,0*a35b288f
#BESTVELA,FILE,0,31.5,FINESTEERING,2319,303965.000,02000000,10a2,17139;SOL_COMPUTED,NARROW_INT,0.025,1.000,1.7832,171.293873,0.0648,0*f0e873d1
#BESTVELA,FILE,0,31.5,FINESTEERING,2319,303965.050,02000000,10a2,17139;SOL_COMPUTED,NARROW_INT,0.025,1.050,1.6169,171.164182,0.1396,0*cecc029d
#BESTVELA,FILE,0,31.5,FINESTEERING,2319,303965.100,02000000,10a2,17139;SOL_COMPUTED,NARROW_INT,0.025,1.100,1.6715,171.361990,0.0306,0*066560d6
#BESTVELA,FILE,0,32.5,FINESTEERING,2319,303965.150,02000000,10a2,17139;SOL_COMPUTED,NARROW_INT,0.025,1.150,1.6607,176.000880,0.0707,0*00ff1355
#BESTVELA,FILE,0,32.5,FINESTEERING,2319,303965.200,02000000,10a2,17139;SOL_COMPUTED,NARROW_INT,0.025,1.200,1.7112,177.423661,0.0830,0*dcdad671
#BESTVELA,FILE,0,32.5,FINESTEERING,2319,303965.250,02000000,10a2,17139;SOL_COMPUTED,NARROW_INT,0.025,1.250,1.6952,175.381348,-0.0405,0*7a70fbed
#BESTVELA,FILE,0,32.5,FINESTEERING,2319,303965.300,02000000,10a2,17139;SOL_COMPUTED,NARROW_INT,0.025,1.300,1.7239,176.580371,0.0896,0*1feaeec3
#BESTVELA,FILE,0,32.5,FINESTEERING,2319,303965.350,02000000,10a2,17139;SOL_COMPUTED,NARROW_INT,0.025,0.350,1.6942,172.299638,-0.0026,0*857781ca
#BESTVELA,FILE,0,32.5,FINESTEERING,2319,303965.400,02000000,10a2,17139;SOL_COMPUTED,NARROW_INT,0.025,0.400,1.8175,176.360336,0.0447,0*5b9acb9e
#BESTVELA,FILE,0,32.5,FINESTEERING,2319,303965.450,02000000,10a2,17139;SOL_COMPUTED,NARROW_INT,0.025,0.450,1.8412,176.666410,0.1464,0*1bd7ad59
#BESTVELA,FILE,0,32.5,FINESTEERING,2319,303965.500,02000000,10a2,17139;SOL_COMPUTED,NARROW_INT,0.025,0.500,1.9418,182.822274,0.2318,0*f3f4da82
#BESTVELA,FILE,0,32.5,FINESTEERING,2319,303965.550,02000000,10a2,17139;SOL_COMPUTED,NARROW_INT,0.025,0.550,1.9336,186.942231,0.3639,0*a58b6352
#BESTVELA,FILE,0,32.5,FINESTEERING,2319,303965.600,02000000,10a2,17139;SOL_COMPUTED,NARROW_INT,0.025,0.600,1.9353,188.338203,0.2460,0*16876a42
#BESTVELA,FILE,0,32.5,FINESTEERING,2319,303965.650,02000000,10a2,17139;SOL_COMPUTED,NARROW_INT,0.025,0.650,1.9215,191.248668,0.1850,0*26d77abe
#BESTVELA,FILE,0,32.5,FINESTEERING,2319,303965.700,02000000,10a2,17139;SOL_COMPUTED,NARROW_INT,0.025,0.700,2.0678,194.244101,0.2455,0*a16c7fb8
#BESTVELA,FILE,0,32.5,FINESTEERING,2319,303965.750,02000000,10a2,17139;SOL_COMPUTED,NARROW_INT,0.025,0.750,1.9632,198.240052,0.2414,0*56afe12b
#BESTVELA,FILE,0,32.5,FINESTEERING,2319,303965.800,02000000,10a2,17139;SOL_COMPUTED,NARROW_INT,0.025,0.800,1.9748,196.920287,0.1815,0*6cd37225
#BESTVELA,FILE,0,32.5,FINESTEERING,2319,303965.850,02000000,10a2,17139;SOL_COMPUTED,NARROW_INT,0.025,0.850,2.0619,198.688225,0.0959,0*98e563dc
#BESTVELA,FILE,0,32.5,FINESTEERING,2319,303965.900,02000000,10a2,17139;SOL_COMPUTED,NARROW_INT,0.025,0.900,2.0361,200.428470,0.1616,0*865f3797
#BESTVELA,FILE,0,32.5,FINESTEERING,2319,303965.950,02000000,10a2,17139;SOL_COMPUTED,NARROW_INT,0.025,0.950,2.1158,195.323370,0.1064,0*ceeb8108
#BESTVELA,FILE,0,32.5,FINESTEERING,2319,303966.000,02000000,10a2,17139;SOL_COMPUTED,NARROW_INT,0.025,1.000,2.3606,200.878837,0.2681,0*af425446
#BESTVELA,FILE,0,32.5,FINESTEERING,2319,303966.050,02000000,10a2,17139;SOL_COMPUTED,NARROW_INT,0.025,1.050,2.2023,200.777718,0.3561,0*b519ad1d
#BESTVELA,FILE,0,32.5,FINESTEERING,2319,303966.100,02000000,10a2,17139;SOL_COMPUTED,NARROW_INT,0.025,1.100,2.2295,200.812269,0.2085,0*92e785cf
#BESTVELA,FILE,0,32.5,FINESTEERING,2319,303966.150,02000000,10a2,17139;SOL_COMPUTED,NARROW_INT,0.025,1.150,2.4025,202.663045,0.2782,0*c6886cf4
#BESTVELA,FILE,0,32.5,FINESTEERING,2319,303966.200,02000000,10a2,17139;SOL_COMPUTED,NARROW_INT,0.025,1.200,2.3350,207.183292,0.4245,0*780b00eb
#BESTVELA,FILE,0,32.5,FINESTEERING,2319,303966.250,02000000,10a2,17139;SOL_COMPUTED,NARROW_INT,0.025,1.250,2.4076,209.664776,0.3648,0*b9da8a84
#BESTVELA,FILE,0,32.5,FINESTEERING,2319,303966.300,02000000,10a2,17139;SOL_COMPUTED,NARROW_INT,0.025,1.300,2.4243,210.437601,0.1583,0*548eff03
#BESTVELA,FILE,0,32.5,FINESTEERING,2319,303966.350,02000000,10a2,17139;SOL_COMPUTED,NARROW_INT,0.025,1.350,2.5056,210.263566,0.1062,0*8133feef
#BESTVELA,FILE,0,32.5,FINESTEERING,2319,303966.400,02000000,10a2,17139;SOL_COMPUTED,NARROW_INT,0.025,1.400,2.3643,212.200208,0.2415,0*69b04c6e
#BESTVELA,FILE,0,32.5,FINESTEERING,2319,303966.450,02000000,10a2,17139;SOL_COMPUTED,NARROW_INT,0.025,1.450,2.4411,211.854373,0.1574,0*ae30a5ba
#BESTVELA,FILE,0,32.5,FINESTEERING,2319,303966.500,02000000,10a2,17139;SOL_COMPUTED,NARROW_INT,0.025,1.500,2.4182,214.630104,0.1043,0*8e31996b
#BESTVELA,FILE,0,32.5,FINESTEERING,2319,303966.550,02000000,10a2,17139;SOL_COMPUTED,NARROW_INT,0.025,1.550,2.4626,214.628068,0.3238,0*64278e04
#BESTVELA,FILE,0,32.5,FINESTEERING,2319,303966.600,02000000,10a2,17139;SOL_COMPUTED,NARROW_INT,0.025,1.600,2.5710,214.988159,0.2913,0*e13d546e
#BESTVELA,FILE,0,32.5,FINESTEERING,2319,303966.650,02000000,10a2,17139;SOL_COMPUTED,NARROW_INT,0.025,1.650,2.6509,215.561559,0.2664,0*7fc96aaa
#BESTVELA,FILE,0,32.5,FINESTEERING,2319,303966.700,02000000,10a2,17139;SOL_COMPUTED,NARROW_INT,0.025,1.700,2.6954,220.349013,0.3066,0*d430a172
#BESTVELA,FILE,0,32.5,FINESTEERING,2319,303966.750,02000000,10a2,17139;SOL_COMPUTED,NARROW_INT,0.025,1.750,2.5838,221.188334,0.2343,0*761b4194
#BESTVELA,FILE,0,32.5,FINESTEERING,2319,303966.800,02000000,10a2,17139;SOL_COMPUTED,NARROW_INT,0.025,1.800,2.7166,223.700136,0.1783,0*03eec408
#BESTVELA,FILE,0,32.5,FINESTEERING,2319,303966.850,02000000,10a2,17139;SOL_COMPUTED,NARROW_INT,0.025,1.850,2.6478,224.117696,0.2839,0*669d8e5c
#BESTVELA,FILE,0,32.5,FINESTEERING,2319,303966.900,02000000,10a2,17139;SOL_COMPUTED,NARROW_INT,0.025,1.900,2.7026,226.426368,0.1607,0*bac85ad6
#BESTVELA,FILE,0,32.5,FINESTEERING,2319,303966.950,02000000,10a2,17139;SOL_COMPUTED,NARROW_INT,0.025,1.950,2.7143,227.036476,0.0680,0*ff2bdcb2
#BESTVELA,FILE,0,32.5,FINESTEERING,2319,303967.000,02000000,10a2,17139;SOL_COMPUTED,NARROW_INT,0.025,2.000,2.7252,228.168263,0.1566,0*bf2487c2
#BESTVELA,FILE,0,32.5,FINESTEERING,2319,303967.050,02000000,10a2,17139;SOL_COMPUTED,NARROW_INT,0.025,2.050,2.7765,229.904219,0.1446,0*e65c6315
#BESTVELA,FILE,0,32.5,FINESTEERING,2319,303967.100,02000000,10a2,17139;SOL_COMPUTED,NARROW_INT,0.025,2.100,2.6771,230.665714,0.2066,0*9eeb218c
#BESTVELA,FILE,0,33.5,FINESTEERING,2319,303967.150,02000000,10a2,17139;SOL_COMPUTED,NARROW_INT,0.025,2.150,2.7685,233.883897,0.1295,0*48a0caef
#BESTVELA,FILE,0,33.5,FINESTEERING,2319,303967.200,02000000,10a2,17139;SOL_COMPUTED,NARROW_INT,0.025,2.200,2.7193,234.786493,0.1939,0*8a4c9aff
#BESTVELA,FILE,0,33.5,FINESTEERING,2319,303967.250,02000000,10a2,17139;SOL_COMPUTED,NARROW_INT,0.025,2.250,2.7791,235.722336,0.1509,0*a0debf66
#BESTVELA,FILE,0,33.5,FINESTEERING,2319,303967.300,02000000,10a2,17139;SOL_COMPUTED,NARROW_INT,0.025,2.300,2.7093,233.244740,0.0912,0*d46a97d4
#BESTVELA,FILE,0,33.5,FINESTEERING,2319,303967.350,02000000,10a2,17139;SOL_COMPUTED,NARROW_INT,0.025,0.350,2.7520,237.205058,0.0902,0*3405adda
#BESTVELA,FILE,0,33.5,FINESTEERING,2319,303967.400,02000000,10a2,17139;SOL_COMPUTED,NARROW_INT,0.025,0.400,2.9661,237.530379,0.1945,0*4f860ee1
#BESTVELA,FILE,0,33.5,FINESTEERING,2319,303967.450,02000000,10a2,17139;SOL_COMPUTED,NARROW_INT,0.025,0.450,2.9350,236.209610,0.4527,0*bb66f4fb
#BESTVELA,FILE,0,33.5,FINESTEERING,2319,303967.500,02000000,10a2,17139;SOL_COMPUTED,NARROW_INT,0.025,0.500,2.9220,235.863641,0.4438,0*14ea21eb
#BESTVELA,FILE,0,33.5,FINESTEERING,2319,303967.550,02000000,10a2,17139;SOL_COMPUTED,NARROW_INT,0.025,0.550,2.9122,234.756979,0.4090,0*49cb3c55
#BESTVELA,FILE,0,33.5,FINESTEERING,2319,303967.600,02000000,10a2,17139;SOL_COMPUTED,NARROW_INT,0.025,0.600,2.9027,236.487689,0.2075,0*00745f21
#BESTVELA,FILE,0,33.5,FINESTEERING,2319,303967.650,02000000,10a2,17139;SOL_COMPUTED,NARROW_INT,0.025,0.650,2.8157,235.532757,0.1076,0*1c480e5c
#BESTVELA,FILE,0,33.5,FINESTEERING,2319,303967.700,02000000,10a2,17139;SOL_COMPUTED,NARROW_INT,0.025,0.700,2.8027,237.063005,0.0954,0*85acbfbf
#BESTVELA,FILE,0,33.5,FINESTEERING,2319,303967.750,02000000,10a2,17139;SOL_COMPUTED,NARROW_INT,0.025,0.750,2.7491,237.248272,0.1511,0*0ff4bff1
#BESTVELA,FILE,0,33.5,FINESTEERING,2319,303967.800,02000000,10a2,17139;SOL_COMPUTED,NARROW_INT,0.025,0.800,2.7867,239.417849,0.1806,0*ca3fa033
#BESTVELA,FILE,0,33.5,FINESTEERING,2319,303967.850,02000000,10a2,17139;SOL_COMPUTED,NARROW_INT,0.025,0.850,2.7836,240.864175,0.3731,0*d4fc13e1
#BESTVELA,FILE,0,33.5,FINESTEERING,2319,303967.900,02000000,10a2,17139;SOL_COMPUTED,NARROW_INT,0.025,0.900,2.7373,241.840782,0.3353,0*2f1ebb98
#BESTVELA,FILE,0,33.5,FINESTEERING,2319,303967.950,02000000,10a2,17139;SOL_COMPUTED,NARROW_INT,0.025,0.950,2.7553,242.027074,0.4029,0*c45255f6
#BESTVELA,FILE,0,33.5,FINESTEERING,2319,303968.000,02000000,10a2,17139;SOL_COMPUTED,NARROW_INT,0.025,1.000,2.7328,244.373710,0.3362,0*732817d1
#BESTVELA,FILE,0,33.5,FINESTEERING,2319,303968.050,02000000,10a2,17139;SOL_COMPUTED,NARROW_INT,0.025,1.050,2.6467,242.277154,0.2917,0*1766a23e
#BESTVELA,FILE,0,29.5,FINESTEERING,2319,303968.100,02000000,10a2,17139;SOL_COMPUTED,NARROW_INT,0.025,1.100,2.7323,245.609079,0.1540,0*990576e1
#BESTVELA,FILE,0,29.5,FINESTEERING,2319,303968.150,02000000,10a2,17139;SOL_COMPUTED,NARROW_INT,0.025,1.150,2.7040,244.722420,0.1563,0*e911234f
#BESTVELA,FILE,0,29.5,FINESTEERING,2319,303968.200,02000000,10a2,17139;SOL_COMPUTED,NARROW_INT,0.025,1.200,2.6185,242.264050,0.0268,0*c88b69e3
#BESTVELA,FILE,0,29.5,FINESTEERING,2319,303968.250,02000000,10a2,17139;SOL_COMPUTED,NARROW_INT,0.025,1.250,2.6996,244.549948,0.1428,0*ab12d1a0
#BESTVELA,FILE,0,29.5,FINESTEERING,2319,303968.300,02000000,10a2,17139;SOL_COMPUTED,NARROW_INT,0.025,1.300,2.6622,242.405492,0.2246,0*010a3239
#BESTVELA,FILE,0,29.5,FINESTEERING,2319,303968.350,02000000,10a2,17139;SOL_COMPUTED,NARROW_INT,0.025,1.350,2.6991,244.729886,0.0395,0*1db68941
#BESTVELA,FILE,0,29.5,FINESTEERING,2319,303968.400,02000000,10a2,17139;SOL_COMPUTED,NARROW_INT,0.025,0.400,2.7916,243.615194,-0.1054,0*d9e3a5cc
#BESTVELA,FILE,0,29.5,FINESTEERING,2319,303968.450,02000000,10a2,17139;SOL_COMPUTED,NARROW_INT,0.025,0.450,2.7765,244.741573,0.1738,0*98935e22
#BESTVELA,FILE,0,29.5,FINESTEERING,2319,303968.500,02000000,10a2,17139;SOL_COMPUTED,NARROW_INT,0.025,0.500,2.7659,246.154873,0.3599,0*0b96bfef
#BESTVELA,FILE,0,29.5,FINESTEERING,2319,303968.550,02000000,10a2,17139;SOL_COMPUTED,NARROW_INT,0.025,0.550,2.8461,248.439653,0.2148,0*b914160c
#BESTVELA,FILE,0,29.5,FINESTEERING,2319,303968.600,02000000,10a2,17139;SOL_COMPUTED,NARROW_INT,0.025,0.600,2.9015,245.783038,-0.2384,0*49660342
#BESTVELA,FILE,0,29.5,FINESTEERING,2319,303968.650,02000000,10a2,17139;SOL_COMPUTED,NARROW_INT,0.025,0.650,2.9381,250.816795,0.2754,0*9dd866af
#BESTVELA,FILE,0,29.5,FINESTEERING,2319,303968.700,02000000,10a2,17139;SOL_COMPUTED,NARROW_INT,0.025,0.700,2.9129,251.730580,0.1744,0*12851bdc
#BESTVELA,FILE,0,29.5,FINESTEERING,2319,303968.750,02000000,10a2,17139;SOL_COMPUTED,NARROW_INT,0.025,0.750,3.0089,252.423861,-0.0005,0*2cb40de7
#BESTVELA,FILE,0,29.5,FINESTEERING,2319,303968.800,02000000,10a2,17139;SOL_COMPUTED,NARROW_INT,0.025,0.800,3.0693,251.121403,0.2426,0*2ed024a8
#BESTVELA,FILE,0,29.5,FINESTEERING,2319,303968.850,02000000,10a2,17139;SOL_COMPUTED,NARROW_INT,0.025,0.850,3.0493,250.607235,0.0466,0*36eeb8e2
#BESTVELA,FILE,0,29.5,FINESTEERING,2319,303968.900,02000000,10a2,17139;SOL_COMPUTED,NARROW_INT,0.025,0.900,3.0479,251.911070,-0.0125,0*830507bc
#BESTVELA,FILE,0,29.5,FINESTEERING,2319,303968.950,02000000,10a2,17139;SOL_COMPUTED,NARROW_INT,0.025,0.950,3.1534,251.887269,0.4359,0*762778b2
#BESTVELA,FILE,0,29.5,FINESTEERING,2319,303969.000,02000000,10a2,17139;SOL_COMPUTED,NARROW_INT,0.025,1.000,3.1338,251.135932,0.0318,0*3f31c377
#BESTVELA,FILE,0,29.5,FINESTEERING,2319,303969.050,02000000,10a2,17139;SOL_COMPUTED,NARROW_INT,0.025,1.050,3.1526,250.466563,0.0860,0*f530698b
#BESTVELA,FILE,0,28.5,FINESTEERING,2319,303969.100,02000000,10a2,17139;SOL_COMPUTED,NARROW_INT,0.025,1.100,3.2515,252.416070,0.0967,0*20a0d3b2
#BESTVELA,FILE,0,28.5,FINESTEERING,2319,303969.150,02000000,10a2,17139;SOL_COMPUTED,NARROW_INT,0.025,1.150,3.3491,253.322927,0.2448,0*3af38738
#BESTVELA,FILE,0,28.5,FINESTEERING,2319,303969.200,02000000,10a2,17139;SOL_COMPUTED,NARROW_INT,0.025,1.200,3.3409,255.297582,0.0669,0*411ec691
#BESTVELA,FILE,0,28.5,FINESTEERING,2319,303969.250,02000000,10a2,17139;SOL_COMPUTED,NARROW_INT,0.025,1.250,3.3840,254.594574,0.0358,0*52814e03
#BESTVELA,FILE,0,28.5,FINESTEERING,2319,303969.300,02000000,10a2,17139;SOL_COMPUTED,NARROW_INT,0.025,1.300,3.4021,256.299860,-0.0492,0*796c4eb6
#BESTVELA,FILE,0,28.5,FINESTEERING,2319,303969.350,02000000,10a2,17139;SOL_COMPUTED,NARROW_INT,0.025,1.350,3.5153,255.744057,0.3809,0*c7ee2401
#BESTVELA,FILE,0,28.5,FINESTEERING,2319,303969.400,02000000,10a2,17139;SOL_COMPUTED,NARROW_INT,0.025,1.400,3.4638,258.155840,0.1748,0*dff711af
#BESTVELA,FILE,0,28.5,FINESTEERING,2319,303969.450,02000000,10a2,17139;SOL_COMPUTED,NARROW_INT,0.025,1.450,3.4304,260.199852,0.1045,0*981e1581
#BESTVELA,FILE,0,28.5,FINESTEERING,2319,303969.500,02000000,10a2,17139;SOL_COMPUTED,NARROW_INT,0.025,1.500,3.4776,259.145525,0.1765,0*4575c4ad
#BESTVELA,FILE,0,28.5,FINESTEERING,2319,303969.550,02000000,10a2,17139;SOL_COMPUTED,NARROW_INT,0.025,1.550,3.4943,258.042782,0.2368,0*d9184648
#BESTVELA,FILE,0,28.5,FINESTEERING,2319,303969.600,02000000,10a2,17139;SOL_COMPUTED,NARROW_INT,0.025,1.600,3.5239,253.651649,-0.1255,0*457cebb1
#BESTVELA,FILE,0,28.5,FINESTEERING,2319,303969.650,02000000,10a2,17139;SOL_COMPUTED,NARROW_INT,0.025,1.650,3.6045,258.728421,0.0457,0*9c43d5a1
#BESTVELA,FILE,0,28.5,FINESTEERING,2319,303969.700,02000000,10a2,17139;SOL_COMPUTED,NARROW_INT,0.025,1.700,3.6200,255.876563,0.1328,0*ef614bcc
#BESTVELA,FILE,0,28.5,FINESTEERING,2319,303969.750,02000000,10a2,17139;SOL_COMPUTED,NARROW_INT,0.025,1.750,3.6582,257.032865,0.0733,0*0e94d4ea
#BESTVELA,FILE,0,28.5,FINESTEERING,2319,303969.800,02000000,10a2,17139;SOL_COMPUTED,NARROW_INT,0.025,1.800,3.7070,257.990184,0.0651,0*3299f4a8
#BESTVELA,FILE,0,28.5,FINESTEERING,2319,303969.850,02000000,10a2,17139;SOL_COMPUTED,NARROW_INT,0.025,1.850,3.7900,259.461032,0.1051,0*1acb0cea
#BESTVELA,FILE,0,28.5,FINESTEERING,2319,303969.900,02000000,10a2,17139;SOL_COMPUTED,NARROW_INT,0.025,1.900,3.8742,259.299089,-0.1036,0*a6ddc110
#BESTVELA,FILE,0,28.5,FINESTEERING,2319,303969.950,02000000,10a2,17139;SOL_COMPUTED,NARROW_INT,0.025,1.950,3.9357,260.479061,-0.0716,0*8f8e56cc
#BESTVELA,FILE,0,28.5,FINESTEERING,2319,303970.000,02000000,10a2,17139;SOL_COMPUTED,NARROW_INT,0.025,2.000,3.9076,260.152249,0.1165,0*12b4eaba
#BESTVELA,FILE,0,28.5,FINESTEERING,2319,303970.050,02000000,10a2,17139;SOL_COMPUTED,NARROW_INT,0.025,2.050,3.8892,264.625834,0.0096,0*31d007f5
#BESTVELA,FILE,0,28.5,FINESTEERING,2319,303970.100,02000000,10a2,17139;SOL_COMPUTED,NARROW_INT,0.025,2.100,3.9209,264.661974,0.1699,0*a74f4402
#BESTVELA,FILE,0,31.5,FINESTEERING,2319,303970.150,02000000,10a2,17139;SOL_COMPUTED,NARROW_INT,0.025,2.150,3.9833,265.353497,0.1399,0*d3706f57
#BESTVELA,FILE,0,31.5,FINESTEERING,2319,303970.200,02000000,10a2,17139;SOL_COMPUTED,NARROW_INT,0.025,2.200,4.0660,265.473768,0.1403,0*0921c940
#BESTVELA,FILE,0,31.5,FINESTEERING,2319,303970.250,02000000,10a2,17139;SOL_COMPUTED,NARROW_INT,0.025,2.250,4.0661,264.560863,0.2011,0*dbd4c15e
#BESTVELA,FILE,0,31.5,FINESTEERING,2319,303970.300,02000000,10a2,17139;SOL_COMPUTED,NARROW_INT,0.025,2.300,4.0133,264.301893,0.0768,0*4ca3a775
#BESTVELA,FILE,0,31.5,FINESTEERING,2319,303970.350,02000000,10a2,17139;SOL_COMPUTED,NARROW_INT,0.025,2.350,4.0225,263.495005,0.1655,0*83cef22d
#BESTVELA,FILE,0,31.5,FINESTEERING,2319,303970.400,02000000,10a2,17139;SOL_COMPUTED,NARROW_INT,0.025,2.400,4.0593,262.526292,0.0277,0*7a065eb2
#BESTVELA,FILE,0,31.5,FINESTEERING,2319,303970.450,02000000,10a2,17139;SOL_COMPUTED,NARROW_INT,0.025,2.450,4.1165,261.388367,-0.0082,0*04695c42
#BESTVELA,FILE,0,31.5,FINESTEERING,2319,303970.500,02000000,10a2,17139;SOL_COMPUTED,NARROW_INT,0.025,2.500,4.1128,260.832157,-0.1732,0*050468ab
#BESTVELA,FILE,0,31.5,FINESTEERING,2319,303970.550,02000000,10a2,17139;SOL_COMPUTED,NARROW_INT,0.025,2.550,4.1260,262.057218,-0.0879,0*838009df
#BESTVELA,FILE,0,31.5,FINESTEERING,2319,303970.600,02000000,10a2,17139;SOL_COMPUTED,NARROW_INT,0.025,2.600,4.2049,260.558821,-0.2795,0*7b293790
#BESTVELA,FILE,0,31.5,FINESTEERING,2319,303970.650,02000000,10a2,17139;SOL_COMPUTED,NARROW_INT,0.025,2.650,4.3038,264.720978,-0.1753,0*3dc00724
#BESTVELA,FILE,0,31.5,FINESTEERING,2319,303970.700,02000000,10a2,17139;SOL_COMPUTED,NARROW_INT,0.025,2.700,4.3032,265.777446,-0.1792,0*c9154c85
#BESTVELA,FILE,0,31.5,FINESTEERING,2319,303970.750,02000000,10a2,17139;SOL_COMPUTED,NARROW_INT,0.025,2.750,4.3701,267.089265,0.0741,0*3950e963
#BESTVELA,FILE,0,31.5,FINESTEERING,2319,303970.800,02000000,10a2,17139;SOL_COMPUTED,NARROW_INT,0.025,2.800,4.4304,268.993799,0.0789,0*26e7611b
#BESTVELA,FILE,0,31.5,FINESTEERING,2319,303970.850,02000000,10a2,17139;SOL_COMPUTED,NARROW_INT,0.025,2.850,4.4424,267.115832,0.0666,0*4b6e3e40
#BESTVELA,FILE,0,31.5,FINESTEERING,2319,303970.900,02000000,10a2,17139;SOL_COMPUTED,NARROW_INT,0.025,2.900,4.3842,267.778782,0.1676,0*f6252319
#BESTVELA,FILE,0,31.5,FINESTEERING,2319,303970.950,02000000,10a2,17139;SOL_COMPUTED,NARROW_INT,0.025,2.950,4.4145,267.123557,0.1605,0*3b78b5b4
#BESTVELA,FILE,0,31.5,FINESTEERING,2319,303971.000,02000000,10a2,17139;SOL_COMPUTED,NARROW_INT,0.025,3.000,4.4885,266.612615,-0.0796,0*045a3f05
#BESTVELA,FILE,0,31.5,FINESTEERING,2319,303971.050,02000000,10a2,17139;SOL_COMPUTED,NARROW_INT,0.025,3.050,4.3951,265.049966,0.0033,0*b76676c0
#BESTVELA,FILE,0,31.5,FINESTEERING,2319,303971.100,02000000,10a2,17139;SOL_COMPUTED,NARROW_INT,0.025,3.100,4.4587,266.493264,-0.1350,0*633007c2
#BESTVELA,FILE,0,36.5,FINESTEERING,2319,303971.150,02000000,10a2,17139;SOL_COMPUTED,NARROW_INT,0.025,3.150,4.4795,264.609768,-0.1527,0*7d293f74
#BESTVELA,FILE,0,36.5,FINESTEERING,2319,303971.200,02000000,10a2,17139;SOL_COMPUTED,NARROW_INT,0.025,3.200,4.4815,264.517476,-0.1711,0*b386231d
#BESTVELA,FILE,0,36.5,FINESTEERING,2319,303971.250,02000000,10a2,17139;SOL_COMPUTED,NARROW_INT,0.025,3.250,4.6315,265.016468,-0.2481,0*840ca4e3
#BESTVELA,FILE,0,36.5,FINESTEERING,2319,303971.300,02000000,10a2,17139;SOL_COMPUTED,NARROW_INT,0.025,3.300,4.6147,267.298495,0.0125,0*fcfbb64d
#BESTVELA,FILE,0,36.5,FINESTEERING,2319,303971.350,02000000,10a2,17139;SOL_COMPUTED,NARROW_INT,0.025,3.350,4.7063,265.699065,-0.1197,0*ed2f5b43
#BESTVELA,FILE,0,36.5,FINESTEERING,2319,303971.400,02000000,10a2,17139;SOL_COMPUTED,NARROW_INT,0.025,3.400,4.8461,268.244058,0.0746,0*a408a956
#BESTVELA,FILE,0,36.5,FINESTEERING,2319,303971.450,02000000,10a2,17139;SOL_COMPUTED,NARROW_INT,0.025,3.450,4.8457,267.084243,0.2946,0*19fea20b
#BESTVELA,FILE,0,36.5,FINESTEERING,2319,303971.500,02000000,10a2,17139;SOL_COMPUTED,NARROW_INT,0.025,3.500,4.9283,267.835854,0.1096,0*cfb56e0a
#BESTVELA,FILE,0,36.5,FINESTEERING,2319,303971.550,02000000,10a2,17139;SOL_COMPUTED,NARROW_INT,0.025,3.550,4.8501,267.172399,0.0760,0*cd08e18a
#BESTVELA,FILE,0,36.5,FINESTEERING,2319,303971.600,02000000,10a2,17139;SOL_COMPUTED,NARROW_INT,0.025,3.600,4.8575,268.105543,0.0839,0*cc2300e9
#BESTVELA,FILE,0,36.5,FINESTEERING,2319,303971.650,02000000,10a2,17139;SOL_COMPUTED,NARROW_INT,0.025,3.650,4.9050,267.317246,0.0139,0*6843e39f
#BESTVELA,FILE,0,36.5,FINESTEERING,2319,303971.700,02000000,10a2,17139;SOL_COMPUTED,NARROW_INT,0.025,3.700,4.8793,267.848703,0.0412,0*6bd0978d
#BESTVELA,FILE,0,36.5,FINESTEERING,2319,303971.750,02000000,10a2,17139;SOL_COMPUTED,NARROW_INT,0.025,3.750,4.8656,267.086284,-0.0298,0*15b4ca02
#BESTVELA,FILE,0,36.5,FINESTEERING,2319,303971.800,02000000,10a2,17139;SOL_COMPUTED,NARROW_INT,0.025,3.800,4.9234,266.319175,-0.1055,0*96ae554d
#BESTVELA,FILE,0,36.5,FINESTEERING,2319,303971.850,02000000,10a2,17139;SOL_COMPUTED,NARROW_INT,0.025,3.850,4.8763,267.590035,-0.1004,0*40744128
#BESTVELA,FILE,0,36.5,FINESTEERING,2319,303971.900,02000000,10a2,17139;SOL_COMPUTED,NARROW_INT,0.025,3.900,4.9091,268.497158,-0.0527,0*10af3a89
#BESTVELA,FILE,0,36.5,FINESTEERING,2319,303971.950,02000000,10a2,17139;SOL_COMPUTED,NARROW_INT,0.025,3.950,4.9895,268.750258,-0.0069,0*3731e52b
#BESTVELA,FILE,0,36.5,FINESTEERING,2319,303972.000,02000000,10a2,17139;SOL_COMPUTED,NARROW_INT,0.025,4.000,5.0386,268.826245,0.0321,0*01907261
#BESTVELA,FILE,0,36.5,FINESTEERING,2319,303972.050,02000000,10a2,17139;SOL_COMPUTED,NARROW_INT,0.025,4.050,5.0354,268.830464,0.1256,0*0dac2a31
#BESTVELA,FILE,0,36.5,FINESTEERING,2319,303972.100,02000000,10a2,17139;SOL_COMPUTED,NARROW_INT,0.025,4.100,5.0915,267.652029,0.0281,0*5df4659f
#BESTVELA,FILE,0,42.0,FINESTEERING,2319,303972.150,02000000,10a2,17139;SOL_COMPUTED,NARROW_INT,0.025,4.150,5.0298,269.061901,-0.0471,0*61d344d3
#BESTVELA,FILE,0,42.0,FINESTEERING,2319,303972.200,02000000,10a2,17139;SOL_COMPUTED,NARROW_INT,0.025,4.200,5.0399,267.698262,-0.0045,0*58dc3ab3
#BESTVELA,FILE,0,42.0,FINESTEERING,2319,303972.250,02000000,10a2,17139;SOL_COMPUTED,NARROW_INT,0.025,4.250,5.0855,268.003117,-0.0329,0*28ac72dc
#BESTVELA,FILE,0,42.0,FINESTEERING,2319,303972.300,02000000,10a2,17139;SOL_COMPUTED,NARROW_INT,0.025,4.300,5.0319,266.565302,-0.0325,0*8ef7458c
#BESTVELA,FILE,0,42.0,FINESTEERING,2319,303972.350,02000000,10a2,17139;SOL_COMPUTED,NARROW_INT,0.025,4.350,5.1241,268.641782,0.0672,0*8283c054
#BESTVELA,FILE,0,42.0,FINESTEERING,2319,303972.400,02000000,10a2,17139;SOL_COMPUTED,NARROW_INT,0.025,4.400,5.1311,265.513070,-0.0030,0*ac35aa6b
#BESTVELA,FILE,0,42.0,FINESTEERING,2319,303972.450,02000000,10a2,17139;SOL_COMPUTED,NARROW_INT,0.025,4.450,5.0480,267.330849,-0.0782,0*56877843
#BESTVELA,FILE,0,42.0,FINESTEERING,2319,303972.500,02000000,10a2,17139;SOL_COMPUTED,NARROW_INT,0.025,4.500,5.1348,267.371699,-0.0740,0*b2d4b39e
#BESTVELA,FILE,0,42.0,FINESTEERING,2319,303972.550,02000000,10a2,17139;SOL_COMPUTED,NARROW_INT,0.025,4.550,5.1696,268.455838,-0.0395,0*3015475e
#BESTVELA,FILE,0,42.0,FINESTEERING,2319,303972.600,02000000,10a2,17139;SOL_COMPUTED,NARROW_INT,0.025,4.600,5.1925,266.876407,-0.0692,0*2bf52d78
#BESTVELA,FILE,0,42.0,FINESTEERING,2319,303972.650,02000000,10a2,17139;SOL_COMPUTED,NARROW_INT,0.025,4.650,5.1607,268.254338,-0.0684,0*da6044d1
#BESTVELA,FILE,0,42.0,FINESTEERING,2319,303972.700,02000000,10a2,17139;SOL_COMPUTED,NARROW_INT,0.025,4.700,5.1759,267.704222,0.0158,0*d811d672
#BESTVELA,FILE,0,42.0,FINESTEERING,2319,303972.750,02000000,10a2,17139;SOL_COMPUTED,NARROW_INT,0.025,4.750,5.2457,266.124091,-0.0310,0*3b36da02
#BESTVELA,FILE,0,42.0,FINESTEERING,2319,303972.800,02000000,10a2,17139;SOL_COMPUTED,NARROW_INT,0.025,4.800,5.2366,267.636201,0.0100,0*2a53b6ec
#BESTVELA,FILE,0,42.0,FINESTEERING,2319,303972.850,02000000,10a2,17139;SOL_COMPUTED,NARROW_INT,0.025,4.850,5.2434,265.970898,-0.0581,0*49d9de66
#BESTVELA,FILE,0,42.0,FINESTEERING,2319,303972.900,02000000,10a2,17139;SOL_COMPUTED,NARROW_INT,0.025,4.900,5.2319,266.628108,-0.1232,0*4626bdc5
#BESTVELA,FILE,0,42.0,FINESTEERING,2319,303972.950,02000000,10a2,17139;SOL_COMPUTED,NARROW_INT,0.025,4.950,5.2693,266.717047,0.0206,0*478a3067
#BESTVELA,FILE,0,42.0,FINESTEERING,2319,303973.000,02000000,10a2,17139;SOL_COMPUTED,NARROW_INT,0.025,5.000,5.2516,266.061572,-0.1564,0*6392102e
#BESTVELA,FILE,0,42.0,FINESTEERING,2319,303973.050,02000000,10a2,17139;SOL_COMPUTED,NARROW_INT,0.025,5.050,5.2367,265.519395,-0.0508,0*5d6f5d3c
#BESTVELA,FILE,0,41.5,FINESTEERING,2319,303973.100,02000000,10a2,17139;SOL_COMPUTED,NARROW_INT,0.025,5.100,5.2714,266.021468,-0.1876,0*05693502
#BESTVELA,FILE,0,41.5,FINESTEERING,2319,303973.150,02000000,10a2,17139;SOL_COMPUTED,NARROW_INT,0.025,5.150,5.2533,265.279326,-0.0636,0*befc3e83
#BESTVELA,FILE,0,41.5,FINESTEERING,2319,303973.200,02000000,10a2,17139;SOL_COMPUTED,NARROW_INT,0.025,5.200,5.2970,265.210708,0.0370,0*7b96562a
#BESTVELA,FILE,0,41.5,FINESTEERING,2319,303973.250,02000000,10a2,17139;SOL_COMPUTED,NARROW_INT,0.025,5.250,5.2731,265.288692,-0.0771,0*d567aeb4
#BESTVELA,FILE,0,41.5,FINESTEERING,2319,303973.300,02000000,10a2,17139;SOL_COMPUTED,NARROW_INT,0.025,5.300,5.2890,263.427383,-0.0730,0*9aa9daa3
#BESTVELA,FILE,0,41.5,FINESTEERING,2319,303973.350,02000000,10a2,17139;SOL_COMPUTED,NARROW_INT,0.025,5.350,5.2953,264.462028,-0.1417,0*ca921ba2
#BESTVELA,FILE,0,41.5,FINESTEERING,2319,303973.400,02000000,10a2,17139;SOL_COMPUTED,NARROW_INT,0.025,5.400,5.3407,263.115104,-0.0923,0*65779eae
#BESTVELA,FILE,0,41.5,FINESTEERING,2319,303973.450,02000000,10a2,17139;SOL_COMPUTED,NARROW_INT,0.025,5.450,5.3251,263.876649,-0.0617,0*cd6d5c24
#BESTVELA,FILE,0,41.5,FINESTEERING,2319,303973.500,02000000,10a2,17139;SOL_COMPUTED,NARROW_INT,0.025,5.500,5.3071,263.228737,-0.0321,0*23c11f49
#BESTVELA,FILE,0,41.5,FINESTEERING,2319,303973.550,02000000,10a2,17139;SOL_COMPUTED,NARROW_INT,0.025,5.550,5.3324,261.678896,-0.0743,0*c6a9c2a6
#BESTVELA,FILE,0,41.5,FINESTEERING,2319,303973.600,02000000,10a2,17139;SOL_COMPUTED,NARROW_INT,0.025,5.600,5.3456,261.460589,-0.0823,0*245ab11f
#BESTVELA,FILE,0,41.5,FINESTEERING,2319,303973.650,02000000,10a2,17139;SOL_COMPUTED,NARROW_INT,0.025,5.650,5.3470,260.673803,0.0448,0*99228900
#BESTVELA,FILE,0,41.5,FINESTEERING,2319,303973.700,02000000,10a2,17139;SOL_COMPUTED,NARROW_INT,0.025,5.700,5.3117,259.547289,-0.0882,0*bc3f75ff
#BESTVELA,FILE,0,41.5,FINESTEERING,2319,303973.750,02000000,10a2,17139;SOL_COMPUTED,NARROW_INT,0.025,5.750,5.2821,258.744790,-0.0932,0*1da998ed
#BESTVELA,FILE,0,41.5,FINESTEERING,2319,303973.800,02000000,10a2,17139;SOL_COMPUTED,NARROW_INT,0.025,5.800,5.2771,258.163700,-0.1784,0*56330d0f
#BESTVELA,FILE,0,41.5,FINESTEERING,2319,303973.850,02000000,10a2,17139;SOL_COMPUTED,NARROW_INT,0.025,5.850,5.2038,257.201393,-0.1286,0*8abd2adf
#BESTVELA,FILE,0,41.5,FINESTEERING,2319,303973.900,02000000,10a2,17139;SOL_COMPUTED,NARROW_INT,0.025,5.900,5.2261,257.660846,-0.0815,0*089bf400
#BESTVELA,FILE,0,41.5,FINESTEERING,2319,303973.950,02000000,10a2,17139;SOL_COMPUTED,NARROW_INT,0.025,5.950,5.2556,257.035446,-0.0502,0*41c7ef8b
#BESTVELA,FILE,0,41.5,FINESTEERING,2319,303974.000,02000000,10a2,17139;SOL_COMPUTED,NARROW_INT,0.025,6.000,5.2444,256.610783,-0.0050,0*8756c4af
#BESTVELA,FILE,0,41.5,FINESTEERING,2319,303974.050,02000000,10a2,17139;SOL_COMPUTED,NARROW_INT,0.025,6.050,5.2616,255.019070,-0.0663,0*a5f144b7
#BESTVELA,FILE,0,40.0,FINESTEERING,2319,303974.100,02000000,10a2,17139;SOL_COMPUTED,NARROW_INT,0.025,6.100,5.2921,253.575630,-0.1043,0*cbf8ca8e
#BESTVELA,FILE,0,40.0,FINESTEERING,2319,303974.150,02000000,10a2,17139;SOL_COMPUTED,NARROW_INT,0.025,6.150,5.2152,253.541697,-0.1635,0*dbe7f4dc
#BESTVELA,FILE,0,40.0,FINESTEERING,2319,303974.200,02000000,10a2,17139;SOL_COMPUTED,NARROW_INT,0.025,6.200,5.1884,253.456470,-0.0844,0*007e0055
#BESTVELA,FILE,0,40.0,FINESTEERING,2319,303974.250,02000000,10a2,17139;SOL_COMPUTED,NARROW_INT,0.025,6.250,5.2015,252.775558,-0.1196,0*95d954c2
#BESTVELA,FILE,0,40.0,FINESTEERING,2319,303974.300,02000000,10a2,17139;SOL_COMPUTED,NARROW_INT,0.025,6.300,5.2401,252.164801,0.0495,0*ecc77788
#BESTVELA,FILE,0,40.0,FINESTEERING,2319,303974.350,02000000,10a2,17139;SOL_COMPUTED,NARROW_INT,0.025,6.350,5.2798,250.532769,0.0666,0*4c9b3f50
#BESTVELA,FILE,0,40.0,FINESTEERING,2319,303974.400,02000000,10a2,17139;SOL_COMPUTED,NARROW_INT,0.025,6.400,5.2509,248.865952,0.1244,0*5461c615
#BESTVELA,FILE,0,40.0,FINESTEERING,2319,303974.450,02000000,10a2,17139;SOL_COMPUTED,NARROW_INT,0.025,6.450,5.2010,248.455545,-0.0002,0*3ac908c1
#BESTVELA,FILE,0,40.0,FINESTEERING,2319,303974.500,02000000,10a2,17139;SOL_COMPUTED,NARROW_INT,0.025,6.500,5.2092,245.811376,-0.1058,0*9ffbf3dd
#BESTVELA,FILE,0,40.0,FINESTEERING,2319,303974.550,02000000,10a2,17139;SOL_COMPUTED,NARROW_INT,0.025,6.550,5.1665,245.165409,-0.0397,0*5155a801
#BESTVELA,FILE,0,40.0,FINESTEERING,2319,303974.600,02000000,10a2,17139;SOL_COMPUTED,NARROW_INT,0.025,6.600,5.1536,244.618661,-0.0721,0*e8a89fe1
#BESTVELA,FILE,0,40.0,FINESTEERING,2319,303974.650,02000000,10a2,17139;SOL_COMPUTED,NARROW_INT,0.025,6.650,5.2032,243.239536,-0.1659,0*50ef54ae
#BESTVELA,FILE,0,40.0,FINESTEERING,2319,303974.700,02000000,10a2,17139;SOL_COMPUTED,NARROW_INT,0.025,6.700,5.1341,242.817256,-0.1408,0*27bdb6b6
#BESTVELA,FILE,0,40.0,FINESTEERING,2319,303974.750,02000000,10a2,17139;SOL_COMPUTED,NARROW_INT,0.025,6.750,5.0550,241.277664,0.0027,0*d62b5224
#BESTVELA,FILE,0,40.0,FINESTEERING,2319,303974.800,02000000,10a2,17139;SOL_COMPUTED,NARROW_INT,0.025,6.800,5.0499,239.216074,-0.0191,0*2de7b302
#BESTVELA,FILE,0,40.0,FINESTEERING,2319,303974.850,02000000,10a2,17139;SOL_COMPUTED,NARROW_INT,0.025,6.850,5.0151,238.281228,0.1655,0*bcd55561
#BESTVELA,FILE,0,40.0,FINESTEERING,2319,303974.900,02000000,10a2,17139;SOL_COMPUTED,NARROW_INT,0.025,6.900,5.0072,237.326434,0.0393,0*6c86014b
#BESTVELA,FILE,0,40.0,FINESTEERING,2319,303974.950,02000000,10a2,17139;SOL_COMPUTED,NARROW_INT,0.025,6.950,4.9777,235.953954,-0.0153,0*2d3ba39a
#BESTVELA,FILE,0,40.0,FINESTEERING,2319,303975.000,02000000,10a2,17139;SOL_COMPUTED,NARROW_INT,0.025,7.000,4.9461,234.920125,0.0186,0*64cb71bc
#BESTVELA,FILE,0,40.0,FINESTEERING,2319,303975.050,02000000,10a2,17139;SOL_COMPUTED,NARROW_INT,0.025,7.050,5.0115,232.197275,-0.2017,0*ac1e37e1
#BESTVELA,FILE,0,38.5,FINESTEERING,2319,303975.100,02000000,10a2,17139;SOL_COMPUTED,NARROW_INT,0.025,7.100,4.9735,232.204454,-0.2085,0*9ac90283
#BESTVELA,FILE,0,38.5,FINESTEERING,2319,303975.150,02000000,10a2,17139;SOL_COMPUTED,NARROW_INT,0.025,7.150,4.9466,229.884696,-0.1029,0*fc927cbd
#BESTVELA,FILE,0,38.5,FINESTEERING,2319,303975.200,02000000,10a2,17139;SOL_COMPUTED,NARROW_INT,0.025,7.200,4.8874,229.018744,0.0510,0*531517a8
#BESTVELA,FILE,0,38.5,FINESTEERING,2319,303975.250,02000000,10a2,17139;SOL_COMPUTED,NARROW_INT,0.025,7.250,4.9323,225.878358,0.1120,0*c1635da6
#BESTVELA,FILE,0,38.5,FINESTEERING,2319,303975.300,02000000,10a2,17139;SOL_COMPUTED,NARROW_INT,0.025,7.300,4.9566,224.164748,0.0076,0*bb96e960
#BESTVELA,FILE,0,38.5,FINESTEERING,2319,303975.350,02000000,10a2,17139;SOL_COMPUTED,NARROW_INT,0.025,7.350,4.8544,224.594244,0.1754,0*6f4e0491
#BESTVELA,FILE,0,38.5,FINESTEERING,2319,303975.400,02000000,10a2,17139;SOL_COMPUTED,NARROW_INT,0.025,7.400,4.8689,223.705516,-0.0774,0*9068e2db
#BESTVELA,FILE,0,38.5,FINESTEERING,2319,303975.450,02000000,10a2,17139;SOL_COMPUTED,NARROW_INT,0.025,7.450,4.8418,222.560009,0.1504,0*9b688273
#BESTVELA,FILE,0,38.5,FINESTEERING,2319,303975.500,02000000,10a2,17139;SOL_COMPUTED,NARROW_INT,0.025,7.500,4.8169,222.354515,0.0276,0*7763807b
#BESTVELA,FILE,0,38.5,FINESTEERING,2319,303975.550,02000000,10a2,17139;SOL_COMPUTED,NARROW_INT,0.025,7.550,4.7378,221.304563,0.1237,0*561dd49d
#BESTVELA,FILE,0,38.5,FINESTEERING,2319,303975.600,02000000,10a2,17139;SOL_COMPUTED,NARROW_INT,0.025,7.600,4.7809,219.985209,-0.0311,0*7028f30b
#BESTVELA,FILE,0,38.5,FINESTEERING,2319,303975.650,02000000,10a2,17139;SOL_COMPUTED,NARROW_INT,0.025,7.650,4.7751,215.132227,-0.0908,0*76061005
#BESTVELA,FILE,0,38.5,FINESTEERING,2319,303975.700,02000000,10a2,17139;SOL_COMPUTED,NARROW_INT,0.025,7.700,4.8234,213.867745,-0.4263,0*221145e1
#BESTVELA,FILE,0,38.5,FINESTEERING,2319,303975.750,02000000,10a2,17139;SOL_COMPUTED,NARROW_INT,0.025,7.750,4.7542,214.041169,0.0877,0*c43d3753
#BESTVELA,FILE,0,38.5,FINESTEERING,2319,303975.800,02000000,10a2,17139;SOL_COMPUTED,NARROW_INT,0.025,7.800,4.7713,213.007893,-0.1977,0*ff2a9307
#BESTVELA,FILE,0,38.5,FINESTEERING,2319,303975.850,02000000,10a2,17139;SOL_COMPUTED,NARROW_INT,0.025,7.850,4.7067,211.425366,-0.0061,0*b244455c
#BESTVELA,FILE,0,38.5,FINESTEERING,2319,303975.900,02000000,10a2,17139;SOL_COMPUTED,NARROW_INT,0.025,7.900,4.6567,210.367188,0.0770,0*b838ed12
#BESTVELA,FILE,0,38.5,FINESTEERING,2319,303975.950,02000000,10a2,17139;SOL_COMPUTED,NARROW_INT,0.025,7.950,4.5942,209.697315,0.0903,0*fb81d630
#BESTVELA,FILE,0,38.5,FINESTEERING,2319,303976.000,02000000,10a2,17139;SOL_COMPUTED,NARROW_INT,0.025,8.000,4.6418,208.073020,0.0777,0*13775b8b
#BESTVELA,FILE,0,38.5,FINESTEERING,2319,303976.050,02000000,10a2,17139;SOL_COMPUTED,NARROW_INT,0.025,8.050,4.6409,206.467979,0.1800,0*ddfb68e1
#BESTVELA,FILE,0,36.0,FINESTEERING,2319,303976.100,02000000,10a2,17139;SOL_COMPUTED,NARROW_INT,0.025,8.100,4.6810,203.898330,0.0241,0*889b927e
#BESTVELA,FILE,0,36.0,FINESTEERING,2319,303976.150,02000000,10a2,17139;SOL_COMPUTED,NARROW_INT,0.025,8.150,4.6429,201.818784,0.0262,0*7c27a671
#BESTVELA,FILE,0,36.0,FINESTEERING,2319,303976.200,02000000,10a2,17139;SOL_COMPUTED,NARROW_INT,0.025,5.200,4.6630,200.993987,-0.0850,0*3fa77e47
#BESTVELA,FILE,0,36.0,FINESTEERING,2319,303976.250,02000000,10a2,17139;SOL_COMPUTED,NARROW_INT,0.025,5.250,4.5515,200.194498,0.0388,0*c6425639
#BESTVELA,FILE,0,36.0,FINESTEERING,2319,303976.300,02000000,10a2,17139;SOL_COMPUTED,NARROW_INT,0.025,5.300,4.4548,200.267200,0.0841,0*5c575269
#BESTVELA,FILE,0,36.0,FINESTEERING,2319,303976.350,02000000,10a2,17139;SOL_COMPUTED,NARROW_INT,0.025,5.350,4.5078,198.046254,-0.0707,0*634e92d5
#BESTVELA,FILE,0,36.0,FINESTEERING,2319,303976.400,02000000,10a2,17139;SOL_COMPUTED,NARROW_INT,0.025,5.400,4.5332,196.686159,-0.0578,0*b6f1179a
#BESTVELA,FILE,0,36.0,FINESTEERING,2319,303976.450,02000000,10a2,17139;SOL_COMPUTED,NARROW_INT,0.025,5.450,4.4317,196.550474,0.1168,0*ab29203d
#BESTVELA,FILE,0,36.0,FINESTEERING,2319,303976.500,02000000,10a2,17139;SOL_COMPUTED,NARROW_INT,0.025,5.500,4.4899,195.292267,0.1522,0*3001b11e
#BESTVELA,FILE,0,36.0,FINESTEERING,2319,303976.550,02000000,10a2,17139;SOL_COMPUTED,NARROW_INT,0.025,5.550,4.5664,193.850766,0.1173,0*079ca895
#BESTVELA,FILE,0,36.0,FINESTEERING,2319,303976.600,02000000,10a2,17139;SOL_COMPUTED,NARROW_INT,0.025,5.600,4.4916,192.628569,0.0976,0*e58b7c96
#BESTVELA,FILE,0,36.0,FINESTEERING,2319,303976.650,02000000,10a2,17139;SOL_COMPUTED,NARROW_INT,0.025,5.650,4.5126,190.723960,-0.1053,0*d5c0e9ab
#BESTVELA,FILE,0,36.0,FINESTEERING,2319,303976.700,02000000,10a2,17139;SOL_COMPUTED,NARROW_INT,0.025,5.700,4.3586,189.438276,-0.1426,0*c393684e
#BESTVELA,FILE,0,36.0,FINESTEERING,2319,303976.750,02000000,10a2,17139;SOL_COMPUTED,NARROW_INT,0.025,5.750,4.3740,187.946765,-0.1290,0*3bf11f79
#BESTVELA,FILE,0,36.0,FINESTEERING,2319,303976.800,02000000,10a2,17139;SOL_COMPUTED,NARROW_INT,0.025,5.800,4.3942,187.042634,-0.1244,0*55ad33b9
#BESTVELA,FILE,0,36.0,FINESTEERING,2319,303976.850,02000000,10a2,17139;SOL_COMPUTED,NARROW_INT,0.025,5.850,4.3209,186.203586,0.0700,0*2b62b9df
#BESTVELA,FILE,0,36.0,FINESTEERING,2319,303976.900,02000000,10a2,17139;SOL_COMPUTED,NARROW_INT,0.025,5.900,4.4709,186.537946,-0.1415,0*e2c1bfd7
#BESTVELA,FILE,0,36.0,FINESTEERING,2319,303976.950,02000000,10a2,17139;SOL_COMPUTED,NARROW_INT,0.025,5.950,4.4044,184.255792,0.0837,0*e4c67f98
#BESTVELA,FILE,0,36.0,FINESTEERING,2319,303977.000,02000000,10a2,17139;SOL_COMPUTED,NARROW_INT,0.025,6.000,4.5006,182.484383,-0.0684,0*aa795916
#BESTVELA,FILE,0,36.0,FINESTEERING,2319,303977.050,02000000,10a2,17139;SOL_COMPUTED,NARROW_INT,0.025,6.050,4.3631,182.779971,0.0364,0*234ec257
#BESTVELA,FILE,0,35.5,FINESTEERING,2319,303977.100,02000000,10a2,17139;SOL_COMPUTED,NARROW_INT,0.025,6.100,4.4104,182.147839,0.0485,0*6fc77954
#BESTVELA,FILE,0,35.5,FINESTEERING,2319,303977.150,02000000,10a2,17139;SOL_COMPUTED,NARROW_INT,0.025,6.150,4.3884,182.529877,0.0472,0*16ddb326
#BESTVELA,FILE,0,35.5,FINESTEERING,2319,303977.200,02000000,10a2,17139;SOL_COMPUTED,NARROW_INT,0.025,1.200,4.4623,181.168922,-0.1104,0*a1fc36f3
#BESTVELA,FILE,0,35.5,FINESTEERING,2319,303977.250,02000000,10a2,17139;SOL_COMPUTED,NARROW_INT,0.025,1.250,4.3592,180.613074,0.1083,0*edfec689
#BESTVELA,FILE,0,35.5,FINESTEERING,2319,303977.300,02000000,10a2,17139;SOL_COMPUTED,NARROW_INT,0.025,1.300,4.4802,181.683324,-0.0150,0*ecbbc752
#BESTVELA,FILE,0,35.5,FINESTEERING,2319,303977.350,02000000,10a2,17139;SOL_COMPUTED,NARROW_INT,0.025,0.350,4.3740,180.549151,0.0948,0*4bc6ac40
#BESTVELA,FILE,0,35.5,FINESTEERING,2319,303977.400,02000000,10a2,17139;SOL_COMPUTED,NARROW_INT,0.025,0.400,4.4947,178.904526,0.0283,0*dbc1fa55
#BESTVELA,FILE,0,35.5,FINESTEERING,2319,303977.450,02000000,10a2,17139;SOL_COMPUTED,NARROW_INT,0.025,0.450,4.4346,178.883163,0.0101,0*9b6c3a1a
#BESTVELA,FILE,0,35.5,FINESTEERING,2319,303977.500,02000000,10a2,17139;SOL_COMPUTED,NARROW_INT,0.025,0.500,4.5504,176.931875,-0.0645,0*ead35a9b
#BESTVELA,FILE,0,35.5,FINESTEERING,2319,303977.550,02000000,10a2,17139;SOL_COMPUTED,NARROW_INT,0.025,0.550,4.4795,177.060502,0.0234,0*9cc55203
#BESTVELA,FILE,0,35.5,FINESTEERING,2319,303977.600,02000000,10a2,17139;SOL_COMPUTED,NARROW_INT,0.025,0.600,4.5230,176.821101,0.0053,0*83dcbf4e
#BESTVELA,FILE,0,35.5,FINESTEERING,2319,303977.650,02000000,10a2,17139;SOL_COMPUTED,NARROW_INT,0.025,0.650,4.3871,175.394119,0.0003,0*36a462bd
#BESTVELA,FILE,0,35.5,FINESTEERING,2319,303977.700,02000000,10a2,17139;SOL_COMPUTED,NARROW_INT,0.025,0.700,4.4325,175.886168,0.1012,0*08d74a31
#BESTVELA,FILE,0,35.5,FINESTEERING,2319,303977.750,02000000,10a2,17139;SOL_COMPUTED,NARROW_INT,0.025,0.750,4.5293,174.080218,-0.2365,0*420b8198
#BESTVELA,FILE,0,35.5,FINESTEERING,2319,303977.800,02000000,10a2,17139;SOL_COMPUTED,NARROW_INT,0.025,0.800,4.5117,173.984313,-0.0535,0*ff268250
#BESTVELA,FILE,0,35.5,FINESTEERING,2319,303977.850,02000000,10a2,17139;SOL_COMPUTED,NARROW_INT,0.025,0.850,4.4753,174.394987,-0.0684,0*cc533fc7
#BESTVELA,FILE,0,35.5,FINESTEERING,2319,303977.900,02000000,10a2,17139;SOL_COMPUTED,NARROW_INT,0.025,0.900,4.5534,174.161086,0.0383,0*da339dcd
#BESTVELA,FILE,0,35.5,FINESTEERING,2319,303977.950,02000000,10a2,17139;SOL_COMPUTED,NARROW_INT,0.025,0.950,4.6047,173.420899,-0.0550,0*74ecec55
#BESTVELA,FILE,0,35.5,FINESTEERING,2319,303978.000,02000000,10a2,17139;SOL_COMPUTED,NARROW_INT,0.025,1.000,4.6496,171.787381,-0.3352,0*decd5d4e
#BESTVELA,FILE,0,35.5,FINESTEERING,2319,303978.050,02000000,10a2,17139;SOL_COMPUTED,NARROW_INT,0.025,1.050,4.5388,175.770649,0.1621,0*c127a767
#BESTVELA,FILE,0,34.0,FINESTEERING,2319,303978.100,02000000,10a2,17139;SOL_COMPUTED,NARROW_INT,0.025,1.100,4.4963,176.941215,0.0513,0*247a1eda
#BESTVELA,FILE,0,34.0,FINESTEERING,2319,303978.150,02000000,10a2,17139;SOL_COMPUTED,NARROW_INT,0.025,1.150,4.5330,176.626069,0.1621,0*fac0bc75
#BESTVELA,FILE,0,34.0,FINESTEERING,2319,303978.200,02000000,10a2,17139;SOL_COMPUTED,NARROW_INT,0.025,1.200,4.7031,172.627414,-0.3819,0*1d8b5c33
#BESTVELA,FILE,0,34.0,FINESTEERING,2319,303978.250,02000000,10a2,17139;SOL_COMPUTED,NARROW_INT,0.025,1.250,4.6211,174.510279,0.0630,0*fe795f60
#BESTVELA,FILE,0,34.0,FINESTEERING,2319,303978.300,02000000,10a2,17139;SOL_COMPUTED,NARROW_INT,0.025,1.300,4.6856,174.525570,-0.0791,0*cacf3709
#BESTVELA,FILE,0,34.0,FINESTEERING,2319,303978.350,02000000,10a2,17139;SOL_COMPUTED,NARROW_INT,0.025,0.350,4.6519,173.557547,0.0827,0*4f019fc4
#BESTVELA,FILE,0,34.0,FINESTEERING,2319,303978.400,02000000,10a2,17139;SOL_COMPUTED,NARROW_INT,0.025,0.400,4.7772,172.354037,-0.2600,0*b4a154c9
#BESTVELA,FILE,0,34.0,FINESTEERING,2319,303978.450,02000000,10a2,17139;SOL_COMPUTED,NARROW_INT,0.025,0.450,4.8109,170.130406,-0.2754,0*826de7b0
#BESTVELA,FILE,0,34.0,FINESTEERING,2319,303978.500,02000000,10a2,17139;SOL_COMPUTED,NARROW_INT,0.025,0.500,4.7374,174.344663,0.0999,0*6c72cf05
#BESTVELA,FILE,0,34.0,FINESTEERING,2319,303978.550,02000000,10a2,17139;SOL_COMPUTED,NARROW_INT,0.025,0.550,4.9147,170.575973,-0.2211,0*9656c6fe
#BESTVELA,FILE,0,34.0,FINESTEERING,2319,303978.600,02000000,10a2,17139;SOL_COMPUTED,NARROW_INT,0.025,0.600,4.9097,172.740677,0.1018,0*dfa92719
#BESTVELA,FILE,0,34.0,FINESTEERING,2319,303978.650,02000000,10a2,17139;SOL_COMPUTED,NARROW_INT,0.025,0.650,4.9505,175.161703,0.0875,0*4cbc227f
#BESTVELA,FILE,0,34.0,FINESTEERING,2319,303978.700,02000000,10a2,17139;SOL_COMPUTED,NARROW_INT,0.025,0.700,4.9272,176.717806,0.1470,0*a99294ca
#BESTVELA,FILE,0,34.0,FINESTEERING,2319,303978.750,02000000,10a2,17139;SOL_COMPUTED,NARROW_INT,0.025,0.750,4.9494,176.567010,0.1068,0*2cc0d8b3
#BESTVELA,FILE,0,34.0,FINESTEERING,2319,303978.800,02000000,10a2,17139;SOL_COMPUTED,NARROW_INT,0.025,0.800,4.9098,177.320116,0.0640,0*4d7bd60a
#BESTVELA,FILE,0,34.0,FINESTEERING,2319,303978.850,02000000,10a2,17139;SOL_COMPUTED,NARROW_INT,0.025,0.850,4.9026,177.195866,-0.0150,0*dc32cefb
#BESTVELA,FILE,0,34.0,FINESTEERING,2319,303978.900,02000000,10a2,17139;SOL_COMPUTED,NARROW_INT,0.025,0.900,4.8776,175.784683,-0.0516,0*4ede6e79
#BESTVELA,FILE,0,34.0,FINESTEERING,2319,303978.950,02000000,10a2,17139;SOL_COMPUTED,NARROW_INT,0.025,0.950,4.8796,176.625609,-0.0639,0*4f01ca83
#BESTVELA,FILE,0,34.0,FINESTEERING,2319,303979.000,02000000,10a2,17139;SOL_COMPUTED,NARROW_INT,0.025,1.000,4.8397,175.736402,-0.1322,0*fd32659a
#BESTVELA,FILE,0,34.0,FINESTEERING,2319,303979.050,02000000,10a2,17139;SOL_COMPUTED,NARROW_INT,0.025,1.050,4.8759,174.301114,-0.2409,0*bc737ded
#BESTVELA,FILE,0,34.0,FINESTEERING,2319,303979.100,02000000,10a2,17139;SOL_COMPUTED,NARROW_INT,0.025,1.100,4.9088,172.653368,-0.2049,0*95a01898
#BESTVELA,FILE,0,35.5,FINESTEERING,2319,303979.150,02000000,10a2,17139;SOL_COMPUTED,NARROW_INT,0.025,1.150,5.0144,173.267007,-0.2557,0*9217ad49
#BESTVELA,FILE,0,35.5,FINESTEERING,2319,303979.200,02000000,10a2,17139;SOL_COMPUTED,NARROW_INT,0.025,1.200,5.0398,173.287949,0.0575,0*7828b263
#BESTVELA,FILE,0,35.5,FINESTEERING,2319,303979.250,02000000,10a2,17139;SOL_COMPUTED,NARROW_INT,0.025,1.250,5.0756,173.256042,-0.0044,0*68a64c96
#BESTVELA,FILE,0,35.5,FINESTEERING,2319,303979.300,02000000,10a2,17139;SOL_COMPUTED,NARROW_INT,0.025,1.300,5.0519,174.805068,0.1351,0*c22cb0f9
#BESTVELA,FILE,0,35.5,FINESTEERING,2319,303979.350,02000000,10a2,17139;SOL_COMPUTED,NARROW_INT,0.025,0.350,5.0471,177.012527,0.1203,0*424d3bdf
#BESTVELA,FILE,0,35.5,FINESTEERING,2319,303979.400,02000000,10a2,17139;SOL_COMPUTED,NARROW_INT,0.025,0.400,5.0121,178.649189,-0.1363,0*cf2f7562
#BESTVELA,FILE,0,35.5,FINESTEERING,2319,303979.450,02000000,10a2,17139;SOL_COMPUTED,NARROW_INT,0.025,0.450,5.0260,178.289203,0.0812,0*dbaf6092
#BESTVELA,FILE,0,35.5,FINESTEERING,2319,303979.500,02000000,10a2,17139;SOL_COMPUTED,NARROW_INT,0.025,0.500,4.9738,179.517932,-0.0080,0*564f3a5b
#BESTVELA,FILE,0,35.5,FINESTEERING,2319,303979.550,02000000,10a2,17139;SOL_COMPUTED,NARROW_INT,0.025,0.550,4.9520,177.802807,-0.1003,0*079ea3d8
#BESTVELA,FILE,0,35.5,FINESTEERING,2319,303979.600,02000000,10a2,17139;SOL_COMPUTED,NARROW_INT,0.025,0.600,4.8893,178.078273,-0.2138,0*2e05cf50
#BESTVELA,FILE,0,35.5,FINESTEERING,2319,303979.650,02000000,10a2,17139;SOL_COMPUTED,NARROW_INT,0.025,0.650,4.9072,176.097858,-0.3213,0*8ee3e7bd
#BESTVELA,FILE,0,35.5,FINESTEERING,2319,303979.700,02000000,10a2,17139;SOL_COMPUTED,NARROW_INT,0.025,0.700,4.8655,176.883882,-0.0655,0*b7ab2f9b
#BESTVELA,FILE,0,35.5,FINESTEERING,2319,303979.750,02000000,10a2,17139;SOL_COMPUTED,NARROW_INT,0.025,0.750,4.9416,174.613391,0.0061,0*e1295825
#BESTVELA,FILE,0,35.5,FINESTEERING,2319,303979.800,02000000,10a2,17139;SOL_COMPUTED,NARROW_INT,0.025,0.800,4.9320,176.231906,0.0406,0*c0777940
#BESTVELA,FILE,0,35.5,FINESTEERING,2319,303979.850,02000000,10a2,17139;SOL_COMPUTED,NARROW_INT,0.025,0.850,4.9749,176.655257,-0.0286,0*8ee24a86
#BESTVELA,FILE,0,35.5,FINESTEERING,2319,303979.900,02000000,10a2,17139;SOL_COMPUTED,NARROW_INT,0.025,0.900,5.0102,176.938982,0.0981,0*27b65bca
#BESTVELA,FILE,0,35.5,FINESTEERING,2319,303979.950,02000000,10a2,17139;SOL_COMPUTED,NARROW_INT,0.025,0.950,4.9489,176.926170,-0.0074,0*4564e8cf
#BESTVELA,FILE,0,35.5,FINESTEERING,2319,303980.000,02000000,10a2,17139;SOL_COMPUTED,NARROW_INT,0.025,1.000,4.9159,175.576245,-0.0624,0*d454f181
#BESTVELA,FILE,0,35.5,FINESTEERING,2319,303980.050,02000000,10a2,17139;SOL_COMPUTED,NARROW_INT,0.025,1.050,4.8595,176.048899,0.0037,0*3e37d59b
#BESTVELA,FILE,0,35.5,FINESTEERING,2319,303980.100,02000000,10a2,17139;SOL_COMPUTED,NARROW_INT,0.025,1.100,4.9409,178.009072,0.0765,0*a5c4213c
#BESTVELA,FILE,0,37.5,FINESTEERING,2319,303980.150,02000000,10a2,17139;SOL_COMPUTED,NARROW_INT,0.025,1.150,4.9337,179.001251,-0.0555,0*b38ca25d
#BESTVELA,FILE,0,37.5,FINESTEERING,2319,303980.200,02000000,10a2,17139;SOL_COMPUTED,NARROW_INT,0.025,1.200,4.8868,177.999816,-0.0685,0*913eee9c
#BESTVELA,FILE,0,37.5,FINESTEERING,2319,303980.250,02000000,10a2,17139;SOL_COMPUTED,NARROW_INT,0.025,1.250,4.8582,177.515244,-0.0098,0*068e4eac
#BESTVELA,FILE,0,37.5,FINESTEERING,2319,303980.300,02000000,10a2,17139;SOL_COMPUTED,NARROW_INT,0.025,1.300,4.8998,177.010809,0.0341,0*cd7e7375
#BESTVELA,FILE,0,37.5,FINESTEERING,2319,303980.350,02000000,10a2,17139;SOL_COMPUTED,NARROW_INT,0.025,1.350,4.8709,175.771848,-0.0118,0*8d9e7ed7
#BESTVELA,FILE,0,37.5,FINESTEERING,2319,303980.400,02000000,10a2,17139;SOL_COMPUTED,NARROW_INT,0.025,0.400,4.8430,176.082433,0.0840,0*676bc3c3
#BESTVELA,FILE,0,37.5,FINESTEERING,2319,303980.450,02000000,10a2,17139;SOL_COMPUTED,NARROW_INT,0.025,0.450,4.7943,175.490412,0.0615,0*0dfe5d25
#BESTVELA,FILE,0,37.5,FINESTEERING,2319,303980.500,02000000,10a2,17139;SOL_COMPUTED,NARROW_INT,0.025,0.500,4.7695,176.337020,-0.0074,0*d877366b
#BESTVELA,FILE,0,37.5,FINESTEERING,2319,303980.550,02000000,10a2,17139;SOL_COMPUTED,NARROW_INT,0.025,0.550,4.7683,178.874982,-0.0196,0*3fffb03f
#BESTVELA,FILE,0,37.5,FINESTEERING,2319,303980.600,02000000,10a2,17139;SOL_COMPUTED,NARROW_INT,0.025,0.600,4.8062,179.668476,-0.0688,0*20352d16
#BESTVELA,FILE,0,37.5,FINESTEERING,2319,303980.650,02000000,10a2,17139;SOL_COMPUTED,NARROW_INT,0.025,0.650,4.7601,178.134091,0.1353,0*bc55cbc8
#BESTVELA,FILE,0,37.5,FINESTEERING,2319,303980.700,02000000,10a2,17139;SOL_COMPUTED,NARROW_INT,0.025,0.700,4.7721,179.047724,0.0791,0*9e094117
#BESTVELA,FILE,0,37.5,FINESTEERING,2319,303980.750,02000000,10a2,17139;SOL_COMPUTED,NARROW_INT,0.025,0.750,4.6887,182.012747,0.1799,0*05599edf
#BESTVELA,FILE,0,37.5,FINESTEERING,2319,303980.800,02000000,10a2,17139;SOL_COMPUTED,NARROW_INT,0.025,0.800,4.6978,180.995641,-0.0112,0*76d2f1d2
#BESTVELA,FILE,0,37.5,FINESTEERING,2319,303980.850,02000000,10a2,17139;SOL_COMPUTED,NARROW_INT,0.025,0.850,4.6869,181.919798,0.0108,0*2d71aaee
#BESTVELA,FILE,0,37.5,FINESTEERING,2319,303980.900,02000000,10a2,17139;SOL_COMPUTED,NARROW_INT,0.025,0.900,4.6805,180.702970,0.0522,0*352de723
#BESTVELA,FILE,0,37.5,FINESTEERING,2319,303980.950,02000000,10a2,17139;SOL_COMPUTED,NARROW_INT,0.025,0.950,4.7047,179.416105,-0.0093,0*ef84535f
#BESTVELA,FILE,0,37.5,FINESTEERING,2319,303981.000,02000000,10a2,17139;SOL_COMPUTED,NARROW_INT,0.025,1.000,4.7561,179.974060,0.0617,0*c9c76f01
#BESTVELA,FILE,0,37.5,FINESTEERING,2319,303981.050,02000000,10a2,17139;SOL_COMPUTED,NARROW_INT,0.025,1.050,4.7603,181.104992,0.1660,0*dbb376f3
#BESTVELA,FILE,0,37.5,FINESTEERING,2319,303981.100,02000000,10a2,17139;SOL_COMPUTED,NARROW_INT,0.025,1.100,4.7507,179.317794,0.0576,0*445a4943
#BESTVELA,FILE,0,37.5,FINESTEERING,2319,303981.150,02000000,10a2,17139;SOL_COMPUTED,NARROW_INT,0.025,1.150,4.7594,180.019181,0.0522,0*04df33e6
#BESTVELA,FILE,0,37.5,FINESTEERING,2319,303981.200,02000000,10a2,17139;SOL_COMPUTED,NARROW_INT,0.025,1.200,4.7780,182.408232,-0.0033,0*df5f36df
#BESTVELA,FILE,0,37.5,FINESTEERING,2319,303981.250,02000000,10a2,17139;SOL_COMPUTED,NARROW_INT,0.025,1.250,4.7703,183.198121,0.0079,0*0ba3de88
#BESTVELA,FILE,0,37.5,FINESTEERING,2319,303981.300,02000000,10a2,17139;SOL_COMPUTED,NARROW_INT,0.025,1.300,4.7188,184.498750,0.1791,0*1b9cf5d6
#BESTVELA,FILE,0,37.5,FINESTEERING,2319,303981.350,02000000,10a2,17139;SOL_COMPUTED,NARROW_INT,0.025,1.350,4.5828,184.161954,-0.0973,0*91f4880f
#BESTVELA,FILE,0,37.5,FINESTEERING,2319,303981.400,02000000,10a2,17139;SOL_COMPUTED,NARROW_INT,0.025,1.400,4.6116,185.880240,0.0917,0*c8f625d8
#BESTVELA,FILE,0,37.5,FINESTEERING,2319,303981.450,02000000,10a2,17139;SOL_COMPUTED,NARROW_INT,0.025,1.450,4.6537,185.071092,-0.1694,0*380f7c87
#BESTVELA,FILE,0,37.5,FINESTEERING,2319,303981.500,02000000,10a2,17139;SOL_COMPUTED,NARROW_INT,0.025,1.500,4.5524,184.483572,-0.1090,0*ae3507eb
#BESTVELA,FILE,0,37.5,FINESTEERING,2319,303981.550,02000000,10a2,17139;SOL_COMPUTED,NARROW_INT,0.025,1.550,4.4897,184.330760,0.1081,0*72c93bc4
#BESTVELA,FILE,0,37.5,FINESTEERING,2319,303981.600,02000000,10a2,17139;SOL_COMPUTED,NARROW_INT,0.025,1.600,4.4612,183.963836,-0.0438,0*c77c9aac
#BESTVELA,FILE,0,37.5,FINESTEERING,2319,303981.650,02000000,10a2,17139;SOL_COMPUTED,NARROW_INT,0.025,1.650,4.4123,184.452856,-0.0306,0*e69d5629
#BESTVELA,FILE,0,37.5,FINESTEERING,2319,303981.700,02000000,10a2,17139;SOL_COMPUTED,NARROW_INT,0.025,1.700,4.4126,184.463855,-0.1426,0*98ffc155
#BESTVELA,FILE,0,37.5,FINESTEERING,2319,303981.750,02000000,10a2,17139;SOL_COMPUTED,NARROW_INT,0.025,1.750,4.4333,184.989087,-0.0977,0*6e34e883
#BESTVELA,FILE,0,37.5,FINESTEERING,2319,303981.800,02000000,10a2,17139;SOL_COMPUTED,NARROW_INT,0.025,1.800,4.3912,184.212547,-0.0586,0*213a3641
#BESTVELA,FILE,0,37.5,FINESTEERING,2319,303981.850,02000000,10a2,17139;SOL_COMPUTED,NARROW_INT,0.025,1.850,4.4651,186.721579,0.0352,0*5929d493
#BESTVELA,FILE,0,37.5,FINESTEERING,2319,303981.900,02000000,10a2,17139;SOL_COMPUTED,NARROW_INT,0.025,1.900,4.4734,187.710554,0.0730,0*d21f0fee
#BESTVELA,FILE,0,37.5,FINESTEERING,2319,303981.950,02000000,10a2,17139;SOL_COMPUTED,NARROW_INT,0.025,1.950,4.5296,187.674862,-0.0049,0*d8417e2c
#BESTVELA,FILE,0,37.5,FINESTEERING,2319,303982.000,02000000,10a2,17139;SOL_COMPUTED,NARROW_INT,0.025,2.000,4.4922,187.211219,0.0866,0*11a1ab77
#BESTVELA,FILE,0,37.5,FINESTEERING,2319,303982.050,02000800,10a2,17139;SOL_COMPUTED,NARROW_INT,0.025,2.050,4.4449,189.119382,0.0064,0*2facd7d6
#BESTVELA,FILE,0,37.5,FINESTEERING,2319,303982.100,02000800,10a2,17139;SOL_COMPUTED,NARROW_INT,0.025,2.100,4.4255,192.393983,0.0695,0*7d326f57
#BESTVELA,FILE,0,37.5,FINESTEERING,2319,303982.150,02000800,10a2,17139;SOL_COMPUTED,NARROW_INT,0.025,2.150,4.4552,193.656371,0.0352,0*0a3bd9f0
#BESTVELA,FILE,0,37.5,FINESTEERING,2319,303982.200,02000800,10a2,17139;SOL_COMPUTED,NARROW_INT,0.025,2.200,4.3490,191.945375,0.0241,0*ae955ead
#BESTVELA,FILE,0,41.0,FINESTEERING,2319,303982.250,02000800,10a2,17139;SOL_COMPUTED,NARROW_INT,0.025,2.250,4.3361,193.341284,-0.0219,0*93d5a64f
#BESTVELA,FILE,0,41.0,FINESTEERING,2319,303982.300,02000800,10a2,17139;SOL_COMPUTED,NARROW_INT,0.025,2.300,4.3599,194.491820,0.1011,0*610400e4
#BESTVELA,FILE,0,41.0,FINESTEERING,2319,303982.350,02000800,10a2,17139;SOL_COMPUTED,NARROW_INT,0.025,2.350,4.4871,193.555918,0.0027,0*8bf4690f
#BESTVELA,FILE,0,41.0,FINESTEERING,2319,303982.400,02000800,10a2,17139;SOL_COMPUTED,NARROW_INT,0.025,2.400,4.3475,192.374988,-0.0116,0*921423e5
#BESTVELA,FILE,0,41.0,FINESTEERING,2319,303982.450,02000800,10a2,17139;SOL_COMPUTED,NARROW_INT,0.025,2.450,4.2977,194.704223,0.0587,0*f6a7c23f
#BESTVELA,FILE,0,41.0,FINESTEERING,2319,303982.500,02000800,10a2,17139;SOL_COMPUTED,NARROW_INT,0.025,2.500,4.2946,199.489854,0.0640,0*b961aaa6
#BESTVELA,FILE,0,41.0,FINESTEERING,2319,303982.550,02000800,10a2,17139;SOL_COMPUTED,NARROW_INT,0.025,2.550,4.2720,198.735306,-0.0638,0*e17ce39a
#BESTVELA,FILE,0,41.0,FINESTEERING,2319,303982.600,02000800,10a2,17139;SOL_COMPUTED,NARROW_INT,0.025,2.600,4.1914,201.525851,-0.1967,0*66c26ca7
#BESTVELA,FILE,0,41.0,FINESTEERING,2319,303982.650,02000800,10a2,17139;SOL_COMPUTED,NARROW_INT,0.025,2.650,4.1492,202.415169,0.0205,0*ec9656ba
#BESTVELA,FILE,0,41.0,FINESTEERING,2319,303982.700,02000800,10a2,17139;SOL_COMPUTED,NARROW_INT,0.025,2.700,4.1931,210.765277,0.1446,0*020923bd
#BESTVELA,FILE,0,41.0,FINESTEERING,2319,303982.750,02000800,10a2,17139;SOL_COMPUTED,NARROW_INT,0.025,2.750,4.0449,211.913628,0.0216,0*161bd011
#BESTVELA,FILE,0,41.0,FINESTEERING,2319,303982.800,02000800,10a2,17139;SOL_COMPUTED,NARROW_INT,0.025,2.800,4.1548,215.582517,0.1355,0*5317fffe
#BESTVELA,FILE,0,41.0,FINESTEERING,2319,303982.850,02000800,10a2,17139;SOL_COMPUTED,NARROW_INT,0.025,2.850,3.9888,214.799138,-0.0084,0*24b105e5
#BESTVELA,FILE,0,41.0,FINESTEERING,2319,303982.900,02000800,10a2,17139;SOL_COMPUTED,NARROW_INT,0.025,2.900,3.9340,213.757574,-0.0318,0*715de75a
#BESTVELA,FILE,0,41.0,FINESTEERING,2319,303982.950,02000800,10a2,17139;SOL_COMPUTED,NARROW_INT,0.025,2.950,3.9030,214.919538,-0.0922,0*d32b1ff8
#BESTVELA,FILE,0,41.0,FINESTEERING,2319,303983.000,02000800,10a2,17139;SOL_COMPUTED,NARROW_INT,0.025,3.000,4.0759,216.998645,-0.1100,0*44b356a7
#BESTVELA,FILE,0,41.0,FINESTEERING,2319,303983.050,02000800,10a2,17139;SOL_COMPUTED,NARROW_INT,0.025,3.050,3.9144,215.895265,-0.2485,0*c4eb3b8e
#BESTVELA,FILE,0,36.5,FINESTEERING,2319,303983.100,02000800,10a2,17139;SOL_COMPUTED,NARROW_INT,0.025,3.100,4.0740,220.375410,-0.4173,0*3026d925
#BESTVELA,FILE,0,36.5,FINESTEERING,2319,303983.150,02000000,10a2,17139;SOL_COMPUTED,NARROW_INT,0.025,3.150,3.9940,220.076758,-0.1556,0*81a2de3f
#BESTVELA,FILE,0,36.5,FINESTEERING,2319,303983.200,02000000,10a2,17139;SOL_COMPUTED,NARROW_INT,0.025,3.200,3.9798,220.988159,0.0256,0*d5d6d8f1
#BESTVELA,FILE,0,36.5,FINESTEERING,2319,303983.250,02000000,10a2,17139;SOL_COMPUTED,NARROW_INT,0.025,3.250,4.1221,225.655118,0.3216,0*69d60287
#BESTVELA,FILE,0,36.5,FINESTEERING,2319,303983.300,02000000,10a2,17139;SOL_COMPUTED,NARROW_INT,0.025,3.300,4.0274,225.784273,0.2751,0*a4af9f22
#BESTVELA,FILE,0,36.5,FINESTEERING,2319,303983.350,02000000,10a2,17139;SOL_COMPUTED,NARROW_INT,0.025,3.350,4.0693,228.623414,0.2605,0*fbab70a4
#BESTVELA,FILE,0,36.5,FINESTEERING,2319,303983.400,02000000,10a2,17139;SOL_COMPUTED,NARROW_INT,0.025,3.400,4.1253,231.691844,0.1855,0*93b44f68
#BESTVELA,FILE,0,36.5,FINESTEERING,2319,303983.450,02000000,10a2,17139;SOL_COMPUTED,NARROW_INT,0.025,3.450,3.9498,231.663919,0.2953,0*48ec1ce3
#BESTVELA,FILE,0,36.5,FINESTEERING,2319,303983.500,02000000,10a2,17139;SOL_COMPUTED,NARROW_INT,0.025,3.500,3.9176,234.412676,0.0641,0*877c46b0
#BESTVELA,FILE,0,36.5,FINESTEERING,2319,303983.550,02000000,10a2,17139;SOL_COMPUTED,NARROW_INT,0.025,3.550,3.8040,233.340285,-0.0099,0*61c8dc52
#BESTVELA,FILE,0,36.5,FINESTEERING,2319,303983.600,02000000,10a2,17139;SOL_COMPUTED,NARROW_INT,0.025,3.600,3.7497,235.801025,-0.2374,0*51408f08
#BESTVELA,FILE,0,36.5,FINESTEERING,2319,303983.650,02000000,10a2,17139;SOL_COMPUTED,NARROW_INT,0.025,3.650,3.7463,239.096422,-0.3655,0*1655833f
#BESTVELA,FILE,0,36.5,FINESTEERING,2319,303983.700,02000000,10a2,17139;SOL_COMPUTED,NARROW_INT,0.025,3.700,3.7952,238.039081,-0.3122,0*f9a53a53
#BESTVELA,FILE,0,36.5,FINESTEERING,2319,303983.750,02000000,10a2,17139;SOL_COMPUTED,NARROW_INT,0.025,3.750,3.8363,238.190091,-0.1878,0*a7148f1f
#BESTVELA,FILE,0,36.5,FINESTEERING,2319,303983.800,02000000,10a2,17139;SOL_COMPUTED,NARROW_INT,0.025,3.800,3.8376,240.017893,0.0391,0*efbb69aa
#BESTVELA,FILE,0,36.5,FINESTEERING,2319,303983.850,02000000,10a2,17139;SOL_COMPUTED,NARROW_INT,0.025,3.850,3.9494,243.515681,0.1911,0*4eed93e2
#BESTVELA,FILE,0,36.5,FINESTEERING,2319,303983.900,02000000,10a2,17139;SOL_COMPUTED,NARROW_INT,0.025,3.900,3.9637,241.638813,0.1352,0*ca53bb1e
#BESTVELA,FILE,0,36.5,FINESTEERING,2319,303983.950,02000000,10a2,17139;SOL_COMPUTED,NARROW_INT,0.025,3.950,3.9035,241.507838,-0.1089,0*0079b0ea
#BESTVELA,FILE,0,36.5,FINESTEERING,2319,303984.000,02000000,10a2,17139;SOL_COMPUTED,NARROW_INT,0.025,4.000,3.7740,242.196307,-0.1240,0*2eb5369f
#BESTVELA,FILE,0,36.5,FINESTEERING,2319,303984.050,02000000,10a2,17139;SOL_COMPUTED,NARROW_INT,0.025,4.050,3.8663,245.369756,0.0397,0*eded3af1
#BESTVELA,FILE,0,36.5,FINESTEERING,2319,303984.100,02000000,10a2,17139;SOL_COMPUTED,NARROW_INT,0.025,4.100,3.6454,244.366852,-0.1068,0*ba5b5611
#BESTVELA,FILE,0,37.0,FINESTEERING,2319,303984.150,02000000,10a2,17139;SOL_COMPUTED,NARROW_INT,0.025,4.150,3.8838,248.728358,0.1235,0*2991961d
#BESTVELA,FILE,0,37.0,FINESTEERING,2319,303984.200,02000000,10a2,17139;SOL_COMPUTED,NARROW_INT,0.025,4.200,3.7478,248.388183,-0.0735,0*d1d7b1d4
#BESTVELA,FILE,0,37.0,FINESTEERING,2319,303984.250,02000000,10a2,17139;SOL_COMPUTED,NARROW_INT,0.025,4.250,3.8076,251.043201,-0.0727,0*955a0c89
#BESTVELA,FILE,0,37.0,FINESTEERING,2319,303984.300,02000000,10a2,17139;SOL_COMPUTED,NARROW_INT,0.025,4.300,3.9334,254.384126,0.0159,0*ad2b59c8
#BESTVELA,FILE,0,37.0,FINESTEERING,2319,303984.350,02000000,10a2,17139;SOL_COMPUTED,NARROW_INT,0.025,4.350,3.9743,257.696464,0.2954,0*74074937
#BESTVELA,FILE,0,37.0,FINESTEERING,2319,303984.400,02000000,10a2,17139;SOL_COMPUTED,NARROW_INT,0.025,4.400,3.8146,257.332434,0.0776,0*49c357d8
#BESTVELA,FILE,0,37.0,FINESTEERING,2319,303984.450,02000000,10a2,17139;SOL_COMPUTED,NARROW_INT,0.025,4.450,3.8098,254.977984,-0.1153,0*b027ef2d
#BESTVELA,FILE,0,37.0,FINESTEERING,2319,303984.500,02000000,10a2,17139;SOL_COMPUTED,NARROW_INT,0.025,4.500,3.8088,256.469811,0.1813,0*ec67260e
#BESTVELA,FILE,0,37.0,FINESTEERING,2319,303984.550,02000000,10a2,17139;SOL_COMPUTED,NARROW_INT,0.025,4.550,3.8857,259.335839,0.1415,0*8ab2ad69
#BESTVELA,FILE,0,37.0,FINESTEERING,2319,303984.600,02000000,10a2,17139;SOL_COMPUTED,NARROW_INT,0.025,4.600,3.9821,258.491414,0.4065,0*27bb9731
#BESTVELA,FILE,0,37.0,FINESTEERING,2319,303984.650,02000000,10a2,17139;SOL_COMPUTED,NARROW_INT,0.025,4.650,3.4797,247.786400,-0.8113,0*9aa29cba
