#BESTPOSA,FILE,0,32.5,FINESTEERING,2319,303964.000,02000000,cdba,17139;SOL_COMPUTED,NARROW_INT,17.59969979459,78.12306410437,525.1296,-76.2000,WGS84,0.0095,0.0075,0.0196,"0",1.000,0.000,41,40,40,39,00,21,3f,37*183b9bdb
#BESTPOSA,FILE,0,32.5,FINESTEERING,2319,303964.050,02000000,cdba,17139;SOL_COMPUTED,NARROW_INT,17.59969895361,78.12306478509,525.1327,-76.2000,WGS84,0.0098,0.0077,0.0199,"0",1.050,0.000,41,40,40,39,00,21,3f,37*b72af7aa
#BESTPOSA,FILE,0,31.5,FINESTEERING,2319,303964.100,02000000,cdba,17139;SOL_COMPUTED,NARROW_INT,17.59969810517,78.12306545518,525.1329,-76.2000,WGS84,0.0099,0.0077,0.0199,"0",1.100,0.000,41,41,41,40,00,21,3f,37*2a0a4177
#BESTPOSA,FILE,0,31.5,FINESTEERING,2319,303964.150,02000000,cdba,17139;SOL_COMPUTED,NARROW_INT,17.59969732252,78.12306609479,525.1367,-76.2000,WGS84,0.0099,0.0077,0.0200,"0",1.150,0.000,41,41,41,40,00,21,3f,37*2a4eb984
#BESTPOSA,FILE,0,31.5,FINESTEERING,2319,303964.200,02000000,cdba,17139;SOL_COMPUTED,NARROW_INT,17.59969653381,78.12306673044,525.1372,-76.2000,WGS84,0.0099,0.0077,0.0200,"0",1.200,0.000,41,41,41,40,00,21,3f,37*58a03faf
#BESTPOSA,FILE,0,31.5,FINESTEERING,2319,303964.250,02000000,cdba,17139;SOL_COMPUTED,NARROW_INT,17.59969577545,78.12306732945,525.1392,-76.2000,WGS84,0.0100,0.0077,0.0200,"0",1.250,0.000,41,41,41,40,00,21,3f,37*567c038f
#BESTPOSA,FILE,0,31.5,FINESTEERING,2319,303964.300,02000000,cdba,17139;SOL_COMPUTED,NARROW_INT,17.59969505637,78.12306793656,525.1436,-76.2000,WGS84,0.0100,0.0078,0.0201,"0",1.300,0.000,42,41,41,40,00,21,3f,37*51bc48c7
#BESTPOSA,FILE,0,31.5,FINESTEERING,2319,303964.350,02000000,cdba,17139;SOL_COMPUTED,NARROW_INT,17.59969442773,78.12306860482,525.1024,-76.2000,WGS84,0.0091,0.0073,0.0191,"0",0.350,0.000,42,41,41,40,00,21,3f,37*9d4ee676
#BESTPOSA,FILE,0,31.5,FINESTEERING,2319,303964.400,02000000,cdba,17139;SOL_COMPUTED,NARROW_INT,17.59969371322,78.12306920379,525.1102,-76.2000,WGS84,0.0092,0.0073,0.0192,"0",0.400,0.000,42,41,41,40,00,21,3f,37*d9d41d55
#BESTPOSA,FILE,0,31.5,FINESTEERING,2319,303964.450,02000000,cdba,17139;SOL_COMPUTED,NARROW_INT,17.59969295823,78.12306977110,525.1155,-76.2000,WGS84,0.0093,0.0074,0.0192,"0",0.450,0.000,42,41,41,40,00,21,3f,37*35eff3b6
#BESTPOSA,FILE,0,31.5,FINESTEERING,2319,303964.500,02000000,cdba,17139;SOL_COMPUTED,NARROW_INT,17.59969217987,78.12307027428,525.1210,-76.2000,WGS84,0.0093,0.0074,0.0193,"0",0.500,0.000,41,41,41,40,00,21,3f,37*576e121e
#BESTPOSA,FILE,0,31.5,FINESTEERING,2319,303964.550,02000000,cdba,17139;SOL_COMPUTED,NARROW_INT,17.59969141344,78.12307070027,525.1274,-76.2000,WGS84,0.0093,0.0074,0.0193,"0",0.550,0.000,41,41,41,40,00,21,3f,37*39627ee0
#BESTPOSA,FILE,0,31.5,FINESTEERING,2319,303964.600,02000000,cdba,17139;SOL_COMPUTED,NARROW_INT,17.59969064019,78.12307106670,525.1330,-76.2000,WGS84,0.0093,0.0074,0.0194,"0",0.600,0.000,41,41,41,40,00,21,3f,37*e5c49c80
#BESTPOSA,FILE,0,31.5,FINESTEERING,2319,303964.650,02000000,cdba,17139;SOL_COMPUTED,NARROW_INT,17.59968986581,78.12307137267,525.1378,-76.2000,WGS84,0.0094,0.0074,0.0194,"0",0.650,0.000,41,41,41,40,00,21,3f,37*8e5c2a8c
#BESTPOSA,FILE,0,31.5,FINESTEERING,2319,303964.700,02000000,cdba,17139;SOL_COMPUTED,NARROW_INT,17.59968909448,78.12307164418,525.1400,-76.2000,WGS84,0.0094,0.0075,0.0194,"0",0.700,0.000,41,41,41,40,00,21,3f,37*57e88b3e
#BESTPOSA,FILE,0,31.5,FINESTEERING,2319,303964.750,02000000,cdba,17139;SOL_COMPUTED,NARROW_INT,17.59968831685,78.12307185110,525.1403,-76.2000,WGS84,0.0094,0.0075,0.0195,"0",0.750,0.000,41,41,41,40,00,21,3f,37*cb200d9a
#BESTPOSA,FILE,0,31.5,FINESTEERING,2319,303964.800,02000000,cdba,17139;SOL_COMPUTED,NARROW_INT,17.59968750100,78.12307201310,525.1373,-76.2000,WGS84,0.0094,0.0075,0.0195,"0",0.800,0.000,41,41,41,40,00,21,3f,37*e9e840f3
#BESTPOSA,FILE,0,31.5,FINESTEERING,2319,303964.850,02000000,cdba,17139;SOL_COMPUTED,NARROW_INT,17.59968674166,78.12307215968,525.1396,-76.2000,WGS84,0.0095,0.0075,0.0196,"0",0.850,0.000,41,41,41,40,00,21,3f,37*efa0d6cf
#BESTPOSA,FILE,0,31.5,FINESTEERING,2319,303964.900,02000000,cdba,17139;SOL_COMPUTED,NARROW_INT,17.59968597375,78.12307229754,525.1427,-76.2000,WGS84,0.0095,0.0075,0.0196,"0",0.900,0.000,40,40,40,39,00,21,3f,37*bc3466d1
#BESTPOSA,FILE,0,31.5,FINESTEERING,2319,303964.950,02000000,cdba,17139;SOL_COMPUTED,NARROW_INT,17.59968521947,78.12307241365,525.1415,-76.2000,WGS84,0.0095,0.0076,0.0196,"0",0.950,0.000,40,40,40,39,00,21,3f,37*73931659
#BESTPOSA,FILE,0,31.5,FINESTEERING,2319,303965.000,02000000,cdba,17139;SOL_COMPUTED,NARROW_INT,17.59968442323,78.12307254079,525.1447,-76.2000,WGS84,0.0096,0.0076,0.0197,"0",1.000,0.000,40,40,40,39,00,21,3f,37*fdb08c2f
#BESTPOSA,FILE,0,31.5,FINESTEERING,2319,303965.050,02000000,cdba,17139;SOL_COMPUTED,NARROW_INT,17.59968370149,78.12307265777,525.1517,-76.2000,WGS84,0.0099,0.0078,0.0201,"0",1.050,0.000,40,40,40,39,00,21,3f,37*75e6ccc5
#BESTPOSA,FILE,0,31.5,FINESTEERING,2319,303965.100,02000000,cdba,17139;SOL_COMPUTED,NARROW_INT,17.59968295499,78.12307277602,525.1532,-76.2000,WGS84,0.0099,0.0078,0.0201,"0",1.100,0.000,39,39,39,38,00,21,3f,37*d83cff60
#BESTPOSA,FILE,0,32.5,FINESTEERING,2319,303965.150,02000000,cdba,17139;SOL_COMPUTED,NARROW_INT,17.59968220661,78.12307283058,525.1568,-76.2000,WGS84,0.0100,0.0078,0.0202,"0",1.150,0.000,39,39,39,38,00,21,3f,37*2c5ef34e
#BESTPOSA,FILE,0,32.5,FINESTEERING,2319,303965.200,02000000,cdba,17139;SOL_COMPUTED,NARROW_INT,17.59968143438,78.12307286681,525.1609,-76.2000,WGS84,0.0100,0.0079,0.0203,"0",1.200,0.000,39,39,39,38,00,21,3f,37*6f936d0f
#BESTPOSA,FILE,0,32.5,FINESTEERING,2319,303965.250,02000000,cdba,17139;SOL_COMPUTED,NARROW_INT,17.59968067108,78.12307293111,525.1589,-76.2000,WGS84,0.0100,0.0079,0.0203,"0",1.250,0.000,39,39,39,38,00,21,3f,37*80b75676
#BESTPOSA,FILE,0,32.5,FINESTEERING,2319,303965.300,02000000,cdba,17139;SOL_COMPUTED,NARROW_INT,17.59967989370,78.12307297954,525.1634,-76.2000,WGS84,0.0101,0.0079,0.0203,"0",1.300,0.000,39,39,39,38,00,21,3f,37*98542a77
#BESTPOSA,FILE,0,32.5,FINESTEERING,2319,303965.350,02000000,cdba,17139;SOL_COMPUTED,NARROW_INT,17.59967981080,78.12307305447,525.0733,-76.2000,WGS84,0.0095,0.0077,0.0193,"0",0.350,0.000,39,39,39,38,00,21,3f,37*67b3874a
#BESTPOSA,FILE,0,32.5,FINESTEERING,2319,303965.400,02000000,cdba,17139;SOL_COMPUTED,NARROW_INT,17.59967899143,78.12307310882,525.0755,-76.2000,WGS84,0.0095,0.0077,0.0194,"0",0.400,0.000,39,39,39,38,00,21,3f,37*8d0e4f32
#BESTPOSA,FILE,0,32.5,FINESTEERING,2319,303965.450,02000000,cdba,17139;SOL_COMPUTED,NARROW_INT,17.59967816112,78.12307315925,525.0828,-76.2000,WGS84,0.0096,0.0077,0.0194,"0",0.450,0.000,39,39,39,38,00,21,3f,37*00b76547
#BESTPOSA,FILE,0,32.5,FINESTEERING,2319,303965.500,02000000,cdba,17139;SOL_COMPUTED,NARROW_INT,17.59967728502,78.12307311421,525.0944,-76.2000,WGS84,0.0096,0.0078,0.0195,"0",0.500,0.000,39,39,39,38,00,21,3f,37*cec846e1
#BESTPOSA,FILE,0,32.5,FINESTEERING,2319,303965.550,02000000,cdba,17139;SOL_COMPUTED,NARROW_INT,17.59967641795,78.12307300412,525.1126,-76.2000,WGS84,0.0096,0.0078,0.0195,"0",0.550,0.000,39,39,39,38,00,21,3f,37*752de4b2
#BESTPOSA,FILE,0,32.5,FINESTEERING,2319,303965.600,02000000,cdba,17139;SOL_COMPUTED,NARROW_INT,17.59967555294,78.12307287193,525.1249,-76.2000,WGS84,0.0096,0.0078,0.0196,"0",0.600,0.000,39,39,39,38,00,21,3f,37*68b67524
#BESTPOSA,FILE,0,32.5,FINESTEERING,2319,303965.650,02000000,cdba,17139;SOL_COMPUTED,NARROW_INT,17.59967470162,78.12307269537,525.1342,-76.2000,WGS84,0.0097,0.0078,0.0196,"0",0.650,0.000,39,39,39,38,00,21,3f,37*656bbab3
#BESTPOSA,FILE,0,32.5,FINESTEERING,2319,303965.700,02000000,cdba,17139;SOL_COMPUTED,NARROW_INT,17.59967379624,78.12307245572,525.1464,-76.2000,WGS84,0.0097,0.0079,0.0197,"0",0.700,0.000,39,39,39,38,00,21,3f,37*3dae5ace
#BESTPOSA,FILE,0,32.5,FINESTEERING,2319,303965.750,02000000,cdba,17139;SOL_COMPUTED,NARROW_INT,17.59967295397,78.12307216628,525.1585,-76.2000,WGS84,0.0097,0.0079,0.0197,"0",0.750,0.000,39,39,39,38,00,21,3f,37*9913fe33
#BESTPOSA,FILE,0,32.5,FINESTEERING,2319,303965.800,02000000,cdba,17139;SOL_COMPUTED,NARROW_INT,17.59967210048,78.12307189554,525.1676,-76.2000,WGS84,0.0098,0.0079,0.0198,"0",0.800,0.000,38,38,38,37,00,21,3f,37*bb7f6b53
#BESTPOSA,FILE,0,32.5,FINESTEERING,2319,303965.850,02000000,cdba,17139;SOL_COMPUTED,NARROW_INT,17.59967121816,78.12307158435,525.1724,-76.2000,WGS84,0.0098,0.0079,0.0198,"0",0.850,0.000,40,38,38,37,00,21,3f,37*15dff594
#BESTPOSA,FILE,0,32.5,FINESTEERING,2319,303965.900,02000000,cdba,17139;SOL_COMPUTED,NARROW_INT,17.59967035624,78.12307124960,525.1805,-76.2000,WGS84,0.0098,0.0079,0.0199,"0",0.900,0.000,40,38,38,37,00,21,3f,37*cdff45e3
#BESTPOSA,FILE,0,32.5,FINESTEERING,2319,303965.950,02000000,cdba,17139;SOL_COMPUTED,NARROW_INT,17.59966943444,78.12307098623,525.1858,-76.2000,WGS84,0.0099,0.0080,0.0200,"0",0.950,0.000,40,38,38,37,00,21,3f,37*9c261a47
#BESTPOSA,FILE,0,32.5,FINESTEERING,2319,303966.000,02000000,cdba,17139;SOL_COMPUTED,NARROW_INT,17.59966843809,78.12307058994,525.1992,-76.2000,WGS84,0.0099,0.0081,0.0201,"0",1.000,0.000,40,38,38,37,00,21,3f,37*ac85a2b1
#BESTPOSA,FILE,0,32.5,FINESTEERING,2319,303966.050,02000000,cdba,17139;SOL_COMPUTED,NARROW_INT,17.59966750795,78.12307022195,525.2170,-76.2000,WGS84,0.0103,0.0084,0.0206,"0",1.050,0.000,40,38,38,37,00,21,3f,37*b030402c
#BESTPOSA,FILE,0,32.5,FINESTEERING,2319,303966.100,02000000,cdba,17139;SOL_COMPUTED,NARROW_INT,17.59966656650,78.12306984880,525.2274,-76.2000,WGS84,0.0104,0.0085,0.0207,"0",1.100,0.000,40,40,40,38,00,21,3f,37*dc5a2b45
#BESTPOSA,FILE,0,32.5,FINESTEERING,2319,303966.150,02000000,cdba,17139;SOL_COMPUTED,NARROW_INT,17.59966556501,78.12306941276,525.2413,-76.2000,WGS84,0.0104,0.0085,0.0207,"0",1.150,0.000,40,40,40,38,00,21,3f,37*522cae5a
#BESTPOSA,FILE,0,32.5,FINESTEERING,2319,303966.200,02000000,cdba,17139;SOL_COMPUTED,NARROW_INT,17.59966462670,78.12306891030,525.2626,-76.2000,WGS84,0.0104,0.0085,0.0208,"0",1.200,0.000,40,40,40,38,00,21,3f,37*e4d1839c
#BESTPOSA,FILE,0,32.5,FINESTEERING,2319,303966.250,02000000,cdba,17139;SOL_COMPUTED,NARROW_INT,17.59966368166,78.12306834903,525.2808,-76.2000,WGS84,0.0104,0.0086,0.0208,"0",1.250,0.000,40,40,40,38,00,21,3f,37*3f65e201
#BESTPOSA,FILE,0,32.5,FINESTEERING,2319,303966.300,02000000,cdba,17139;SOL_COMPUTED,NARROW_INT,17.59966273745,78.12306777053,525.2887,-76.2000,WGS84,0.0105,0.0086,0.0209,"0",1.300,0.000,40,40,40,38,00,21,3f,37*1c2b7678
#BESTPOSA,FILE,0,32.5,FINESTEERING,2319,303966.350,02000000,cdba,17139;SOL_COMPUTED,NARROW_INT,17.59966175983,78.12306717571,525.2940,-76.2000,WGS84,0.0105,0.0086,0.0209,"0",1.350,0.000,39,39,39,37,00,21,3f,37*892817fe
#BESTPOSA,FILE,0,32.5,FINESTEERING,2319,303966.400,02000000,cdba,17139;SOL_COMPUTED,NARROW_INT,17.59966085605,78.12306658225,525.3061,-76.2000,WGS84,0.0105,0.0086,0.0210,"0",1.400,0.000,40,39,39,37,00,21,3f,37*84531b4e
#BESTPOSA,FILE,0,32.5,FINESTEERING,2319,303966.450,02000000,cdba,17139;SOL_COMPUTED,NARROW_INT,17.59965991940,78.12306597540,525.3140,-76.2000,WGS84,0.0105,0.0087,0.0210,"0",1.450,0.000,40,39,39,37,00,21,3f,37*b5286b49
#BESTPOSA,FILE,0,32.5,FINESTEERING,2319,303966.500,02000000,cdba,17139;SOL_COMPUTED,NARROW_INT,17.59965902052,78.12306532809,525.3192,-76.2000,WGS84,0.0106,0.0087,0.0211,"0",1.500,0.000,40,39,39,37,00,21,3f,37*f68e165d
#BESTPOSA,FILE,0,32.5,FINESTEERING,2319,303966.550,02000000,cdba,17139;SOL_COMPUTED,NARROW_INT,17.59965810515,78.12306466895,525.3354,-76.2000,WGS84,0.0106,0.0087,0.0211,"0",1.550,0.000,39,37,37,36,00,21,3f,37*9ac64e8b
#BESTPOSA,FILE,0,32.5,FINESTEERING,2319,303966.600,02000000,cdba,17139;SOL_COMPUTED,NARROW_INT,17.59965715364,78.12306397454,525.3499,-76.2000,WGS84,0.0106,0.0087,0.0212,"0",1.600,0.000,38,36,36,35,00,21,3f,37*fa39700f
#BESTPOSA,FILE,0,32.5,FINESTEERING,2319,303966.650,02000000,cdba,17139;SOL_COMPUTED,NARROW_INT,17.59965617948,78.12306324834,525.3633,-76.2000,WGS84,0.0106,0.0088,0.0213,"0",1.650,0.000,39,36,36,35,00,21,3f,37*c22bdaa3
#BESTPOSA,FILE,0,32.5,FINESTEERING,2319,303966.700,02000000,cdba,17139;SOL_COMPUTED,NARROW_INT,17.59965525153,78.12306242634,525.3786,-76.2000,WGS84,0.0107,0.0088,0.0213,"0",1.700,0.000,39,36,36,34,00,21,3f,37*f5ad43ce
#BESTPOSA,FILE,0,32.5,FINESTEERING,2319,303966.750,02000000,cdba,17139;SOL_COMPUTED,NARROW_INT,17.59965437317,78.12306162486,525.3903,-76.2000,WGS84,0.0107,0.0088,0.0214,"0",1.750,0.000,38,36,36,34,00,21,3f,37*bb5724f5
#BESTPOSA,FILE,0,32.5,FINESTEERING,2319,303966.800,02000000,cdba,17139;SOL_COMPUTED,NARROW_INT,17.59965348595,78.12306074079,525.3992,-76.2000,WGS84,0.0107,0.0089,0.0214,"0",1.800,0.000,38,35,35,34,00,21,3f,37*59e234d1
#BESTPOSA,FILE,0,32.5,FINESTEERING,2319,303966.850,02000000,cdba,17139;SOL_COMPUTED,NARROW_INT,17.59965262724,78.12305987255,525.4134,-76.2000,WGS84,0.0108,0.0089,0.0215,"0",1.850,0.000,39,35,35,34,00,21,3f,37*5f7526f3
#BESTPOSA,FILE,0,32.5,FINESTEERING,2319,303966.900,02000000,cdba,17139;SOL_COMPUTED,NARROW_INT,17.59965178571,78.12305895026,525.4215,-76.2000,WGS84,0.0108,0.0090,0.0215,"0",1.900,0.000,39,35,35,34,00,21,3f,37*cc508280
#BESTPOSA,FILE,0,32.5,FINESTEERING,2319,303966.950,02000000,cdba,17139;SOL_COMPUTED,NARROW_INT,17.59965095004,78.12305801463,525.4249,-76.2000,WGS84,0.0108,0.0090,0.0216,"0",1.950,0.000,38,35,35,34,00,21,3f,37*dafd22df
#BESTPOSA,FILE,0,32.5,FINESTEERING,2319,303967.000,02000000,cdba,17139;SOL_COMPUTED,NARROW_INT,17.59965012898,78.12305705816,525.4327,-76.2000,WGS84,0.0108,0.0091,0.0217,"0",2.000,0.000,38,35,35,34,00,21,3f,37*bd0ec47d
#BESTPOSA,FILE,0,32.5,FINESTEERING,2319,303967.050,02000000,cdba,17139;SOL_COMPUTED,NARROW_INT,17.59964932116,78.12305605770,525.4399,-76.2000,WGS84,0.0112,0.0095,0.0222,"0",2.050,0.000,39,36,36,33,00,21,3f,37*47275f95
#BESTPOSA,FILE,0,32.5,FINESTEERING,2319,303967.100,02000000,cdba,17139;SOL_COMPUTED,NARROW_INT,17.59964855464,78.12305508237,525.4502,-76.2000,WGS84,0.0112,0.0095,0.0222,"0",2.100,0.000,37,36,36,33,00,21,3f,37*5a81aa15
#BESTPOSA,FILE,0,33.5,FINESTEERING,2319,303967.150,02000000,cdba,17139;SOL_COMPUTED,NARROW_INT,17.59964781747,78.12305402890,525.4567,-76.2000,WGS84,0.0112,0.0095,0.0223,"0",2.150,0.000,38,36,36,33,00,21,3f,37*2fb3c778
#BESTPOSA,FILE,0,33.5,FINESTEERING,2319,303967.200,02000000,cdba,17139;SOL_COMPUTED,NARROW_INT,17.59964710914,78.12305298240,525.4664,-76.2000,WGS84,0.0113,0.0096,0.0223,"0",2.200,0.000,37,34,34,32,00,21,3f,37*6f62e411
#BESTPOSA,FILE,0,33.5,FINESTEERING,2319,303967.250,02000000,cdba,17139;SOL_COMPUTED,NARROW_INT,17.59964640208,78.12305190069,525.4740,-76.2000,WGS84,0.0113,0.0096,0.0224,"0",2.250,0.000,37,34,34,32,00,21,3f,37*49874d36
#BESTPOSA,FILE,0,33.5,FINESTEERING,2319,303967.300,02000000,cdba,17139;SOL_COMPUTED,NARROW_INT,17.59964566970,78.12305087822,525.4785,-76.2000,WGS84,0.0113,0.0096,0.0224,"0",2.300,0.000,37,34,34,32,00,21,3f,37*c1124b7c
#BESTPOSA,FILE,0,33.5,FINESTEERING,2319,303967.350,02000000,cdba,17139;SOL_COMPUTED,NARROW_INT,17.59964430890,78.12304963330,525.6215,-76.2000,WGS84,0.0088,0.0078,0.0231,"0",0.350,0.000,37,34,34,32,00,21,3f,37*c65f5143
#BESTPOSA,FILE,0,33.5,FINESTEERING,2319,303967.400,02000000,cdba,17139;SOL_COMPUTED,NARROW_INT,17.59964358957,78.12304845455,525.6312,-76.2000,WGS84,0.0089,0.0078,0.0231,"0",0.400,0.000,37,34,34,32,00,21,3f,37*9d1db4b1
#BESTPOSA,FILE,0,33.5,FINESTEERING,2319,303967.450,02000000,cdba,17139;SOL_COMPUTED,NARROW_INT,17.59964285218,78.12304730557,525.6538,-76.2000,WGS84,0.0089,0.0079,0.0232,"0",0.450,0.000,37,34,34,32,00,21,3f,37*c5324817
#BESTPOSA,FILE,0,33.5,FINESTEERING,2319,303967.500,02000000,cdba,17139;SOL_COMPUTED,NARROW_INT,17.59964211146,78.12304616635,525.6760,-76.2000,WGS84,0.0090,0.0079,0.0232,"0",0.500,0.000,37,33,33,32,00,21,3f,37*9b40855d
#BESTPOSA,FILE,0,33.5,FINESTEERING,2319,303967.550,02000000,cdba,17139;SOL_COMPUTED,NARROW_INT,17.59964135234,78.12304504604,525.6965,-76.2000,WGS84,0.0090,0.0079,0.0233,"0",0.550,0.000,35,33,33,32,00,21,3f,37*19e98c56
#BESTPOSA,FILE,0,33.5,FINESTEERING,2319,303967.600,02000000,cdba,17139;SOL_COMPUTED,NARROW_INT,17.59964062837,78.12304390605,525.7068,-76.2000,WGS84,0.0090,0.0080,0.0234,"0",0.600,0.000,36,33,33,32,00,21,3f,37*47e1f2da
#BESTPOSA,FILE,0,33.5,FINESTEERING,2319,303967.650,02000000,cdba,17139;SOL_COMPUTED,NARROW_INT,17.59963990852,78.12304281256,525.7122,-76.2000,WGS84,0.0090,0.0080,0.0234,"0",0.650,0.000,36,33,33,32,00,21,3f,37*1f638150
#BESTPOSA,FILE,0,33.5,FINESTEERING,2319,303967.700,02000000,cdba,17139;SOL_COMPUTED,NARROW_INT,17.59963922013,78.12304170459,525.7170,-76.2000,WGS84,0.0091,0.0080,0.0234,"0",0.700,0.000,36,33,33,32,00,21,3f,37*4baf367c
#BESTPOSA,FILE,0,33.5,FINESTEERING,2319,303967.750,02000000,cdba,17139;SOL_COMPUTED,NARROW_INT,17.59963854827,78.12304061551,525.7245,-76.2000,WGS84,0.0091,0.0080,0.0235,"0",0.750,0.000,36,33,33,32,00,21,3f,37*3db7cab6
#BESTPOSA,FILE,0,33.5,FINESTEERING,2319,303967.800,02000000,cdba,17139;SOL_COMPUTED,NARROW_INT,17.59963790779,78.12303948544,525.7336,-76.2000,WGS84,0.0091,0.0081,0.0236,"0",0.800,0.000,36,33,33,32,00,21,3f,37*e4f43d7d
#BESTPOSA,FILE,0,33.5,FINESTEERING,2319,303967.850,02000000,cdba,17139;SOL_COMPUTED,NARROW_INT,17.59963729556,78.12303834018,525.7522,-76.2000,WGS84,0.0092,0.0081,0.0237,"0",0.850,0.000,36,33,33,32,00,21,3f,37*78449f43
#BESTPOSA,FILE,0,33.5,FINESTEERING,2319,303967.900,02000000,cdba,17139;SOL_COMPUTED,NARROW_INT,17.59963671202,78.12303720343,525.7690,-76.2000,WGS84,0.0092,0.0081,0.0237,"0",0.900,0.000,36,33,33,32,00,21,3f,37*181652ef
#BESTPOSA,FILE,0,33.5,FINESTEERING,2319,303967.950,02000000,cdba,17139;SOL_COMPUTED,NARROW_INT,17.59963612820,78.12303605720,525.7891,-76.2000,WGS84,0.0092,0.0082,0.0238,"0",0.950,0.000,36,33,33,32,00,21,3f,37*18672db5
#BESTPOSA,FILE,0,33.5,FINESTEERING,2319,303968.000,02000000,cdba,17139;SOL_COMPUTED,NARROW_INT,17.59963559427,78.12303489658,525.8059,-76.2000,WGS84,0.0093,0.0082,0.0238,"0",1.000,0.000,37,33,33,32,00,21,3f,37*fbe15255
#BESTPOSA,FILE,0,33.5,FINESTEERING,2319,303968.050,02000000,cdba,17139;SOL_COMPUTED,NARROW_INT,17.59963503808,78.12303379299,525.8205,-76.2000,WGS84,0.0096,0.0087,0.0245,"0",1.050,0.000,37,35,35,34,00,21,3f,37*221fa471
#BESTPOSA,FILE,0,29.5,FINESTEERING,2319,303968.100,02000000,cdba,17139;SOL_COMPUTED,NARROW_INT,17.59963452838,78.12303262086,525.8282,-76.2000,WGS84,0.0097,0.0088,0.0246,"0",1.100,0.000,37,35,35,33,00,21,3f,37*d8865785
#BESTPOSA,FILE,0,29.5,FINESTEERING,2319,303968.150,02000000,cdba,17139;SOL_COMPUTED,NARROW_INT,17.59963400680,78.12303146915,525.8360,-76.2000,WGS84,0.0097,0.0088,0.0246,"0",1.150,0.000,38,35,35,33,00,21,3f,37*a36336ff
#BESTPOSA,FILE,0,29.5,FINESTEERING,2319,303968.200,02000000,cdba,17139;SOL_COMPUTED,NARROW_INT,17.59963345629,78.12303037745,525.8374,-76.2000,WGS84,0.0097,0.0089,0.0247,"0",1.200,0.000,38,34,34,32,00,21,3f,37*567e1cdc
#BESTPOSA,FILE,0,29.5,FINESTEERING,2319,303968.250,02000000,cdba,17139;SOL_COMPUTED,NARROW_INT,17.59963293224,78.12302922922,525.8445,-76.2000,WGS84,0.0097,0.0089,0.0247,"0",1.250,0.000,38,34,34,32,00,21,3f,37*891547e5
#BESTPOSA,FILE,0,29.5,FINESTEERING,2319,303968.300,02000000,cdba,17139;SOL_COMPUTED,NARROW_INT,17.59963237517,78.12302811787,525.8558,-76.2000,WGS84,0.0097,0.0088,0.0247,"0",1.300,0.000,37,34,34,32,00,21,3f,37*7d6fc16f
#BESTPOSA,FILE,0,29.5,FINESTEERING,2319,303968.350,02000000,cdba,17139;SOL_COMPUTED,NARROW_INT,17.59963185467,78.12302696814,525.8577,-76.2000,WGS84,0.0097,0.0089,0.0248,"0",1.350,0.000,37,34,34,32,00,21,3f,37*f9e18248
#BESTPOSA,FILE,0,29.5,FINESTEERING,2319,303968.400,02000000,cdba,17139;SOL_COMPUTED,NARROW_INT,17.59963132342,78.12302584988,525.8455,-76.2000,WGS84,0.0087,0.0078,0.0233,"0",0.400,0.000,37,34,34,32,00,21,3f,37*8aae0118
#BESTPOSA,FILE,0,29.5,FINESTEERING,2319,303968.450,02000000,cdba,17139;SOL_COMPUTED,NARROW_INT,17.59963078822,78.12302466707,525.8542,-76.2000,WGS84,0.0088,0.0078,0.0234,"0",0.450,0.000,37,34,34,32,00,21,3f,37*250a81dc
#BESTPOSA,FILE,0,29.5,FINESTEERING,2319,303968.500,02000000,cdba,17139;SOL_COMPUTED,NARROW_INT,17.59963028311,78.12302347545,525.8722,-76.2000,WGS84,0.0088,0.0078,0.0233,"0",0.500,0.000,37,34,34,32,00,21,3f,37*fbaa2922
#BESTPOSA,FILE,0,29.5,FINESTEERING,2319,303968.550,02000000,cdba,17139;SOL_COMPUTED,NARROW_INT,17.59962981065,78.12302222863,525.8829,-76.2000,WGS84,0.0089,0.0079,0.0235,"0",0.550,0.000,38,34,34,32,00,21,3f,37*c015b6fd
#BESTPOSA,FILE,0,29.5,FINESTEERING,2319,303968.600,02000000,cdba,17139;SOL_COMPUTED,NARROW_INT,17.59962927300,78.12302098219,525.8710,-76.2000,WGS84,0.0091,0.0079,0.0237,"0",0.600,0.000,38,33,33,31,00,21,3f,37*fc27e4ee
#BESTPOSA,FILE,0,29.5,FINESTEERING,2319,303968.650,02000000,cdba,17139;SOL_COMPUTED,NARROW_INT,17.59962883689,78.12301967509,525.8848,-76.2000,WGS84,0.0092,0.0080,0.0238,"0",0.650,0.000,38,33,33,30,00,21,3f,37*739c1b17
#BESTPOSA,FILE,0,29.5,FINESTEERING,2319,303968.700,02000000,cdba,17139;SOL_COMPUTED,NARROW_INT,17.59962842439,78.12301837220,525.8935,-76.2000,WGS84,0.0093,0.0080,0.0238,"0",0.700,0.000,38,33,33,30,00,21,3f,37*0db82051
#BESTPOSA,FILE,0,29.5,FINESTEERING,2319,303968.750,02000000,cdba,17139;SOL_COMPUTED,NARROW_INT,17.59962801394,78.12301702105,525.8934,-76.2000,WGS84,0.0093,0.0081,0.0239,"0",0.750,0.000,38,33,33,31,00,21,3f,37*31390f5f
#BESTPOSA,FILE,0,29.5,FINESTEERING,2319,303968.800,02000000,cdba,17139;SOL_COMPUTED,NARROW_INT,17.59962756531,78.12301565306,525.9056,-76.2000,WGS84,0.0094,0.0081,0.0239,"0",0.800,0.000,38,33,33,31,00,21,3f,37*7277851f
#BESTPOSA,FILE,0,29.5,FINESTEERING,2319,303968.850,02000000,cdba,17139;SOL_COMPUTED,NARROW_INT,17.59962710792,78.12301429820,525.9079,-76.2000,WGS84,0.0094,0.0081,0.0240,"0",0.850,0.000,38,33,33,31,00,21,3f,37*c2afc487
#BESTPOSA,FILE,0,29.5,FINESTEERING,2319,303968.900,02000000,cdba,17139;SOL_COMPUTED,NARROW_INT,17.59962668042,78.12301293348,525.9073,-76.2000,WGS84,0.0095,0.0081,0.0241,"0",0.900,0.000,39,33,33,30,00,21,3f,37*9f5461b6
#BESTPOSA,FILE,0,29.5,FINESTEERING,2319,303968.950,02000000,cdba,17139;SOL_COMPUTED,NARROW_INT,17.59962623756,78.12301152172,525.9291,-76.2000,WGS84,0.0096,0.0082,0.0242,"0",0.950,0.000,37,32,32,30,00,21,3f,37*bb3efc60
#BESTPOSA,FILE,0,29.5,FINESTEERING,2319,303969.000,02000000,cdba,17139;SOL_COMPUTED,NARROW_INT,17.59962577985,78.12301012489,525.9307,-76.2000,WGS84,0.0096,0.0082,0.0242,"0",1.000,0.000,37,31,31,29,00,21,3f,37*be0da456
#BESTPOSA,FILE,0,29.5,FINESTEERING,2319,303969.050,02000000,cdba,17139;SOL_COMPUTED,NARROW_INT,17.59962530368,78.12300872537,525.9350,-76.2000,WGS84,0.0102,0.0087,0.0249,"0",1.050,0.000,36,35,35,33,00,21,3f,37*037ed798
#BESTPOSA,FILE,0,28.5,FINESTEERING,2319,303969.100,02000000,cdba,17139;SOL_COMPUTED,NARROW_INT,17.59962485995,78.12300726537,525.9398,-76.2000,WGS84,0.0102,0.0087,0.0250,"0",1.100,0.000,35,33,33,32,00,21,3f,37*600b9602
#BESTPOSA,FILE,0,28.5,FINESTEERING,2319,303969.150,02000000,cdba,17139;SOL_COMPUTED,NARROW_INT,17.59962442578,78.12300575420,525.9520,-76.2000,WGS84,0.0103,0.0087,0.0251,"0",1.150,0.000,38,33,33,31,00,21,3f,37*04e92c65
#BESTPOSA,FILE,0,28.5,FINESTEERING,2319,303969.200,02000000,cdba,17139;SOL_COMPUTED,NARROW_INT,17.59962404274,78.12300423203,525.9554,-76.2000,WGS84,0.0103,0.0088,0.0252,"0",1.200,0.000,39,33,33,31,00,21,3f,37*465ac1ff
#BESTPOSA,FILE,0,28.5,FINESTEERING,2319,303969.250,02000000,cdba,17139;SOL_COMPUTED,NARROW_INT,17.59962363666,78.12300269532,525.9572,-76.2000,WGS84,0.0104,0.0088,0.0253,"0",1.250,0.000,39,33,33,30,00,21,3f,37*8eb58db5
#BESTPOSA,FILE,0,28.5,FINESTEERING,2319,303969.300,02000000,cdba,17139;SOL_COMPUTED,NARROW_INT,17.59962327266,78.12300113838,525.9547,-76.2000,WGS84,0.0104,0.0088,0.0253,"0",1.300,0.000,36,32,32,29,00,21,3f,37*b659f8e6
#BESTPOSA,FILE,0,28.5,FINESTEERING,2319,303969.350,02000000,cdba,17139;SOL_COMPUTED,NARROW_INT,17.59962288161,78.12299953353,525.9738,-76.2000,WGS84,0.0105,0.0089,0.0255,"0",1.350,0.000,36,31,31,28,00,21,3f,37*65ae1b5e
#BESTPOSA,FILE,0,28.5,FINESTEERING,2319,303969.400,02000000,cdba,17139;SOL_COMPUTED,NARROW_INT,17.59962256046,78.12299793670,525.9825,-76.2000,WGS84,0.0106,0.0089,0.0255,"0",1.400,0.000,36,30,30,28,00,21,3f,37*7412ebad
#BESTPOSA,FILE,0,28.5,FINESTEERING,2319,303969.450,02000000,cdba,17139;SOL_COMPUTED,NARROW_INT,17.59962229669,78.12299634441,525.9877,-76.2000,WGS84,0.0106,0.0089,0.0256,"0",1.450,0.000,37,31,31,29,00,21,3f,37*5919667f
#BESTPOSA,FILE,0,28.5,FINESTEERING,2319,303969.500,02000000,cdba,17139;SOL_COMPUTED,NARROW_INT,17.59962200085,78.12299473563,525.9965,-76.2000,WGS84,0.0107,0.0089,0.0256,"0",1.500,0.000,38,30,30,28,00,21,3f,37*3400c660
#BESTPOSA,FILE,0,28.5,FINESTEERING,2319,303969.550,02000000,cdba,17139;SOL_COMPUTED,NARROW_INT,17.59962167381,78.12299312541,526.0084,-76.2000,WGS84,0.0107,0.0090,0.0257,"0",1.550,0.000,36,30,30,28,00,21,3f,37*2a18e89c
#BESTPOSA,FILE,0,28.5,FINESTEERING,2319,303969.600,02000000,cdba,17139;SOL_COMPUTED,NARROW_INT,17.59962122574,78.12299153265,526.0021,-76.2000,WGS84,0.0114,0.0090,0.0258,"0",1.600,0.000,36,30,30,28,00,21,3f,37*c177980c
#BESTPOSA,FILE,0,28.5,FINESTEERING,2319,303969.650,02000000,cdba,17139;SOL_COMPUTED,NARROW_INT,17.59962090748,78.12298986755,526.0044,-76.2000,WGS84,0.0115,0.0091,0.0259,"0",1.650,0.000,34,28,28,27,00,21,3f,37*d8bea5bc
#BESTPOSA,FILE,0,28.5,FINESTEERING,2319,303969.700,02000000,cdba,17139;SOL_COMPUTED,NARROW_INT,17.59962050845,78.12298821393,526.0110,-76.2000,WGS84,0.0116,0.0091,0.0259,"0",1.700,0.000,33,28,28,27,00,21,3f,37*9a1c0904
#BESTPOSA,FILE,0,28.5,FINESTEERING,2319,303969.750,02000000,cdba,17139;SOL_COMPUTED,NARROW_INT,17.59962013763,78.12298653472,526.0147,-76.2000,WGS84,0.0117,0.0091,0.0260,"0",1.750,0.000,33,28,28,27,00,21,3f,37*1ac5e23e
#BESTPOSA,FILE,0,28.5,FINESTEERING,2319,303969.800,02000000,cdba,17139;SOL_COMPUTED,NARROW_INT,17.59961978919,78.12298482682,526.0180,-76.2000,WGS84,0.0118,0.0091,0.0260,"0",1.800,0.000,33,28,28,27,00,21,3f,37*5cfa4a0f
#BESTPOSA,FILE,0,28.5,FINESTEERING,2319,303969.850,02000000,cdba,17139;SOL_COMPUTED,NARROW_INT,17.59961947604,78.12298307172,526.0232,-76.2000,WGS84,0.0118,0.0091,0.0261,"0",1.850,0.000,33,29,29,28,00,21,3f,37*2af46dd2
#BESTPOSA,FILE,0,28.5,FINESTEERING,2319,303969.900,02000000,cdba,17139;SOL_COMPUTED,NARROW_INT,17.59961915108,78.12298127859,526.0180,-76.2000,WGS84,0.0118,0.0091,0.0261,"0",1.900,0.000,33,30,30,29,00,21,3f,37*2a293897
#BESTPOSA,FILE,0,28.5,FINESTEERING,2319,303969.950,02000000,cdba,17139;SOL_COMPUTED,NARROW_INT,17.59961885700,78.12297945026,526.0144,-76.2000,WGS84,0.0119,0.0091,0.0262,"0",1.950,0.000,33,30,30,29,00,21,3f,37*d479e926
#BESTPOSA,FILE,0,28.5,FINESTEERING,2319,303970.000,02000000,cdba,17139;SOL_COMPUTED,NARROW_INT,17.59961855510,78.12297763675,526.0203,-76.2000,WGS84,0.0120,0.0091,0.0262,"0",2.000,0.000,33,29,29,28,00,21,3f,37*a9727d7b
#BESTPOSA,FILE,0,28.5,FINESTEERING,2319,303970.050,02000000,cdba,17139;SOL_COMPUTED,NARROW_INT,17.59961839055,78.12297581286,526.0208,-76.2000,WGS84,0.0128,0.0095,0.0269,"0",2.050,0.000,32,31,31,30,00,21,3f,37*edc06ebc
#BESTPOSA,FILE,0,28.5,FINESTEERING,2319,303970.100,02000000,cdba,17139;SOL_COMPUTED,NARROW_INT,17.59961822577,78.12297397399,526.0292,-76.2000,WGS84,0.0129,0.0095,0.0269,"0",2.100,0.000,32,31,31,30,00,21,3f,37*ba4ca9c1
#BESTPOSA,FILE,0,31.5,FINESTEERING,2319,303970.150,02000000,cdba,17139;SOL_COMPUTED,NARROW_INT,17.59961808000,78.12297210388,526.0362,-76.2000,WGS84,0.0130,0.0096,0.0270,"0",2.150,0.000,32,32,32,30,00,21,3f,37*4ff1026b
#BESTPOSA,FILE,0,31.5,FINESTEERING,2319,303970.200,02000000,cdba,17139;SOL_COMPUTED,NARROW_INT,17.59961793506,78.12297019462,526.0433,-76.2000,WGS84,0.0131,0.0096,0.0271,"0",2.200,0.000,31,31,31,30,00,21,3f,37*f18c9f6b
#BESTPOSA,FILE,0,31.5,FINESTEERING,2319,303970.250,02000000,cdba,17139;SOL_COMPUTED,NARROW_INT,17.59961776095,78.12296828794,526.0533,-76.2000,WGS84,0.0131,0.0096,0.0271,"0",2.250,0.000,31,31,31,30,00,21,3f,37*766b354a
#BESTPOSA,FILE,0,31.5,FINESTEERING,2319,303970.300,02000000,cdba,17139;SOL_COMPUTED,NARROW_INT,17.59961758095,78.12296640687,526.0571,-76.2000,WGS84,0.0132,0.0097,0.0272,"0",2.300,0.000,31,31,31,30,00,21,3f,37*8f1d4ad2
#BESTPOSA,FILE,0,31.5,FINESTEERING,2319,303970.350,02000000,cdba,17139;SOL_COMPUTED,NARROW_INT,17.59961737509,78.12296452432,526.0654,-76.2000,WGS84,0.0134,0.0097,0.0272,"0",2.350,0.000,31,31,31,30,00,21,3f,37*387d7c57
#BESTPOSA,FILE,0,31.5,FINESTEERING,2319,303970.400,02000000,cdba,17139;SOL_COMPUTED,NARROW_INT,17.59961713657,78.12296262848,526.0668,-76.2000,WGS84,0.0134,0.0097,0.0273,"0",2.400,0.000,30,30,30,29,00,21,3f,37*fcc75c68
#BESTPOSA,FILE,0,31.5,FINESTEERING,2319,303970.450,02000000,cdba,17139;SOL_COMPUTED,NARROW_INT,17.59961685813,78.12296071133,526.0664,-76.2000,WGS84,0.0135,0.0097,0.0273,"0",2.450,0.000,30,30,30,29,00,21,3f,37*571ecaef
#BESTPOSA,FILE,0,31.5,FINESTEERING,2319,303970.500,02000000,cdba,17139;SOL_COMPUTED,NARROW_INT,17.59961656212,78.12295879882,526.0577,-76.2000,WGS84,0.0135,0.0097,0.0274,"0",2.500,0.000,31,30,30,29,00,21,3f,37*c8956faf
#BESTPOSA,FILE,0,31.5,FINESTEERING,2319,303970.550,02000000,cdba,17139;SOL_COMPUTED,NARROW_INT,17.59961630456,78.12295687396,526.0533,-76.2000,WGS84,0.0136,0.0097,0.0274,"0",2.550,0.000,32,30,30,29,00,21,3f,37*8755de2a
#BESTPOSA,FILE,0,31.5,FINESTEERING,2319,303970.600,02000000,cdba,17139;SOL_COMPUTED,NARROW_INT,17.59961599297,78.12295492012,526.0394,-76.2000,WGS84,0.0137,0.0098,0.0274,"0",2.600,0.000,32,30,30,29,00,21,3f,37*d025d83d
#BESTPOSA,FILE,0,31.5,FINESTEERING,2319,303970.650,02000000,cdba,17139;SOL_COMPUTED,NARROW_INT,17.59961581409,78.12295290147,526.0306,-76.2000,WGS84,0.0137,0.0098,0.0275,"0",2.650,0.000,31,30,30,29,00,21,3f,37*c6c7eb17
#BESTPOSA,FILE,0,31.5,FINESTEERING,2319,303970.700,02000000,cdba,17139;SOL_COMPUTED,NARROW_INT,17.59961567096,78.12295088003,526.0216,-76.2000,WGS84,0.0138,0.0098,0.0275,"0",2.700,0.000,31,30,30,29,00,21,3f,37*b407e749
#BESTPOSA,FILE,0,31.5,FINESTEERING,2319,303970.750,02000000,cdba,17139;SOL_COMPUTED,NARROW_INT,17.59961557072,78.12294882422,526.0253,-76.2000,WGS84,0.0138,0.0098,0.0276,"0",2.750,0.000,31,30,30,29,00,21,3f,37*95cc3463
#BESTPOSA,FILE,0,31.5,FINESTEERING,2319,303970.800,02000000,cdba,17139;SOL_COMPUTED,NARROW_INT,17.59961553557,78.12294673765,526.0293,-76.2000,WGS84,0.0139,0.0098,0.0276,"0",2.800,0.000,31,30,30,29,00,21,3f,37*09597152
#BESTPOSA,FILE,0,31.5,FINESTEERING,2319,303970.850,02000000,cdba,17139;SOL_COMPUTED,NARROW_INT,17.59961543460,78.12294464775,526.0326,-76.2000,WGS84,0.0140,0.0098,0.0277,"0",2.850,0.000,31,30,30,29,00,21,3f,37*ca0c5848
#BESTPOSA,FILE,0,31.5,FINESTEERING,2319,303970.900,02000000,cdba,17139;SOL_COMPUTED,NARROW_INT,17.59961535784,78.12294258416,526.0410,-76.2000,WGS84,0.0140,0.0099,0.0277,"0",2.900,0.000,31,30,30,29,00,21,3f,37*43bc4475
#BESTPOSA,FILE,0,31.5,FINESTEERING,2319,303970.950,02000000,cdba,17139;SOL_COMPUTED,NARROW_INT,17.59961525777,78.12294050739,526.0490,-76.2000,WGS84,0.0141,0.0099,0.0277,"0",2.950,0.000,31,30,30,29,00,21,3f,37*71730ff9
#BESTPOSA,FILE,0,31.5,FINESTEERING,2319,303971.000,02000000,cdba,17139;SOL_COMPUTED,NARROW_INT,17.59961513796,78.12293839684,526.0450,-76.2000,WGS84,0.0141,0.0099,0.0278,"0",3.000,0.000,31,30,30,29,00,21,3f,37*ee5ed947
#BESTPOSA,FILE,0,31.5,FINESTEERING,2319,303971.050,02000000,cdba,17139;SOL_COMPUTED,NARROW_INT,17.59961496664,78.12293633429,526.0452,-76.2000,WGS84,0.0150,0.0102,0.0283,"0",3.050,0.000,31,31,31,30,00,21,3f,37*fe9812d4
#BESTPOSA,FILE,0,31.5,FINESTEERING,2319,303971.100,02000000,cdba,17139;SOL_COMPUTED,NARROW_INT,17.59961484345,78.12293423801,526.0385,-76.2000,WGS84,0.0150,0.0102,0.0284,"0",3.100,0.000,31,31,31,30,00,21,3f,37*94f72cf8
#BESTPOSA,FILE,0,36.5,FINESTEERING,2319,303971.150,02000000,cdba,17139;SOL_COMPUTED,NARROW_INT,17.59961465336,78.12293213733,526.0308,-76.2000,WGS84,0.0151,0.0102,0.0284,"0",3.150,0.000,31,31,31,30,00,21,3f,37*275de834
#BESTPOSA,FILE,0,36.5,FINESTEERING,2319,303971.200,02000000,cdba,17139;SOL_COMPUTED,NARROW_INT,17.59961445993,78.12293003602,526.0223,-76.2000,WGS84,0.0151,0.0103,0.0285,"0",3.200,0.000,31,31,31,30,00,21,3f,37*76bec240
#BESTPOSA,FILE,0,36.5,FINESTEERING,2319,303971.250,02000000,cdba,17139;SOL_COMPUTED,NARROW_INT,17.59961427818,78.12292786266,526.0099,-76.2000,WGS84,0.0152,0.0103,0.0285,"0",3.250,0.000,31,31,31,30,00,21,3f,37*a3a7d1f4
#BESTPOSA,FILE,0,36.5,FINESTEERING,2319,303971.300,02000000,cdba,17139;SOL_COMPUTED,NARROW_INT,17.59961417993,78.12292569136,526.0105,-76.2000,WGS84,0.0153,0.0103,0.0286,"0",3.300,0.000,31,31,31,30,00,21,3f,37*5f6dbb69
#BESTPOSA,FILE,0,36.5,FINESTEERING,2319,303971.350,02000000,cdba,17139;SOL_COMPUTED,NARROW_INT,17.59961402049,78.12292348078,526.0045,-76.2000,WGS84,0.0153,0.0103,0.0286,"0",3.350,0.000,31,31,31,30,00,21,3f,37*17abbe33
#BESTPOSA,FILE,0,36.5,FINESTEERING,2319,303971.400,02000000,cdba,17139;SOL_COMPUTED,NARROW_INT,17.59961395341,78.12292119918,526.0082,-76.2000,WGS84,0.0154,0.0104,0.0287,"0",3.400,0.000,31,31,31,30,00,21,3f,37*58fd321b
#BESTPOSA,FILE,0,36.5,FINESTEERING,2319,303971.450,02000000,cdba,17139;SOL_COMPUTED,NARROW_INT,17.59961384206,78.12291891964,526.0230,-76.2000,WGS84,0.0154,0.0104,0.0287,"0",3.450,0.000,31,31,31,30,00,21,3f,37*2e340338
#BESTPOSA,FILE,0,36.5,FINESTEERING,2319,303971.500,02000000,cdba,17139;SOL_COMPUTED,NARROW_INT,17.59961375799,78.12291659987,526.0284,-76.2000,WGS84,0.0155,0.0104,0.0288,"0",3.500,0.000,31,31,31,30,00,21,3f,37*4ce69c7f
#BESTPOSA,FILE,0,36.5,FINESTEERING,2319,303971.550,02000000,cdba,17139;SOL_COMPUTED,NARROW_INT,17.59961364991,78.12291431807,526.0322,-76.2000,WGS84,0.0156,0.0104,0.0288,"0",3.550,0.000,31,31,31,30,00,21,3f,37*3ec698d6
#BESTPOSA,FILE,0,36.5,FINESTEERING,2319,303971.600,02000000,cdba,17139;SOL_COMPUTED,NARROW_INT,17.59961357737,78.12291203126,526.0364,-76.2000,WGS84,0.0157,0.0104,0.0289,"0",3.600,0.000,31,31,31,30,00,21,3f,37*2ebbeb63
#BESTPOSA,FILE,0,36.5,FINESTEERING,2319,303971.650,02000000,cdba,17139;SOL_COMPUTED,NARROW_INT,17.59961347366,78.12290972335,526.0371,-76.2000,WGS84,0.0157,0.0105,0.0289,"0",3.650,0.000,31,31,31,30,00,21,3f,37*cac0f30e
#BESTPOSA,FILE,0,36.5,FINESTEERING,2319,303971.700,02000000,cdba,17139;SOL_COMPUTED,NARROW_INT,17.59961339092,78.12290742664,526.0392,-76.2000,WGS84,0.0158,0.0105,0.0290,"0",3.700,0.000,31,31,31,30,00,21,3f,37*09af6f48
#BESTPOSA,FILE,0,36.5,FINESTEERING,2319,303971.750,02000000,cdba,17139;SOL_COMPUTED,NARROW_INT,17.59961327919,78.12290513772,526.0377,-76.2000,WGS84,0.0158,0.0105,0.0290,"0",3.750,0.000,31,31,31,30,00,21,3f,37*2ef19eab
#BESTPOSA,FILE,0,36.5,FINESTEERING,2319,303971.800,02000000,cdba,17139;SOL_COMPUTED,NARROW_INT,17.59961313641,78.12290282341,526.0324,-76.2000,WGS84,0.0158,0.0105,0.0291,"0",3.800,0.000,31,31,31,30,00,21,3f,37*6f2146b7
#BESTPOSA,FILE,0,36.5,FINESTEERING,2319,303971.850,02000000,cdba,17139;SOL_COMPUTED,NARROW_INT,17.59961304378,78.12290052851,526.0274,-76.2000,WGS84,0.0159,0.0105,0.0291,"0",3.850,0.000,31,31,31,30,00,21,3f,37*f593a9a3
#BESTPOSA,FILE,0,36.5,FINESTEERING,2319,303971.900,02000000,cdba,17139;SOL_COMPUTED,NARROW_INT,17.59961298562,78.12289821693,526.0248,-76.2000,WGS84,0.0159,0.0106,0.0292,"0",3.900,0.000,31,31,31,30,00,21,3f,37*79814d14
#BESTPOSA,FILE,0,36.5,FINESTEERING,2319,303971.950,02000000,cdba,17139;SOL_COMPUTED,NARROW_INT,17.59961293646,78.12289586726,526.0244,-76.2000,WGS84,0.0159,0.0106,0.0292,"0",3.950,0.000,31,31,31,30,00,21,3f,37*f2c6d57c
#BESTPOSA,FILE,0,36.5,FINESTEERING,2319,303972.000,02000000,cdba,17139;SOL_COMPUTED,NARROW_INT,17.59961288984,78.12289349438,526.0260,-76.2000,WGS84,0.0159,0.0106,0.0292,"0",4.000,0.000,31,31,31,30,00,21,3f,37*53a81450
#BESTPOSA,FILE,0,36.5,FINESTEERING,2319,303972.050,02000000,cdba,17139;SOL_COMPUTED,NARROW_INT,17.59961284341,78.12289112300,526.0323,-76.2000,WGS84,0.0167,0.0109,0.0298,"0",4.050,0.000,31,31,31,30,00,21,3f,37*b1702577
#BESTPOSA,FILE,0,36.5,FINESTEERING,2319,303972.100,02000000,cdba,17139;SOL_COMPUTED,NARROW_INT,17.59961274918,78.12288872673,526.0337,-76.2000,WGS84,0.0168,0.0109,0.0299,"0",4.100,0.000,31,31,31,30,00,21,3f,37*77ca13b9
#BESTPOSA,FILE,0,42.0,FINESTEERING,2319,303972.150,02000000,cdba,17139;SOL_COMPUTED,NARROW_INT,17.59961271198,78.12288635781,526.0314,-76.2000,WGS84,0.0168,0.0109,0.0299,"0",4.150,0.000,31,31,31,30,00,21,3f,37*8993ab12
#BESTPOSA,FILE,0,42.0,FINESTEERING,2319,303972.200,02000000,cdba,17139;SOL_COMPUTED,NARROW_INT,17.59961262054,78.12288398574,526.0311,-76.2000,WGS84,0.0169,0.0110,0.0300,"0",4.200,0.000,31,31,31,30,00,21,3f,37*3ee2d70d
#BESTPOSA,FILE,0,42.0,FINESTEERING,2319,303972.250,02000000,cdba,17139;SOL_COMPUTED,NARROW_INT,17.59961254049,78.12288159176,526.0295,-76.2000,WGS84,0.0169,0.0110,0.0300,"0",4.250,0.000,31,31,31,30,00,21,3f,37*c05ba54a
#BESTPOSA,FILE,0,42.0,FINESTEERING,2319,303972.300,02000000,cdba,17139;SOL_COMPUTED,NARROW_INT,17.59961240431,78.12287922579,526.0279,-76.2000,WGS84,0.0170,0.0110,0.0301,"0",4.300,0.000,31,31,31,30,00,21,3f,37*b5a9de4b
#BESTPOSA,FILE,0,42.0,FINESTEERING,2319,303972.350,02000000,cdba,17139;SOL_COMPUTED,NARROW_INT,17.59961234944,78.12287681284,526.0312,-76.2000,WGS84,0.0170,0.0110,0.0301,"0",4.350,0.000,31,31,31,30,00,21,3f,37*1e518a78
#BESTPOSA,FILE,0,42.0,FINESTEERING,2319,303972.400,02000000,cdba,17139;SOL_COMPUTED,NARROW_INT,17.59961216811,78.12287440332,526.0311,-76.2000,WGS84,0.0171,0.0110,0.0301,"0",4.400,0.000,31,31,31,30,00,21,3f,37*2926f907
#BESTPOSA,FILE,0,42.0,FINESTEERING,2319,303972.450,02000000,cdba,17139;SOL_COMPUTED,NARROW_INT,17.59961206192,78.12287202812,526.0272,-76.2000,WGS84,0.0171,0.0110,0.0302,"0",4.450,0.000,31,31,31,30,00,21,3f,37*6c32a3cb
#BESTPOSA,FILE,0,42.0,FINESTEERING,2319,303972.500,02000000,cdba,17139;SOL_COMPUTED,NARROW_INT,17.59961195555,78.12286961197,526.0235,-76.2000,WGS84,0.0172,0.0111,0.0302,"0",4.500,0.000,31,31,31,30,00,21,3f,37*af8a9f54
#BESTPOSA,FILE,0,42.0,FINESTEERING,2319,303972.550,02000000,cdba,17139;SOL_COMPUTED,NARROW_INT,17.59961189262,78.12286717780,526.0215,-76.2000,WGS84,0.0172,0.0111,0.0303,"0",4.550,0.000,31,31,31,30,00,21,3f,37*eefceec1
#BESTPOSA,FILE,0,42.0,FINESTEERING,2319,303972.600,02000000,cdba,17139;SOL_COMPUTED,NARROW_INT,17.59961176481,78.12286473559,526.0180,-76.2000,WGS84,0.0172,0.0111,0.0303,"0",4.600,0.000,31,31,31,30,00,21,3f,37*2c6a2391
#BESTPOSA,FILE,0,42.0,FINESTEERING,2319,303972.650,02000000,cdba,17139;SOL_COMPUTED,NARROW_INT,17.59961169379,78.12286230585,526.0146,-76.2000,WGS84,0.0173,0.0111,0.0303,"0",4.650,0.000,31,31,31,30,00,21,3f,37*88d6fec3
#BESTPOSA,FILE,0,42.0,FINESTEERING,2319,303972.700,02000000,cdba,17139;SOL_COMPUTED,NARROW_INT,17.59961160013,78.12285986977,526.0154,-76.2000,WGS84,0.0173,0.0111,0.0304,"0",4.700,0.000,32,31,31,30,00,21,3f,37*dbaec8d7
#BESTPOSA,FILE,0,42.0,FINESTEERING,2319,303972.750,02000000,cdba,17139;SOL_COMPUTED,NARROW_INT,17.59961143994,78.12285740449,526.0138,-76.2000,WGS84,0.0173,0.0111,0.0304,"0",4.750,0.000,32,31,31,30,00,21,3f,37*b7c233fd
#BESTPOSA,FILE,0,42.0,FINESTEERING,2319,303972.800,02000000,cdba,17139;SOL_COMPUTED,NARROW_INT,17.59961134238,78.12285493995,526.0143,-76.2000,WGS84,0.0174,0.0112,0.0305,"0",4.800,0.000,32,31,31,30,00,21,3f,37*e3300e1e
#BESTPOSA,FILE,0,42.0,FINESTEERING,2319,303972.850,02000000,cdba,17139;SOL_COMPUTED,NARROW_INT,17.59961117595,78.12285247620,526.0114,-76.2000,WGS84,0.0174,0.0112,0.0305,"0",4.850,0.000,32,31,31,30,00,21,3f,37*fe643a1e
#BESTPOSA,FILE,0,42.0,FINESTEERING,2319,303972.900,02000000,cdba,17139;SOL_COMPUTED,NARROW_INT,17.59961103694,78.12285001603,526.0053,-76.2000,WGS84,0.0175,0.0112,0.0306,"0",4.900,0.000,32,31,31,30,00,21,3f,37*66a5f1f2
#BESTPOSA,FILE,0,42.0,FINESTEERING,2319,303972.950,02000000,cdba,17139;SOL_COMPUTED,NARROW_INT,17.59961090062,78.12284753810,526.0063,-76.2000,WGS84,0.0176,0.0112,0.0306,"0",4.950,0.000,32,31,31,30,00,21,3f,37*441d87d6
#BESTPOSA,FILE,0,42.0,FINESTEERING,2319,303973.000,02000000,cdba,17139;SOL_COMPUTED,NARROW_INT,17.59961073768,78.12284507022,525.9985,-76.2000,WGS84,0.0176,0.0112,0.0307,"0",5.000,0.000,32,31,31,30,00,21,3f,37*6e83a15c
#BESTPOSA,FILE,0,42.0,FINESTEERING,2319,303973.050,02000000,cdba,17139;SOL_COMPUTED,NARROW_INT,17.59961055287,78.12284261107,525.9960,-76.2000,WGS84,0.0183,0.0115,0.0312,"0",5.050,0.000,32,32,32,31,00,21,3f,37*3e6474db
#BESTPOSA,FILE,0,41.5,FINESTEERING,2319,303973.100,02000000,cdba,17139;SOL_COMPUTED,NARROW_INT,17.59961038765,78.12284013404,525.9866,-76.2000,WGS84,0.0183,0.0115,0.0312,"0",5.100,0.000,32,32,32,31,00,21,3f,37*14baf86d
#BESTPOSA,FILE,0,41.5,FINESTEERING,2319,303973.150,02000000,cdba,17139;SOL_COMPUTED,NARROW_INT,17.59961019234,78.12283766791,525.9834,-76.2000,WGS84,0.0183,0.0115,0.0312,"0",5.150,0.000,32,32,32,31,00,21,3f,37*e0c83e1f
#BESTPOSA,FILE,0,41.5,FINESTEERING,2319,303973.200,02000000,cdba,17139;SOL_COMPUTED,NARROW_INT,17.59960999256,78.12283518157,525.9852,-76.2000,WGS84,0.0184,0.0115,0.0313,"0",5.200,0.000,32,32,32,31,00,21,3f,37*6c4f7644
#BESTPOSA,FILE,0,41.5,FINESTEERING,2319,303973.250,02000000,cdba,17139;SOL_COMPUTED,NARROW_INT,17.59960979691,78.12283270613,525.9814,-76.2000,WGS84,0.0184,0.0115,0.0313,"0",5.250,0.000,34,32,32,31,00,21,3f,37*91cea1ca
#BESTPOSA,FILE,0,41.5,FINESTEERING,2319,303973.300,02000000,cdba,17139;SOL_COMPUTED,NARROW_INT,17.59960952343,78.12283023118,525.9777,-76.2000,WGS84,0.0184,0.0115,0.0314,"0",5.300,0.000,34,32,32,31,00,21,3f,37*f420b9d0
#BESTPOSA,FILE,0,41.5,FINESTEERING,2319,303973.350,02000000,cdba,17139;SOL_COMPUTED,NARROW_INT,17.59960929258,78.12282774852,525.9706,-76.2000,WGS84,0.0184,0.0116,0.0314,"0",5.350,0.000,34,32,32,31,00,21,3f,37*c3159a6b
#BESTPOSA,FILE,0,41.5,FINESTEERING,2319,303973.400,02000000,cdba,17139;SOL_COMPUTED,NARROW_INT,17.59960900337,78.12282525101,525.9660,-76.2000,WGS84,0.0185,0.0116,0.0314,"0",5.400,0.000,34,32,32,31,00,21,3f,37*59738c74
#BESTPOSA,FILE,0,41.5,FINESTEERING,2319,303973.450,02000000,cdba,17139;SOL_COMPUTED,NARROW_INT,17.59960874677,78.12282275700,525.9629,-76.2000,WGS84,0.0185,0.0116,0.0315,"0",5.450,0.000,34,32,32,31,00,21,3f,37*a8454bea
#BESTPOSA,FILE,0,41.5,FINESTEERING,2319,303973.500,02000000,cdba,17139;SOL_COMPUTED,NARROW_INT,17.59960846410,78.12282027459,525.9613,-76.2000,WGS84,0.0185,0.0116,0.0315,"0",5.500,0.000,34,32,32,31,00,21,3f,37*7c7e35c2
#BESTPOSA,FILE,0,41.5,FINESTEERING,2319,303973.550,02000000,cdba,17139;SOL_COMPUTED,NARROW_INT,17.59960811549,78.12281778925,525.9576,-76.2000,WGS84,0.0185,0.0116,0.0315,"0",5.550,0.000,34,32,32,31,00,21,3f,37*2bd608d8
#BESTPOSA,FILE,0,41.5,FINESTEERING,2319,303973.600,02000000,cdba,17139;SOL_COMPUTED,NARROW_INT,17.59960775691,78.12281529918,525.9535,-76.2000,WGS84,0.0185,0.0116,0.0316,"0",5.600,0.000,34,32,32,31,00,21,3f,37*16fa0ea0
#BESTPOSA,FILE,0,41.5,FINESTEERING,2319,303973.650,02000000,cdba,17139;SOL_COMPUTED,NARROW_INT,17.59960736547,78.12281281382,525.9558,-76.2000,WGS84,0.0185,0.0116,0.0316,"0",5.650,0.000,34,32,32,31,00,21,3f,37*1b2049d0
#BESTPOSA,FILE,0,41.5,FINESTEERING,2319,303973.700,02000000,cdba,17139;SOL_COMPUTED,NARROW_INT,17.59960693014,78.12281035333,525.9513,-76.2000,WGS84,0.0186,0.0117,0.0316,"0",5.700,0.000,34,32,32,31,00,21,3f,37*7c6793c6
#BESTPOSA,FILE,0,41.5,FINESTEERING,2319,303973.750,02000000,cdba,17139;SOL_COMPUTED,NARROW_INT,17.59960646442,78.12280791313,525.9467,-76.2000,WGS84,0.0186,0.0117,0.0317,"0",5.750,0.000,34,32,32,31,00,21,3f,37*7e005766
#BESTPOSA,FILE,0,41.5,FINESTEERING,2319,303973.800,02000000,cdba,17139;SOL_COMPUTED,NARROW_INT,17.59960597545,78.12280548029,525.9378,-76.2000,WGS84,0.0186,0.0117,0.0317,"0",5.800,0.000,34,32,32,31,00,21,3f,37*041a913b
#BESTPOSA,FILE,0,41.5,FINESTEERING,2319,303973.850,02000000,cdba,17139;SOL_COMPUTED,NARROW_INT,17.59960545470,78.12280309000,525.9313,-76.2000,WGS84,0.0186,0.0117,0.0317,"0",5.850,0.000,34,32,32,31,00,21,3f,37*b460e1d5
#BESTPOSA,FILE,0,41.5,FINESTEERING,2319,303973.900,02000000,cdba,17139;SOL_COMPUTED,NARROW_INT,17.59960495020,78.12280068521,525.9273,-76.2000,WGS84,0.0186,0.0117,0.0318,"0",5.900,0.000,34,32,32,31,00,21,3f,37*437900cc
#BESTPOSA,FILE,0,41.5,FINESTEERING,2319,303973.950,02000000,cdba,17139;SOL_COMPUTED,NARROW_INT,17.59960441757,78.12279827275,525.9248,-76.2000,WGS84,0.0186,0.0117,0.0318,"0",5.950,0.000,34,32,32,31,00,21,3f,37*6efd921f
#BESTPOSA,FILE,0,41.5,FINESTEERING,2319,303974.000,02000000,cdba,17139;SOL_COMPUTED,NARROW_INT,17.59960386896,78.12279586958,525.9245,-76.2000,WGS84,0.0186,0.0117,0.0318,"0",6.000,0.000,34,32,32,31,00,21,3f,37*296def76
#BESTPOSA,FILE,0,41.5,FINESTEERING,2319,303974.050,02000000,cdba,17139;SOL_COMPUTED,NARROW_INT,17.59960325455,78.12279347541,525.9212,-76.2000,WGS84,0.0191,0.0119,0.0322,"0",6.050,0.000,34,34,34,33,00,21,3f,37*3fffeb8c
#BESTPOSA,FILE,0,40.0,FINESTEERING,2319,303974.100,02000000,cdba,17139;SOL_COMPUTED,NARROW_INT,17.59960257860,78.12279108438,525.9160,-76.2000,WGS84,0.0191,0.0119,0.0323,"0",6.100,0.000,34,34,34,33,00,21,3f,37*fccde7e9
#BESTPOSA,FILE,0,40.0,FINESTEERING,2319,303974.150,02000000,cdba,17139;SOL_COMPUTED,NARROW_INT,17.59960191113,78.12278872849,525.9078,-76.2000,WGS84,0.0191,0.0120,0.0323,"0",6.150,0.000,34,34,34,33,00,21,3f,37*3c81be43
#BESTPOSA,FILE,0,40.0,FINESTEERING,2319,303974.200,02000000,cdba,17139;SOL_COMPUTED,NARROW_INT,17.59960124375,78.12278638573,525.9036,-76.2000,WGS84,0.0192,0.0120,0.0323,"0",6.200,0.000,34,34,34,33,00,21,3f,37*81726b5c
#BESTPOSA,FILE,0,40.0,FINESTEERING,2319,303974.250,02000000,cdba,17139;SOL_COMPUTED,NARROW_INT,17.59960054796,78.12278404552,525.8976,-76.2000,WGS84,0.0192,0.0120,0.0324,"0",6.250,0.000,34,34,34,33,00,21,3f,37*2407e1e0
#BESTPOSA,FILE,0,40.0,FINESTEERING,2319,303974.300,02000000,cdba,17139;SOL_COMPUTED,NARROW_INT,17.59959982295,78.12278169587,525.9001,-76.2000,WGS84,0.0192,0.0120,0.0324,"0",6.300,0.000,35,34,34,33,00,21,3f,37*49f55ce8
#BESTPOSA,FILE,0,40.0,FINESTEERING,2319,303974.350,02000000,cdba,17139;SOL_COMPUTED,NARROW_INT,17.59959902809,78.12277935108,525.9034,-76.2000,WGS84,0.0192,0.0120,0.0325,"0",6.350,0.000,35,34,34,33,00,21,3f,37*fb3660b3
#BESTPOSA,FILE,0,40.0,FINESTEERING,2319,303974.400,02000000,cdba,17139;SOL_COMPUTED,NARROW_INT,17.59959817284,78.12277704407,525.9096,-76.2000,WGS84,0.0192,0.0120,0.0325,"0",6.400,0.000,35,34,34,33,00,21,3f,37*c578e7f3
#BESTPOSA,FILE,0,40.0,FINESTEERING,2319,303974.450,02000000,cdba,17139;SOL_COMPUTED,NARROW_INT,17.59959731006,78.12277476537,525.9096,-76.2000,WGS84,0.0193,0.0121,0.0325,"0",6.450,0.000,35,34,34,33,00,21,3f,37*6f745263
#BESTPOSA,FILE,0,40.0,FINESTEERING,2319,303974.500,02000000,cdba,17139;SOL_COMPUTED,NARROW_INT,17.59959634587,78.12277252711,525.9043,-76.2000,WGS84,0.0193,0.0121,0.0326,"0",6.500,0.000,36,34,34,33,00,21,3f,37*cf9129a8
#BESTPOSA,FILE,0,40.0,FINESTEERING,2319,303974.550,02000000,cdba,17139;SOL_COMPUTED,NARROW_INT,17.59959536563,78.12277031855,525.9023,-76.2000,WGS84,0.0193,0.0121,0.0326,"0",6.550,0.000,36,34,34,33,00,21,3f,37*aa6b887f
#BESTPOSA,FILE,0,40.0,FINESTEERING,2319,303974.600,02000000,cdba,17139;SOL_COMPUTED,NARROW_INT,17.59959436772,78.12276812533,525.8987,-76.2000,WGS84,0.0193,0.0121,0.0326,"0",6.600,0.000,36,34,34,33,00,21,3f,37*5efc22fa
#BESTPOSA,FILE,0,40.0,FINESTEERING,2319,303974.650,02000000,cdba,17139;SOL_COMPUTED,NARROW_INT,17.59959330939,78.12276593695,525.8904,-76.2000,WGS84,0.0193,0.0121,0.0327,"0",6.650,0.000,36,34,34,33,00,21,3f,37*c927b897
#BESTPOSA,FILE,0,40.0,FINESTEERING,2319,303974.700,02000000,cdba,17139;SOL_COMPUTED,NARROW_INT,17.59959224989,78.12276378572,525.8834,-76.2000,WGS84,0.0194,0.0121,0.0327,"0",6.700,0.000,36,34,34,33,00,21,3f,37*b6651446
#BESTPOSA,FILE,0,40.0,FINESTEERING,2319,303974.750,02000000,cdba,17139;SOL_COMPUTED,NARROW_INT,17.59959115249,78.12276169758,525.8835,-76.2000,WGS84,0.0194,0.0122,0.0328,"0",6.750,0.000,36,34,34,33,00,21,3f,37*4f66e0c9
#BESTPOSA,FILE,0,40.0,FINESTEERING,2319,303974.800,02000000,cdba,17139;SOL_COMPUTED,NARROW_INT,17.59958998494,78.12275965404,525.8826,-76.2000,WGS84,0.0194,0.0122,0.0328,"0",6.800,0.000,37,34,34,33,00,21,3f,37*aa96a565
#BESTPOSA,FILE,0,40.0,FINESTEERING,2319,303974.850,02000000,cdba,17139;SOL_COMPUTED,NARROW_INT,17.59958879385,78.12275764457,525.8909,-76.2000,WGS84,0.0194,0.0122,0.0329,"0",6.850,0.000,37,34,34,33,00,21,3f,37*de254169
#BESTPOSA,FILE,0,40.0,FINESTEERING,2319,303974.900,02000000,cdba,17139;SOL_COMPUTED,NARROW_INT,17.59958757274,78.12275565923,525.8928,-76.2000,WGS84,0.0194,0.0122,0.0329,"0",6.900,0.000,37,34,34,33,00,21,3f,37*f368e0f5
#BESTPOSA,FILE,0,40.0,FINESTEERING,2319,303974.950,02000000,cdba,17139;SOL_COMPUTED,NARROW_INT,17.59958631383,78.12275371646,525.8921,-76.2000,WGS84,0.0195,0.0122,0.0330,"0",6.950,0.000,37,34,34,33,00,21,3f,37*c9e9313c
#BESTPOSA,FILE,0,40.0,FINESTEERING,2319,303975.000,02000000,cdba,17139;SOL_COMPUTED,NARROW_INT,17.59958502971,78.12275180986,525.8930,-76.2000,WGS84,0.0195,0.0122,0.0330,"0",7.000,0.000,37,34,34,33,00,21,3f,37*76b5f937
#BESTPOSA,FILE,0,40.0,FINESTEERING,2319,303975.050,02000000,cdba,17139;SOL_COMPUTED,NARROW_INT,17.59958364207,78.12274994469,525.8829,-76.2000,WGS84,0.0198,0.0124,0.0334,"0",7.050,0.000,37,37,37,36,00,21,3f,37*5fb739b1
#BESTPOSA,FILE,0,38.5,FINESTEERING,2319,303975.100,02000000,cdba,17139;SOL_COMPUTED,NARROW_INT,17.59958226517,78.12274809347,525.8725,-76.2000,WGS84,0.0199,0.0124,0.0334,"0",7.100,0.000,37,37,37,36,00,21,3f,37*c5dca770
#BESTPOSA,FILE,0,38.5,FINESTEERING,2319,303975.150,02000000,cdba,17139;SOL_COMPUTED,NARROW_INT,17.59958082537,78.12274631158,525.8673,-76.2000,WGS84,0.0199,0.0124,0.0335,"0",7.150,0.000,37,37,37,36,00,21,3f,37*f2fe113b
#BESTPOSA,FILE,0,38.5,FINESTEERING,2319,303975.200,02000000,cdba,17139;SOL_COMPUTED,NARROW_INT,17.59957937746,78.12274457364,525.8699,-76.2000,WGS84,0.0199,0.0125,0.0335,"0",7.200,0.000,37,37,37,35,00,21,3f,37*83e2ac80
#BESTPOSA,FILE,0,38.5,FINESTEERING,2319,303975.250,02000000,cdba,17139;SOL_COMPUTED,NARROW_INT,17.59957782630,78.12274290585,525.8755,-76.2000,WGS84,0.0199,0.0125,0.0335,"0",7.250,0.000,37,37,37,35,00,21,3f,37*2ead5f55
#BESTPOSA,FILE,0,38.5,FINESTEERING,2319,303975.300,02000000,cdba,17139;SOL_COMPUTED,NARROW_INT,17.59957622013,78.12274127919,525.8759,-76.2000,WGS84,0.0199,0.0125,0.0336,"0",7.300,0.000,36,36,36,35,00,21,3f,37*4eaf07a0
#BESTPOSA,FILE,0,38.5,FINESTEERING,2319,303975.350,02000000,cdba,17139;SOL_COMPUTED,NARROW_INT,17.59957465858,78.12273967383,525.8847,-76.2000,WGS84,0.0200,0.0125,0.0336,"0",7.350,0.000,36,36,36,35,00,21,3f,37*b92c9fa3
#BESTPOSA,FILE,0,38.5,FINESTEERING,2319,303975.400,02000000,cdba,17139;SOL_COMPUTED,NARROW_INT,17.59957306858,78.12273808918,525.8808,-76.2000,WGS84,0.0200,0.0125,0.0337,"0",7.400,0.000,36,36,36,35,00,21,3f,37*4bd77643
#BESTPOSA,FILE,0,38.5,FINESTEERING,2319,303975.450,02000000,cdba,17139;SOL_COMPUTED,NARROW_INT,17.59957145753,78.12273654662,525.8883,-76.2000,WGS84,0.0200,0.0126,0.0337,"0",7.450,0.000,36,36,36,35,00,21,3f,37*279cb175
#BESTPOSA,FILE,0,38.5,FINESTEERING,2319,303975.500,02000000,cdba,17139;SOL_COMPUTED,NARROW_INT,17.59956984950,78.12273501800,525.8897,-76.2000,WGS84,0.0200,0.0126,0.0338,"0",7.500,0.000,36,36,36,35,00,21,3f,37*4f64b771
#BESTPOSA,FILE,0,38.5,FINESTEERING,2319,303975.550,02000000,cdba,17139;SOL_COMPUTED,NARROW_INT,17.59956824171,78.12273354495,525.8959,-76.2000,WGS84,0.0200,0.0126,0.0338,"0",7.550,0.000,36,36,36,35,00,21,3f,37*63e67e62
#BESTPOSA,FILE,0,38.5,FINESTEERING,2319,303975.600,02000000,cdba,17139;SOL_COMPUTED,NARROW_INT,17.59956658690,78.12273209784,525.8943,-76.2000,WGS84,0.0200,0.0126,0.0338,"0",7.600,0.000,36,36,36,34,00,21,3f,37*58879ecb
#BESTPOSA,FILE,0,38.5,FINESTEERING,2319,303975.650,02000000,cdba,17139;SOL_COMPUTED,NARROW_INT,17.59956482278,78.12273080348,525.8898,-76.2000,WGS84,0.0201,0.0126,0.0339,"0",7.650,0.000,36,35,35,33,00,21,3f,37*ed1b712d
#BESTPOSA,FILE,0,38.5,FINESTEERING,2319,303975.700,02000000,cdba,17139;SOL_COMPUTED,NARROW_INT,17.59956301357,78.12272953735,525.8685,-76.2000,WGS84,0.0201,0.0127,0.0341,"0",7.700,0.000,36,36,36,33,00,21,3f,37*83b4bd01
#BESTPOSA,FILE,0,38.5,FINESTEERING,2319,303975.750,02000000,cdba,17139;SOL_COMPUTED,NARROW_INT,17.59956123396,78.12272828376,525.8728,-76.2000,WGS84,0.0201,0.0127,0.0342,"0",7.750,0.000,36,36,36,33,00,21,3f,37*88c971a3
#BESTPOSA,FILE,0,38.5,FINESTEERING,2319,303975.800,02000000,cdba,17139;SOL_COMPUTED,NARROW_INT,17.59955942647,78.12272705945,525.8630,-76.2000,WGS84,0.0201,0.0128,0.0342,"0",7.800,0.000,36,36,36,33,00,21,3f,37*81b8ce5e
#BESTPOSA,FILE,0,38.5,FINESTEERING,2319,303975.850,02000000,cdba,17139;SOL_COMPUTED,NARROW_INT,17.59955761214,78.12272590352,525.8627,-76.2000,WGS84,0.0202,0.0128,0.0343,"0",7.850,0.000,35,34,34,33,00,21,3f,37*4d9d3fc4
#BESTPOSA,FILE,0,38.5,FINESTEERING,2319,303975.900,02000000,cdba,17139;SOL_COMPUTED,NARROW_INT,17.59955579715,78.12272479464,525.8665,-76.2000,WGS84,0.0202,0.0128,0.0344,"0",7.900,0.000,36,34,34,33,00,21,3f,37*a893a60b
#BESTPOSA,FILE,0,38.5,FINESTEERING,2319,303975.950,02000000,cdba,17139;SOL_COMPUTED,NARROW_INT,17.59955399437,78.12272372254,525.8710,-76.2000,WGS84,0.0202,0.0128,0.0344,"0",7.950,0.000,35,34,34,33,00,21,3f,37*90da73e1
#BESTPOSA,FILE,0,38.5,FINESTEERING,2319,303976.000,02000000,cdba,17139;SOL_COMPUTED,NARROW_INT,17.59955214421,78.12272269362,525.8749,-76.2000,WGS84,0.0202,0.0128,0.0344,"0",8.000,0.000,34,34,34,33,00,21,3f,37*0961b42b
#BESTPOSA,FILE,0,38.5,FINESTEERING,2319,303976.050,02000000,cdba,17139;SOL_COMPUTED,NARROW_INT,17.59955026747,78.12272171930,525.8839,-76.2000,WGS84,0.0205,0.0131,0.0351,"0",8.050,0.000,35,34,34,33,00,21,3f,37*a1432917
#BESTPOSA,FILE,0,36.0,FINESTEERING,2319,303976.100,02000000,cdba,17139;SOL_COMPUTED,NARROW_INT,17.59954833419,78.12272082606,525.8851,-76.2000,WGS84,0.0206,0.0131,0.0351,"0",8.100,0.000,36,34,34,33,00,21,3f,37*af4cd1f0
#BESTPOSA,FILE,0,36.0,FINESTEERING,2319,303976.150,02000000,cdba,17139;SOL_COMPUTED,NARROW_INT,17.59954638707,78.12272001323,525.8864,-76.2000,WGS84,0.0206,0.0131,0.0351,"0",8.150,0.000,35,34,34,33,00,21,3f,37*cbe518fa
#BESTPOSA,FILE,0,36.0,FINESTEERING,2319,303976.200,02000000,cdba,17139;SOL_COMPUTED,NARROW_INT,17.59954431306,78.12271908107,525.9631,-76.2000,WGS84,0.0235,0.0130,0.0412,"0",5.200,0.000,35,34,34,33,00,21,3f,37*7a7a2591
#BESTPOSA,FILE,0,36.0,FINESTEERING,2319,303976.250,02000000,cdba,17139;SOL_COMPUTED,NARROW_INT,17.59954238339,78.12271834098,525.9650,-76.2000,WGS84,0.0236,0.0130,0.0412,"0",5.250,0.000,35,33,33,32,00,21,3f,37*317dd851
#BESTPOSA,FILE,0,36.0,FINESTEERING,2319,303976.300,02000000,cdba,17139;SOL_COMPUTED,NARROW_INT,17.59954049556,78.12271761410,525.9693,-76.2000,WGS84,0.0236,0.0130,0.0413,"0",5.300,0.000,35,34,34,32,00,21,3f,37*b3c8c3a8
#BESTPOSA,FILE,0,36.0,FINESTEERING,2319,303976.350,02000000,cdba,17139;SOL_COMPUTED,NARROW_INT,17.59953855939,78.12271695632,525.9657,-76.2000,WGS84,0.0236,0.0130,0.0413,"0",5.350,0.000,35,35,35,33,00,21,3f,37*3605eb52
#BESTPOSA,FILE,0,36.0,FINESTEERING,2319,303976.400,02000000,cdba,17139;SOL_COMPUTED,NARROW_INT,17.59953659779,78.12271634321,525.9628,-76.2000,WGS84,0.0236,0.0131,0.0414,"0",5.400,0.000,35,35,35,33,00,21,3f,37*051c762c
#BESTPOSA,FILE,0,36.0,FINESTEERING,2319,303976.450,02000000,cdba,17139;SOL_COMPUTED,NARROW_INT,17.59953467878,78.12271574857,525.9687,-76.2000,WGS84,0.0236,0.0131,0.0414,"0",5.450,0.000,35,35,35,33,00,21,3f,37*8bd48c96
#BESTPOSA,FILE,0,36.0,FINESTEERING,2319,303976.500,02000000,cdba,17139;SOL_COMPUTED,NARROW_INT,17.59953272232,78.12271519077,525.9763,-76.2000,WGS84,0.0236,0.0131,0.0414,"0",5.500,0.000,35,35,35,33,00,21,3f,37*d80bf6b0
#BESTPOSA,FILE,0,36.0,FINESTEERING,2319,303976.550,02000000,cdba,17139;SOL_COMPUTED,NARROW_INT,17.59953071950,78.12271467585,525.9821,-76.2000,WGS84,0.0237,0.0131,0.0415,"0",5.550,0.000,35,35,35,33,00,21,3f,37*06cab33b
#BESTPOSA,FILE,0,36.0,FINESTEERING,2319,303976.600,02000000,cdba,17139;SOL_COMPUTED,NARROW_INT,17.59952873956,78.12271421330,525.9870,-76.2000,WGS84,0.0237,0.0131,0.0415,"0",5.600,0.000,35,35,35,33,00,21,3f,37*b4369057
#BESTPOSA,FILE,0,36.0,FINESTEERING,2319,303976.650,02000000,cdba,17139;SOL_COMPUTED,NARROW_INT,17.59952673666,78.12271381777,525.9818,-76.2000,WGS84,0.0237,0.0132,0.0416,"0",5.650,0.000,35,35,35,33,00,21,3f,37*d8d85817
#BESTPOSA,FILE,0,36.0,FINESTEERING,2319,303976.700,02000000,cdba,17139;SOL_COMPUTED,NARROW_INT,17.59952479435,78.12271348110,525.9746,-76.2000,WGS84,0.0237,0.0132,0.0417,"0",5.700,0.000,34,34,34,33,00,21,3f,37*c421a669
#BESTPOSA,FILE,0,36.0,FINESTEERING,2319,303976.750,02000000,cdba,17139;SOL_COMPUTED,NARROW_INT,17.59952283743,78.12271319626,525.9682,-76.2000,WGS84,0.0238,0.0132,0.0417,"0",5.750,0.000,35,34,34,33,00,21,3f,37*8ba143a9
#BESTPOSA,FILE,0,36.0,FINESTEERING,2319,303976.800,02000000,cdba,17139;SOL_COMPUTED,NARROW_INT,17.59952086738,78.12271294248,525.9620,-76.2000,WGS84,0.0238,0.0132,0.0418,"0",5.800,0.000,35,34,34,33,00,21,3f,37*c6252f4e
#BESTPOSA,FILE,0,36.0,FINESTEERING,2319,303976.850,02000000,cdba,17139;SOL_COMPUTED,NARROW_INT,17.59951892689,78.12271272254,525.9655,-76.2000,WGS84,0.0238,0.0133,0.0418,"0",5.850,0.000,35,34,34,33,00,21,3f,37*8980731b
#BESTPOSA,FILE,0,36.0,FINESTEERING,2319,303976.900,02000000,cdba,17139;SOL_COMPUTED,NARROW_INT,17.59951692035,78.12271248275,525.9584,-76.2000,WGS84,0.0238,0.0133,0.0419,"0",5.900,0.000,36,34,34,33,00,21,3f,37*61e4e825
#BESTPOSA,FILE,0,36.0,FINESTEERING,2319,303976.950,02000000,cdba,17139;SOL_COMPUTED,NARROW_INT,17.59951493622,78.12271232880,525.9626,-76.2000,WGS84,0.0238,0.0133,0.0419,"0",5.950,0.000,36,34,34,33,00,21,3f,37*1ec7670e
#BESTPOSA,FILE,0,36.0,FINESTEERING,2319,303977.000,02000000,cdba,17139;SOL_COMPUTED,NARROW_INT,17.59951290505,78.12271223691,525.9591,-76.2000,WGS84,0.0238,0.0133,0.0419,"0",6.000,0.000,36,34,34,33,00,21,3f,37*5c286a3e
#BESTPOSA,FILE,0,36.0,FINESTEERING,2319,303977.050,02000000,cdba,17139;SOL_COMPUTED,NARROW_INT,17.59951093639,78.12271213723,525.9610,-76.2000,WGS84,0.0241,0.0136,0.0425,"0",6.050,0.000,36,35,35,33,00,21,3f,37*143b320a
#BESTPOSA,FILE,0,35.5,FINESTEERING,2319,303977.100,02000000,cdba,17139;SOL_COMPUTED,NARROW_INT,17.59950894546,78.12271205937,525.9634,-76.2000,WGS84,0.0241,0.0136,0.0426,"0",6.100,0.000,36,36,36,33,00,21,3f,37*43af79f6
#BESTPOSA,FILE,0,35.5,FINESTEERING,2319,303977.150,02000000,cdba,17139;SOL_COMPUTED,NARROW_INT,17.59950696497,78.12271196813,525.9657,-76.2000,WGS84,0.0241,0.0136,0.0426,"0",6.150,0.000,36,36,36,33,00,21,3f,37*e63e18c5
#BESTPOSA,FILE,0,35.5,FINESTEERING,2319,303977.200,02000000,cdba,17139;SOL_COMPUTED,NARROW_INT,17.59950502787,78.12271204618,525.9036,-76.2000,WGS84,0.0192,0.0107,0.0369,"0",1.200,0.000,36,36,36,33,00,21,3f,37*0ee65822
#BESTPOSA,FILE,0,35.5,FINESTEERING,2319,303977.250,02000000,cdba,17139;SOL_COMPUTED,NARROW_INT,17.59950305877,78.12271202421,525.9090,-76.2000,WGS84,0.0192,0.0108,0.0369,"0",1.250,0.000,36,36,36,33,00,21,3f,37*38e857c6
#BESTPOSA,FILE,0,35.5,FINESTEERING,2319,303977.300,02000000,cdba,17139;SOL_COMPUTED,NARROW_INT,17.59950103579,78.12271196222,525.9082,-76.2000,WGS84,0.0192,0.0108,0.0370,"0",1.300,0.000,36,36,36,34,00,21,3f,37*10c98cfa
#BESTPOSA,FILE,0,35.5,FINESTEERING,2319,303977.350,02000000,cdba,17139;SOL_COMPUTED,NARROW_INT,17.59949905762,78.12271202926,525.9033,-76.2000,WGS84,0.0160,0.0082,0.0294,"0",0.350,0.000,36,36,36,33,00,21,3f,37*a5d67b7f
#BESTPOSA,FILE,0,35.5,FINESTEERING,2319,303977.400,02000000,cdba,17139;SOL_COMPUTED,NARROW_INT,17.59949702757,78.12271206974,525.9048,-76.2000,WGS84,0.0160,0.0082,0.0295,"0",0.400,0.000,36,36,36,33,00,21,3f,37*b9b1b201
#BESTPOSA,FILE,0,35.5,FINESTEERING,2319,303977.450,02000000,cdba,17139;SOL_COMPUTED,NARROW_INT,17.59949502468,78.12271211045,525.9053,-76.2000,WGS84,0.0160,0.0083,0.0296,"0",0.450,0.000,36,36,36,33,00,21,3f,37*0837db5b
#BESTPOSA,FILE,0,35.5,FINESTEERING,2319,303977.500,02000000,cdba,17139;SOL_COMPUTED,NARROW_INT,17.59949297203,78.12271222517,525.9020,-76.2000,WGS84,0.0160,0.0084,0.0297,"0",0.500,0.000,36,35,35,32,00,21,3f,37*f0090f47
#BESTPOSA,FILE,0,35.5,FINESTEERING,2319,303977.550,02000000,cdba,17139;SOL_COMPUTED,NARROW_INT,17.59949095113,78.12271233338,525.9032,-76.2000,WGS84,0.0160,0.0085,0.0297,"0",0.550,0.000,36,35,35,32,00,21,3f,37*a09e2e58
