#CORRIMUDATAA,FILE,0,32.5,FINESTEERING,2319,303963.950,02000000,e5fc,17139;2319,303963.950000000,-0.0010857387478112,0.0017048547098274,-0.0271600152139518,0.0629990083339637,-0.0219402512498330,-0.0010155414207880*6245c875
#CORRIMUDATAA,FILE,0,32.5,FINESTEERING,2319,303964.000,02000000,e5fc,17139;2319,303964.000000000,-0.0012534199654284,0.0037807365906904,-0.0276769093724296,0.0678290322032847,-0.0211305678189319,-0.0029639902733813*ab4dcbce
#CORRIMUDATAA,FILE,0,32.5,FINESTEERING,2319,303964.050,02000000,e5fc,17139;2319,303964.050000000,-0.0012933755079756,0.0047965098583867,-0.0280198184096084,0.0746418412297232,-0.0251400406080525,0.0041347468234704*0c26f91e
#CORRIMUDATAA,FILE,0,31.5,FINESTEERING,2319,303964.100,02000000,e5fc,17139;2319,303964.100000000,-0.0007684905332596,0.0038210481053849,-0.0280771381506665,0.0855199377258061,-0.0314577965124238,-0.0121699812725239*f2be4f0d
#CORRIMUDATAA,FILE,0,31.5,FINESTEERING,2319,303964.150,02000000,e5fc,17139;2319,303964.150000000,0.0005933736684782,0.0013119712032560,-0.0278526819498889,0.0669399312349036,-0.0232413272096531,-0.0137187971527010*49c40318
#CORRIMUDATAA,FILE,0,31.5,FINESTEERING,2319,303964.200,02000000,e5fc,17139;2319,303964.200000000,0.0018233836555879,-0.0010648642894687,-0.0279411686376276,0.0411674689849049,-0.0190611195341248,-0.0044457917640951*250f4f3e
#CORRIMUDATAA,FILE,0,31.5,FINESTEERING,2319,303964.250,02000000,e5fc,17139;2319,303964.250000000,0.0023470432493790,-0.0027884157969985,-0.0284096159906715,0.0190531770598557,-0.0205014710801494,0.0078390797473433*13e3d81a
#CORRIMUDATAA,FILE,0,31.5,FINESTEERING,2319,303964.300,02000000,e5fc,17139;2319,303964.300000000,0.0025046807988772,-0.0038801235870080,-0.0290629984699907,0.0257410820567722,-0.0268787340770176,0.0155069857678834*1fd89ada
#CORRIMUDATAA,FILE,0,31.5,FINESTEERING,2319,303964.350,02000000,e5fc,17139;2319,303964.350000000,0.0024315110489453,-0.0051340366784503,-0.0295107651927815,0.0469483659069194,-0.0248419020237277,0.0135993143567413*e40a1322
#CORRIMUDATAA,FILE,0,31.5,FINESTEERING,2319,303964.400,02000000,e5fc,17139;2319,303964.400000000,0.0017047456971536,-0.0068824967917732,-0.0294385195459238,0.0559660321859576,-0.0173705131055079,0.0016675597113733*c2722756
#CORRIMUDATAA,FILE,0,31.5,FINESTEERING,2319,303964.450,02000000,e5fc,17139;2319,303964.450000000,0.0015405251570150,-0.0056760493299302,-0.0287691681012680,0.0663309911556857,-0.0297226568496640,0.0041353364071380*2576aa15
#CORRIMUDATAA,FILE,0,31.5,FINESTEERING,2319,303964.500,02000000,e5fc,17139;2319,303964.500000000,0.0016196400215044,-0.0045118686127751,-0.0280535199233455,0.0848585042864811,-0.0392737342226684,0.0007588758776802*cb49c47d
#CORRIMUDATAA,FILE,0,31.5,FINESTEERING,2319,303964.550,02000000,e5fc,17139;2319,303964.550000000,0.0022887457563448,-0.0034035708114278,-0.0274595639548145,0.0786440159060009,-0.0335870870412690,-0.0146209557187189*0310cf1a
#CORRIMUDATAA,FILE,0,31.5,FINESTEERING,2319,303964.600,02000000,e5fc,17139;2319,303964.600000000,0.0024869905238166,-0.0022004587635831,-0.0272283064792196,0.0797063682288746,-0.0368392462719675,-0.0124672858715515*4fdc862b
#CORRIMUDATAA,FILE,0,31.5,FINESTEERING,2319,303964.650,02000000,e5fc,17139;2319,303964.650000000,0.0030415180226501,-0.0005767039728671,-0.0271615478965437,0.0598891100252147,-0.0312522762842042,-0.0247124946855704*5c728bbd
#CORRIMUDATAA,FILE,0,31.5,FINESTEERING,2319,303964.700,02000000,e5fc,17139;2319,303964.700000000,0.0032742550320095,0.0011877345221848,-0.0272844951932601,0.0602278923676023,-0.0286182100748747,-0.0212472907686806*16df38a0
#CORRIMUDATAA,FILE,0,31.5,FINESTEERING,2319,303964.750,02000000,e5fc,17139;2319,303964.750000000,0.0037387550510601,0.0029266300867695,-0.0271434519006825,0.0614477831597893,-0.0234362745904971,-0.0156818737121191*3c9697f8
#CORRIMUDATAA,FILE,0,31.5,FINESTEERING,2319,303964.800,02000000,e5fc,17139;2319,303964.800000000,0.0040155415815087,0.0038190821392252,-0.0269183941535045,0.0664886710659536,-0.0168462942744425,-0.0169446157464851*a58bee25
#CORRIMUDATAA,FILE,0,31.5,FINESTEERING,2319,303964.850,02000000,e5fc,17139;2319,303964.850000000,0.0044918625865489,0.0036038154693744,-0.0266073335397865,0.0602115435605480,-0.0169422366517530,-0.0097915908229897*e48d18f6
#CORRIMUDATAA,FILE,0,31.5,FINESTEERING,2319,303964.900,02000000,e5fc,17139;2319,303964.900000000,0.0048502568699418,0.0027839518136923,-0.0264729402830852,0.0514241307940157,-0.0052085362918473,-0.0039009126377943*bba7d501
#CORRIMUDATAA,FILE,0,31.5,FINESTEERING,2319,303964.950,02000000,e5fc,17139;2319,303964.950000000,0.0050019343447152,0.0019493771953022,-0.0264570233615366,0.0333576217734022,-0.0003813921741047,0.0110862050828258*cbb9c12f
#CORRIMUDATAA,FILE,0,31.5,FINESTEERING,2319,303965.000,02000000,e5fc,17139;2319,303965.000000000,0.0052042615175601,0.0017250418190417,-0.0265813918180521,0.0251581866655589,0.0090929733587242,0.0142450060557460*d258e624
#CORRIMUDATAA,FILE,0,31.5,FINESTEERING,2319,303965.050,02000000,e5fc,17139;2319,303965.050000000,0.0052556787864320,0.0017688396309190,-0.0266494071203215,0.0489196996429967,0.0107100828771161,0.0064260441447055*09f08198
#CORRIMUDATAA,FILE,0,31.5,FINESTEERING,2319,303965.100,02000000,e5fc,17139;2319,303965.100000000,0.0054541800464339,0.0009766481049637,-0.0263742142894322,0.0727479222852735,0.0037402550368830,0.0065929376137299*1e3ec5bf
#CORRIMUDATAA,FILE,0,32.5,FINESTEERING,2319,303965.150,02000000,e5fc,17139;2319,303965.150000000,0.0056291527948710,-0.0007599779934317,-0.0260911885666884,0.0580469713622951,0.0062720297855058,-0.0087021978658483*32f83e59
#CORRIMUDATAA,FILE,0,32.5,FINESTEERING,2319,303965.200,02000000,e5fc,17139;2319,303965.200000000,0.0052519270100774,-0.0009043704397061,-0.0263910485146710,0.0291580631570182,0.0096612197688456,0.0055872915692971*e5ff1712
#CORRIMUDATAA,FILE,0,32.5,FINESTEERING,2319,303965.250,02000000,e5fc,17139;2319,303965.250000000,0.0058349535812937,-0.0013781514180762,-0.0271734669954120,0.0234644779606059,0.0157149806190716,-0.0384287380659676*1de83f90
#CORRIMUDATAA,FILE,0,32.5,FINESTEERING,2319,303965.300,02000000,e5fc,17139;2319,303965.300000000,0.0054080341704329,-0.0026044366737687,-0.0280658479803340,0.0185849156377846,0.0089534080943392,-0.0076260049202341*95a156a7
#CORRIMUDATAA,FILE,0,32.5,FINESTEERING,2319,303965.350,02000000,e5fc,17139;2319,303965.350000000,0.0051708730910848,-0.0044373320352623,-0.0290540827028879,0.0352502514134549,0.0125013374703150,-0.0009715753824489*b01f68d8
#CORRIMUDATAA,FILE,0,32.5,FINESTEERING,2319,303965.400,02000000,e5fc,17139;2319,303965.400000000,0.0034313091900486,-0.0050652329020301,-0.0293339735675645,0.0487873670094404,-0.0041846533019191,0.1052484380274616*e7e69184
#CORRIMUDATAA,FILE,0,32.5,FINESTEERING,2319,303965.450,02000000,e5fc,17139;2319,303965.450000000,0.0010678985706839,-0.0030320826134948,-0.0292189541500071,0.0612530450403974,0.0018841529894989,0.1144460239276624*9c5bd15c
#CORRIMUDATAA,FILE,0,32.5,FINESTEERING,2319,303965.500,02000000,e5fc,17139;2319,303965.500000000,-0.0008683010465328,-0.0013695163028093,-0.0288494696648453,0.0790119668812692,0.0107250508686715,0.0824133172716987*d96525ae
#CORRIMUDATAA,FILE,0,32.5,FINESTEERING,2319,303965.550,02000000,e5fc,17139;2319,303965.550000000,-0.0027172666837607,-0.0004272657799471,-0.0285412295058091,0.0865536476578074,0.0134002182940167,0.0393435681119194*31de6db2
#CORRIMUDATAA,FILE,0,32.5,FINESTEERING,2319,303965.600,02000000,e5fc,17139;2319,303965.600000000,-0.0028612806552244,0.0000269967576815,-0.0282211711919173,0.0814162892693665,0.0259252448412832,-0.0134231284481399*f75c401c
#CORRIMUDATAA,FILE,0,32.5,FINESTEERING,2319,303965.650,02000000,e5fc,17139;2319,303965.650000000,-0.0016408763547906,0.0009842593314921,-0.0277421194775241,0.0683689528629854,0.0324112457129571,-0.0235735515054417*ce795afc
#CORRIMUDATAA,FILE,0,32.5,FINESTEERING,2319,303965.700,02000000,e5fc,17139;2319,303965.700000000,-0.0008073713852989,0.0021422057458784,-0.0276312079644731,0.0532993654338221,0.0430479793028048,-0.0424024240280390*6661e240
#CORRIMUDATAA,FILE,0,32.5,FINESTEERING,2319,303965.750,02000000,e5fc,17139;2319,303965.750000000,0.0004898532395089,0.0033915598751906,-0.0277626705097486,0.0507598515733360,0.0466598340172722,-0.0576914697255086*71fec5ee
#CORRIMUDATAA,FILE,0,32.5,FINESTEERING,2319,303965.800,02000000,e5fc,17139;2319,303965.800000000,0.0015886372049897,0.0035349522806977,-0.0275627438089608,0.0612735413391697,0.0411291947004776,-0.0372766050879700*6a6520b0
#CORRIMUDATAA,FILE,0,32.5,FINESTEERING,2319,303965.850,02000000,e5fc,17139;2319,303965.850000000,0.0020998439803478,0.0029570025075924,-0.0272460083287708,0.0686200720119941,0.0393499776269481,-0.0153375616912386*deaab4af
#CORRIMUDATAA,FILE,0,32.5,FINESTEERING,2319,303965.900,02000000,e5fc,17139;2319,303965.900000000,0.0018579715462012,0.0016609553814323,-0.0270758835969801,0.0539412213078301,0.0389026103015775,0.0091487466655102*5a506093
#CORRIMUDATAA,FILE,0,32.5,FINESTEERING,2319,303965.950,02000000,e5fc,17139;2319,303965.950000000,0.0015258012127969,0.0006306005046639,-0.0272542018048078,0.0382010151990136,0.0398638056450859,0.0189806635591981*69f7b9bf
#CORRIMUDATAA,FILE,0,32.5,FINESTEERING,2319,303966.000,02000000,e5fc,17139;2319,303966.000000000,0.0004267612984261,-0.0004498878358236,-0.0276601903355757,0.0465425149258229,0.0321977441101339,0.0383337353152173*d55948b7
#CORRIMUDATAA,FILE,0,32.5,FINESTEERING,2319,303966.050,02000000,e5fc,17139;2319,303966.050000000,-0.0007287499633817,-0.0012725284625702,-0.0281983261287473,0.0457192850590817,0.0313718611678038,0.0477052070113596*37e3b5f3
#CORRIMUDATAA,FILE,0,32.5,FINESTEERING,2319,303966.100,02000000,e5fc,17139;2319,303966.100000000,-0.0019094476821272,-0.0011410048082336,-0.0287426681787680,0.0534884615370865,0.0351262734836476,0.0386049375350985*b48fcc97
#CORRIMUDATAA,FILE,0,32.5,FINESTEERING,2319,303966.150,02000000,e5fc,17139;2319,303966.150000000,-0.0028363131235461,-0.0007071709762758,-0.0290478587647887,0.0672819310321320,0.0318170657666028,0.0126262347137067*2315d5f2
#CORRIMUDATAA,FILE,0,32.5,FINESTEERING,2319,303966.200,02000000,e5fc,17139;2319,303966.200000000,-0.0025225045561717,-0.0003712790054335,-0.0288517314404265,0.0890399572043844,0.0394041511517792,-0.0080398653308030*933b9686
#CORRIMUDATAA,FILE,0,32.5,FINESTEERING,2319,303966.250,02000000,e5fc,17139;2319,303966.250000000,-0.0020797813012393,0.0001904024447394,-0.0284915903769624,0.0868521253353783,0.0457320916622916,-0.0365143464126102*301a04d2
#CORRIMUDATAA,FILE,0,32.5,FINESTEERING,2319,303966.300,02000000,e5fc,17139;2319,303966.300000000,-0.0012008948704693,0.0002226393778211,-0.0280819102119723,0.0846162680357327,0.0420906651865716,-0.0395575553331929*cfddca5d
#CORRIMUDATAA,FILE,0,32.5,FINESTEERING,2319,303966.350,02000000,e5fc,17139;2319,303966.350000000,-0.0005070619585349,-0.0003588017430314,-0.0277438216507839,0.0770551354381779,0.0368140476247970,-0.0327677042896679*107f9b09
#CORRIMUDATAA,FILE,0,32.5,FINESTEERING,2319,303966.400,02000000,e5fc,17139;2319,303966.400000000,0.0008574985844186,-0.0018756899642729,-0.0275567956009416,0.0619226387184923,0.0416708416484676,-0.0159502590530756*2b76dd18
#CORRIMUDATAA,FILE,0,32.5,FINESTEERING,2319,303966.450,02000000,e5fc,17139;2319,303966.450000000,0.0010622553067363,-0.0015050899138987,-0.0274331564488647,0.0365765172324184,0.0326717786118001,-0.0086451525668101*567bc085
#CORRIMUDATAA,FILE,0,32.5,FINESTEERING,2319,303966.500,02000000,e5fc,17139;2319,303966.500000000,0.0024289012409035,-0.0003634974298645,-0.0280797711630239,0.0707268029154933,0.0340330288285346,0.0143217403751604*95644d07
#CORRIMUDATAA,FILE,0,32.5,FINESTEERING,2319,303966.550,02000000,e5fc,17139;2319,303966.550000000,0.0012094257857833,-0.0048718580785833,-0.0280768366424221,0.0730691027137151,0.0279284505492609,0.0254892020767469*e0f968d4
#CORRIMUDATAA,FILE,0,32.5,FINESTEERING,2319,303966.600,02000000,e5fc,17139;2319,303966.600000000,0.0012031741630968,-0.0047905642115133,-0.0280946037832392,0.0437791819145110,0.0361338514101892,0.0414073179595351*e7cacfea
#CORRIMUDATAA,FILE,0,32.5,FINESTEERING,2319,303966.650,02000000,e5fc,17139;2319,303966.650000000,0.0004003730466721,-0.0031578625182937,-0.0280031066764184,0.0624484482028294,0.0363637538389637,0.0150115398589911*ba2c8fcc
#CORRIMUDATAA,FILE,0,32.5,FINESTEERING,2319,303966.700,02000000,e5fc,17139;2319,303966.700000000,0.0007205785118439,-0.0025104975986390,-0.0277973473414237,0.0979497619665015,0.0317022842111579,0.0142096888990730*0e69bc3a
#CORRIMUDATAA,FILE,0,32.5,FINESTEERING,2319,303966.750,02000000,e5fc,17139;2319,303966.750000000,0.0007880286510724,-0.0022334822221871,-0.0271696457296428,0.1075658260330562,0.0253082725420668,-0.0286795552492044*74e14c1e
#CORRIMUDATAA,FILE,0,32.5,FINESTEERING,2319,303966.800,02000000,e5fc,17139;2319,303966.800000000,0.0018875835895530,-0.0028679460503685,-0.0268566115530770,0.0960702995800322,0.0248961167676093,-0.0340317834276452*9c5d65f1
#CORRIMUDATAA,FILE,0,32.5,FINESTEERING,2319,303966.850,02000000,e5fc,17139;2319,303966.850000000,0.0022025906490699,-0.0033695124845909,-0.0262753468841107,0.0604962733214648,0.0311999269856629,-0.0419204749018631*5432d3d3
#CORRIMUDATAA,FILE,0,32.5,FINESTEERING,2319,303966.900,02000000,e5fc,17139;2319,303966.900000000,0.0011932264092838,-0.0021779355528224,-0.0254732148628839,0.0613233925685888,0.0236617379460870,-0.0137155804634100*7f4cfaa2
#CORRIMUDATAA,FILE,0,32.5,FINESTEERING,2319,303966.950,02000000,e5fc,17139;2319,303966.950000000,0.0013392308386751,-0.0017197389472345,-0.0246048001157542,0.0848317819668738,0.0194028595800197,-0.0182305673105808*4e298c2b
#CORRIMUDATAA,FILE,0,32.5,FINESTEERING,2319,303967.000,02000000,e5fc,17139;2319,303967.000000000,0.0014315907601290,-0.0021544138140357,-0.0239279028384413,0.0729048132601637,0.0052186869407419,0.0274004614311585*1cf32f88
#CORRIMUDATAA,FILE,0,32.5,FINESTEERING,2319,303967.050,02000000,e5fc,17139;2319,303967.050000000,0.0012448306030135,-0.0020852033711488,-0.0229129394264762,0.0748336797180407,0.0148615106343973,-0.0261652774087215*7afed1c4
#CORRIMUDATAA,FILE,0,32.5,FINESTEERING,2319,303967.100,02000000,e5fc,17139;2319,303967.100000000,0.0021702116896319,-0.0007974601467008,-0.0215759048236495,0.0708775881415988,0.0142208191679195,-0.0068587144323479*b32c9476
#CORRIMUDATAA,FILE,0,33.5,FINESTEERING,2319,303967.150,02000000,e5fc,17139;2319,303967.150000000,0.0022777837989194,-0.0000735150130200,-0.0202397230160021,0.0657872839302686,0.0099514144393445,-0.0101677154940096*3c378f84
#CORRIMUDATAA,FILE,0,33.5,FINESTEERING,2319,303967.200,02000000,e5fc,17139;2319,303967.200000000,0.0032237498539460,-0.0004016317764224,-0.0192238944248989,0.0704630908905100,0.0071221357467934,-0.0133948087446145*fc955aec
#CORRIMUDATAA,FILE,0,33.5,FINESTEERING,2319,303967.250,02000000,e5fc,17139;2319,303967.250000000,0.0031428265654991,-0.0016021381413155,-0.0182304788427574,0.0558079789086439,0.0056963694892301,0.0058747781483686*40112254
#CORRIMUDATAA,FILE,0,33.5,FINESTEERING,2319,303967.300,02000000,e5fc,17139;2319,303967.300000000,0.0010167873182031,-0.0012375520253418,-0.0173292937096956,0.0606425323708702,-0.0297883154938999,0.0778213478962827*9abc5a4d
#CORRIMUDATAA,FILE,0,33.5,FINESTEERING,2319,303967.350,02000000,e5fc,17139;2319,303967.350000000,-0.0012234634274566,-0.0007260858373035,-0.0161786395487270,0.0258036570348420,-0.0165036371476389,0.1802307283790898*64ee33b9
#CORRIMUDATAA,FILE,0,33.5,FINESTEERING,2319,303967.400,02000000,e5fc,17139;2319,303967.400000000,-0.0048133199581530,-0.0009086246748339,-0.0158227925653746,0.0171912316268859,-0.0107772582553140,0.0538695682148384*ea161b41
#CORRIMUDATAA,FILE,0,33.5,FINESTEERING,2319,303967.450,02000000,e5fc,17139;2319,303967.450000000,-0.0056234091883282,-0.0016951871741678,-0.0151436991226548,0.0649560342474816,-0.0065926175816380,0.0012032562200644*d1d3bcbd
#CORRIMUDATAA,FILE,0,33.5,FINESTEERING,2319,303967.500,02000000,e5fc,17139;2319,303967.500000000,-0.0060552171687685,-0.0047517737411671,-0.0140312289831603,0.0605470411458119,-0.0068100691406361,-0.0321309763195255*f4963b4f
#CORRIMUDATAA,FILE,0,33.5,FINESTEERING,2319,303967.550,02000000,e5fc,17139;2319,303967.550000000,-0.0042606251206431,-0.0060272988306927,-0.0128965642213456,0.0159038602845307,0.0061042341198502,-0.0637728840198869*6095c596
#CORRIMUDATAA,FILE,0,33.5,FINESTEERING,2319,303967.600,02000000,e5fc,17139;2319,303967.600000000,-0.0039641607897193,-0.0056202195883998,-0.0123760745792877,-0.0028605180640286,0.0045521684954649,-0.0745199332538726*63cc831d
#CORRIMUDATAA,FILE,0,33.5,FINESTEERING,2319,303967.650,02000000,e5fc,17139;2319,303967.650000000,-0.0021145135321003,-0.0044774288320207,-0.0115205865792139,0.0246098319054055,-0.0148660017680969,-0.0486187309525739*96a8cafb
#CORRIMUDATAA,FILE,0,33.5,FINESTEERING,2319,303967.700,02000000,e5fc,17139;2319,303967.700000000,-0.0013198038326320,-0.0046402973366651,-0.0103284155438318,0.0584248442348690,-0.0147594354687129,-0.0262574351614512*16cd246c
#CORRIMUDATAA,FILE,0,33.5,FINESTEERING,2319,303967.750,02000000,e5fc,17139;2319,303967.750000000,-0.0010282468767880,-0.0049034787190991,-0.0090434065004923,0.0545241191343758,-0.0299221370181215,0.0125251646605118*0f2f5c43
#CORRIMUDATAA,FILE,0,33.5,FINESTEERING,2319,303967.800,02000000,e5fc,17139;2319,303967.800000000,-0.0015220062700689,-0.0042871599487049,-0.0082407489250386,0.0319855768492286,-0.0278713442218525,0.0528219292579954*5879dbfd
#CORRIMUDATAA,FILE,0,33.5,FINESTEERING,2319,303967.850,02000000,e5fc,17139;2319,303967.850000000,-0.0022867323107830,-0.0030113633398045,-0.0078828623412051,0.0179946351320186,-0.0342643058916435,0.0730694414333314*f97b3221
#CORRIMUDATAA,FILE,0,33.5,FINESTEERING,2319,303967.900,02000000,e5fc,17139;2319,303967.900000000,-0.0032404606760103,-0.0018582745980665,-0.0077619632182816,0.0282310122014917,-0.0203832860384621,0.0469499881865882*46c79dab
#CORRIMUDATAA,FILE,0,33.5,FINESTEERING,2319,303967.950,02000000,e5fc,17139;2319,303967.950000000,-0.0036038245833208,-0.0008709188945727,-0.0074526568463125,0.0347183683770410,-0.0200662098278456,0.0141599746314904*fdceb516
#CORRIMUDATAA,FILE,0,33.5,FINESTEERING,2319,303968.000,02000000,e5fc,17139;2319,303968.000000000,-0.0035546181128346,-0.0002043134707979,-0.0072736941305139,0.0268592231718539,-0.0114017227826878,-0.0125697140428442*23c8dfae
#CORRIMUDATAA,FILE,0,33.5,FINESTEERING,2319,303968.050,02000000,e5fc,17139;2319,303968.050000000,-0.0031000423816518,-0.0000787901476634,-0.0069839195023154,0.0263014048653854,0.0029888014846452,-0.0293552678674547*159a911d
#CORRIMUDATAA,FILE,0,29.5,FINESTEERING,2319,303968.100,02000000,e5fc,17139;2319,303968.100000000,-0.0024667736212794,-0.0005129707632061,-0.0064196321720292,0.0316829485236692,0.0104585459494008,-0.0570547608208692*60aa63f2
#CORRIMUDATAA,FILE,0,29.5,FINESTEERING,2319,303968.150,02000000,e5fc,17139;2319,303968.150000000,-0.0020144100982593,-0.0011603301698861,-0.0060228693932419,0.0106349597588986,0.0112239291904799,-0.0680170833464425*d06e913c
#CORRIMUDATAA,FILE,0,29.5,FINESTEERING,2319,303968.200,02000000,e5fc,17139;2319,303968.200000000,-0.0008695796985540,-0.0019175091769966,-0.0062064471299804,-0.0063883552577842,0.0143118284850847,-0.0412424639140735*6eaadf42
#CORRIMUDATAA,FILE,0,29.5,FINESTEERING,2319,303968.250,02000000,e5fc,17139;2319,303968.250000000,-0.0004915593615856,-0.0026973705434618,-0.0067990031156311,-0.0057710279726915,0.0280417536023267,-0.0471597666223667*b9350211
#CORRIMUDATAA,FILE,0,29.5,FINESTEERING,2319,303968.300,02000000,e5fc,17139;2319,303968.300000000,-0.0000430668676878,-0.0026166197893396,-0.0065586896875834,0.0055846401235315,0.0236539035714786,-0.0225438815828016*cf64bf25
#CORRIMUDATAA,FILE,0,29.5,FINESTEERING,2319,303968.350,02000000,e5fc,17139;2319,303968.350000000,-0.0000029509161354,-0.0041005507513219,-0.0085985734037817,0.0091652345106576,0.0289821575716744,-0.0182437827062620*b8cb8386
#CORRIMUDATAA,FILE,0,29.5,FINESTEERING,2319,303968.400,02000000,e5fc,17139;2319,303968.400000000,0.0003985527095002,-0.0037103359484934,-0.0083580271660453,0.0214299784441749,0.0274892337501793,0.0128571791488799*eeea1ed7
#CORRIMUDATAA,FILE,0,29.5,FINESTEERING,2319,303968.450,02000000,e5fc,17139;2319,303968.450000000,-0.0003270067593031,-0.0036513171023350,-0.0086764379839854,0.0307899818164207,0.0214944180249265,0.0309329303377466*10a3a422
#CORRIMUDATAA,FILE,0,29.5,FINESTEERING,2319,303968.500,02000000,e5fc,17139;2319,303968.500000000,-0.0005690985705778,-0.0029093146747058,-0.0089106073019755,0.0342848495775835,0.0227218097994389,0.0335851588612015*bdb96036
#CORRIMUDATAA,FILE,0,29.5,FINESTEERING,2319,303968.550,02000000,e5fc,17139;2319,303968.550000000,-0.0012592068901640,-0.0015088709855052,-0.0092441152536310,0.0347863855099285,0.0238797638605308,0.0368729554355721*b3288161
#CORRIMUDATAA,FILE,0,29.5,FINESTEERING,2319,303968.600,02000000,e5fc,17139;2319,303968.600000000,-0.0012900667718454,-0.0009136737998577,-0.0095968749913953,0.0413177176747691,0.0319301427799322,0.0133749892575231*c20631e7
#CORRIMUDATAA,FILE,0,29.5,FINESTEERING,2319,303968.650,02000000,e5fc,17139;2319,303968.650000000,-0.0012782469487828,0.0000598753897518,-0.0099109972019219,0.0354730830072082,0.0310006274415662,-0.0008166191175411*70f270ab
#CORRIMUDATAA,FILE,0,29.5,FINESTEERING,2319,303968.700,02000000,e5fc,17139;2319,303968.700000000,-0.0009957027066280,0.0009639618090427,-0.0098746448801636,0.0392117359018110,0.0328463982954373,-0.0120529609462138*c6d0fbda
#CORRIMUDATAA,FILE,0,29.5,FINESTEERING,2319,303968.750,02000000,e5fc,17139;2319,303968.750000000,-0.0004913752228036,0.0007754231251227,-0.0097394887128354,0.0348512021483428,0.0336589678234715,-0.0222488443818074*ccd5a9e2
#CORRIMUDATAA,FILE,0,29.5,FINESTEERING,2319,303968.800,02000000,e5fc,17139;2319,303968.800000000,-0.0000755427306846,0.0005998075272531,-0.0094846436680663,0.0279202119851014,0.0390663992668276,-0.0206655601765682*0ade8ba8
#CORRIMUDATAA,FILE,0,29.5,FINESTEERING,2319,303968.850,02000000,e5fc,17139;2319,303968.850000000,0.0002988929433967,0.0000879475595050,-0.0092172131575693,0.0346051764047424,0.0431015586688678,-0.0335161644374061*46d04d60
#CORRIMUDATAA,FILE,0,29.5,FINESTEERING,2319,303968.900,02000000,e5fc,17139;2319,303968.900000000,0.0004602838491519,-0.0009985830315966,-0.0089133850165958,0.0296967664246871,0.0393137939377480,-0.0341099679164264*f0e7528d
#CORRIMUDATAA,FILE,0,29.5,FINESTEERING,2319,303968.950,02000000,e5fc,17139;2319,303968.950000000,0.0005791328847796,-0.0014995349438397,-0.0087374850841602,0.0082531151913543,0.0368059189272472,-0.0038613297152501*b86a81eb
#CORRIMUDATAA,FILE,0,29.5,FINESTEERING,2319,303969.000,02000000,e5fc,17139;2319,303969.000000000,0.0002821374519665,-0.0014047507130780,-0.0090498746354488,0.0033449561692838,0.0366053014857908,0.0181114451771383*48e8dbe8
#CORRIMUDATAA,FILE,0,29.5,FINESTEERING,2319,303969.050,02000000,e5fc,17139;2319,303969.050000000,-0.0002673761085985,-0.0020557521554718,-0.0093311058882940,0.0199854445542545,0.0365231258775082,0.0113880597733975*4f448c7f
#CORRIMUDATAA,FILE,0,28.5,FINESTEERING,2319,303969.100,02000000,e5fc,17139;2319,303969.100000000,-0.0009052640814881,-0.0021407403016726,-0.0091650672458409,0.0335305905147656,0.0326253038807832,0.0297070673525451*e64ba7ff
#CORRIMUDATAA,FILE,0,28.5,FINESTEERING,2319,303969.150,02000000,e5fc,17139;2319,303969.150000000,-0.0016931650075606,-0.0017987928194869,-0.0088836148243795,0.0458042943519271,0.0364090300231135,0.0205999967148256*ffa0f59d
#CORRIMUDATAA,FILE,0,28.5,FINESTEERING,2319,303969.200,02000000,e5fc,17139;2319,303969.200000000,-0.0021743103881177,-0.0014402500875373,-0.0083693834203224,0.0469206748874144,0.0364690603758242,0.0021666667112258*996a2e11
#CORRIMUDATAA,FILE,0,28.5,FINESTEERING,2319,303969.250,02000000,e5fc,17139;2319,303969.250000000,-0.0023547252096870,-0.0006780222541821,-0.0081648532363692,0.0414892470498845,0.0310144832852863,-0.0107100805601039*1a29f74c
#CORRIMUDATAA,FILE,0,28.5,FINESTEERING,2319,303969.300,02000000,e5fc,17139;2319,303969.300000000,-0.0018901228713037,-0.0011896296363729,-0.0081195892841587,0.0260807306246755,0.0350126257753195,-0.0130600129205750*51068a32
#CORRIMUDATAA,FILE,0,28.5,FINESTEERING,2319,303969.350,02000000,e5fc,17139;2319,303969.350000000,-0.0013935959991380,-0.0007255780852071,-0.0083336999251829,0.0266135697495344,0.0325233194324445,-0.0195194732282127*68aa1f4b
#CORRIMUDATAA,FILE,0,28.5,FINESTEERING,2319,303969.400,02000000,e5fc,17139;2319,303969.400000000,-0.0010083288545624,-0.0001363905482244,-0.0082281951567953,0.0282384680589601,0.0267117410242767,0.0008813396245309*d1026f29
#CORRIMUDATAA,FILE,0,28.5,FINESTEERING,2319,303969.450,02000000,e5fc,17139;2319,303969.450000000,-0.0006678894486430,-0.0004341887098884,-0.0081729624356560,0.0352905203324443,0.0310643794320045,-0.0059818811791556*bd550c2d
#CORRIMUDATAA,FILE,0,28.5,FINESTEERING,2319,303969.500,02000000,e5fc,17139;2319,303969.500000000,-0.0000989268846088,-0.0006395873949876,-0.0080227577778443,0.0282648533330151,0.0305768694471809,-0.0061579177878683*992921f8
#CORRIMUDATAA,FILE,0,28.5,FINESTEERING,2319,303969.550,02000000,e5fc,17139;2319,303969.550000000,-0.0002909087175672,-0.0014576278594842,-0.0079645672652081,0.0214666496231389,0.0284423576309320,0.0004481793010686*27ee5167
#CORRIMUDATAA,FILE,0,28.5,FINESTEERING,2319,303969.600,02000000,e5fc,17139;2319,303969.600000000,-0.0006855818916389,-0.0020457351893017,-0.0077923727267216,0.0130158287361749,0.0246940615621490,0.0220513389602100*f6cb52ec
#CORRIMUDATAA,FILE,0,28.5,FINESTEERING,2319,303969.650,02000000,e5fc,17139;2319,303969.650000000,-0.0008913807399161,-0.0026740941466300,-0.0076186396324521,0.0176531959821420,0.0284650489666571,-0.0137007711713510*337f4678
#CORRIMUDATAA,FILE,0,28.5,FINESTEERING,2319,303969.700,02000000,e5fc,17139;2319,303969.700000000,-0.0006395403763504,-0.0029537575105896,-0.0073169195602366,0.0277501166006305,0.0288278321990503,0.0131637820734133*5ce4eb4b
#CORRIMUDATAA,FILE,0,28.5,FINESTEERING,2319,303969.750,02000000,e5fc,17139;2319,303969.750000000,-0.0011242306626877,-0.0032260877690685,-0.0074243982729303,0.0351724298327366,0.0316088989610966,-0.0253471496326743*85e2e452
#CORRIMUDATAA,FILE,0,28.5,FINESTEERING,2319,303969.800,02000000,e5fc,17139;2319,303969.800000000,-0.0017548639431557,-0.0041164097589840,-0.0071063961509853,0.0316216237870770,0.0330799274689385,-0.0052399227407962*e5b97e75
#CORRIMUDATAA,FILE,0,28.5,FINESTEERING,2319,303969.850,02000000,e5fc,17139;2319,303969.850000000,-0.0027976130422594,-0.0034651673652797,-0.0067544730606390,0.0214004575713806,0.0368005691344535,-0.0225237259733302*12211657
#CORRIMUDATAA,FILE,0,28.5,FINESTEERING,2319,303969.900,02000000,e5fc,17139;2319,303969.900000000,-0.0039961599661147,-0.0031177654016875,-0.0063039273260214,0.0313131042686625,0.0312263798939136,-0.0096454758398204*441dfb6d
#CORRIMUDATAA,FILE,0,28.5,FINESTEERING,2319,303969.950,02000000,e5fc,17139;2319,303969.950000000,-0.0050018022278634,-0.0027263199802262,-0.0058787072654686,0.0271754592692206,0.0346489379826825,-0.0126329228592514*52e786db
#CORRIMUDATAA,FILE,0,28.5,FINESTEERING,2319,303970.000,02000000,e5fc,17139;2319,303970.000000000,-0.0044856076714119,-0.0008445003180563,-0.0055770269148952,0.0264614479081521,0.0308765713396628,0.0031666605765506*5e9d6e1c
#CORRIMUDATAA,FILE,0,28.5,FINESTEERING,2319,303970.050,02000000,e5fc,17139;2319,303970.050000000,-0.0037946125738044,0.0021891332868337,-0.0056703724914754,0.0269891527431389,0.0272146505930646,0.0259341022605883*faaa3a27
#CORRIMUDATAA,FILE,0,28.5,FINESTEERING,2319,303970.100,02000000,e5fc,17139;2319,303970.100000000,-0.0029866178312702,0.0045112766791552,-0.0056189127009124,0.0446086455428863,0.0284262450642515,0.0302685015172653*f70d6a45
#CORRIMUDATAA,FILE,0,31.5,FINESTEERING,2319,303970.150,02000000,e5fc,17139;2319,303970.150000000,-0.0029050494086268,0.0051747213612772,-0.0052688120153465,0.0480750450578808,0.0330079613936719,0.0366792249422740*bb9ecff7
#CORRIMUDATAA,FILE,0,31.5,FINESTEERING,2319,303970.200,02000000,e5fc,17139;2319,303970.200000000,-0.0030285293265766,0.0048913430453778,-0.0046217017778718,0.0353484562280045,0.0304663146867710,0.0000774963305018*33b06e98
#CORRIMUDATAA,FILE,0,31.5,FINESTEERING,2319,303970.250,02000000,e5fc,17139;2319,303970.250000000,-0.0024623173291151,0.0043658706155193,-0.0040442655830079,0.0122449834219104,0.0282504344503947,-0.0233723642013285*cc73f95b
#CORRIMUDATAA,FILE,0,31.5,FINESTEERING,2319,303970.300,02000000,e5fc,17139;2319,303970.300000000,-0.0013305457948855,0.0030121785683822,-0.0037556161885324,0.0060920189743867,0.0292638201531647,-0.0071866219410863*41a49f94
#CORRIMUDATAA,FILE,0,31.5,FINESTEERING,2319,303970.350,02000000,e5fc,17139;2319,303970.350000000,-0.0006171344651626,0.0003937603090180,-0.0035548654582581,0.0010180158310933,0.0381565022119712,-0.0429196497898327*a4ba676d
#CORRIMUDATAA,FILE,0,31.5,FINESTEERING,2319,303970.400,02000000,e5fc,17139;2319,303970.400000000,-0.0000769102883056,-0.0017373705665802,-0.0037280558400856,-0.0134169723211322,0.0443126388417062,-0.0630792584094497*6432bd93
#CORRIMUDATAA,FILE,0,31.5,FINESTEERING,2319,303970.450,02000000,e5fc,17139;2319,303970.450000000,0.0000693754023414,-0.0031790536401614,-0.0038690059032034,-0.0029700814580596,0.0422633757116263,-0.0638140875437885*0ce3273f
#CORRIMUDATAA,FILE,0,31.5,FINESTEERING,2319,303970.500,02000000,e5fc,17139;2319,303970.500000000,0.0010063377094602,-0.0055104238247058,-0.0039474660495796,0.0048282309185829,0.0468426404087756,-0.1165891830876755*3f6e502d
#CORRIMUDATAA,FILE,0,31.5,FINESTEERING,2319,303970.550,02000000,e5fc,17139;2319,303970.550000000,0.0014860667146787,-0.0042700731091662,-0.0040199129109773,0.0073682179201728,0.0401961657810242,-0.0641943412026627*796144d5
#CORRIMUDATAA,FILE,0,31.5,FINESTEERING,2319,303970.600,02000000,e5fc,17139;2319,303970.600000000,0.0011456559086212,-0.0028091254343300,-0.0038767844269748,0.0255334708330004,0.0242428245140206,0.0465972206293330*385c2db2
#CORRIMUDATAA,FILE,0,31.5,FINESTEERING,2319,303970.650,02000000,e5fc,17139;2319,303970.650000000,0.0000253873713511,-0.0006368523490112,-0.0036395668249203,0.0411630377869895,0.0263018872762806,0.0647037952821316*5ea014ed
#CORRIMUDATAA,FILE,0,31.5,FINESTEERING,2319,303970.700,02000000,e5fc,17139;2319,303970.700000000,-0.0016270475473097,0.0016643495052992,-0.0032820938135484,0.0522167901944357,0.0271138083388793,0.0653278943070660*2a870496
#CORRIMUDATAA,FILE,0,31.5,FINESTEERING,2319,303970.750,02000000,e5fc,17139;2319,303970.750000000,-0.0018785951306536,0.0026446072133558,-0.0029779529620481,0.0526510810465771,0.0300549409504835,0.0405610590224269*df0ca79f
#CORRIMUDATAA,FILE,0,31.5,FINESTEERING,2319,303970.800,02000000,e5fc,17139;2319,303970.800000000,-0.0014957871567207,0.0033420828016385,-0.0026470231869099,0.0332333093307101,0.0236366510757805,0.0412646404958293*0b5954d8
#CORRIMUDATAA,FILE,0,31.5,FINESTEERING,2319,303970.850,02000000,e5fc,17139;2319,303970.850000000,-0.0007346267844148,0.0044296701515787,-0.0024846488997299,0.0215697955582959,0.0289962892495350,0.0607370102754582*ca522ed0
#CORRIMUDATAA,FILE,0,31.5,FINESTEERING,2319,303970.900,02000000,e5fc,17139;2319,303970.900000000,-0.0003402544225439,0.0044220001675718,-0.0025332291515324,0.0143623461327716,0.0297822839263324,0.0166286713043363*b3d6501e
#CORRIMUDATAA,FILE,0,31.5,FINESTEERING,2319,303970.950,02000000,e5fc,17139;2319,303970.950000000,0.0003714453557355,0.0036116210741052,-0.0027094249421266,-0.0026199303010754,0.0425380879537384,-0.0378061796755230*3b331cb2
#CORRIMUDATAA,FILE,0,31.5,FINESTEERING,2319,303971.000,02000000,e5fc,17139;2319,303971.000000000,0.0017206353582271,0.0012656162820531,-0.0030040911189491,-0.0099891259100556,0.0431071276481149,-0.0872593275765878*4621788e
#CORRIMUDATAA,FILE,0,31.5,FINESTEERING,2319,303971.050,02000000,e5fc,17139;2319,303971.050000000,0.0025484253476855,0.0002885365919153,-0.0032233296591444,-0.0130757660130697,0.0423426284848207,-0.0686078069146474*cac76895
#CORRIMUDATAA,FILE,0,31.5,FINESTEERING,2319,303971.100,02000000,e5fc,17139;2319,303971.100000000,0.0034544464426086,-0.0015049638876680,-0.0031257801876818,0.0066577205558681,0.0394726830771199,-0.0721031957970653*d3373c4b
#CORRIMUDATAA,FILE,0,36.5,FINESTEERING,2319,303971.150,02000000,e5fc,17139;2319,303971.150000000,0.0039975847191625,-0.0020944089963243,-0.0028788454652042,0.0063054075948857,0.0402118443127262,-0.0484505973864784*7f66d329
#CORRIMUDATAA,FILE,0,36.5,FINESTEERING,2319,303971.200,02000000,e5fc,17139;2319,303971.200000000,0.0042359587302571,-0.0024429554829254,-0.0028634860594592,0.0132086214909845,0.0395227174336324,-0.0312052067189721*704bda42
#CORRIMUDATAA,FILE,0,36.5,FINESTEERING,2319,303971.250,02000000,e5fc,17139;2319,303971.250000000,0.0031343724228040,-0.0026621544960744,-0.0028481253356523,0.0196937585162433,0.0253644598760858,0.0208057545368251*8b895dd8
#CORRIMUDATAA,FILE,0,36.5,FINESTEERING,2319,303971.300,02000000,e5fc,17139;2319,303971.300000000,0.0020442305473951,-0.0025081348786162,-0.0028772681166083,0.0035630725941168,0.0230325513283769,0.0937937483985324*4c505fa5
#CORRIMUDATAA,FILE,0,36.5,FINESTEERING,2319,303971.350,02000000,e5fc,17139;2319,303971.350000000,-0.0005924692457031,-0.0007243443992706,-0.0031099220915389,0.0088591921896110,0.0129999500097804,0.1461657970493258*f19e07a0
#CORRIMUDATAA,FILE,0,36.5,FINESTEERING,2319,303971.400,02000000,e5fc,17139;2319,303971.400000000,-0.0027983477552546,-0.0000747151659583,-0.0029993087110240,0.0230466786709846,0.0177496007004960,0.1118626857446900*7aa2ae33
#CORRIMUDATAA,FILE,0,36.5,FINESTEERING,2319,303971.450,02000000,e5fc,17139;2319,303971.450000000,-0.0040996337448827,0.0009772179182333,-0.0025994492756907,0.0324826979383201,0.0205040174927624,0.0659570722229284*c10d4cb8
#CORRIMUDATAA,FILE,0,36.5,FINESTEERING,2319,303971.500,02000000,e5fc,17139;2319,303971.500000000,-0.0040978776962255,0.0008689744517553,-0.0021081792626828,0.0340206713142353,0.0288929681740636,-0.0278189423828771*58323b5d
#CORRIMUDATAA,FILE,0,36.5,FINESTEERING,2319,303971.550,02000000,e5fc,17139;2319,303971.550000000,-0.0030803274655431,0.0007100453608337,-0.0014517627639618,0.0174565145171188,0.0281641928121188,-0.0397245520165419*018d9f63
#CORRIMUDATAA,FILE,0,36.5,FINESTEERING,2319,303971.600,02000000,e5fc,17139;2319,303971.600000000,-0.0021544056197462,0.0002560872115571,-0.0010631221166249,0.0096744791853020,0.0294060195107744,-0.0685764173040428*e80064d5
#CORRIMUDATAA,FILE,0,36.5,FINESTEERING,2319,303971.650,02000000,e5fc,17139;2319,303971.650000000,-0.0010339731104221,0.0005372883782505,-0.0009010231596190,0.0007448559143739,0.0265336651985897,-0.0525491730585062*b610d5cd
#CORRIMUDATAA,FILE,0,36.5,FINESTEERING,2319,303971.700,02000000,e5fc,17139;2319,303971.700000000,-0.0000449672444957,-0.0005883521593036,-0.0008646595015394,0.0034737527208360,0.0269387887814522,-0.0731471524999390*2c0650e8
#CORRIMUDATAA,FILE,0,36.5,FINESTEERING,2319,303971.750,02000000,e5fc,17139;2319,303971.750000000,0.0009471971727887,-0.0009598132638795,-0.0009044493889543,-0.0155250241295919,0.0184992330706661,-0.0567252822531327*808a8126
#CORRIMUDATAA,FILE,0,36.5,FINESTEERING,2319,303971.800,02000000,e5fc,17139;2319,303971.800000000,0.0017193661571862,0.0003224568634569,-0.0011644383370754,-0.0045157509392243,0.0189900329045305,0.0068635344995497*35495b8d
#CORRIMUDATAA,FILE,0,36.5,FINESTEERING,2319,303971.850,02000000,e5fc,17139;2319,303971.850000000,0.0014164285051144,0.0001072582328141,-0.0010028126174297,0.0151253002347964,0.0140002475656370,0.0017762105865923*7ae990dc
#CORRIMUDATAA,FILE,0,36.5,FINESTEERING,2319,303971.900,02000000,e5fc,17139;2319,303971.900000000,0.0011273081422328,0.0004960126371740,-0.0007270093162842,0.0215640170353372,0.0108586647084873,0.0505537206773618*1282945f
#CORRIMUDATAA,FILE,0,36.5,FINESTEERING,2319,303971.950,02000000,e5fc,17139;2319,303971.950000000,-0.0000689200179948,0.0007327455405168,-0.0001813591946244,0.0182046685384232,0.0092167042616804,0.0556643500406534*b45e7cb7
#CORRIMUDATAA,FILE,0,36.5,FINESTEERING,2319,303972.000,02000000,e5fc,17139;2319,303972.000000000,-0.0005873702595479,0.0021332734805975,0.0000408599836679,0.0069714510718139,0.0162689266375009,0.0320752404225358*ed8ed5b5
#CORRIMUDATAA,FILE,0,36.5,FINESTEERING,2319,303972.050,02000000,e5fc,17139;2319,303972.050000000,-0.0015481873786670,0.0026673190812198,0.0000762384711307,0.0010985009502810,0.0144113590606015,0.0237306355241592*86cb8ee5
#CORRIMUDATAA,FILE,0,36.5,FINESTEERING,2319,303972.100,02000000,e5fc,17139;2319,303972.100000000,-0.0014683874127127,0.0028132744358579,-0.0000521150168135,-0.0015097557382837,0.0180487728824235,-0.0109948928850296*1bcf20e2
#CORRIMUDATAA,FILE,0,42.0,FINESTEERING,2319,303972.150,02000000,e5fc,17139;2319,303972.150000000,-0.0013449727574276,0.0019659173618379,-0.0000483880277587,-0.0032781434788577,0.0177303754436669,-0.0307535613811095*1148dff1
#CORRIMUDATAA,FILE,0,42.0,FINESTEERING,2319,303972.200,02000000,e5fc,17139;2319,303972.200000000,-0.0002478748996794,0.0006338504046740,-0.0000047104621188,-0.0083300435159916,0.0196860929244201,-0.0319138773608297*3ab4ed9d
#CORRIMUDATAA,FILE,0,42.0,FINESTEERING,2319,303972.250,02000000,e5fc,17139;2319,303972.250000000,-0.0000344303430053,-0.0001951081886839,0.0003163337224527,-0.0087706912726054,0.0149258241812534,-0.0168671258014701*6b841531
#CORRIMUDATAA,FILE,0,42.0,FINESTEERING,2319,303972.300,02000000,e5fc,17139;2319,303972.300000000,0.0004764503385370,-0.0003014741138374,0.0006609906943013,0.0023394923535149,0.0155265764796635,-0.0071067715738117*9aa55c1d
#CORRIMUDATAA,FILE,0,42.0,FINESTEERING,2319,303972.350,02000000,e5fc,17139;2319,303972.350000000,0.0003203983836841,-0.0011570017820323,0.0009342146382284,0.0013427956995170,0.0126858045012354,-0.0152671999953245*9dd3a842
#CORRIMUDATAA,FILE,0,42.0,FINESTEERING,2319,303972.400,02000000,e5fc,17139;2319,303972.400000000,0.0000500742636039,-0.0018380791114170,0.0008428879954084,-0.0134293753870688,0.0104092433134919,0.0261009326499025*b103065b
#CORRIMUDATAA,FILE,0,42.0,FINESTEERING,2319,303972.450,02000000,e5fc,17139;2319,303972.450000000,-0.0002260383795825,-0.0007920880471288,0.0007364156335007,-0.0124993174481507,0.0083981337015325,-0.0044469932534932*25558f3e
#CORRIMUDATAA,FILE,0,42.0,FINESTEERING,2319,303972.500,02000000,e5fc,17139;2319,303972.500000000,-0.0001690064154808,0.0008013340759151,0.0006164631872783,0.0003316495742391,0.0151755651514660,0.0050429089593097*ba8397d3
#CORRIMUDATAA,FILE,0,42.0,FINESTEERING,2319,303972.550,02000000,e5fc,17139;2319,303972.550000000,-0.0002135460075732,0.0008387781561378,0.0008592480038862,0.0129197266630389,0.0108427197314713,-0.0093752374186391*e81ee8d2
#CORRIMUDATAA,FILE,0,42.0,FINESTEERING,2319,303972.600,02000000,e5fc,17139;2319,303972.600000000,-0.0005609368358762,0.0009469801517924,0.0010340376546729,0.0131870798755586,0.0095421372868383,0.0105426599701130*4c69acae
#CORRIMUDATAA,FILE,0,42.0,FINESTEERING,2319,303972.650,02000000,e5fc,17139;2319,303972.650000000,-0.0009369318277893,0.0006287412551503,0.0014553039340642,-0.0024274227833368,0.0069920540125866,0.0139049189780344*bc19f194
#CORRIMUDATAA,FILE,0,42.0,FINESTEERING,2319,303972.700,02000000,e5fc,17139;2319,303972.700000000,-0.0011133322102138,-0.0002111348206946,0.0016290002729121,-0.0121302702060072,0.0128268555154056,-0.0118299303652144*4a8d791f
#CORRIMUDATAA,FILE,0,42.0,FINESTEERING,2319,303972.750,02000000,e5fc,17139;2319,303972.750000000,-0.0013157676711126,0.0003273195855822,0.0018786722799284,-0.0160653107238614,0.0100820111863122,0.0285336064045705*fee5c307
#CORRIMUDATAA,FILE,0,42.0,FINESTEERING,2319,303972.800,02000000,e5fc,17139;2319,303972.800000000,-0.0013170018466528,-0.0000752798971816,0.0020785331301070,-0.0092152763987291,0.0164862865192237,-0.0126637905818226*a90b6d78
#CORRIMUDATAA,FILE,0,42.0,FINESTEERING,2319,303972.850,02000000,e5fc,17139;2319,303972.850000000,-0.0013637948435006,-0.0002216257629029,0.0023958110950838,-0.0113825986464661,0.0159996104677698,-0.0086858827832259*b779a246
#CORRIMUDATAA,FILE,0,42.0,FINESTEERING,2319,303972.900,02000000,e5fc,17139;2319,303972.900000000,-0.0010029816590525,-0.0002995285633926,0.0026181103706158,-0.0203953568335192,0.0108941279947954,-0.0148525383061697*4ce2c5e0
#CORRIMUDATAA,FILE,0,42.0,FINESTEERING,2319,303972.950,02000000,e5fc,17139;2319,303972.950000000,-0.0007866937813205,0.0002248434408969,0.0028522296421336,-0.0114958024945379,0.0129193405013701,0.0028677051859956*61ba3ce7
#CORRIMUDATAA,FILE,0,42.0,FINESTEERING,2319,303973.000,02000000,e5fc,17139;2319,303973.000000000,-0.0006741080321909,-0.0000887687460056,0.0032813703977004,-0.0046441158644905,0.0069132674160392,-0.0190594242000360*d8044cb3
#CORRIMUDATAA,FILE,0,42.0,FINESTEERING,2319,303973.050,02000000,e5fc,17139;2319,303973.050000000,-0.0002683739265983,-0.0002479224799943,0.0037768688471829,-0.0113872515711743,0.0111732531844988,-0.0261864106996764*7a9c93cf
#CORRIMUDATAA,FILE,0,41.5,FINESTEERING,2319,303973.100,02000000,e5fc,17139;2319,303973.100000000,-0.0002330340000504,0.0001944553194070,0.0041561049468921,-0.0227792720612039,0.0053289540740023,-0.0027781394505769*c4e8a42a
#CORRIMUDATAA,FILE,0,41.5,FINESTEERING,2319,303973.150,02000000,e5fc,17139;2319,303973.150000000,-0.0001853078078031,0.0000685867659511,0.0046480992077490,-0.0252628376072192,0.0046800764385463,0.0092705602431259*b7c850b4
#CORRIMUDATAA,FILE,0,41.5,FINESTEERING,2319,303973.200,02000000,e5fc,17139;2319,303973.200000000,-0.0003073329376430,-0.0000577335856558,0.0051548532055662,-0.0235653386210079,0.0032447303525346,-0.0023889253952365*daae9f4d
#CORRIMUDATAA,FILE,0,41.5,FINESTEERING,2319,303973.250,02000000,e5fc,17139;2319,303973.250000000,-0.0003577188123332,-0.0002650934249139,0.0059663844779559,-0.0304485395980842,0.0052472708690931,0.0035113885388181*0bfc77fa
#CORRIMUDATAA,FILE,0,41.5,FINESTEERING,2319,303973.300,02000000,e5fc,17139;2319,303973.300000000,-0.0003045158501396,0.0003414357078381,0.0065692134746297,-0.0237370918701276,0.0067237129252939,-0.0053328317087462*f625866e
#CORRIMUDATAA,FILE,0,41.5,FINESTEERING,2319,303973.350,02000000,e5fc,17139;2319,303973.350000000,-0.0006617628207403,0.0000996281085603,0.0074763104163250,-0.0210844968557070,0.0018702435627968,0.0129426525285657*f347c796
#CORRIMUDATAA,FILE,0,41.5,FINESTEERING,2319,303973.400,02000000,e5fc,17139;2319,303973.400000000,-0.0010123669615150,0.0001111405781192,0.0081250424114101,-0.0352291700755337,0.0055097724118054,0.0053493464332629*838f47c9
#CORRIMUDATAA,FILE,0,41.5,FINESTEERING,2319,303973.450,02000000,e5fc,17139;2319,303973.450000000,-0.0008797033508348,0.0012476407382210,0.0088007337936137,-0.0365575376158013,0.0031433462264116,-0.0019394001312560*87610110
#CORRIMUDATAA,FILE,0,41.5,FINESTEERING,2319,303973.500,02000000,e5fc,17139;2319,303973.500000000,-0.0011942212133010,0.0009225279870836,0.0093666667095080,-0.0422592140757304,0.0019133048034444,-0.0083431897753958*303f7bb3
#CORRIMUDATAA,FILE,0,41.5,FINESTEERING,2319,303973.550,02000000,e5fc,17139;2319,303973.550000000,-0.0008503392593935,0.0009596496721225,0.0098701755088751,-0.0475772000736297,0.0055963470224931,-0.0036625794163015*8eba0e01
#CORRIMUDATAA,FILE,0,41.5,FINESTEERING,2319,303973.600,02000000,e5fc,17139;2319,303973.600000000,-0.0012100221189872,0.0006018079290236,0.0102062949047662,-0.0528574338636705,0.0029370592547265,-0.0140688726559753*e6babd44
#CORRIMUDATAA,FILE,0,41.5,FINESTEERING,2319,303973.650,02000000,e5fc,17139;2319,303973.650000000,-0.0010611484756642,-0.0005685273319591,0.0103689730448472,-0.0633426812033730,0.0025719431006667,0.0069009116730404*b71a8613
#CORRIMUDATAA,FILE,0,41.5,FINESTEERING,2319,303973.700,02000000,e5fc,17139;2319,303973.700000000,-0.0005887168437070,-0.0012559044888943,0.0105813466901837,-0.0635881930974456,0.0035166520911465,-0.0129708117479652*15f8ecb2
#CORRIMUDATAA,FILE,0,41.5,FINESTEERING,2319,303973.750,02000000,e5fc,17139;2319,303973.750000000,0.0002068649145952,-0.0008976270157892,0.0109323316627426,-0.0587738538674132,0.0029249513780475,-0.0113056799793534*6f0f5fae
#CORRIMUDATAA,FILE,0,41.5,FINESTEERING,2319,303973.800,02000000,e5fc,17139;2319,303973.800000000,0.0010815242222736,-0.0009700115432734,0.0114484713691118,-0.0528357430636397,0.0064966855729477,-0.0223937949301068*0d3046b1
#CORRIMUDATAA,FILE,0,41.5,FINESTEERING,2319,303973.850,02000000,e5fc,17139;2319,303973.850000000,0.0022229673747026,-0.0006409337044714,0.0119640836852149,-0.0547090322345606,-0.0011718792053570,-0.0154191864102557*7cb6ae44
#CORRIMUDATAA,FILE,0,41.5,FINESTEERING,2319,303973.900,02000000,e5fc,17139;2319,303973.900000000,0.0026874802926283,-0.0007924806882839,0.0126492299935306,-0.0588997146991544,0.0013212002407204,0.0062424184496593*d790aa4e
#CORRIMUDATAA,FILE,0,41.5,FINESTEERING,2319,303973.950,02000000,e5fc,17139;2319,303973.950000000,0.0027990943727199,-0.0000335095625381,0.0131239017075967,-0.0629369107741372,-0.0010526425383856,0.0061528877028041*c689dabe
#CORRIMUDATAA,FILE,0,41.5,FINESTEERING,2319,303974.000,02000000,e5fc,17139;2319,303974.000000000,0.0021508530466775,0.0006814869428424,0.0135548337024901,-0.0695334054906192,0.0010244964208628,-0.0056563550316021*cb970d17
#CORRIMUDATAA,FILE,0,41.5,FINESTEERING,2319,303974.050,02000000,e5fc,17139;2319,303974.050000000,0.0016024940695994,0.0001679402013097,0.0138030668392155,-0.0578650013908109,-0.0046251704324885,0.0175192459527248*f24b21ac
#CORRIMUDATAA,FILE,0,40.0,FINESTEERING,2319,303974.100,02000000,e5fc,17139;2319,303974.100000000,0.0008962705683916,-0.0002365593638249,0.0139722225078114,-0.0854589527553947,-0.0066688656579882,0.0166619922618263*e6d4165a
#CORRIMUDATAA,FILE,0,40.0,FINESTEERING,2319,303974.150,02000000,e5fc,17139;2319,303974.150000000,0.0012151954367368,0.0018333450515201,0.0138808434283325,-0.0880158615941189,-0.0062837646267365,0.0065105779675043*e3fce2ad
#CORRIMUDATAA,FILE,0,40.0,FINESTEERING,2319,303974.200,02000000,e5fc,17139;2319,303974.200000000,0.0009690963524803,0.0036948167653957,0.0139150766978844,-0.0560426692685924,-0.0088519935975271,0.0228905211401130*5f64d00e
#CORRIMUDATAA,FILE,0,40.0,FINESTEERING,2319,303974.250,02000000,e5fc,17139;2319,303974.250000000,0.0010088494064273,0.0035094758736538,0.0143030245949287,-0.0524287319199489,-0.0118483806679541,0.0261150520287934*76e7bb50
#CORRIMUDATAA,FILE,0,40.0,FINESTEERING,2319,303974.300,02000000,e5fc,17139;2319,303974.300000000,-0.0002683251620509,0.0015661192042924,0.0148912829846367,-0.0675239196607855,-0.0200201312484803,0.0355050604348091*a9e3255d
#CORRIMUDATAA,FILE,0,40.0,FINESTEERING,2319,303974.350,02000000,e5fc,17139;2319,303974.350000000,-0.0006841293125014,0.0010293817832187,0.0156097606569997,-0.0850027662970329,-0.0140822713271544,0.0232576060862331*dd5db8bf
#CORRIMUDATAA,FILE,0,40.0,FINESTEERING,2319,303974.400,02000000,e5fc,17139;2319,303974.400000000,-0.0008255707631786,0.0011036304606704,0.0164664029916227,-0.0894305011598424,-0.0112843010193836,0.0068872536555710*dd2d60a7
#CORRIMUDATAA,FILE,0,40.0,FINESTEERING,2319,303974.450,02000000,e5fc,17139;2319,303974.450000000,-0.0018746349377445,0.0007134394147147,0.0173822819647655,-0.0806888048116635,-0.0145952068185098,-0.0266764554305728*56edf6c4
#CORRIMUDATAA,FILE,0,40.0,FINESTEERING,2319,303974.500,02000000,e5fc,17139;2319,303974.500000000,-0.0016877610941702,-0.0008210516871049,0.0183526070062560,-0.0928512050660692,-0.0116174099496594,-0.0357830256964975*1bb98d34
#CORRIMUDATAA,FILE,0,40.0,FINESTEERING,2319,303974.550,02000000,e5fc,17139;2319,303974.550000000,-0.0012862704832901,-0.0002647109843090,0.0190912924062527,-0.0999658736391326,-0.0080576833040745,-0.0423313128009804*08bf5d1c
#CORRIMUDATAA,FILE,0,40.0,FINESTEERING,2319,303974.600,02000000,e5fc,17139;2319,303974.600000000,-0.0012625407589860,0.0003115398296411,0.0200449794293853,-0.0844374718986384,-0.0100118050639830,-0.0261732548104617*78b5b64a
#CORRIMUDATAA,FILE,0,40.0,FINESTEERING,2319,303974.650,02000000,e5fc,17139;2319,303974.650000000,-0.0009946858404748,0.0015504374013209,0.0210959365736351,-0.0802935562933757,-0.0191594070554118,0.0376151026660103*4713c499
#CORRIMUDATAA,FILE,0,40.0,FINESTEERING,2319,303974.700,02000000,e5fc,17139;2319,303974.700000000,-0.0013135437135608,-0.0002317559025000,0.0219748211522598,-0.0838831448350206,-0.0127719788788826,0.0072901055880907*d805c151
#CORRIMUDATAA,FILE,0,40.0,FINESTEERING,2319,303974.750,02000000,e5fc,17139;2319,303974.750000000,-0.0006123448706127,0.0005631352952702,0.0224367930333568,-0.1256093485162746,-0.0067599340213901,0.0507545115206581*ffa5b873
#CORRIMUDATAA,FILE,0,40.0,FINESTEERING,2319,303974.800,02000000,e5fc,17139;2319,303974.800000000,-0.0002556543917588,-0.0012281247246755,0.0218623816047301,-0.1352723216238965,-0.0086246145648667,-0.0243422011822932*7af719fc
#CORRIMUDATAA,FILE,0,40.0,FINESTEERING,2319,303974.850,02000000,e5fc,17139;2319,303974.850000000,0.0005697254249655,0.0003980542943388,0.0219640658945107,-0.1368189644566246,-0.0061704182657663,0.0157996913146489*dffb6725
#CORRIMUDATAA,FILE,0,40.0,FINESTEERING,2319,303974.900,02000000,e5fc,17139;2319,303974.900000000,0.0005275220996851,0.0004691582020173,0.0221648399965568,-0.0961059061917296,-0.0132605628551691,-0.0107799770694505*3f6b5f21
#CORRIMUDATAA,FILE,0,40.0,FINESTEERING,2319,303974.950,02000000,e5fc,17139;2319,303974.950000000,0.0012640056391651,0.0006560286404073,0.0229412772573776,-0.1015334122157719,-0.0038949737075220,-0.0849376580406162*fb8cddff
#CORRIMUDATAA,FILE,0,40.0,FINESTEERING,2319,303975.000,02000000,e5fc,17139;2319,303975.000000000,0.0011560254288381,0.0001751943901063,0.0231558451960535,-0.1178136188655157,-0.0027118495552387,-0.0263817019227978*999c7697
#CORRIMUDATAA,FILE,0,40.0,FINESTEERING,2319,303975.050,02000000,e5fc,17139;2319,303975.050000000,0.0008892470610305,0.0010773557503073,0.0233879230216555,-0.1047960246974865,-0.0086625423899733,-0.0160557208311385*1003327c
#CORRIMUDATAA,FILE,0,38.5,FINESTEERING,2319,303975.100,02000000,e5fc,17139;2319,303975.100000000,0.0005638308199926,0.0004074352140516,0.0212678927486448,-0.1095490380725790,-0.0044852516356875,-0.0322994480039953*4925f7d8
#CORRIMUDATAA,FILE,0,38.5,FINESTEERING,2319,303975.150,02000000,e5fc,17139;2319,303975.150000000,0.0001153155635449,-0.0002917851052112,0.0257152178479184,-0.1278220994908575,-0.0129087640264805,0.0200567404866241*fb79490b
#CORRIMUDATAA,FILE,0,38.5,FINESTEERING,2319,303975.200,02000000,e5fc,17139;2319,303975.200000000,0.0000136177158117,-0.0023396629586890,0.0232425128760745,-0.1338609669480253,-0.0129661220144882,0.0397735522084074*bc0e6143
#CORRIMUDATAA,FILE,0,38.5,FINESTEERING,2319,303975.250,02000000,e5fc,17139;2319,303975.250000000,-0.0002564436478779,-0.0028856608192340,0.0228746181430944,-0.1392049196833040,-0.0116716522661188,0.0647755958283909*0db224fd
#CORRIMUDATAA,FILE,0,38.5,FINESTEERING,2319,303975.300,02000000,e5fc,17139;2319,303975.300000000,-0.0009658486974149,-0.0027680681489058,0.0229125508000645,-0.1262402998539151,-0.0125617443165454,0.0463724442944131*1e7f1dc5
#CORRIMUDATAA,FILE,0,38.5,FINESTEERING,2319,303975.350,02000000,e5fc,17139;2319,303975.350000000,-0.0010327109720772,-0.0016606340104318,0.0228482069467371,-0.1105298936189138,-0.0057755385469839,-0.0096920737250868*beea872a
#CORRIMUDATAA,FILE,0,38.5,FINESTEERING,2319,303975.400,02000000,e5fc,17139;2319,303975.400000000,-0.0009718423595571,-0.0007767483826425,0.0229747824104198,-0.0921884527018362,-0.0059493768485705,-0.0142016216874323*5aef8ddc
#CORRIMUDATAA,FILE,0,38.5,FINESTEERING,2319,303975.450,02000000,e5fc,17139;2319,303975.450000000,-0.0000006901178653,0.0001991254684381,0.0229740981305372,-0.1012290023414992,-0.0045404796702923,-0.0379811974102104*fb5eab5c
#CORRIMUDATAA,FILE,0,38.5,FINESTEERING,2319,303975.500,02000000,e5fc,17139;2319,303975.500000000,0.0007594492982979,0.0023428814637397,0.0230823016519186,-0.0854477477304277,-0.0079242428148602,-0.0142904637672231*84dd82af
#CORRIMUDATAA,FILE,0,38.5,FINESTEERING,2319,303975.550,02000000,e5fc,17139;2319,303975.550000000,0.0014348740158174,0.0010796613452141,0.0232209116557449,-0.0965894802349604,-0.0065569406161754,-0.0321683231964475*6671cd0e
#CORRIMUDATAA,FILE,0,38.5,FINESTEERING,2319,303975.600,02000000,e5fc,17139;2319,303975.600000000,0.0012521151222925,0.0014577086555018,0.0233755712619590,-0.1172289729201091,-0.0104426480260514,-0.0078907324957971*231dd267
#CORRIMUDATAA,FILE,0,38.5,FINESTEERING,2319,303975.650,02000000,e5fc,17139;2319,303975.650000000,0.0013580903685145,0.0009632501310007,0.0232951025465146,-0.1210209171056456,-0.0144330599098034,0.0142954045820710*9f37c556
#CORRIMUDATAA,FILE,0,38.5,FINESTEERING,2319,303975.700,02000000,e5fc,17139;2319,303975.700000000,0.0001606548705198,0.0011319151218089,0.0231761868463640,-0.1210837735668073,-0.0134551773771363,0.0237078166478220*38c5b2d1
#CORRIMUDATAA,FILE,0,38.5,FINESTEERING,2319,303975.750,02000000,e5fc,17139;2319,303975.750000000,-0.0000196321195246,0.0004686153329902,0.0227870089797247,-0.1186075308447027,-0.0099210417684760,-0.0038514208748616*1ef77972
#CORRIMUDATAA,FILE,0,38.5,FINESTEERING,2319,303975.800,02000000,e5fc,17139;2319,303975.800000000,-0.0002540525569818,0.0003463417167346,0.0226726234902304,-0.1076291271586806,-0.0110675932609537,0.0035333138141758*9b195e02
#CORRIMUDATAA,FILE,0,38.5,FINESTEERING,2319,303975.850,02000000,e5fc,17139;2319,303975.850000000,0.0000462819061629,-0.0001749945365801,0.0226042873099887,-0.1068799849636820,-0.0146161075717060,0.0059051785559511*4fcb9c92
#CORRIMUDATAA,FILE,0,38.5,FINESTEERING,2319,303975.900,02000000,e5fc,17139;2319,303975.900000000,0.0005753791167195,0.0000901347528561,0.0226844745439723,-0.1079069552266769,-0.0065585940164924,-0.0093972228132701*077886b8
#CORRIMUDATAA,FILE,0,38.5,FINESTEERING,2319,303975.950,02000000,e5fc,17139;2319,303975.950000000,0.0005246550088691,0.0005750815415266,0.0226894274108468,-0.0972035420143801,-0.0186176674222893,0.0154807292438026*ee42034d
#CORRIMUDATAA,FILE,0,38.5,FINESTEERING,2319,303976.000,02000000,e5fc,17139;2319,303976.000000000,-0.0003090955658022,-0.0005530971989717,0.0226855764268109,-0.1068357488792126,-0.0161954083166927,0.0484325166470433*24488079
#CORRIMUDATAA,FILE,0,38.5,FINESTEERING,2319,303976.050,02000000,e5fc,17139;2319,303976.050000000,-0.0013996181846363,-0.0012606072737714,0.0223357802268336,-0.1120690852013552,-0.0146758131294439,0.0152258726000922*e6099bea
#CORRIMUDATAA,FILE,0,36.0,FINESTEERING,2319,303976.100,02000000,e5fc,17139;2319,303976.100000000,-0.0029257770305088,-0.0034357618192809,0.0221939581531128,-0.1265101986702220,-0.0107093560217454,-0.0140423881284616*f45413c8
#CORRIMUDATAA,FILE,0,36.0,FINESTEERING,2319,303976.150,02000000,e5fc,17139;2319,303976.150000000,-0.0031411752570876,-0.0024607557070525,0.0218305854260848,-0.1219153073768208,-0.0174509927485938,-0.0372440845093946*3ae974ba
#CORRIMUDATAA,FILE,0,36.0,FINESTEERING,2319,303976.200,02000000,e5fc,17139;2319,303976.200000000,-0.0016165878716680,-0.0017860901810679,0.0216892786408065,-0.1102632925738611,-0.0048544714466417,-0.0180969556500934*309346f2
#CORRIMUDATAA,FILE,0,36.0,FINESTEERING,2319,303976.250,02000000,e5fc,17139;2319,303976.250000000,-0.0011090471232061,-0.0016825751441381,0.0215525508510430,-0.0832127730806974,-0.0041903901693059,-0.0515331793700390*6d446aad
#CORRIMUDATAA,FILE,0,36.0,FINESTEERING,2319,303976.300,02000000,e5fc,17139;2319,303976.300000000,0.0002774697695198,-0.0012929532351515,0.0219143689451123,-0.0799855048338451,-0.0056728753774843,-0.0174853442768920*7d994924
#CORRIMUDATAA,FILE,0,36.0,FINESTEERING,2319,303976.350,02000000,e5fc,17139;2319,303976.350000000,0.0003082505447552,-0.0018830698205857,0.0220104300885488,-0.1018372479965631,-0.0152107893501591,0.0214874212824102*46b48b4d
#CORRIMUDATAA,FILE,0,36.0,FINESTEERING,2319,303976.400,02000000,e5fc,17139;2319,303976.400000000,0.0003735650833538,-0.0009255340435044,0.0218176857421770,-0.1061542498190465,-0.0090646303963113,0.0219121492744528*f944efc5
#CORRIMUDATAA,FILE,0,36.0,FINESTEERING,2319,303976.450,02000000,e5fc,17139;2319,303976.450000000,-0.0004185557531159,0.0000742079910948,0.0217303020526066,-0.0960603515550816,-0.0152945651706932,0.0476398020676715*44f29854
#CORRIMUDATAA,FILE,0,36.0,FINESTEERING,2319,303976.500,02000000,e5fc,17139;2319,303976.500000000,-0.0014813046833519,-0.0002119062439628,0.0215298607527777,-0.0907504455415067,-0.0137517224641833,0.0346267121989390*2ca26be0
#CORRIMUDATAA,FILE,0,36.0,FINESTEERING,2319,303976.550,02000000,e5fc,17139;2319,303976.550000000,-0.0023796166062778,0.0000140005632343,0.0214848719256322,-0.0889614337120287,-0.0121486623569915,0.0081210447962976*114121f6
#CORRIMUDATAA,FILE,0,36.0,FINESTEERING,2319,303976.600,02000000,e5fc,17139;2319,303976.600000000,-0.0014312170112033,-0.0008264958778050,0.0212901918936928,-0.0969542585566815,0.0066485698436802,-0.0313191486613889*588bd46b
#CORRIMUDATAA,FILE,0,36.0,FINESTEERING,2319,303976.650,02000000,e5fc,17139;2319,303976.650000000,-0.0006182637085932,-0.0019459351811306,0.0208994536272464,-0.1143241992169393,0.0011092403545376,-0.1330410645135413*9b4e1427
#CORRIMUDATAA,FILE,0,36.0,FINESTEERING,2319,303976.700,02000000,e5fc,17139;2319,303976.700000000,0.0008574717837783,0.0011134761685103,0.0204153190062921,-0.1055896935465912,0.0045953183511292,-0.0100404873961296*7a32bb0a
#CORRIMUDATAA,FILE,0,36.0,FINESTEERING,2319,303976.750,02000000,e5fc,17139;2319,303976.750000000,0.0012641087589656,-0.0010176681166499,0.0200203089580052,-0.0768890462463610,-0.0095654034461953,0.0086757121128860*11628398
#CORRIMUDATAA,FILE,0,36.0,FINESTEERING,2319,303976.800,02000000,e5fc,17139;2319,303976.800000000,0.0015943921693776,-0.0000611116847800,0.0198791101925706,-0.0754392470283370,0.0051311223662908,-0.0094496668261784*196ad078
#CORRIMUDATAA,FILE,0,36.0,FINESTEERING,2319,303976.850,02000000,e5fc,17139;2319,303976.850000000,0.0006172947198745,-0.0013783203788254,0.0190673444410323,-0.0900262334643551,-0.0014988869785257,0.0011685780359529*77702cdd
#CORRIMUDATAA,FILE,0,36.0,FINESTEERING,2319,303976.900,02000000,e5fc,17139;2319,303976.900000000,0.0002250024082077,-0.0006816970654523,0.0178187038491175,-0.1052953171529857,0.0045629578007048,0.0493789801296518*5f959178
#CORRIMUDATAA,FILE,0,36.0,FINESTEERING,2319,303976.950,02000000,e5fc,17139;2319,303976.950000000,-0.0007277083810349,-0.0026966293972510,0.0159317373616106,-0.0990108731217230,-0.0020200968293113,0.0445767186270646*e2eaaaa6
#CORRIMUDATAA,FILE,0,36.0,FINESTEERING,2319,303977.000,02000000,e5fc,17139;2319,303977.000000000,-0.0006347408788154,-0.0019367277876774,0.0148403848001216,-0.0728316649259415,0.0116374266373539,0.0002301149781514*07f0f4ad
#CORRIMUDATAA,FILE,0,36.0,FINESTEERING,2319,303977.050,02000000,e5fc,17139;2319,303977.050000000,-0.0008171286555836,-0.0012557789965904,0.0140605141649032,-0.0702472457330383,0.0073284353655620,-0.0134255814973957*88d19620
#CORRIMUDATAA,FILE,0,35.5,FINESTEERING,2319,303977.100,02000000,e5fc,17139;2319,303977.100000000,-0.0005117082554122,-0.0001801455823990,0.0122250056468082,-0.0503851978895365,0.0049652584323034,0.0086221987012542*61365bce
#CORRIMUDATAA,FILE,0,35.5,FINESTEERING,2319,303977.150,02000000,e5fc,17139;2319,303977.150000000,-0.0005738650686969,-0.0006810729660948,0.0143651245301027,-0.0542292061313596,0.0114196596210032,-0.0232238506694463*463061ea
#CORRIMUDATAA,FILE,0,35.5,FINESTEERING,2319,303977.200,02000000,e5fc,17139;2319,303977.200000000,0.0001071688637091,-0.0004375417619358,0.0125504691124522,-0.0517924271310890,0.0129178563316154,-0.0052195747615959*e41b9ff7
#CORRIMUDATAA,FILE,0,35.5,FINESTEERING,2319,303977.250,02000000,e5fc,17139;2319,303977.250000000,-0.0003374516404089,-0.0005262997037789,0.0119525402500002,-0.0605403142462610,0.0057387235202874,-0.0111013270483899*b5f3f863
