#INSPVAXA,FILE,0,32.5,FINESTEERING,2319,303963.950,02000000,46eb,17139;INS_SOLUTION_GOOD,INS_RTKFIXED,17.59970727459,78.12306617934,523.7816,-76.2000,-1.5127,1.9172,0.0558,-2.160283713,0.171189740,129.290181047,0.0618,0.0617,0.0543,0.0207,0.0203,0.0127,0.0250,0.0250,0.4909,ab000241,0*9e6176b0
#INSPVAXA,FILE,0,32.5,FINESTEERING,2319,303964.000,02000000,46eb,17139;INS_SOLUTION_GOOD,INS_RTKFIXED,17.59970655125,78.12306708443,523.7841,-76.2000,-1.5527,1.8541,0.0598,-1.901853684,0.154764938,130.884530697,0.0618,0.0617,0.0543,0.0207,0.0203,0.0127,0.0250,0.0250,0.4909,ab000241,0*b324a118
#INSPVAXA,FILE,0,32.5,FINESTEERING,2319,303964.050,02000000,46eb,17139;INS_SOLUTION_GOOD,INS_RTKFIXED,17.59970576732,78.12306795831,523.7868,-76.2000,-1.5916,1.7843,0.0676,-1.616711955,0.124011148,132.497292747,0.0675,0.0674,0.0542,0.0223,0.0218,0.0135,0.0239,0.0242,0.4905,ab000241,0*c7fc568a
#INSPVAXA,FILE,0,31.5,FINESTEERING,2319,303964.100,02000000,46eb,17139;INS_SOLUTION_GOOD,INS_RTKFIXED,17.59970493569,78.12306879507,523.7890,-76.2000,-1.6371,1.6997,0.0527,-1.438751371,0.147104819,134.098458588,0.0675,0.0674,0.0542,0.0223,0.0218,0.0135,0.0239,0.0242,0.4905,ab000241,0*28850e6e
#INSPVAXA,FILE,0,31.5,FINESTEERING,2319,303964.150,02000000,46eb,17139;INS_SOLUTION_GOOD,INS_RTKFIXED,17.59970408881,78.12306960083,523.7907,-76.2000,-1.6654,1.6458,0.0413,-1.407750910,0.250952542,135.688295618,0.0675,0.0674,0.0542,0.0223,0.0218,0.0135,0.0239,0.0242,0.4905,ab000241,0*1c3102a9
#INSPVAXA,FILE,0,31.5,FINESTEERING,2319,303964.200,02000000,46eb,17139;INS_SOLUTION_GOOD,INS_RTKFIXED,17.59970323392,78.12307038512,523.7921,-76.2000,-1.6736,1.6098,0.0439,-1.507164353,0.412375570,137.288575389,0.0675,0.0674,0.0542,0.0223,0.0218,0.0135,0.0239,0.0242,0.4905,ab000241,0*13aaa034
#INSPVAXA,FILE,0,31.5,FINESTEERING,2319,303964.250,02000000,46eb,17139;INS_SOLUTION_GOOD,INS_RTKFIXED,17.59970237949,78.12307115553,523.7939,-76.2000,-1.6709,1.5848,0.0534,-1.676665667,0.600183815,138.923406368,0.0675,0.0674,0.0542,0.0223,0.0218,0.0135,0.0239,0.0242,0.4905,ab000241,0*2d7547c1
#INSPVAXA,FILE,0,31.5,FINESTEERING,2319,303964.300,02000000,46eb,17139;INS_SOLUTION_GOOD,INS_RTKFIXED,17.59970152678,78.12307190936,523.7965,-76.2000,-1.6699,1.5415,0.0715,-1.904330160,0.798616212,140.593113933,0.0675,0.0674,0.0542,0.0223,0.0218,0.0135,0.0239,0.0242,0.4905,ab000241,0*1bfe9d41
#INSPVAXA,FILE,0,31.5,FINESTEERING,2319,303964.350,02000000,46eb,17139;INS_SOLUTION_GOOD,INS_RTKFIXED,17.59970067053,78.12307263960,523.7998,-76.2000,-1.6908,1.4851,0.0845,-2.204448751,0.992037835,142.284374769,0.0675,0.0674,0.0542,0.0223,0.0218,0.0135,0.0239,0.0242,0.4905,ab000241,0*fceb369a
#INSPVAXA,FILE,0,31.5,FINESTEERING,2319,303964.400,02000000,46eb,17139;INS_SOLUTION_GOOD,INS_RTKFIXED,17.59969980522,78.12307334403,523.8033,-76.2000,-1.7081,1.4277,0.0843,-2.574600402,1.131192405,143.952472282,0.0675,0.0674,0.0542,0.0223,0.0218,0.0135,0.0239,0.0242,0.4905,ab000241,0*b385bd46
#INSPVAXA,FILE,0,31.5,FINESTEERING,2319,303964.450,02000000,46eb,17139;INS_SOLUTION_GOOD,INS_RTKFIXED,17.59969893353,78.12307401578,523.8072,-76.2000,-1.7275,1.3506,0.0895,-2.841757946,1.307134112,145.582598215,0.0675,0.0674,0.0542,0.0223,0.0218,0.0135,0.0239,0.0242,0.4905,ab000241,0*fc211634
#INSPVAXA,FILE,0,31.5,FINESTEERING,2319,303964.500,02000000,46eb,17139;INS_SOLUTION_GOOD,INS_RTKFIXED,17.59969805469,78.12307464553,523.8113,-76.2000,-1.7412,1.2539,0.0959,-3.038968046,1.485560490,147.159951461,0.0675,0.0674,0.0542,0.0223,0.0218,0.0135,0.0239,0.0242,0.4905,ab000241,0*4af86c6e
#INSPVAXA,FILE,0,31.5,FINESTEERING,2319,303964.550,02000000,46eb,17139;INS_SOLUTION_GOOD,INS_RTKFIXED,17.59969716969,78.12307523487,523.8149,-76.2000,-1.7600,1.1718,0.0799,-3.157634240,1.711851330,148.718328553,0.0675,0.0674,0.0542,0.0223,0.0218,0.0135,0.0239,0.0242,0.4905,ab000241,0*5db2c540
#INSPVAXA,FILE,0,31.5,FINESTEERING,2319,303964.600,02000000,46eb,17139;INS_SOLUTION_GOOD,INS_RTKFIXED,17.59969627961,78.12307578307,523.8180,-76.2000,-1.7682,1.0856,0.0676,-3.212665517,1.947286879,150.258194417,0.0675,0.0674,0.0542,0.0223,0.0218,0.0135,0.0239,0.0242,0.4905,ab000241,0*7d6bc21b
#INSPVAXA,FILE,0,31.5,FINESTEERING,2319,303964.650,02000000,46eb,17139;INS_SOLUTION_GOOD,INS_RTKFIXED,17.59969538760,78.12307629765,523.8200,-76.2000,-1.7737,1.0248,0.0460,-3.149665296,2.219412896,151.806285219,0.0675,0.0674,0.0542,0.0223,0.0218,0.0135,0.0239,0.0242,0.4905,ab000241,0*4e2f4e34
#INSPVAXA,FILE,0,31.5,FINESTEERING,2319,303964.700,02000000,46eb,17139;INS_SOLUTION_GOOD,INS_RTKFIXED,17.59969449362,78.12307678067,523.8211,-76.2000,-1.7787,0.9545,0.0261,-2.972160912,2.495292436,153.354216452,0.0675,0.0674,0.0542,0.0223,0.0218,0.0135,0.0239,0.0242,0.4905,ab000241,0*bf301725
#INSPVAXA,FILE,0,31.5,FINESTEERING,2319,303964.750,02000000,46eb,17139;INS_SOLUTION_GOOD,INS_RTKFIXED,17.59969359690,78.12307723271,523.8216,-76.2000,-1.7918,0.8893,0.0087,-2.703119466,2.793087324,154.893472059,0.0675,0.0674,0.0542,0.0223,0.0218,0.0135,0.0239,0.0242,0.4905,ab000241,0*6dbada77
#INSPVAXA,FILE,0,31.5,FINESTEERING,2319,303964.800,02000000,46eb,17139;INS_SOLUTION_GOOD,INS_RTKFIXED,17.59969269419,78.12307765296,523.8213,-76.2000,-1.8062,0.8219,-0.0044,-2.402828306,3.092976900,156.417580953,0.0675,0.0674,0.0542,0.0223,0.0218,0.0135,0.0239,0.0242,0.4905,ab000241,0*0c5afd93
#INSPVAXA,FILE,0,31.5,FINESTEERING,2319,303964.850,02000000,46eb,17139;INS_SOLUTION_GOOD,INS_RTKFIXED,17.59969178736,78.12307804334,523.8205,-76.2000,-1.8187,0.7647,-0.0082,-2.121942172,3.426334710,157.925191422,0.0675,0.0674,0.0542,0.0223,0.0218,0.0135,0.0239,0.0242,0.4905,ab000241,0*ab9607fe
#INSPVAXA,FILE,0,31.5,FINESTEERING,2319,303964.900,02000000,46eb,17139;INS_SOLUTION_GOOD,INS_RTKFIXED,17.59969087405,78.12307840969,523.8195,-76.2000,-1.8341,0.7196,-0.0039,-1.886950360,3.755403949,159.428924948,0.0675,0.0674,0.0542,0.0223,0.0218,0.0135,0.0239,0.0242,0.4905,ab000241,0*57cba7d2
#INSPVAXA,FILE,0,31.5,FINESTEERING,2319,303964.950,02000000,46eb,17139;INS_SOLUTION_GOOD,INS_RTKFIXED,17.59968995609,78.12307876046,523.8191,-76.2000,-1.8473,0.6949,0.0095,-1.686707259,4.094008240,160.939663426,0.0675,0.0674,0.0542,0.0223,0.0218,0.0135,0.0239,0.0242,0.4905,ab000241,0*2d06a7c8
#INSPVAXA,FILE,0,31.5,FINESTEERING,2319,303965.000,02000000,46eb,17139;INS_SOLUTION_GOOD,INS_RTKFIXED,17.59968903151,78.12307910080,523.8195,-76.2000,-1.8677,0.6741,0.0245,-1.467031120,4.439082948,162.458062024,0.0675,0.0674,0.0542,0.0223,0.0218,0.0135,0.0239,0.0242,0.4905,ab000241,0*aff8e6ef
#INSPVAXA,FILE,0,31.5,FINESTEERING,2319,303965.050,02000000,46eb,17139;INS_SOLUTION_GOOD,INS_RTKFIXED,17.59968808065,78.12307938965,523.8203,-76.2000,-1.8966,0.6187,0.0286,-1.257434577,4.779468326,163.980601260,0.0720,0.0719,0.0549,0.0252,0.0242,0.0154,0.0240,0.0233,0.4900,ab001241,0*937645c8
#INSPVAXA,FILE,0,31.5,FINESTEERING,2319,303965.100,02000000,46eb,17139;INS_SOLUTION_GOOD,INS_RTKFIXED,17.59968708690,78.12307961692,523.8214,-76.2000,-1.9153,0.5423,0.0509,-1.088917460,5.110409099,165.480111549,0.0720,0.0719,0.0549,0.0252,0.0242,0.0154,0.0240,0.0233,0.4900,ab001241,0*db950af6
#INSPVAXA,FILE,0,32.5,FINESTEERING,2319,303965.150,02000000,46eb,17139;INS_SOLUTION_GOOD,INS_RTKFIXED,17.59968608404,78.12307981689,523.8224,-76.2000,-1.9406,0.4990,0.0247,-1.009039415,5.477573103,166.973022267,0.0720,0.0719,0.0549,0.0252,0.0242,0.0154,0.0240,0.0233,0.4900,ab001241,0*7cc8aa47
#INSPVAXA,FILE,0,32.5,FINESTEERING,2319,303965.200,02000000,46eb,17139;INS_SOLUTION_GOOD,INS_RTKFIXED,17.59968507388,78.12308000281,523.8237,-76.2000,-1.9568,0.4783,0.0268,-0.944105079,5.806781789,168.500198586,0.0720,0.0719,0.0549,0.0252,0.0242,0.0154,0.0240,0.0233,0.4900,ab001241,0*b628abf5
#INSPVAXA,FILE,0,32.5,FINESTEERING,2319,303965.250,02000000,46eb,17139;INS_SOLUTION_GOOD,INS_RTKFIXED,17.59968405315,78.12308017933,523.8233,-76.2000,-1.9826,0.4537,-0.0044,-0.846753308,6.151383870,170.074292099,0.0720,0.0719,0.0549,0.0252,0.0242,0.0154,0.0240,0.0233,0.4900,ab001241,0*276db6ba
#INSPVAXA,FILE,0,32.5,FINESTEERING,2319,303965.300,02000000,46eb,17139;INS_SOLUTION_GOOD,INS_RTKFIXED,17.59968302622,78.12308034778,523.8225,-76.2000,-1.9950,0.4360,-0.0115,-0.857167841,6.493731032,171.709732439,0.0720,0.0719,0.0549,0.0252,0.0242,0.0154,0.0240,0.0233,0.4900,ab001241,0*aed94426
#INSPVAXA,FILE,0,32.5,FINESTEERING,2319,303965.350,02000000,46eb,17139;INS_SOLUTION_GOOD,INS_RTKFIXED,17.59968199167,78.12308050177,523.8216,-76.2000,-2.0057,0.3891,0.0076,-0.929630220,6.779287259,173.398804762,0.0720,0.0719,0.0549,0.0252,0.0242,0.0154,0.0240,0.0233,0.4900,ab001241,0*7ac5f4bb
#INSPVAXA,FILE,0,32.5,FINESTEERING,2319,303965.400,02000000,46eb,17139;INS_SOLUTION_GOOD,INS_RTKFIXED,17.59968096148,78.12308063254,523.8254,-76.2000,-1.9990,0.3455,0.1299,-1.034532278,6.993658610,175.087727576,0.0720,0.0719,0.0549,0.0252,0.0242,0.0154,0.0240,0.0233,0.4900,ab001241,0*1f96f954
#INSPVAXA,FILE,0,32.5,FINESTEERING,2319,303965.450,02000000,46eb,17139;INS_SOLUTION_GOOD,INS_RTKFIXED,17.59967993367,78.12308073650,523.8347,-76.2000,-1.9869,0.2749,0.2623,-0.947078139,6.999813096,176.765549662,0.0720,0.0719,0.0549,0.0252,0.0242,0.0154,0.0240,0.0233,0.4900,ab001241,0*b0817731
#INSPVAXA,FILE,0,32.5,FINESTEERING,2319,303965.500,02000000,46eb,17139;INS_SOLUTION_GOOD,INS_RTKFIXED,17.59967890485,78.12308080497,523.8485,-76.2000,-1.9987,0.1892,0.3264,-0.784095669,6.927647934,178.425374240,0.0720,0.0719,0.0549,0.0252,0.0242,0.0154,0.0240,0.0233,0.4900,ab001241,0*e8c6a5c2
#INSPVAXA,FILE,0,32.5,FINESTEERING,2319,303965.550,02000000,46eb,17139;INS_SOLUTION_GOOD,INS_RTKFIXED,17.59967787225,78.12308083357,523.8648,-76.2000,-2.0205,0.0996,0.3381,-0.615898301,6.799178349,180.067166158,0.0720,0.0719,0.0549,0.0252,0.0242,0.0154,0.0240,0.0233,0.4900,ab001241,0*ee11981e
#INSPVAXA,FILE,0,32.5,FINESTEERING,2319,303965.600,02000000,46eb,17139;INS_SOLUTION_GOOD,INS_RTKFIXED,17.59967682784,78.12308082356,523.8807,-76.2000,-2.0467,0.0207,0.3306,-0.403862045,6.636439786,181.685211700,0.0720,0.0719,0.0549,0.0252,0.0242,0.0154,0.0240,0.0233,0.4900,ab001241,0*4f96188a
#INSPVAXA,FILE,0,32.5,FINESTEERING,2319,303965.650,02000000,46eb,17139;INS_SOLUTION_GOOD,INS_RTKFIXED,17.59967576915,78.12308078009,523.8959,-76.2000,-2.0850,-0.0451,0.3062,-0.130452280,6.575907097,183.277047708,0.0720,0.0719,0.0549,0.0252,0.0242,0.0154,0.0240,0.0233,0.4900,ab001241,0*3a76e111
#INSPVAXA,FILE,0,32.5,FINESTEERING,2319,303965.700,02000000,46eb,17139;INS_SOLUTION_GOOD,INS_RTKFIXED,17.59967469134,78.12308070942,523.9095,-76.2000,-2.1370,-0.1013,0.2484,0.193338043,6.563261898,184.871635071,0.0720,0.0719,0.0549,0.0252,0.0242,0.0154,0.0240,0.0233,0.4900,ab001241,0*4d538842
#INSPVAXA,FILE,0,32.5,FINESTEERING,2319,303965.750,02000000,46eb,17139;INS_SOLUTION_GOOD,INS_RTKFIXED,17.59967359173,78.12308061275,523.9204,-76.2000,-2.1836,-0.1594,0.2023,0.594182127,6.594122550,186.472985315,0.0720,0.0719,0.0549,0.0252,0.0242,0.0154,0.0240,0.0233,0.4900,ab001241,0*4f6a5c8f
#INSPVAXA,FILE,0,32.5,FINESTEERING,2319,303965.800,02000000,46eb,17139;INS_SOLUTION_GOOD,INS_RTKFIXED,17.59967247466,78.12308048558,523.9295,-76.2000,-2.2201,-0.2293,0.1794,0.972039148,6.687445500,188.056643301,0.0720,0.0719,0.0549,0.0252,0.0242,0.0154,0.0240,0.0233,0.4900,ab001241,0*39edd3e6
#INSPVAXA,FILE,0,32.5,FINESTEERING,2319,303965.850,02000000,46eb,17139;INS_SOLUTION_GOOD,INS_RTKFIXED,17.59967134323,78.12308032429,523.9379,-76.2000,-2.2499,-0.3075,0.1761,1.312000880,6.783703822,189.622793155,0.0720,0.0719,0.0549,0.0252,0.0242,0.0154,0.0240,0.0233,0.4900,ab001241,0*6dad85e7
#INSPVAXA,FILE,0,32.5,FINESTEERING,2319,303965.900,02000000,46eb,17139;INS_SOLUTION_GOOD,INS_RTKFIXED,17.59967019903,78.12308013390,523.9468,-76.2000,-2.2780,-0.3617,0.1908,1.562874024,6.835908345,191.186348306,0.0720,0.0719,0.0549,0.0252,0.0242,0.0154,0.0240,0.0233,0.4900,ab001241,0*30d4c43f
#INSPVAXA,FILE,0,32.5,FINESTEERING,2319,303965.950,02000000,46eb,17139;INS_SOLUTION_GOOD,INS_RTKFIXED,17.59966904168,78.12307992146,523.9567,-76.2000,-2.3060,-0.4068,0.2228,1.768626421,6.855878416,192.766969297,0.0720,0.0719,0.0549,0.0252,0.0242,0.0154,0.0240,0.0233,0.4900,ab001241,0*a43fda5b
#INSPVAXA,FILE,0,32.5,FINESTEERING,2319,303966.000,02000000,46eb,17139;INS_SOLUTION_GOOD,INS_RTKFIXED,17.59966787660,78.12307968460,523.9687,-76.2000,-2.3216,-0.4642,0.2595,1.906666316,6.815212621,194.370707329,0.0720,0.0719,0.0549,0.0252,0.0242,0.0154,0.0240,0.0233,0.4900,ab001241,0*1057501a
#INSPVAXA,FILE,0,32.5,FINESTEERING,2319,303966.050,02000000,46eb,17139;INS_SOLUTION_GOOD,INS_RTKFIXED,17.59966672446,78.12307936616,523.9821,-76.2000,-2.3360,-0.5170,0.3123,2.020502703,6.697518594,196.007528990,0.0727,0.0727,0.0560,0.0278,0.0267,0.0172,0.0258,0.0241,0.4896,ab000241,0*0f8e6e20
#INSPVAXA,FILE,0,32.5,FINESTEERING,2319,303966.100,02000000,46eb,17139;INS_SOLUTION_GOOD,INS_RTKFIXED,17.59966558698,78.12307898084,523.9969,-76.2000,-2.3518,-0.5857,0.3512,2.152573185,6.501728119,197.668868259,0.0727,0.0727,0.0560,0.0278,0.0267,0.0172,0.0258,0.0241,0.4896,ab000241,0*1218bbb2
#INSPVAXA,FILE,0,32.5,FINESTEERING,2319,303966.150,02000000,46eb,17139;INS_SOLUTION_GOOD,INS_RTKFIXED,17.59966444525,78.12307856171,524.0126,-76.2000,-2.3551,-0.6689,0.3568,2.308037927,6.261220822,199.337931974,0.0727,0.0727,0.0560,0.0278,0.0267,0.0172,0.0258,0.0241,0.4896,ab000241,0*1668123f
#INSPVAXA,FILE,0,32.5,FINESTEERING,2319,303966.200,02000000,46eb,17139;INS_SOLUTION_GOOD,INS_RTKFIXED,17.59966329992,78.12307809810,524.0282,-76.2000,-2.3653,-0.7746,0.3343,2.472643007,6.047552630,200.983050750,0.0727,0.0727,0.0560,0.0278,0.0267,0.0172,0.0258,0.0241,0.4896,ab000241,0*17e0f3f7
#INSPVAXA,FILE,0,32.5,FINESTEERING,2319,303966.250,02000000,46eb,17139;INS_SOLUTION_GOOD,INS_RTKFIXED,17.59966214787,78.12307758840,524.0423,-76.2000,-2.3808,-0.8724,0.2889,2.663200783,5.869502617,202.611584083,0.0727,0.0727,0.0560,0.0278,0.0267,0.0172,0.0258,0.0241,0.4896,ab000241,0*4112b535
#INSPVAXA,FILE,0,32.5,FINESTEERING,2319,303966.300,02000000,46eb,17139;INS_SOLUTION_GOOD,INS_RTKFIXED,17.59966099113,78.12307703412,524.0544,-76.2000,-2.3948,-0.9682,0.2516,2.832060535,5.758353579,204.216507583,0.0727,0.0727,0.0560,0.0278,0.0267,0.0172,0.0258,0.0241,0.4896,ab000241,0*f66bff90
#INSPVAXA,FILE,0,32.5,FINESTEERING,2319,303966.350,02000000,46eb,17139;INS_SOLUTION_GOOD,INS_RTKFIXED,17.59965983118,78.12307643925,524.0647,-76.2000,-2.3958,-1.0521,0.2279,2.948958974,5.661142494,205.802828264,0.0727,0.0727,0.0560,0.0278,0.0267,0.0172,0.0258,0.0241,0.4896,ab000241,0*b2e06543
#INSPVAXA,FILE,0,32.5,FINESTEERING,2319,303966.400,02000000,46eb,17139;INS_SOLUTION_GOOD,INS_RTKFIXED,17.59965866654,78.12307580907,524.0741,-76.2000,-2.4124,-1.1221,0.2195,2.972846798,5.636846846,207.390039419,0.0727,0.0727,0.0560,0.0278,0.0267,0.0172,0.0258,0.0241,0.4896,ab000241,0*aeb96156
#INSPVAXA,FILE,0,32.5,FINESTEERING,2319,303966.450,02000000,46eb,17139;INS_SOLUTION_GOOD,INS_RTKFIXED,17.59965749617,78.12307515484,524.0833,-76.2000,-2.4265,-1.1630,0.2062,3.082166117,5.648834086,208.973227858,0.0727,0.0727,0.0560,0.0278,0.0267,0.0172,0.0258,0.0241,0.4896,ab000241,0*14ca58e8
#INSPVAXA,FILE,0,32.5,FINESTEERING,2319,303966.500,02000000,46eb,17139;INS_SOLUTION_GOOD,INS_RTKFIXED,17.59965632703,78.12307446595,524.0929,-76.2000,-2.4074,-1.2649,0.2342,3.180371358,5.700902738,210.606764953,0.0727,0.0727,0.0560,0.0278,0.0267,0.0172,0.0258,0.0241,0.4896,ab000241,0*f94ca6b5
#INSPVAXA,FILE,0,32.5,FINESTEERING,2319,303966.550,02000000,46eb,17139;INS_SOLUTION_GOOD,INS_RTKFIXED,17.59965516494,78.12307373950,524.1036,-76.2000,-2.3959,-1.3265,0.2605,2.982185614,5.649293288,212.220837293,0.0727,0.0727,0.0560,0.0278,0.0267,0.0172,0.0258,0.0241,0.4896,ab000241,0*de471be9
#INSPVAXA,FILE,0,32.5,FINESTEERING,2319,303966.600,02000000,46eb,17139;INS_SOLUTION_GOOD,INS_RTKFIXED,17.59965400266,78.12307298620,524.1164,-76.2000,-2.4033,-1.3899,0.3110,2.911303830,5.626836239,213.837090576,0.0727,0.0727,0.0560,0.0278,0.0267,0.0172,0.0258,0.0241,0.4896,ab000241,0*9b399664
#INSPVAXA,FILE,0,32.5,FINESTEERING,2319,303966.650,02000000,46eb,17139;INS_SOLUTION_GOOD,INS_RTKFIXED,17.59965284274,78.12307220008,524.1302,-76.2000,-2.3848,-1.4708,0.3075,2.925325504,5.570559884,215.449744953,0.0727,0.0727,0.0560,0.0278,0.0267,0.0172,0.0258,0.0241,0.4896,ab000241,0*9412f8d7
#INSPVAXA,FILE,0,32.5,FINESTEERING,2319,303966.700,02000000,46eb,17139;INS_SOLUTION_GOOD,INS_RTKFIXED,17.59965169645,78.12307136947,524.1446,-76.2000,-2.3508,-1.5797,0.3103,2.928082870,5.537068985,217.039093004,0.0727,0.0727,0.0560,0.0278,0.0267,0.0172,0.0258,0.0241,0.4896,ab000241,0*f7f0851f
#INSPVAXA,FILE,0,32.5,FINESTEERING,2319,303966.750,02000000,46eb,17139;INS_SOLUTION_GOOD,INS_RTKFIXED,17.59965056854,78.12307049129,524.1577,-76.2000,-2.3092,-1.6829,0.2703,2.960247887,5.528742266,218.592641709,0.0727,0.0727,0.0560,0.0278,0.0267,0.0172,0.0258,0.0241,0.4896,ab000241,0*7fdefe93
#INSPVAXA,FILE,0,32.5,FINESTEERING,2319,303966.800,02000000,46eb,17139;INS_SOLUTION_GOOD,INS_RTKFIXED,17.59964945724,78.12306956921,524.1688,-76.2000,-2.2742,-1.7680,0.2394,2.912617315,5.549598108,220.133173630,0.0727,0.0727,0.0560,0.0278,0.0267,0.0172,0.0258,0.0241,0.4896,ab000241,0*9622ca20
#INSPVAXA,FILE,0,32.5,FINESTEERING,2319,303966.850,02000000,46eb,17139;INS_SOLUTION_GOOD,INS_RTKFIXED,17.59964835186,78.12306861426,524.1781,-76.2000,-2.2643,-1.8325,0.2009,2.893149228,5.581766097,221.635299329,0.0727,0.0727,0.0560,0.0278,0.0267,0.0172,0.0258,0.0241,0.4896,ab000241,0*73adc323
#INSPVAXA,FILE,0,32.5,FINESTEERING,2319,303966.900,02000000,46eb,17139;INS_SOLUTION_GOOD,INS_RTKFIXED,17.59964725574,78.12306763023,524.1867,-76.2000,-2.2397,-1.9044,0.1708,2.933760953,5.606036744,223.087100886,0.0727,0.0727,0.0560,0.0278,0.0267,0.0172,0.0258,0.0241,0.4896,ab000241,0*fc5cf549
#INSPVAXA,FILE,0,32.5,FINESTEERING,2319,303966.950,02000000,46eb,17139;INS_SOLUTION_GOOD,INS_RTKFIXED,17.59964617787,78.12306661061,524.1941,-76.2000,-2.1919,-1.9759,0.1578,2.961859236,5.575805139,224.484572586,0.0727,0.0727,0.0560,0.0278,0.0267,0.0172,0.0258,0.0241,0.4896,ab000241,0*bac49e96
#INSPVAXA,FILE,0,32.5,FINESTEERING,2319,303967.000,02000000,46eb,17139;INS_SOLUTION_GOOD,INS_RTKFIXED,17.59964512255,78.12306556474,524.2023,-76.2000,-2.1456,-2.0368,0.2001,2.954871772,5.611734789,225.850520891,0.0727,0.0727,0.0560,0.0278,0.0267,0.0172,0.0258,0.0241,0.4896,ab000241,0*fea60a80
#INSPVAXA,FILE,0,32.5,FINESTEERING,2319,303967.050,02000000,46eb,17139;INS_SOLUTION_GOOD,INS_RTKFIXED,17.59964413052,78.12306445814,524.2090,-76.2000,-2.1010,-2.0972,0.1620,3.007199531,5.593923138,227.143427568,0.0730,0.0730,0.0572,0.0296,0.0284,0.0185,0.0269,0.0260,0.4892,ab001241,0*512d6285
#INSPVAXA,FILE,0,32.5,FINESTEERING,2319,303967.100,02000000,46eb,17139;INS_SOLUTION_GOOD,INS_RTKFIXED,17.59964319153,78.12306327805,524.2149,-76.2000,-2.0627,-2.1611,0.1431,3.083347533,5.684506200,228.362541680,0.0730,0.0730,0.0572,0.0296,0.0284,0.0185,0.0269,0.0260,0.4892,ab001241,0*cf325660
#INSPVAXA,FILE,0,33.5,FINESTEERING,2319,303967.150,02000000,46eb,17139;INS_SOLUTION_GOOD,INS_RTKFIXED,17.59964227127,78.12306207258,524.2201,-76.2000,-2.0198,-2.2098,0.1322,3.207902968,5.762752093,229.511633885,0.0730,0.0730,0.0572,0.0296,0.0284,0.0185,0.0269,0.0260,0.4892,ab001241,0*519ab68f
#INSPVAXA,FILE,0,33.5,FINESTEERING,2319,303967.200,02000000,46eb,17139;INS_SOLUTION_GOOD,INS_RTKFIXED,17.59964137180,78.12306084319,524.2245,-76.2000,-1.9670,-2.2664,0.1169,3.278328991,5.888079003,230.602877747,0.0730,0.0730,0.0572,0.0296,0.0284,0.0185,0.0269,0.0260,0.4892,ab001241,0*69a57c17
#INSPVAXA,FILE,0,33.5,FINESTEERING,2319,303967.250,02000000,46eb,17139;INS_SOLUTION_GOOD,INS_RTKFIXED,17.59964049087,78.12305959442,524.2290,-76.2000,-1.9315,-2.3002,0.1322,3.265427329,6.003151568,231.646867443,0.0730,0.0730,0.0572,0.0296,0.0284,0.0185,0.0269,0.0260,0.4892,ab001241,0*9a294b49
#INSPVAXA,FILE,0,33.5,FINESTEERING,2319,303967.300,02000000,46eb,17139;INS_SOLUTION_GOOD,INS_RTKFIXED,17.59963964060,78.12305833892,524.2363,-76.2000,-1.8312,-2.3014,0.2607,3.326611887,5.940852883,232.615112974,0.0730,0.0730,0.0572,0.0296,0.0284,0.0185,0.0269,0.0260,0.4892,ab001241,0*d1deff84
#INSPVAXA,FILE,0,33.5,FINESTEERING,2319,303967.350,02000000,46eb,17139;INS_SOLUTION_GOOD,INS_RTKFIXED,17.59963881590,78.12305708513,524.2522,-76.2000,-1.8043,-2.3013,0.4228,3.380359599,5.755353478,233.523867935,0.0730,0.0730,0.0572,0.0296,0.0284,0.0185,0.0269,0.0260,0.4892,ab001241,0*8797924e
#INSPVAXA,FILE,0,33.5,FINESTEERING,2319,303967.400,02000000,46eb,17139;INS_SOLUTION_GOOD,INS_RTKFIXED,17.59963800457,78.12305583181,524.2714,-76.2000,-1.7769,-2.3035,0.4192,3.415494317,5.385364092,234.409843789,0.0730,0.0730,0.0572,0.0296,0.0284,0.0185,0.0269,0.0260,0.4892,ab001241,0*88092b15
#INSPVAXA,FILE,0,33.5,FINESTEERING,2319,303967.450,02000000,46eb,17139;INS_SOLUTION_GOOD,INS_RTKFIXED,17.59963721633,78.12305456561,524.2905,-76.2000,-1.7094,-2.3544,0.4186,3.341046035,4.989455958,235.237500913,0.0730,0.0730,0.0572,0.0296,0.0284,0.0185,0.0269,0.0260,0.4892,ab001241,0*3f851fac
#INSPVAXA,FILE,0,33.5,FINESTEERING,2319,303967.500,02000000,46eb,17139;INS_SOLUTION_GOOD,INS_RTKFIXED,17.59963645052,78.12305328422,524.3081,-76.2000,-1.6641,-2.3747,0.3782,3.089018645,4.603132765,235.997701222,0.0730,0.0730,0.0572,0.0296,0.0284,0.0185,0.0269,0.0260,0.4892,ab001241,0*a2d5cbf1
#INSPVAXA,FILE,0,33.5,FINESTEERING,2319,303967.550,02000000,46eb,17139;INS_SOLUTION_GOOD,INS_RTKFIXED,17.59963568982,78.12305199458,524.3228,-76.2000,-1.6748,-2.3924,0.2929,2.787125166,4.355956105,236.710402789,0.0730,0.0730,0.0572,0.0296,0.0284,0.0185,0.0269,0.0260,0.4892,ab001241,0*1ece3ba2
#INSPVAXA,FILE,0,33.5,FINESTEERING,2319,303967.600,02000000,46eb,17139;INS_SOLUTION_GOOD,INS_RTKFIXED,17.59963492495,78.12305070204,524.3340,-76.2000,-1.6796,-2.3970,0.2087,2.531141838,4.125559416,237.401508828,0.0730,0.0730,0.0572,0.0296,0.0284,0.0185,0.0269,0.0260,0.4892,ab001241,0*ad77b621
#INSPVAXA,FILE,0,33.5,FINESTEERING,2319,303967.650,02000000,46eb,17139;INS_SOLUTION_GOOD,INS_RTKFIXED,17.59963416930,78.12304940839,524.3422,-76.2000,-1.6428,-2.4103,0.1829,2.340814659,4.016236294,238.035698364,0.0730,0.0730,0.0572,0.0296,0.0284,0.0185,0.0269,0.0260,0.4892,ab001241,0*88ab3d25
#INSPVAXA,FILE,0,33.5,FINESTEERING,2319,303967.700,02000000,46eb,17139;INS_SOLUTION_GOOD,INS_RTKFIXED,17.59963343653,78.12304810595,524.3488,-76.2000,-1.5731,-2.4279,0.1692,2.112383512,3.898902140,238.597878862,0.0730,0.0730,0.0572,0.0296,0.0284,0.0185,0.0269,0.0260,0.4892,ab001241,0*2be75062
#INSPVAXA,FILE,0,33.5,FINESTEERING,2319,303967.750,02000000,46eb,17139;INS_SOLUTION_GOOD,INS_RTKFIXED,17.59963273212,78.12304680211,524.3557,-76.2000,-1.5115,-2.4299,0.1780,1.854646803,3.844741966,239.090078223,0.0730,0.0730,0.0572,0.0296,0.0284,0.0185,0.0269,0.0260,0.4892,ab001241,0*9b6d9e14
#INSPVAXA,FILE,0,33.5,FINESTEERING,2319,303967.800,02000000,46eb,17139;INS_SOLUTION_GOOD,INS_RTKFIXED,17.59963204875,78.12304550191,524.3649,-76.2000,-1.4681,-2.4173,0.2404,1.660348857,3.720711424,239.549971995,0.0730,0.0730,0.0572,0.0296,0.0284,0.0185,0.0269,0.0260,0.4892,ab001241,0*d8d35bc1
#INSPVAXA,FILE,0,33.5,FINESTEERING,2319,303967.850,02000000,46eb,17139;INS_SOLUTION_GOOD,INS_RTKFIXED,17.59963138262,78.12304421216,524.3775,-76.2000,-1.4326,-2.3990,0.3143,1.554945611,3.566050085,239.993547401,0.0730,0.0730,0.0572,0.0296,0.0284,0.0185,0.0269,0.0260,0.4892,ab001241,0*359d0e3e
#INSPVAXA,FILE,0,33.5,FINESTEERING,2319,303967.900,02000000,46eb,17139;INS_SOLUTION_GOOD,INS_RTKFIXED,17.59963073307,78.12304292569,524.3925,-76.2000,-1.3895,-2.3994,0.3427,1.501399692,3.339668258,240.431933233,0.0730,0.0730,0.0572,0.0296,0.0284,0.0185,0.0269,0.0260,0.4892,ab001241,0*2a515b06
#INSPVAXA,FILE,0,33.5,FINESTEERING,2319,303967.950,02000000,46eb,17139;INS_SOLUTION_GOOD,INS_RTKFIXED,17.59963010228,78.12304163984,524.4083,-76.2000,-1.3542,-2.4013,0.3423,1.497997289,3.120062522,240.847606264,0.0730,0.0730,0.0572,0.0296,0.0284,0.0185,0.0269,0.0260,0.4892,ab001241,0*ed2c85d3
#INSPVAXA,FILE,0,33.5,FINESTEERING,2319,303968.000,02000000,46eb,17139;INS_SOLUTION_GOOD,INS_RTKFIXED,17.59962948465,78.12304035282,524.4235,-76.2000,-1.3240,-2.4133,0.3164,1.513764664,2.922126411,241.255797310,0.0730,0.0730,0.0572,0.0296,0.0284,0.0185,0.0269,0.0260,0.4892,ab001241,0*53c94be0
#INSPVAXA,FILE,0,33.5,FINESTEERING,2319,303968.050,02000000,46eb,17139;INS_SOLUTION_GOOD,INS_RTKFIXED,17.59962890410,78.12303907454,524.4385,-76.2000,-1.3030,-2.4368,0.2720,1.510639825,2.741110943,241.644807892,0.0690,0.0689,0.0587,0.0304,0.0295,0.0194,0.0280,0.0271,0.4888,ab000241,0*61a7b31d
#INSPVAXA,FILE,0,29.5,FINESTEERING,2319,303968.100,02000000,46eb,17139;INS_SOLUTION_GOOD,INS_RTKFIXED,17.59962834964,78.12303781292,524.4516,-76.2000,-1.2869,-2.4671,0.2193,1.490699866,2.608139505,241.995610020,0.0690,0.0689,0.0587,0.0304,0.0295,0.0194,0.0280,0.0271,0.4888,ab000241,0*dc0c6d32
#INSPVAXA,FILE,0,29.5,FINESTEERING,2319,303968.150,02000000,46eb,17139;INS_SOLUTION_GOOD,INS_RTKFIXED,17.59962779637,78.12303654230,524.4613,-76.2000,-1.2897,-2.4756,0.1563,1.432263991,2.487698407,242.336360358,0.0690,0.0689,0.0587,0.0304,0.0295,0.0194,0.0280,0.0271,0.4888,ab000241,0*c2fd5d8b
#INSPVAXA,FILE,0,29.5,FINESTEERING,2319,303968.200,02000000,46eb,17139;INS_SOLUTION_GOOD,INS_RTKFIXED,17.59962723773,78.12303526684,524.4689,-76.2000,-1.3101,-2.4941,0.1209,1.315938009,2.453538114,242.700228704,0.0690,0.0689,0.0587,0.0304,0.0295,0.0194,0.0280,0.0271,0.4888,ab000241,0*d0e0a55b
#INSPVAXA,FILE,0,29.5,FINESTEERING,2319,303968.250,02000000,46eb,17139;INS_SOLUTION_GOOD,INS_RTKFIXED,17.59962667020,78.12303398095,524.4743,-76.2000,-1.3244,-2.5210,0.0697,1.168853810,2.423656250,243.103827116,0.0690,0.0689,0.0587,0.0304,0.0295,0.0194,0.0280,0.0271,0.4888,ab000241,0*c66db2d5
#INSPVAXA,FILE,0,29.5,FINESTEERING,2319,303968.300,02000000,46eb,17139;INS_SOLUTION_GOOD,INS_RTKFIXED,17.59962609735,78.12303269151,524.4783,-76.2000,-1.3262,-2.5539,0.0620,1.009562205,2.422426818,243.532153690,0.0690,0.0689,0.0587,0.0304,0.0295,0.0194,0.0280,0.0271,0.4888,ab000241,0*b6270e1a
#INSPVAXA,FILE,0,29.5,FINESTEERING,2319,303968.350,02000000,46eb,17139;INS_SOLUTION_GOOD,INS_RTKFIXED,17.59962552558,78.12303137036,524.4816,-76.2000,-1.3277,-2.5793,0.0499,0.816179660,2.410463607,243.996729668,0.0690,0.0689,0.0587,0.0304,0.0295,0.0194,0.0280,0.0271,0.4888,ab000241,0*c8e5a2d8
#INSPVAXA,FILE,0,29.5,FINESTEERING,2319,303968.400,02000000,46eb,17139;INS_SOLUTION_GOOD,INS_RTKFIXED,17.59962495494,78.12303004333,524.4853,-76.2000,-1.3142,-2.6215,0.0699,0.613351134,2.429571148,244.485657224,0.0690,0.0689,0.0587,0.0304,0.0295,0.0194,0.0280,0.0271,0.4888,ab000241,0*ce8ca58b
#INSPVAXA,FILE,0,29.5,FINESTEERING,2319,303968.450,02000000,46eb,17139;INS_SOLUTION_GOOD,INS_RTKFIXED,17.59962439254,78.12302870117,524.4904,-76.2000,-1.2891,-2.6501,0.1109,0.436542381,2.392561212,244.988368936,0.0690,0.0689,0.0587,0.0304,0.0295,0.0194,0.0280,0.0271,0.4888,ab000241,0*3a1af863
#INSPVAXA,FILE,0,29.5,FINESTEERING,2319,303968.500,02000000,46eb,17139;INS_SOLUTION_GOOD,INS_RTKFIXED,17.59962384005,78.12302734325,524.4973,-76.2000,-1.2644,-2.6888,0.1436,0.322022096,2.346613252,245.505274302,0.0690,0.0689,0.0587,0.0304,0.0295,0.0194,0.0280,0.0271,0.4888,ab000241,0*8cf19072
#INSPVAXA,FILE,0,29.5,FINESTEERING,2319,303968.550,02000000,46eb,17139;INS_SOLUTION_GOOD,INS_RTKFIXED,17.59962329768,78.12302596876,524.5061,-76.2000,-1.2390,-2.7254,0.1763,0.279431067,2.256669927,246.045156709,0.0690,0.0689,0.0587,0.0304,0.0295,0.0194,0.0280,0.0271,0.4888,ab000241,0*7bfea188
#INSPVAXA,FILE,0,29.5,FINESTEERING,2319,303968.600,02000000,46eb,17139;INS_SOLUTION_GOOD,INS_RTKFIXED,17.59962276658,78.12302457345,524.5157,-76.2000,-1.2171,-2.7743,0.1848,0.259913034,2.176134563,246.600480186,0.0690,0.0689,0.0587,0.0304,0.0295,0.0194,0.0280,0.0271,0.4888,ab000241,0*47e4db30
#INSPVAXA,FILE,0,29.5,FINESTEERING,2319,303968.650,02000000,46eb,17139;INS_SOLUTION_GOOD,INS_RTKFIXED,17.59962224449,78.12302315854,524.5254,-76.2000,-1.1921,-2.8213,0.1797,0.302287181,2.118614678,247.172517131,0.0690,0.0689,0.0587,0.0304,0.0295,0.0194,0.0280,0.0271,0.4888,ab000241,0*3e31c84d
#INSPVAXA,FILE,0,29.5,FINESTEERING,2319,303968.700,02000000,46eb,17139;INS_SOLUTION_GOOD,INS_RTKFIXED,17.59962173293,78.12302172192,524.5346,-76.2000,-1.1664,-2.8674,0.1704,0.393998827,2.059783968,247.737207389,0.0690,0.0689,0.0587,0.0304,0.0295,0.0194,0.0280,0.0271,0.4888,ab000241,0*9360b634
#INSPVAXA,FILE,0,29.5,FINESTEERING,2319,303968.750,02000000,46eb,17139;INS_SOLUTION_GOOD,INS_RTKFIXED,17.59962123013,78.12302026409,524.5429,-76.2000,-1.1476,-2.9146,0.1403,0.457012506,2.038552241,248.290568641,0.0690,0.0689,0.0587,0.0304,0.0295,0.0194,0.0280,0.0271,0.4888,ab000241,0*7def9960
#INSPVAXA,FILE,0,29.5,FINESTEERING,2319,303968.800,02000000,46eb,17139;INS_SOLUTION_GOOD,INS_RTKFIXED,17.59962073302,78.12301878410,524.5502,-76.2000,-1.1362,-2.9651,0.1164,0.499222339,2.034052459,248.831427763,0.0690,0.0689,0.0587,0.0304,0.0295,0.0194,0.0280,0.0271,0.4888,ab000241,0*345ebd60
#INSPVAXA,FILE,0,29.5,FINESTEERING,2319,303968.850,02000000,46eb,17139;INS_SOLUTION_GOOD,INS_RTKFIXED,17.59962024330,78.12301727924,524.5560,-76.2000,-1.1171,-3.0229,0.0812,0.506330111,2.052263924,249.352830020,0.0690,0.0689,0.0587,0.0304,0.0295,0.0194,0.0280,0.0271,0.4888,ab000241,0*43007fc8
#INSPVAXA,FILE,0,29.5,FINESTEERING,2319,303968.900,02000000,46eb,17139;INS_SOLUTION_GOOD,INS_RTKFIXED,17.59961975980,78.12301575106,524.5600,-76.2000,-1.1055,-3.0700,0.0575,0.453198745,2.084257778,249.858893651,0.0690,0.0689,0.0587,0.0304,0.0295,0.0194,0.0280,0.0271,0.4888,ab000241,0*f4718e86
#INSPVAXA,FILE,0,29.5,FINESTEERING,2319,303968.950,02000000,46eb,17139;INS_SOLUTION_GOOD,INS_RTKFIXED,17.59961927507,78.12301420457,524.5637,-76.2000,-1.1173,-3.1061,0.0656,0.383433607,2.111167103,250.362086432,0.0690,0.0689,0.0587,0.0304,0.0295,0.0194,0.0280,0.0271,0.4888,ab000241,0*9999f47f
#INSPVAXA,FILE,0,29.5,FINESTEERING,2319,303969.000,02000000,46eb,17139;INS_SOLUTION_GOOD,INS_RTKFIXED,17.59961878638,78.12301264167,524.5682,-76.2000,-1.1217,-3.1441,0.0886,0.313298138,2.109033638,250.888603480,0.0690,0.0689,0.0587,0.0304,0.0295,0.0194,0.0280,0.0271,0.4888,ab000241,0*2e9c46a6
#INSPVAXA,FILE,0,29.5,FINESTEERING,2319,303969.050,02000000,46eb,17139;INS_SOLUTION_GOOD,INS_RTKFIXED,17.59961831630,78.12301109080,524.5731,-76.2000,-1.1045,-3.1865,0.1050,0.205956486,2.077840156,251.426726489,0.0666,0.0661,0.0601,0.0308,0.0299,0.0199,0.0293,0.0283,0.4885,ab000241,0*33304295
#INSPVAXA,FILE,0,28.5,FINESTEERING,2319,303969.100,02000000,46eb,17139;INS_SOLUTION_GOOD,INS_RTKFIXED,17.59961787235,78.12300954677,524.5791,-76.2000,-1.0802,-3.2275,0.1399,0.105215211,2.014279532,251.945607777,0.0666,0.0661,0.0601,0.0308,0.0299,0.0199,0.0293,0.0283,0.4885,ab000241,0*acbd7106
#INSPVAXA,FILE,0,28.5,FINESTEERING,2319,303969.150,02000000,46eb,17139;INS_SOLUTION_GOOD,INS_RTKFIXED,17.59961744216,78.12300798066,524.5862,-76.2000,-1.0385,-3.2783,0.1540,0.014731154,1.898793389,252.446792321,0.0666,0.0661,0.0601,0.0308,0.0299,0.0199,0.0293,0.0283,0.4885,ab000241,0*257fa7f1
#INSPVAXA,FILE,0,28.5,FINESTEERING,2319,303969.200,02000000,46eb,17139;INS_SOLUTION_GOOD,INS_RTKFIXED,17.59961702751,78.12300639153,524.5937,-76.2000,-1.0083,-3.3270,0.1541,-0.027114543,1.769930118,252.918231966,0.0666,0.0661,0.0601,0.0308,0.0299,0.0199,0.0293,0.0283,0.4885,ab000241,0*97a772d6
#INSPVAXA,FILE,0,28.5,FINESTEERING,2319,303969.250,02000000,46eb,17139;INS_SOLUTION_GOOD,INS_RTKFIXED,17.59961662648,78.12300478197,524.6008,-76.2000,-0.9739,-3.3645,0.1433,-0.042259145,1.635034513,253.383605952,0.0666,0.0661,0.0601,0.0308,0.0299,0.0199,0.0293,0.0283,0.4885,ab000241,0*b60d14fd
#INSPVAXA,FILE,0,28.5,FINESTEERING,2319,303969.300,02000000,46eb,17139;INS_SOLUTION_GOOD,INS_RTKFIXED,17.59961623376,78.12300315290,524.6075,-76.2000,-0.9682,-3.4059,0.1143,-0.113602844,1.532419856,253.854427221,0.0666,0.0661,0.0601,0.0308,0.0299,0.0199,0.0293,0.0283,0.4885,ab000241,0*6dcb1f34
#INSPVAXA,FILE,0,28.5,FINESTEERING,2319,303969.350,02000000,46eb,17139;INS_SOLUTION_GOOD,INS_RTKFIXED,17.59961584841,78.12300150504,524.6130,-76.2000,-0.9465,-3.4467,0.1076,-0.129778706,1.470906944,254.332712119,0.0666,0.0661,0.0601,0.0308,0.0299,0.0199,0.0293,0.0283,0.4885,ab000241,0*94b72fa5
#INSPVAXA,FILE,0,28.5,FINESTEERING,2319,303969.400,02000000,46eb,17139;INS_SOLUTION_GOOD,INS_RTKFIXED,17.59961547219,78.12299984090,524.6184,-76.2000,-0.9261,-3.4811,0.1263,-0.096621402,1.425793618,254.804592268,0.0666,0.0661,0.0601,0.0308,0.0299,0.0199,0.0293,0.0283,0.4885,ab000241,0*58ae2c10
#INSPVAXA,FILE,0,28.5,FINESTEERING,2319,303969.450,02000000,46eb,17139;INS_SOLUTION_GOOD,INS_RTKFIXED,17.59961510703,78.12299815845,524.6238,-76.2000,-0.8923,-3.5186,0.1041,-0.124318466,1.373235754,255.270228761,0.0666,0.0661,0.0601,0.0308,0.0299,0.0199,0.0293,0.0283,0.4885,ab000241,0*7fb5a608
#INSPVAXA,FILE,0,28.5,FINESTEERING,2319,303969.500,02000000,46eb,17139;INS_SOLUTION_GOOD,INS_RTKFIXED,17.59961475161,78.12299645876,524.6287,-76.2000,-0.8762,-3.5548,0.1113,-0.161619160,1.384700756,255.729124049,0.0666,0.0661,0.0601,0.0308,0.0299,0.0199,0.0293,0.0283,0.4885,ab000241,0*cd1f05b9
#INSPVAXA,FILE,0,28.5,FINESTEERING,2319,303969.550,02000000,46eb,17139;INS_SOLUTION_GOOD,INS_RTKFIXED,17.59961440300,78.12299474361,524.6337,-76.2000,-0.8626,-3.5855,0.1052,-0.252763261,1.376753803,256.183958481,0.0666,0.0661,0.0601,0.0308,0.0299,0.0199,0.0293,0.0283,0.4885,ab000241,0*71555412
#INSPVAXA,FILE,0,28.5,FINESTEERING,2319,303969.600,02000000,46eb,17139;INS_SOLUTION_GOOD,INS_RTKFIXED,17.59961405776,78.12299301579,524.6398,-76.2000,-0.8599,-3.6143,0.1303,-0.377652098,1.334054465,256.627119728,0.0666,0.0661,0.0601,0.0308,0.0299,0.0199,0.0293,0.0283,0.4885,ab000241,0*9c11ca3e
#INSPVAXA,FILE,0,28.5,FINESTEERING,2319,303969.650,02000000,46eb,17139;INS_SOLUTION_GOOD,INS_RTKFIXED,17.59961371652,78.12299127254,524.6453,-76.2000,-0.8401,-3.6449,0.1108,-0.518824456,1.274283301,257.060090517,0.0666,0.0661,0.0601,0.0308,0.0299,0.0199,0.0293,0.0283,0.4885,ab000241,0*bd1df4d5
#INSPVAXA,FILE,0,28.5,FINESTEERING,2319,303969.700,02000000,46eb,17139;INS_SOLUTION_GOOD,INS_RTKFIXED,17.59961338475,78.12298951415,524.6515,-76.2000,-0.8225,-3.6863,0.1243,-0.703040583,1.251851614,257.475864534,0.0666,0.0661,0.0601,0.0308,0.0299,0.0199,0.0293,0.0283,0.4885,ab000241,0*9299e183
#INSPVAXA,FILE,0,28.5,FINESTEERING,2319,303969.750,02000000,46eb,17139;INS_SOLUTION_GOOD,INS_RTKFIXED,17.59961306378,78.12298773704,524.6564,-76.2000,-0.7803,-3.7228,0.1114,-0.866216864,1.170778958,257.902226632,0.0666,0.0661,0.0601,0.0308,0.0299,0.0199,0.0293,0.0283,0.4885,ab000241,0*fd5f53ea
#INSPVAXA,FILE,0,28.5,FINESTEERING,2319,303969.800,02000000,46eb,17139;INS_SOLUTION_GOOD,INS_RTKFIXED,17.59961275384,78.12298594168,524.6614,-76.2000,-0.7589,-3.7647,0.0978,-1.119309786,1.066528993,258.304041298,0.0666,0.0661,0.0601,0.0308,0.0299,0.0199,0.0293,0.0283,0.4885,ab000241,0*83dc0d39
#INSPVAXA,FILE,0,28.5,FINESTEERING,2319,303969.850,02000000,46eb,17139;INS_SOLUTION_GOOD,INS_RTKFIXED,17.59961245132,78.12298412717,524.6652,-76.2000,-0.7458,-3.8018,0.0783,-1.284907365,0.883766010,258.689245266,0.0666,0.0661,0.0601,0.0308,0.0299,0.0199,0.0293,0.0283,0.4885,ab000241,0*bca19782
#INSPVAXA,FILE,0,28.5,FINESTEERING,2319,303969.900,02000000,46eb,17139;INS_SOLUTION_GOOD,INS_RTKFIXED,17.59961215986,78.12298229524,524.6687,-76.2000,-0.7217,-3.8402,0.0697,-1.455073856,0.647278126,259.045629387,0.0666,0.0661,0.0601,0.0308,0.0299,0.0199,0.0293,0.0283,0.4885,ab000241,0*febe481d
#INSPVAXA,FILE,0,28.5,FINESTEERING,2319,303969.950,02000000,46eb,17139;INS_SOLUTION_GOOD,INS_RTKFIXED,17.59961187786,78.12298044486,524.6716,-76.2000,-0.6991,-3.8743,0.0454,-1.585356929,0.350844570,259.383554770,0.0666,0.0661,0.0601,0.0308,0.0299,0.0199,0.0293,0.0283,0.4885,ab000241,0*b7368045
#INSPVAXA,FILE,0,28.5,FINESTEERING,2319,303970.000,02000000,46eb,17139;INS_SOLUTION_GOOD,INS_RTKFIXED,17.59961160569,78.12297857802,524.6745,-76.2000,-0.6835,-3.9132,0.0595,-1.599861224,0.127238024,259.706654553,0.0666,0.0661,0.0601,0.0308,0.0299,0.0199,0.0293,0.0283,0.4885,ab000241,0*4bc26e00
#INSPVAXA,FILE,0,28.5,FINESTEERING,2319,303970.050,02000000,46eb,17139;INS_SOLUTION_GOOD,INS_RTKFIXED,17.59961135748,78.12297670216,524.6777,-76.2000,-0.6568,-3.9444,0.1129,-1.391744770,-0.059445830,260.040077810,0.0662,0.0655,0.0613,0.0307,0.0297,0.0203,0.0314,0.0292,0.4882,ab000241,0*b692b967
#INSPVAXA,FILE,0,28.5,FINESTEERING,2319,303970.100,02000000,46eb,17139;INS_SOLUTION_GOOD,INS_RTKFIXED,17.59961113028,78.12297481789,524.6821,-76.2000,-0.6129,-3.9780,0.1406,-1.093694416,-0.233964856,260.362701958,0.0662,0.0655,0.0613,0.0307,0.0297,0.0203,0.0314,0.0292,0.4882,ab000241,0*53e73c32
#INSPVAXA,FILE,0,31.5,FINESTEERING,2319,303970.150,02000000,46eb,17139;INS_SOLUTION_GOOD,INS_RTKFIXED,17.59961092143,78.12297291481,524.6886,-76.2000,-0.5732,-4.0203,0.1603,-0.813463269,-0.396311630,260.656564486,0.0662,0.0655,0.0613,0.0307,0.0297,0.0203,0.0314,0.0292,0.4882,ab000241,0*b7f47e37
#INSPVAXA,FILE,0,31.5,FINESTEERING,2319,303970.200,02000000,46eb,17139;INS_SOLUTION_GOOD,INS_RTKFIXED,17.59961072654,78.12297099532,524.6952,-76.2000,-0.5488,-4.0586,0.1561,-0.551586452,-0.540802385,260.908296606,0.0662,0.0655,0.0613,0.0307,0.0297,0.0203,0.0314,0.0292,0.4882,ab000241,0*5856986f
#INSPVAXA,FILE,0,31.5,FINESTEERING,2319,303970.250,02000000,46eb,17139;INS_SOLUTION_GOOD,INS_RTKFIXED,17.59961053613,78.12296906112,524.7006,-76.2000,-0.5442,-4.0848,0.1355,-0.301584394,-0.662314947,261.132279319,0.0662,0.0655,0.0613,0.0307,0.0297,0.0203,0.0314,0.0292,0.4882,ab000241,0*615c2c20
#INSPVAXA,FILE,0,31.5,FINESTEERING,2319,303970.300,02000000,46eb,17139;INS_SOLUTION_GOOD,INS_RTKFIXED,17.59961034665,78.12296711292,524.7057,-76.2000,-0.5374,-4.1176,0.1271,-0.180714727,-0.731434355,261.342692911,0.0662,0.0655,0.0613,0.0307,0.0297,0.0203,0.0314,0.0292,0.4882,ab000241,0*a1242df5
#INSPVAXA,FILE,0,31.5,FINESTEERING,2319,303970.350,02000000,46eb,17139;INS_SOLUTION_GOOD,INS_RTKFIXED,17.59961015600,78.12296514736,524.7089,-76.2000,-0.5472,-4.1546,0.0710,-0.205130398,-0.756385161,261.546592323,0.0662,0.0655,0.0613,0.0307,0.0297,0.0203,0.0314,0.0292,0.4882,ab000241,0*39cc1a42
#INSPVAXA,FILE,0,31.5,FINESTEERING,2319,303970.400,02000000,46eb,17139;INS_SOLUTION_GOOD,INS_RTKFIXED,17.59960995724,78.12296316276,524.7092,-76.2000,-0.5635,-4.1970,-0.0182,-0.352518792,-0.744105845,261.766550464,0.0662,0.0655,0.0613,0.0307,0.0297,0.0203,0.0314,0.0292,0.4882,ab000241,0*0c99bea8
#INSPVAXA,FILE,0,31.5,FINESTEERING,2319,303970.450,02000000,46eb,17139;INS_SOLUTION_GOOD,INS_RTKFIXED,17.59960975367,78.12296115923,524.7061,-76.2000,-0.5642,-4.2414,-0.0755,-0.578492895,-0.739202046,261.988162297,0.0662,0.0655,0.0613,0.0307,0.0297,0.0203,0.0314,0.0292,0.4882,ab000241,0*40a3a03a
#INSPVAXA,FILE,0,31.5,FINESTEERING,2319,303970.500,02000000,46eb,17139;INS_SOLUTION_GOOD,INS_RTKFIXED,17.59960954905,78.12295913399,524.6975,-76.2000,-0.5609,-4.2859,-0.2048,-0.897379821,-0.646577365,262.217281792,0.0662,0.0655,0.0613,0.0307,0.0297,0.0203,0.0314,0.0292,0.4882,ab000241,0*0b09f2a2
#INSPVAXA,FILE,0,31.5,FINESTEERING,2319,303970.550,02000000,46eb,17139;INS_SOLUTION_GOOD,INS_RTKFIXED,17.59960934550,78.12295708929,524.6855,-76.2000,-0.5511,-4.3221,-0.2495,-1.130027771,-0.560746951,262.448421388,0.0662,0.0655,0.0613,0.0307,0.0297,0.0203,0.0314,0.0292,0.4882,ab000241,0*39c102c8
#INSPVAXA,FILE,0,31.5,FINESTEERING,2319,303970.600,02000000,46eb,17139;INS_SOLUTION_GOOD,INS_RTKFIXED,17.59960915112,78.12295503118,524.6748,-76.2000,-0.5266,-4.3469,-0.1565,-1.253813560,-0.514291783,262.663401122,0.0662,0.0655,0.0613,0.0307,0.0297,0.0203,0.0314,0.0292,0.4882,ab000241,0*ae80c156
#INSPVAXA,FILE,0,31.5,FINESTEERING,2319,303970.650,02000000,46eb,17139;INS_SOLUTION_GOOD,INS_RTKFIXED,17.59960897203,78.12295295845,524.6674,-76.2000,-0.4799,-4.3792,-0.0848,-1.233289920,-0.533910972,262.867503787,0.0662,0.0655,0.0613,0.0307,0.0297,0.0203,0.0314,0.0292,0.4882,ab000241,0*b470fbbd
#INSPVAXA,FILE,0,31.5,FINESTEERING,2319,303970.700,02000000,46eb,17139;INS_SOLUTION_GOOD,INS_RTKFIXED,17.59960881427,78.12295086977,524.6634,-76.2000,-0.4266,-4.4191,-0.0432,-1.100684512,-0.637418617,263.051508827,0.0662,0.0655,0.0613,0.0307,0.0297,0.0203,0.0314,0.0292,0.4882,ab000241,0*a93a6d21
#INSPVAXA,FILE,0,31.5,FINESTEERING,2319,303970.750,02000000,46eb,17139;INS_SOLUTION_GOOD,INS_RTKFIXED,17.59960867809,78.12294876426,524.6616,-76.2000,-0.3828,-4.4533,-0.0013,-0.942827392,-0.747879317,263.217104796,0.0662,0.0655,0.0613,0.0307,0.0297,0.0203,0.0314,0.0292,0.4882,ab000241,0*b21afdfe
#INSPVAXA,FILE,0,31.5,FINESTEERING,2319,303970.800,02000000,46eb,17139;INS_SOLUTION_GOOD,INS_RTKFIXED,17.59960855597,78.12294664511,524.6618,-76.2000,-0.3587,-4.4784,0.0447,-0.723668254,-0.814844621,263.365113848,0.0662,0.0655,0.0613,0.0307,0.0297,0.0203,0.0314,0.0292,0.4882,ab000241,0*8ce471ad
#INSPVAXA,FILE,0,31.5,FINESTEERING,2319,303970.850,02000000,46eb,17139;INS_SOLUTION_GOOD,INS_RTKFIXED,17.59960844261,78.12294451081,524.6650,-76.2000,-0.3450,-4.5103,0.1041,-0.464709580,-0.862761662,263.506947003,0.0662,0.0655,0.0613,0.0307,0.0297,0.0203,0.0314,0.0292,0.4882,ab000241,0*fafc00c0
#INSPVAXA,FILE,0,31.5,FINESTEERING,2319,303970.900,02000000,46eb,17139;INS_SOLUTION_GOOD,INS_RTKFIXED,17.59960833437,78.12294236175,524.6692,-76.2000,-0.3357,-4.5488,0.1046,-0.219593583,-0.841329281,263.654545463,0.0662,0.0655,0.0613,0.0307,0.0297,0.0203,0.0314,0.0292,0.4882,ab000241,0*fc9a3bc9
#INSPVAXA,FILE,0,31.5,FINESTEERING,2319,303970.950,02000000,46eb,17139;INS_SOLUTION_GOOD,INS_RTKFIXED,17.59960822388,78.12294019363,524.6720,-76.2000,-0.3448,-4.5891,0.0380,-0.039624047,-0.818506675,263.816617849,0.0662,0.0655,0.0613,0.0307,0.0297,0.0203,0.0314,0.0292,0.4882,ab000241,0*5f20f744
#INSPVAXA,FILE,0,31.5,FINESTEERING,2319,303971.000,02000000,46eb,17139;INS_SOLUTION_GOOD,INS_RTKFIXED,17.59960810760,78.12293800667,524.6706,-76.2000,-0.3641,-4.6306,-0.0605,-0.021007400,-0.691212751,263.994949463,0.0662,0.0655,0.0613,0.0307,0.0297,0.0203,0.0314,0.0292,0.4882,ab000241,0*451892a2
#INSPVAXA,FILE,0,31.5,FINESTEERING,2319,303971.050,02000000,46eb,17139;INS_SOLUTION_GOOD,INS_RTKFIXED,17.59960798794,78.12293582664,524.6665,-76.2000,-0.3753,-4.6696,-0.1138,-0.033470787,-0.518478810,264.181429393,0.0656,0.0647,0.0620,0.0300,0.0291,0.0204,0.0311,0.0286,0.4880,ab001241,0*1587282c
#INSPVAXA,FILE,0,31.5,FINESTEERING,2319,303971.100,02000000,46eb,17139;INS_SOLUTION_GOOD,INS_RTKFIXED,17.59960786653,78.12293364647,524.6596,-76.2000,-0.3657,-4.7086,-0.1867,-0.148206293,-0.297760987,264.356200638,0.0656,0.0647,0.0620,0.0300,0.0291,0.0204,0.0311,0.0286,0.4880,ab001241,0*1dbf06ea
#INSPVAXA,FILE,0,36.5,FINESTEERING,2319,303971.150,02000000,46eb,17139;INS_SOLUTION_GOOD,INS_RTKFIXED,17.59960774647,78.12293144692,524.6501,-76.2000,-0.3625,-4.7472,-0.2302,-0.273585555,-0.069445277,264.517802027,0.0656,0.0647,0.0620,0.0300,0.0291,0.0204,0.0311,0.0286,0.4880,ab001241,0*f0e27833
#INSPVAXA,FILE,0,36.5,FINESTEERING,2319,303971.200,02000000,46eb,17139;INS_SOLUTION_GOOD,INS_RTKFIXED,17.59960763038,78.12292922815,524.6389,-76.2000,-0.3512,-4.7879,-0.2489,-0.417604934,0.171688818,264.682027613,0.0656,0.0647,0.0620,0.0300,0.0291,0.0204,0.0311,0.0286,0.4880,ab001241,0*946edf99
#INSPVAXA,FILE,0,36.5,FINESTEERING,2319,303971.250,02000000,46eb,17139;INS_SOLUTION_GOOD,INS_RTKFIXED,17.59960752158,78.12292699597,524.6283,-76.2000,-0.3338,-4.8100,-0.1919,-0.578206614,0.330097975,264.842095053,0.0656,0.0647,0.0620,0.0300,0.0291,0.0204,0.0311,0.0286,0.4880,ab001241,0*065756ba
#INSPVAXA,FILE,0,36.5,FINESTEERING,2319,303971.300,02000000,46eb,17139;INS_SOLUTION_GOOD,INS_RTKFIXED,17.59960741425,78.12292475296,524.6221,-76.2000,-0.3370,-4.8265,-0.0833,-0.694080359,0.404257868,265.011418370,0.0656,0.0647,0.0620,0.0300,0.0291,0.0204,0.0311,0.0286,0.4880,ab001241,0*83c3d103
#INSPVAXA,FILE,0,36.5,FINESTEERING,2319,303971.350,02000000,46eb,17139;INS_SOLUTION_GOOD,INS_RTKFIXED,17.59960730933,78.12292250354,524.6227,-76.2000,-0.3243,-4.8394,0.0815,-0.713916393,0.323309547,265.193766138,0.0656,0.0647,0.0620,0.0300,0.0291,0.0204,0.0311,0.0286,0.4880,ab001241,0*bf60f0d8
#INSPVAXA,FILE,0,36.5,FINESTEERING,2319,303971.400,02000000,46eb,17139;INS_SOLUTION_GOOD,INS_RTKFIXED,17.59960721235,78.12292024531,524.6293,-76.2000,-0.2994,-4.8554,0.1702,-0.687256276,0.118297886,265.361763245,0.0656,0.0647,0.0620,0.0300,0.0291,0.0204,0.0311,0.0286,0.4880,ab001241,0*7a0607f8
#INSPVAXA,FILE,0,36.5,FINESTEERING,2319,303971.450,02000000,46eb,17139;INS_SOLUTION_GOOD,INS_RTKFIXED,17.59960712783,78.12291797699,524.6396,-76.2000,-0.2638,-4.8843,0.2066,-0.621031272,-0.119564411,265.503027245,0.0656,0.0647,0.0620,0.0300,0.0291,0.0204,0.0311,0.0286,0.4880,ab001241,0*27455625
#INSPVAXA,FILE,0,36.5,FINESTEERING,2319,303971.500,02000000,46eb,17139;INS_SOLUTION_GOOD,INS_RTKFIXED,17.59960705742,78.12291569432,524.6491,-76.2000,-0.2271,-4.9106,0.1509,-0.587896348,-0.344162338,265.616485506,0.0656,0.0647,0.0620,0.0300,0.0291,0.0204,0.0311,0.0286,0.4880,ab001241,0*c3818b96
#INSPVAXA,FILE,0,36.5,FINESTEERING,2319,303971.550,02000000,46eb,17139;INS_SOLUTION_GOOD,INS_RTKFIXED,17.59960699531,78.12291339791,524.6567,-76.2000,-0.2181,-4.9402,0.1106,-0.552206102,-0.495018548,265.687812150,0.0656,0.0647,0.0620,0.0300,0.0291,0.0204,0.0311,0.0286,0.4880,ab001241,0*72395d95
#INSPVAXA,FILE,0,36.5,FINESTEERING,2319,303971.600,02000000,46eb,17139;INS_SOLUTION_GOOD,INS_RTKFIXED,17.59960693776,78.12291108692,524.6610,-76.2000,-0.2157,-4.9676,0.0421,-0.539758159,-0.597562711,265.745108613,0.0656,0.0647,0.0620,0.0300,0.0291,0.0204,0.0311,0.0286,0.4880,ab001241,0*25b42ce0
#INSPVAXA,FILE,0,36.5,FINESTEERING,2319,303971.650,02000000,46eb,17139;INS_SOLUTION_GOOD,INS_RTKFIXED,17.59960688040,78.12290876388,524.6627,-76.2000,-0.2132,-4.9959,-0.0219,-0.515337529,-0.634511915,265.795539385,0.0656,0.0647,0.0620,0.0300,0.0291,0.0204,0.0311,0.0286,0.4880,ab001241,0*7bfda20d
#INSPVAXA,FILE,0,36.5,FINESTEERING,2319,303971.700,02000000,46eb,17139;INS_SOLUTION_GOOD,INS_RTKFIXED,17.59960682451,78.12290642865,524.6607,-76.2000,-0.2120,-5.0179,-0.0909,-0.561694448,-0.621640917,265.845962705,0.0656,0.0647,0.0620,0.0300,0.0291,0.0204,0.0311,0.0286,0.4880,ab001241,0*e9050ac3
#INSPVAXA,FILE,0,36.5,FINESTEERING,2319,303971.750,02000000,46eb,17139;INS_SOLUTION_GOOD,INS_RTKFIXED,17.59960676240,78.12290408467,524.6556,-76.2000,-0.2348,-5.0291,-0.1339,-0.597135430,-0.541637621,265.901356094,0.0656,0.0647,0.0620,0.0300,0.0291,0.0204,0.0311,0.0286,0.4880,ab001241,0*32c57768
#INSPVAXA,FILE,0,36.5,FINESTEERING,2319,303971.800,02000000,46eb,17139;INS_SOLUTION_GOOD,INS_RTKFIXED,17.59960669627,78.12290173178,524.6505,-76.2000,-0.2310,-5.0506,-0.1091,-0.583270283,-0.437600241,265.969496234,0.0656,0.0647,0.0620,0.0300,0.0291,0.0204,0.0311,0.0286,0.4880,ab001241,0*ae69cb54
#INSPVAXA,FILE,0,36.5,FINESTEERING,2319,303971.850,02000000,46eb,17139;INS_SOLUTION_GOOD,INS_RTKFIXED,17.59960663563,78.12289937165,524.6455,-76.2000,-0.2137,-5.0591,-0.0934,-0.560853466,-0.364784074,266.021222785,0.0656,0.0647,0.0620,0.0300,0.0291,0.0204,0.0311,0.0286,0.4880,ab001241,0*83b3e7e7
#INSPVAXA,FILE,0,36.5,FINESTEERING,2319,303971.900,02000000,46eb,17139;INS_SOLUTION_GOOD,INS_RTKFIXED,17.59960658340,78.12289700555,524.6428,-76.2000,-0.1852,-5.0737,-0.0349,-0.536611984,-0.306947920,266.053699144,0.0656,0.0647,0.0620,0.0300,0.0291,0.0204,0.0311,0.0286,0.4880,ab001241,0*966b5570
#INSPVAXA,FILE,0,36.5,FINESTEERING,2319,303971.950,02000000,46eb,17139;INS_SOLUTION_GOOD,INS_RTKFIXED,17.59960653913,78.12289463418,524.6429,-76.2000,-0.1693,-5.0818,0.0136,-0.473017663,-0.334089482,266.054721244,0.0656,0.0647,0.0620,0.0300,0.0291,0.0204,0.0311,0.0286,0.4880,ab001241,0*3d9efa55
#INSPVAXA,FILE,0,36.5,FINESTEERING,2319,303972.000,02000000,46eb,17139;INS_SOLUTION_GOOD,INS_RTKFIXED,17.59960649741,78.12289225536,524.6447,-76.2000,-0.1643,-5.1005,0.0458,-0.312984862,-0.383737308,266.051167163,0.0656,0.0647,0.0620,0.0300,0.0291,0.0204,0.0311,0.0286,0.4880,ab001241,0*5a7a2239
#INSPVAXA,FILE,0,36.5,FINESTEERING,2319,303972.050,02000000,46eb,17139;INS_SOLUTION_GOOD,INS_RTKFIXED,17.59960645460,78.12288987854,524.6476,-76.2000,-0.1664,-5.1107,0.0520,-0.177958996,-0.485918106,266.048358244,0.0655,0.0643,0.0625,0.0288,0.0282,0.0204,0.0312,0.0288,0.4877,ab001241,0*98812211
#INSPVAXA,FILE,0,36.5,FINESTEERING,2319,303972.100,02000000,46eb,17139;INS_SOLUTION_GOOD,INS_RTKFIXED,17.59960641002,78.12288750299,524.6499,-76.2000,-0.1683,-5.1313,0.0374,-0.001393554,-0.561396737,266.055853511,0.0655,0.0643,0.0625,0.0288,0.0282,0.0204,0.0312,0.0288,0.4877,ab001241,0*8af20c28
#INSPVAXA,FILE,0,42.0,FINESTEERING,2319,303972.150,02000000,46eb,17139;INS_SOLUTION_GOOD,INS_RTKFIXED,17.59960636378,78.12288511914,524.6506,-76.2000,-0.1783,-5.1447,-0.0053,0.080704078,-0.628483294,266.056988802,0.0655,0.0643,0.0625,0.0288,0.0282,0.0204,0.0312,0.0288,0.4877,ab001241,0*abd146a9
#INSPVAXA,FILE,0,42.0,FINESTEERING,2319,303972.200,02000000,46eb,17139;INS_SOLUTION_GOOD,INS_RTKFIXED,17.59960631338,78.12288272654,524.6498,-76.2000,-0.1880,-5.1626,-0.0255,0.082457608,-0.634878890,266.054739661,0.0655,0.0643,0.0625,0.0288,0.0282,0.0204,0.0312,0.0288,0.4877,ab001241,0*cba93850
#INSPVAXA,FILE,0,42.0,FINESTEERING,2319,303972.250,02000000,46eb,17139;INS_SOLUTION_GOOD,INS_RTKFIXED,17.59960625847,78.12288032683,524.6480,-76.2000,-0.1994,-5.1745,-0.0408,0.066599035,-0.616385192,266.028552762,0.0655,0.0643,0.0625,0.0288,0.0282,0.0204,0.0312,0.0288,0.4877,ab001241,0*ef6f540f
#INSPVAXA,FILE,0,42.0,FINESTEERING,2319,303972.300,02000000,46eb,17139;INS_SOLUTION_GOOD,INS_RTKFIXED,17.59960620331,78.12287792002,524.6459,-76.2000,-0.1933,-5.1906,-0.0464,0.029451908,-0.589442368,265.982807445,0.0655,0.0643,0.0625,0.0288,0.0282,0.0204,0.0312,0.0288,0.4877,ab001241,0*b33c5a1c
#INSPVAXA,FILE,0,42.0,FINESTEERING,2319,303972.350,02000000,46eb,17139;INS_SOLUTION_GOOD,INS_RTKFIXED,17.59960614887,78.12287550670,524.6430,-76.2000,-0.1939,-5.1976,-0.0565,-0.038403830,-0.576944495,265.929734494,0.0655,0.0643,0.0625,0.0288,0.0282,0.0204,0.0312,0.0288,0.4877,ab001241,0*a10bcbab
#INSPVAXA,FILE,0,42.0,FINESTEERING,2319,303972.400,02000000,46eb,17139;INS_SOLUTION_GOOD,INS_RTKFIXED,17.59960608919,78.12287308916,524.6412,-76.2000,-0.2132,-5.2097,-0.0368,-0.160568806,-0.580475760,265.884464274,0.0655,0.0643,0.0625,0.0288,0.0282,0.0204,0.0312,0.0288,0.4877,ab001241,0*094ffb04
#INSPVAXA,FILE,0,42.0,FINESTEERING,2319,303972.450,02000000,46eb,17139;INS_SOLUTION_GOOD,INS_RTKFIXED,17.59960602351,78.12287066793,524.6391,-76.2000,-0.2212,-5.2149,-0.0330,-0.161537063,-0.589790940,265.844089044,0.0655,0.0643,0.0625,0.0288,0.0282,0.0204,0.0312,0.0288,0.4877,ab001241,0*3b718c60
#INSPVAXA,FILE,0,42.0,FINESTEERING,2319,303972.500,02000000,46eb,17139;INS_SOLUTION_GOOD,INS_RTKFIXED,17.59960595583,78.12286823958,524.6375,-76.2000,-0.2089,-5.2327,-0.0360,-0.094461184,-0.606698168,265.809729641,0.0655,0.0643,0.0625,0.0288,0.0282,0.0204,0.0312,0.0288,0.4877,ab001241,0*57e87127
#INSPVAXA,FILE,0,42.0,FINESTEERING,2319,303972.550,02000000,46eb,17139;INS_SOLUTION_GOOD,INS_RTKFIXED,17.59960589370,78.12286580583,524.6353,-76.2000,-0.2024,-5.2391,-0.0334,-0.029504632,-0.623123990,265.755487857,0.0655,0.0643,0.0625,0.0288,0.0282,0.0204,0.0312,0.0288,0.4877,ab001241,0*e570a7bb
#INSPVAXA,FILE,0,42.0,FINESTEERING,2319,303972.600,02000000,46eb,17139;INS_SOLUTION_GOOD,INS_RTKFIXED,17.59960583666,78.12286336737,524.6336,-76.2000,-0.1842,-5.2474,-0.0359,-0.006240929,-0.660058090,265.690593772,0.0655,0.0643,0.0625,0.0288,0.0282,0.0204,0.0312,0.0288,0.4877,ab001241,0*c5a5b022
#INSPVAXA,FILE,0,42.0,FINESTEERING,2319,303972.650,02000000,46eb,17139;INS_SOLUTION_GOOD,INS_RTKFIXED,17.59960577950,78.12286092509,524.6325,-76.2000,-0.1967,-5.2566,-0.0077,0.029233796,-0.715117297,265.600073513,0.0655,0.0643,0.0625,0.0288,0.0282,0.0204,0.0312,0.0288,0.4877,ab001241,0*39c158f8
#INSPVAXA,FILE,0,42.0,FINESTEERING,2319,303972.700,02000000,46eb,17139;INS_SOLUTION_GOOD,INS_RTKFIXED,17.59960571731,78.12285847743,524.6311,-76.2000,-0.2112,-5.2660,-0.0279,0.024230563,-0.785969906,265.503069500,0.0655,0.0643,0.0625,0.0288,0.0282,0.0204,0.0312,0.0288,0.4877,ab001241,0*b6583288
#INSPVAXA,FILE,0,42.0,FINESTEERING,2319,303972.750,02000000,46eb,17139;INS_SOLUTION_GOOD,INS_RTKFIXED,17.59960564738,78.12285602554,524.6309,-76.2000,-0.2231,-5.2772,-0.0024,0.035885168,-0.863193227,265.391018896,0.0655,0.0643,0.0625,0.0288,0.0282,0.0204,0.0312,0.0288,0.4877,ab001241,0*c30b17ee
#INSPVAXA,FILE,0,42.0,FINESTEERING,2319,303972.800,02000000,46eb,17139;INS_SOLUTION_GOOD,INS_RTKFIXED,17.59960557163,78.12285356648,524.6303,-76.2000,-0.2313,-5.2923,-0.0230,0.035334199,-0.942213252,265.265482058,0.0655,0.0643,0.0625,0.0288,0.0282,0.0204,0.0312,0.0288,0.4877,ab001241,0*f4975571
#INSPVAXA,FILE,0,42.0,FINESTEERING,2319,303972.850,02000000,46eb,17139;INS_SOLUTION_GOOD,INS_RTKFIXED,17.59960549012,78.12285110049,524.6291,-76.2000,-0.2444,-5.3050,-0.0238,0.020863342,-1.014565628,265.124043521,0.0655,0.0643,0.0625,0.0288,0.0282,0.0204,0.0312,0.0288,0.4877,ab001241,0*1be79c48
#INSPVAXA,FILE,0,42.0,FINESTEERING,2319,303972.900,02000000,46eb,17139;INS_SOLUTION_GOOD,INS_RTKFIXED,17.59960539959,78.12284863012,524.6271,-76.2000,-0.2676,-5.3091,-0.0350,0.021750790,-1.061158826,264.969950191,0.0655,0.0643,0.0625,0.0288,0.0282,0.0204,0.0312,0.0288,0.4877,ab001241,0*35c2b739
#INSPVAXA,FILE,0,42.0,FINESTEERING,2319,303972.950,02000000,46eb,17139;INS_SOLUTION_GOOD,INS_RTKFIXED,17.59960530264,78.12284615430,524.6255,-76.2000,-0.2768,-5.3218,-0.0483,0.014062869,-1.106791683,264.798599993,0.0655,0.0643,0.0625,0.0288,0.0282,0.0204,0.0312,0.0288,0.4877,ab001241,0*0d06fb4f
#INSPVAXA,FILE,0,42.0,FINESTEERING,2319,303973.000,02000000,46eb,17139;INS_SOLUTION_GOOD,INS_RTKFIXED,17.59960520348,78.12284367519,524.6227,-76.2000,-0.2815,-5.3248,-0.0516,0.036885285,-1.138437374,264.601204923,0.0655,0.0643,0.0625,0.0288,0.0282,0.0204,0.0312,0.0288,0.4877,ab001241,0*eb8def77
#INSPVAXA,FILE,0,42.0,FINESTEERING,2319,303973.050,02000000,46eb,17139;INS_SOLUTION_GOOD,INS_RTKFIXED,17.59960508689,78.12284120622,524.6190,-76.2000,-0.2942,-5.3357,-0.0883,0.017458561,-1.141578902,264.376255802,0.0658,0.0645,0.0629,0.0274,0.0272,0.0203,0.0311,0.0285,0.4875,ab001241,0*05e994f0
#INSPVAXA,FILE,0,41.5,FINESTEERING,2319,303973.100,02000000,46eb,17139;INS_SOLUTION_GOOD,INS_RTKFIXED,17.59960494474,78.12283874578,524.6151,-76.2000,-0.3213,-5.3316,-0.0819,0.040677106,-1.163178334,264.127162111,0.0658,0.0645,0.0629,0.0274,0.0272,0.0203,0.0311,0.0285,0.4875,ab001241,0*548e450d
#INSPVAXA,FILE,0,41.5,FINESTEERING,2319,303973.150,02000000,46eb,17139;INS_SOLUTION_GOOD,INS_RTKFIXED,17.59960479138,78.12283628451,524.6115,-76.2000,-0.3476,-5.3339,-0.0800,0.041253134,-1.177139245,263.852871646,0.0658,0.0645,0.0629,0.0274,0.0272,0.0203,0.0311,0.0285,0.4875,ab001241,0*1b1f590a
#INSPVAXA,FILE,0,41.5,FINESTEERING,2319,303973.200,02000000,46eb,17139;INS_SOLUTION_GOOD,INS_RTKFIXED,17.59960462699,78.12283382285,524.6078,-76.2000,-0.3680,-5.3320,-0.0717,0.044268423,-1.190191504,263.540302839,0.0658,0.0645,0.0629,0.0274,0.0272,0.0203,0.0311,0.0285,0.4875,ab001241,0*703114c0
#INSPVAXA,FILE,0,41.5,FINESTEERING,2319,303973.250,02000000,46eb,17139;INS_SOLUTION_GOOD,INS_RTKFIXED,17.59960444933,78.12283136081,524.6043,-76.2000,-0.4046,-5.3332,-0.0756,0.038570270,-1.205813197,263.185383070,0.0658,0.0645,0.0629,0.0274,0.0272,0.0203,0.0311,0.0285,0.4875,ab001241,0*063c2a64
#INSPVAXA,FILE,0,41.5,FINESTEERING,2319,303973.300,02000000,46eb,17139;INS_SOLUTION_GOOD,INS_RTKFIXED,17.59960426061,78.12282889691,524.6006,-76.2000,-0.4265,-5.3354,-0.0872,0.063294972,-1.220945156,262.792467815,0.0658,0.0645,0.0629,0.0274,0.0272,0.0203,0.0311,0.0285,0.4875,ab001241,0*2e764ea9
#INSPVAXA,FILE,0,41.5,FINESTEERING,2319,303973.350,02000000,46eb,17139;INS_SOLUTION_GOOD,INS_RTKFIXED,17.59960406298,78.12282643299,524.5973,-76.2000,-0.4544,-5.3340,-0.0578,0.080867249,-1.271579414,262.345280935,0.0658,0.0645,0.0629,0.0274,0.0272,0.0203,0.0311,0.0285,0.4875,ab001241,0*4a4213ac
#INSPVAXA,FILE,0,41.5,FINESTEERING,2319,303973.400,02000000,46eb,17139;INS_SOLUTION_GOOD,INS_RTKFIXED,17.59960384977,78.12282396877,524.5944,-76.2000,-0.4910,-5.3322,-0.0697,0.109081267,-1.338601026,261.866968837,0.0658,0.0645,0.0629,0.0274,0.0272,0.0203,0.0311,0.0285,0.4875,ab001241,0*0c5868f0
#INSPVAXA,FILE,0,41.5,FINESTEERING,2319,303973.450,02000000,46eb,17139;INS_SOLUTION_GOOD,INS_RTKFIXED,17.59960361967,78.12282150608,524.5913,-76.2000,-0.5287,-5.3334,-0.0636,0.190774489,-1.364280084,261.347260523,0.0658,0.0645,0.0629,0.0274,0.0272,0.0203,0.0311,0.0285,0.4875,ab001241,0*007bc83f
#INSPVAXA,FILE,0,41.5,FINESTEERING,2319,303973.500,02000000,46eb,17139;INS_SOLUTION_GOOD,INS_RTKFIXED,17.59960337116,78.12281904517,524.5877,-76.2000,-0.5761,-5.3215,-0.0612,0.270748406,-1.448641515,260.799279430,0.0658,0.0645,0.0629,0.0274,0.0272,0.0203,0.0311,0.0285,0.4875,ab001241,0*4e0cdb80
#INSPVAXA,FILE,0,41.5,FINESTEERING,2319,303973.550,02000000,46eb,17139;INS_SOLUTION_GOOD,INS_RTKFIXED,17.59960310138,78.12281658543,524.5842,-76.2000,-0.6219,-5.3184,-0.0807,0.336621289,-1.502952356,260.223312450,0.0658,0.0645,0.0629,0.0274,0.0272,0.0203,0.0311,0.0285,0.4875,ab001241,0*dee888cf
#INSPVAXA,FILE,0,41.5,FINESTEERING,2319,303973.600,02000000,46eb,17139;INS_SOLUTION_GOOD,INS_RTKFIXED,17.59960280799,78.12281412827,524.5800,-76.2000,-0.6770,-5.3052,-0.0903,0.371048275,-1.566370111,259.632290581,0.0658,0.0645,0.0629,0.0274,0.0272,0.0203,0.0311,0.0285,0.4875,ab001241,0*7db4233e
#INSPVAXA,FILE,0,41.5,FINESTEERING,2319,303973.650,02000000,46eb,17139;INS_SOLUTION_GOOD,INS_RTKFIXED,17.59960248702,78.12281167506,524.5760,-76.2000,-0.7435,-5.2969,-0.0861,0.319597576,-1.618671446,259.035731756,0.0658,0.0645,0.0629,0.0274,0.0272,0.0203,0.0311,0.0285,0.4875,ab001241,0*c5c56641
#INSPVAXA,FILE,0,41.5,FINESTEERING,2319,303973.700,02000000,46eb,17139;INS_SOLUTION_GOOD,INS_RTKFIXED,17.59960213777,78.12280922622,524.5714,-76.2000,-0.8059,-5.2853,-0.0991,0.276841132,-1.633760296,258.421559128,0.0658,0.0645,0.0629,0.0274,0.0272,0.0203,0.0311,0.0285,0.4875,ab001241,0*48caac2c
#INSPVAXA,FILE,0,41.5,FINESTEERING,2319,303973.750,02000000,46eb,17139;INS_SOLUTION_GOOD,INS_RTKFIXED,17.59960176151,78.12280678163,524.5663,-76.2000,-0.8604,-5.2762,-0.1080,0.248797679,-1.599302059,257.785883062,0.0658,0.0645,0.0629,0.0274,0.0272,0.0203,0.0311,0.0285,0.4875,ab001241,0*bd0cba1e
#INSPVAXA,FILE,0,41.5,FINESTEERING,2319,303973.800,02000000,46eb,17139;INS_SOLUTION_GOOD,INS_RTKFIXED,17.59960136102,78.12280433983,524.5603,-76.2000,-0.9135,-5.2701,-0.1504,0.196425226,-1.507093140,257.118754101,0.0658,0.0645,0.0629,0.0274,0.0272,0.0203,0.0311,0.0285,0.4875,ab001241,0*b0b151f1
#INSPVAXA,FILE,0,41.5,FINESTEERING,2319,303973.850,02000000,46eb,17139;INS_SOLUTION_GOOD,INS_RTKFIXED,17.59960093711,78.12280190433,524.5532,-76.2000,-0.9669,-5.2556,-0.1318,0.205138244,-1.343453741,256.422191718,0.0658,0.0645,0.0629,0.0274,0.0272,0.0203,0.0311,0.0285,0.4875,ab001241,0*8cb0bb8b
#INSPVAXA,FILE,0,41.5,FINESTEERING,2319,303973.900,02000000,46eb,17139;INS_SOLUTION_GOOD,INS_RTKFIXED,17.59960048749,78.12279947456,524.5464,-76.2000,-1.0271,-5.2373,-0.1319,0.177275652,-1.203152302,255.683798130,0.0658,0.0645,0.0629,0.0274,0.0272,0.0203,0.0311,0.0285,0.4875,ab001241,0*0a244c0a
#INSPVAXA,FILE,0,41.5,FINESTEERING,2319,303973.950,02000000,46eb,17139;INS_SOLUTION_GOOD,INS_RTKFIXED,17.59960000994,78.12279705283,524.5400,-76.2000,-1.0883,-5.2230,-0.1300,0.188657262,-1.024779561,254.920678833,0.0658,0.0645,0.0629,0.0274,0.0272,0.0203,0.0311,0.0285,0.4875,ab001241,0*18c0ca7a
#INSPVAXA,FILE,0,41.5,FINESTEERING,2319,303974.000,02000000,46eb,17139;INS_SOLUTION_GOOD,INS_RTKFIXED,17.59959950264,78.12279463936,524.5334,-76.2000,-1.1547,-5.2010,-0.1395,0.251928525,-0.911365734,254.140504157,0.0658,0.0645,0.0629,0.0274,0.0272,0.0203,0.0311,0.0285,0.4875,ab001241,0*dabd4450
