#BESTVELA,FILE,0,35.0,FINESTEERING,2319,304478.600,02000800,10a2,17139;SOL_COMPUTED,NARROW_INT,0.025,2.600,0.5227,179.293524,-0.0417,0*59148658
#BESTVELA,FILE,0,35.0,FINESTEERING,2319,304478.700,02000800,10a2,17139;SOL_COMPUTED,NARROW_INT,0.025,2.700,0.5468,177.628801,-0.0178,0*f6b2bf51
#BESTVELA,FILE,0,35.0,FINESTEERING,2319,304478.750,02000800,10a2,17139;SOL_COMPUTED,NARROW_INT,0.025,2.750,0.5433,177.667993,0.0085,0*78722b45
#BESTVELA,FILE,0,35.0,FINESTEERING,2319,304478.900,02000800,10a2,17139;SOL_COMPUTED,NARROW_INT,0.025,2.900,0.5249,177.107708,0.0218,0*701ed464
#BESTVELA,FILE,0,35.0,FINESTEERING,2319,304478.950,02000800,10a2,17139;SOL_COMPUTED,NARROW_INT,0.025,2.950,0.5488,177.332450,0.0442,0*9fdc1cab
#BESTVELA,FILE,0,35.0,FINESTEERING,2319,304479.000,02000800,10a2,17139;SOL_COMPUTED,NARROW_INT,0.025,3.000,0.5440,180.962078,-0.0048,0*211c526b
#BESTVELA,FILE,0,35.0,FINESTEERING,2319,304479.050,02000800,10a2,17139;SOL_COMPUTED,NARROW_INT,0.025,3.050,0.5402,177.447280,-0.0446,0*8fcfe5eb
#BESTVELA,FILE,0,33.0,FINESTEERING,2319,304479.150,02000800,10a2,17139;SOL_COMPUTED,NARROW_INT,0.025,3.150,0.5131,177.635748,0.0530,0*b70fd097
#BESTVELA,FILE,0,33.0,FINESTEERING,2319,304479.250,02000800,10a2,17139;SOL_COMPUTED,NARROW_INT,0.025,3.250,0.4543,175.892938,-0.0037,0*bb568666
#BESTVELA,FILE,0,33.0,FINESTEERING,2319,304479.350,02000800,10a2,17139;SOL_COMPUTED,NARROW_INT,0.025,3.350,0.4280,177.079142,-0.0250,0*5295854a
#BESTVELA,FILE,0,33.0,FINESTEERING,2319,304479.600,02000800,10a2,17139;SOL_COMPUTED,NARROW_INT,0.025,3.600,0.2146,175.504664,-0.0250,0*2b39717a
#BESTVELA,FILE,0,33.0,FINESTEERING,2319,304479.700,02000800,10a2,17139;SOL_COMPUTED,NARROW_INT,0.025,3.700,0.1141,176.863493,-0.0168,0*1c1977fa
#BESTVELA,FILE,0,33.0,FINESTEERING,2319,304479.800,02000800,10a2,17139;SOL_COMPUTED,NARROW_INT,0.025,3.800,0.0042,200.505191,0.0091,0*2a875877
#BESTVELA,FILE,0,33.0,FINESTEERING,2319,304479.850,02000800,10a2,17139;SOL_COMPUTED,NARROW_INT,0.025,3.850,0.0416,349.578599,0.0010,0*29fe3f81
#BESTVELA,FILE,0,33.0,FINESTEERING,2319,304480.000,02000800,10a2,17139;SOL_COMPUTED,NARROW_INT,0.025,4.000,0.0429,1.468465,-0.0269,0*8e9852bd
#BESTVELA,FILE,0,33.0,FINESTEERING,2319,304480.050,02000800,10a2,17139;SOL_COMPUTED,NARROW_INT,0.025,4.050,0.0236,58.694132,-0.0193,0*ed181974
#BESTVELA,FILE,0,33.0,FINESTEERING,2319,304480.100,02000800,10a2,17139;SOL_COMPUTED,NARROW_INT,0.025,4.100,0.0084,194.214896,0.0156,0*1b18f8bf
#BESTVELA,FILE,0,33.0,FINESTEERING,2319,304480.150,02000800,10a2,17139;SOL_COMPUTED,NARROW_INT,0.025,4.150,0.0184,254.001373,-0.0215,0*346ee3f1
#BESTVELA,FILE,0,33.0,FINESTEERING,2319,304480.200,02000800,10a2,17139;SOL_COMPUTED,NARROW_INT,0.025,4.200,0.0110,162.058296,0.0150,0*98942135
#BESTVELA,FILE,0,33.0,FINESTEERING,2319,304480.250,02000800,10a2,17139;SOL_COMPUTED,NARROW_INT,0.025,4.250,0.0086,312.895908,0.0105,0*58973037
#BESTVELA,FILE,0,33.0,FINESTEERING,2319,304480.500,02000800,10a2,17139;SOL_COMPUTED,NARROW_INT,0.025,4.500,0.0188,298.453419,-0.0113,0*a944321d
#BESTVELA,FILE,0,33.0,FINESTEERING,2319,304480.650,02000800,10a2,17139;SOL_COMPUTED,NARROW_INT,0.025,4.650,0.0140,35.369689,-0.0270,0*15a4cc81
#BESTVELA,FILE,0,33.0,FINESTEERING,2319,304480.850,02000800,10a2,17139;SOL_COMPUTED,NARROW_INT,0.025,4.850,0.0137,54.478280,-0.0044,0*307878d8
#BESTVELA,FILE,0,33.0,FINESTEERING,2319,304480.950,02000800,10a2,17139;SOL_COMPUTED,NARROW_INT,0.025,4.950,0.0129,223.440966,0.0245,0*7543bcdf
#BESTVELA,FILE,0,33.0,FINESTEERING,2319,304481.000,02000800,10a2,17139;SOL_COMPUTED,NARROW_INT,0.025,5.000,0.0111,211.139966,-0.0164,0*cf2b2dba
#BESTVELA,FILE,0,33.0,FINESTEERING,2319,304481.050,02000800,10a2,17139;SOL_COMPUTED,NARROW_INT,0.025,5.050,0.0047,58.786793,-0.0051,0*55011e3e
#BESTVELA,FILE,0,33.0,FINESTEERING,2319,304481.100,02000800,10a2,17139;SOL_COMPUTED,NARROW_INT,0.025,5.100,0.0143,139.710734,0.0007,0*c6c67a7d
#BESTVELA,FILE,0,34.0,FINESTEERING,2319,304481.150,02000800,10a2,17139;SOL_COMPUTED,NARROW_INT,0.025,5.150,0.0205,1.753253,0.0208,0*4399940c
#BESTVELA,FILE,0,34.0,FINESTEERING,2319,304481.250,02000800,10a2,17139;SOL_COMPUTED,NARROW_INT,0.025,5.250,0.0088,227.687138,0.0036,0*54c629b4
#BESTVELA,FILE,0,34.0,FINESTEERING,2319,304481.300,02000800,10a2,17139;SOL_COMPUTED,NARROW_INT,0.025,5.300,0.0085,17.116253,-0.0058,0*4ad2554e
#BESTVELA,FILE,0,34.0,FINESTEERING,2319,304481.500,02000800,10a2,17139;SOL_COMPUTED,NARROW_INT,0.025,5.500,0.0112,330.944598,-0.0333,0*e318ef93
#BESTVELA,FILE,0,34.0,FINESTEERING,2319,304481.750,02000800,10a2,17139;SOL_COMPUTED,NARROW_INT,0.025,5.750,0.0109,210.061701,0.0074,0*3c84ac43
#BESTVELA,FILE,0,34.0,FINESTEERING,2319,304481.800,02000800,10a2,17139;SOL_COMPUTED,NARROW_INT,0.025,5.800,0.0295,26.098609,0.0053,0*6f4a15ac
#BESTVELA,FILE,0,34.0,FINESTEERING,2319,304481.850,02000800,10a2,17139;SOL_COMPUTED,NARROW_INT,0.025,5.850,0.0176,195.251857,0.0228,0*3be2f677
#BESTVELA,FILE,0,34.0,FINESTEERING,2319,304481.900,02000800,10a2,17139;SOL_COMPUTED,NARROW_INT,0.025,5.900,0.0049,228.042311,0.0062,0*92db7609
#BESTVELA,FILE,0,34.0,FINESTEERING,2319,304482.050,02000800,10a2,17139;SOL_COMPUTED,NARROW_INT,0.025,6.050,0.0200,93.213175,-0.0417,0*e40fc925
#BESTVELA,FILE,0,33.5,FINESTEERING,2319,304482.100,02000800,10a2,17139;SOL_COMPUTED,NARROW_INT,0.025,6.100,0.0161,122.173785,0.0267,0*91fb5859
#BESTVELA,FILE,0,33.5,FINESTEERING,2319,304482.250,02000800,10a2,17139;SOL_COMPUTED,NARROW_INT,0.025,6.250,0.0137,335.358318,-0.0254,0*5caf9932
#BESTVELA,FILE,0,33.5,FINESTEERING,2319,304482.300,02000800,10a2,17139;SOL_COMPUTED,NARROW_INT,0.025,6.300,0.0113,270.673930,-0.0166,0*d1b28bd2
#BESTVELA,FILE,0,33.5,FINESTEERING,2319,304482.350,02000800,10a2,17139;SOL_COMPUTED,NARROW_INT,0.025,6.350,0.0281,131.612384,-0.0042,0*1130e7a1
#BESTVELA,FILE,0,33.5,FINESTEERING,2319,304482.400,02000800,10a2,17139;SOL_COMPUTED,NARROW_INT,0.025,6.400,0.0132,22.547094,-0.0005,0*911224da
#BESTVELA,FILE,0,33.5,FINESTEERING,2319,304482.450,02000800,10a2,17139;SOL_COMPUTED,NARROW_INT,0.025,6.450,0.0216,66.368133,0.0340,0*a2d5a4a2
#BESTVELA,FILE,0,33.5,FINESTEERING,2319,304482.500,02000800,10a2,17139;SOL_COMPUTED,NARROW_INT,0.025,6.500,0.0177,247.244020,0.0116,0*646ebb5f
#BESTVELA,FILE,0,33.5,FINESTEERING,2319,304482.550,02000800,10a2,17139;SOL_COMPUTED,NARROW_INT,0.025,6.550,0.0175,194.061194,0.0047,0*7cf6a35f
#BESTVELA,FILE,0,33.5,FINESTEERING,2319,304482.600,02000800,10a2,17139;SOL_COMPUTED,NARROW_INT,0.025,6.600,0.0013,81.151934,0.0005,0*d8092827
#BESTVELA,FILE,0,33.5,FINESTEERING,2319,304482.650,02000800,10a2,17139;SOL_COMPUTED,NARROW_INT,0.025,6.650,0.0086,278.161658,0.0038,0*14a06514
#BESTVELA,FILE,0,33.5,FINESTEERING,2319,304482.700,02000800,10a2,17139;SOL_COMPUTED,NARROW_INT,0.025,6.700,0.0096,326.655651,-0.0372,0*333cc1d6
#BESTVELA,FILE,0,33.5,FINESTEERING,2319,304482.750,02000000,10a2,17139;SOL_COMPUTED,NARROW_INT,0.025,6.750,0.0097,88.782153,0.0142,0*6ee93c1c
#BESTVELA,FILE,0,33.5,FINESTEERING,2319,304482.800,02000000,10a2,17139;SOL_COMPUTED,NARROW_INT,0.025,6.800,0.0101,199.743940,0.0010,0*3b7ccd65
#BESTVELA,FILE,0,33.5,FINESTEERING,2319,304482.850,02000000,10a2,17139;SOL_COMPUTED,NARROW_INT,0.025,6.850,0.0158,141.974609,0.0053,0*9194f089
#BESTVELA,FILE,0,33.5,FINESTEERING,2319,304482.900,02000000,10a2,17139;SOL_COMPUTED,NARROW_INT,0.025,6.900,0.0118,297.328028,-0.0139,0*bd54e515
#BESTVELA,FILE,0,33.5,FINESTEERING,2319,304482.950,02000000,10a2,17139;SOL_COMPUTED,NARROW_INT,0.025,6.950,0.0137,52.206205,0.0003,0*5bb76a5e
#BESTVELA,FILE,0,33.5,FINESTEERING,2319,304483.000,02000000,10a2,17139;SOL_COMPUTED,NARROW_INT,0.025,7.000,0.0090,282.728467,-0.0194,0*bcd50105
#BESTVELA,FILE,0,33.5,FINESTEERING,2319,304483.050,02000000,10a2,17139;SOL_COMPUTED,NARROW_INT,0.025,7.050,0.0071,212.776976,-0.0224,0*bd63b266
#BESTVELA,FILE,0,24.5,FINESTEERING,2319,304483.100,02000000,10a2,17139;SOL_COMPUTED,NARROW_INT,0.025,7.100,0.0173,49.628312,0.0223,0*f91478c8
#BESTVELA,FILE,0,24.5,FINESTEERING,2319,304483.150,02000000,10a2,17139;SOL_COMPUTED,NARROW_INT,0.025,7.150,0.0018,301.836106,0.0075,0*e7f25041
#BESTVELA,FILE,0,24.5,FINESTEERING,2319,304483.200,02000000,10a2,17139;SOL_COMPUTED,NARROW_INT,0.025,7.200,0.0083,305.212515,0.0027,0*1ea37681
#BESTVELA,FILE,0,24.5,FINESTEERING,2319,304483.250,02000000,10a2,17139;SOL_COMPUTED,NARROW_INT,0.025,7.250,0.0499,359.445756,-0.0095,0*38dac439
#BESTVELA,FILE,0,24.5,FINESTEERING,2319,304483.300,02000000,10a2,17139;SOL_COMPUTED,NARROW_INT,0.025,7.300,0.0506,332.000866,0.0181,0*820a130c
#BESTVELA,FILE,0,24.5,FINESTEERING,2319,304483.350,02000000,10a2,17139;SOL_COMPUTED,NARROW_INT,0.025,7.350,0.0776,9.634941,-0.0202,0*29bd9c59
#BESTVELA,FILE,0,24.5,FINESTEERING,2319,304483.400,02000000,10a2,17139;SOL_COMPUTED,NARROW_INT,0.025,7.400,0.0871,358.965778,0.0099,0*5abd7aa0
#BESTVELA,FILE,0,24.5,FINESTEERING,2319,304483.450,02000000,10a2,17139;SOL_COMPUTED,NARROW_INT,0.025,7.450,0.1047,350.617123,-0.0210,0*69102d09
#BESTVELA,FILE,0,24.5,FINESTEERING,2319,304483.500,02000000,10a2,17139;SOL_COMPUTED,NARROW_INT,0.025,7.500,0.1686,351.873797,0.0201,0*6a433de6
#BESTVELA,FILE,0,24.5,FINESTEERING,2319,304483.550,02000000,10a2,17139;SOL_COMPUTED,NARROW_INT,0.025,7.550,0.1910,4.768679,-0.0128,0*eda52950
#BESTVELA,FILE,0,24.5,FINESTEERING,2319,304483.600,02000000,10a2,17139;SOL_COMPUTED,NARROW_INT,0.025,7.600,0.2078,355.710383,0.0051,0*043ba31e
#BESTVELA,FILE,0,24.5,FINESTEERING,2319,304483.650,02000000,10a2,17139;SOL_COMPUTED,NARROW_INT,0.025,7.650,0.2214,356.714760,-0.0058,0*a71001ba
#BESTVELA,FILE,0,24.5,FINESTEERING,2319,304483.700,02000000,10a2,17139;SOL_COMPUTED,NARROW_INT,0.025,7.700,0.3018,354.246592,-0.0278,0*fa456694
#BESTVELA,FILE,0,24.5,FINESTEERING,2319,304483.750,02000000,10a2,17139;SOL_COMPUTED,NARROW_INT,0.025,7.750,0.2943,355.923532,0.0247,0*86a9b866
#BESTVELA,FILE,0,24.5,FINESTEERING,2319,304483.800,02000000,10a2,17139;SOL_COMPUTED,NARROW_INT,0.025,7.800,0.3114,357.319958,0.0280,0*848048ee
#BESTVELA,FILE,0,24.5,FINESTEERING,2319,304483.850,02000000,10a2,17139;SOL_COMPUTED,NARROW_INT,0.025,7.850,0.3342,359.738089,0.0039,0*29020fea
#BESTVELA,FILE,0,24.5,FINESTEERING,2319,304483.900,02000000,10a2,17139;SOL_COMPUTED,NARROW_INT,0.025,7.900,0.3626,357.812941,0.0194,0*75e2f521
#BESTVELA,FILE,0,24.5,FINESTEERING,2319,304483.950,02000000,10a2,17139;SOL_COMPUTED,NARROW_INT,0.025,7.950,0.3711,358.228598,0.0224,0*ea78fa3e
#BESTVELA,FILE,0,24.5,FINESTEERING,2319,304484.000,02000000,10a2,17139;SOL_COMPUTED,NARROW_INT,0.025,8.000,0.4221,356.043072,-0.0130,0*d5e28771
#BESTVELA,FILE,0,24.5,FINESTEERING,2319,304484.050,02000000,10a2,17139;SOL_COMPUTED,NARROW_INT,0.025,8.050,0.4117,356.275063,0.0143,0*618c96a2
#BESTVELA,FILE,0,24.5,FINESTEERING,2319,304484.100,02000800,10a2,17139;SOL_COMPUTED,NARROW_INT,0.025,8.100,0.4882,356.963443,-0.0547,0*470966d3
#BESTVELA,FILE,0,28.0,FINESTEERING,2319,304484.150,02000800,10a2,17139;SOL_COMPUTED,NARROW_INT,0.025,8.150,0.5232,357.136862,-0.0609,0*c6020f56
#BESTVELA,FILE,0,28.0,FINESTEERING,2319,304484.200,02000800,10a2,17139;SOL_COMPUTED,NARROW_INT,0.025,8.200,0.5086,359.606250,0.0505,0*a0725c1b
#BESTVELA,FILE,0,28.0,FINESTEERING,2319,304484.250,02000800,10a2,17139;SOL_COMPUTED,NARROW_INT,0.025,8.250,0.5476,358.902555,0.0027,0*8d1023ae
#BESTVELA,FILE,0,28.0,FINESTEERING,2319,304484.300,02000800,10a2,17139;SOL_COMPUTED,NARROW_INT,0.025,8.300,0.5608,357.288844,0.0156,0*614d25b0
#BESTVELA,FILE,0,28.0,FINESTEERING,2319,304484.350,02000800,10a2,17139;SOL_COMPUTED,NARROW_INT,0.025,8.350,0.5970,356.278197,-0.0373,0*a4d264ec
#BESTVELA,FILE,0,28.0,FINESTEERING,2319,304484.400,02000800,10a2,17139;SOL_COMPUTED,NARROW_INT,0.025,8.400,0.5766,358.605481,-0.0049,0*7788431e
#BESTVELA,FILE,0,28.0,FINESTEERING,2319,304484.450,02000800,10a2,17139;SOL_COMPUTED,NARROW_INT,0.025,8.450,0.6243,356.785770,0.0304,0*b36b21c2
#BESTVELA,FILE,0,28.0,FINESTEERING,2319,304484.500,02000800,10a2,17139;SOL_COMPUTED,NARROW_INT,0.025,8.500,0.6602,357.708956,0.0215,0*0cf9dfac
#BESTVELA,FILE,0,28.0,FINESTEERING,2319,304484.550,02000800,10a2,17139;SOL_COMPUTED,NARROW_INT,0.025,8.550,0.7185,356.671782,-0.0359,0*30626471
#BESTVELA,FILE,0,28.0,FINESTEERING,2319,304484.600,02000800,10a2,17139;SOL_COMPUTED,NARROW_INT,0.025,8.600,0.6789,359.389258,0.0266,0*9574a511
#BESTVELA,FILE,0,28.0,FINESTEERING,2319,304484.650,02000800,10a2,17139;SOL_COMPUTED,NARROW_INT,0.025,8.650,0.6944,359.551648,0.0125,0*e3d47acb
#BESTVELA,FILE,0,28.0,FINESTEERING,2319,304484.700,02000800,10a2,17139;SOL_COMPUTED,NARROW_INT,0.025,8.700,0.7169,357.940106,-0.0284,0*c98b3344
#BESTVELA,FILE,0,28.0,FINESTEERING,2319,304484.750,02000800,10a2,17139;SOL_COMPUTED,NARROW_INT,0.025,8.750,0.7755,354.375791,0.0270,0*6aa6a3fc
#BESTVELA,FILE,0,28.0,FINESTEERING,2319,304484.800,02000800,10a2,17139;SOL_COMPUTED,NARROW_INT,0.025,8.800,0.7807,357.223390,-0.0396,0*eca4f487
#BESTVELA,FILE,0,28.0,FINESTEERING,2319,304484.850,02000800,10a2,17139;SOL_COMPUTED,NARROW_INT,0.025,8.850,0.8084,357.946160,-0.0554,0*9d7ff207
#BESTVELA,FILE,0,28.0,FINESTEERING,2319,304484.900,02000800,10a2,17139;SOL_COMPUTED,NARROW_INT,0.025,8.900,0.8217,358.075289,-0.0236,0*e89943d5
#BESTVELA,FILE,0,28.0,FINESTEERING,2319,304484.950,02000800,10a2,17139;SOL_COMPUTED,NARROW_INT,0.025,8.950,0.8345,357.844115,-0.0299,0*cb51e9f5
#BESTVELA,FILE,0,28.0,FINESTEERING,2319,304485.000,02000800,10a2,17139;SOL_COMPUTED,NARROW_INT,0.025,9.000,0.9010,359.235271,-0.0403,0*a942aed5
#BESTVELA,FILE,0,28.0,FINESTEERING,2319,304485.050,02000800,10a2,17139;SOL_COMPUTED,NARROW_INT,0.025,9.050,0.8856,355.815603,-0.0357,0*d20babce
#BESTVELA,FILE,0,28.0,FINESTEERING,2319,304485.100,02000800,10a2,17139;SOL_COMPUTED,NARROW_INT,0.025,9.100,0.8578,356.474252,0.0254,0*7369f7d9
#BESTVELA,FILE,0,29.5,FINESTEERING,2319,304485.150,02000000,10a2,17139;SOL_COMPUTED,NARROW_INT,0.025,9.150,0.9225,357.200064,-0.0230,0*fbdb0f0a
#BESTVELA,FILE,0,29.5,FINESTEERING,2319,304485.200,02000000,10a2,17139;SOL_COMPUTED,NARROW_INT,0.025,9.200,0.9506,356.601955,0.0294,0*85e9ff4a
#BESTVELA,FILE,0,29.5,FINESTEERING,2319,304485.250,02000000,10a2,17139;SOL_COMPUTED,NARROW_INT,0.025,9.250,0.9957,355.880949,0.0469,0*14dfb178
#BESTVELA,FILE,0,29.5,FINESTEERING,2319,304485.300,02000000,10a2,17139;SOL_COMPUTED,NARROW_INT,0.025,9.300,1.0837,356.809166,-0.1258,0*bffbbb3d
#BESTVELA,FILE,0,29.5,FINESTEERING,2319,304485.350,02000000,10a2,17139;SOL_COMPUTED,NARROW_INT,0.025,9.350,1.0670,359.424947,-0.0217,0*9eaff3be
#BESTVELA,FILE,0,29.5,FINESTEERING,2319,304485.400,02000000,10a2,17139;SOL_COMPUTED,NARROW_INT,0.025,9.400,1.1155,357.595480,0.0070,0*361a65d3
#BESTVELA,FILE,0,29.5,FINESTEERING,2319,304485.450,02000000,10a2,17139;SOL_COMPUTED,NARROW_INT,0.025,9.450,1.1880,356.155366,-0.0211,0*69fd39f6
#BESTVELA,FILE,0,29.5,FINESTEERING,2319,304485.500,02000000,10a2,17139;SOL_COMPUTED,NARROW_INT,0.025,9.500,1.2633,355.675874,-0.0172,0*797e3942
#BESTVELA,FILE,0,29.5,FINESTEERING,2319,304485.550,02000000,10a2,17139;SOL_COMPUTED,NARROW_INT,0.025,9.550,1.3090,356.349180,-0.0160,0*bd3cf68a
#BESTVELA,FILE,0,29.5,FINESTEERING,2319,304485.600,02000000,10a2,17139;SOL_COMPUTED,NARROW_INT,0.025,9.600,1.3958,358.353756,0.0272,0*77a90145
#BESTVELA,FILE,0,29.5,FINESTEERING,2319,304485.650,02000000,10a2,17139;SOL_COMPUTED,NARROW_INT,0.025,9.650,1.4255,357.571820,0.0207,0*2134412c
#BESTVELA,FILE,0,29.5,FINESTEERING,2319,304485.700,02000000,10a2,17139;SOL_COMPUTED,NARROW_INT,0.025,9.700,1.4894,357.392870,-0.0370,0*5b89ca22
#BESTVELA,FILE,0,29.5,FINESTEERING,2319,304485.750,02000000,10a2,17139;SOL_COMPUTED,NARROW_INT,0.025,9.750,1.5284,356.073419,-0.0332,0*0a9944d7
#BESTVELA,FILE,0,29.5,FINESTEERING,2319,304485.800,02000000,10a2,17139;SOL_COMPUTED,NARROW_INT,0.025,9.800,1.6236,358.356053,-0.0394,0*a6aba61c
#BESTVELA,FILE,0,29.5,FINESTEERING,2319,304485.850,02000000,10a2,17139;SOL_COMPUTED,NARROW_INT,0.025,9.850,1.6729,358.631806,0.0214,0*46c040fd
#BESTVELA,FILE,0,29.5,FINESTEERING,2319,304485.900,02000000,10a2,17139;SOL_COMPUTED,NARROW_INT,0.025,9.900,1.7577,357.322852,-0.0602,0*d86c841f
#BESTVELA,FILE,0,29.5,FINESTEERING,2319,304485.950,02000000,10a2,17139;SOL_COMPUTED,NARROW_INT,0.025,9.950,1.8202,356.504702,-0.0235,0*d725b59c
#BESTVELA,FILE,0,29.5,FINESTEERING,2319,304486.000,02000000,10a2,17139;SOL_COMPUTED,NARROW_INT,0.025,10.000,1.8867,356.599736,0.0192,0*46c006d8
#BESTVELA,FILE,0,29.5,FINESTEERING,2319,304486.050,02000000,10a2,17139;SOL_COMPUTED,NARROW_INT,0.025,10.050,1.9573,356.136696,-0.0242,0*f4e5977f
#BESTVELA,FILE,0,29.5,FINESTEERING,2319,304486.100,02000000,10a2,17139;SOL_COMPUTED,NARROW_INT,0.025,10.100,1.9662,357.427153,-0.0607,0*0703fd4a
#BESTVELA,FILE,0,30.5,FINESTEERING,2319,304486.150,02000000,10a2,17139;SOL_COMPUTED,NARROW_INT,0.025,10.150,2.1061,357.641409,-0.0543,0*b4a6bb00
#BESTVELA,FILE,0,30.5,FINESTEERING,2319,304486.200,02000000,10a2,17139;SOL_COMPUTED,NARROW_INT,0.025,10.200,2.1343,356.445301,0.0064,0*7b860fbf
#BESTVELA,FILE,0,30.5,FINESTEERING,2319,304486.250,02000000,10a2,17139;SOL_COMPUTED,NARROW_INT,0.025,10.250,2.1998,356.449946,-0.0324,0*f79f0403
#BESTVELA,FILE,0,30.5,FINESTEERING,2319,304486.300,02000000,10a2,17139;SOL_COMPUTED,NARROW_INT,0.025,10.300,2.3112,357.295141,0.0667,0*c9a77275
#BESTVELA,FILE,0,30.5,FINESTEERING,2319,304486.350,02000000,10a2,17139;SOL_COMPUTED,NARROW_INT,0.025,10.350,2.4001,356.615707,-0.0319,0*2ad312e2
#BESTVELA,FILE,0,30.5,FINESTEERING,2319,304486.400,02000000,10a2,17139;SOL_COMPUTED,NARROW_INT,0.025,10.400,2.4487,357.171372,-0.0945,0*478772bc
#BESTVELA,FILE,0,30.5,FINESTEERING,2319,304486.450,02000000,10a2,17139;SOL_COMPUTED,NARROW_INT,0.025,10.450,2.5292,356.896649,0.0095,0*b31a2762
#BESTVELA,FILE,0,30.5,FINESTEERING,2319,304486.500,02000000,10a2,17139;SOL_COMPUTED,NARROW_INT,0.025,10.500,2.6108,356.919226,-0.0475,0*28e80115
#BESTVELA,FILE,0,30.5,FINESTEERING,2319,304486.550,02000000,10a2,17139;SOL_COMPUTED,NARROW_INT,0.025,10.550,2.6320,356.501862,-0.0374,0*089d1e56
#BESTVELA,FILE,0,30.5,FINESTEERING,2319,304486.600,02000000,10a2,17139;SOL_COMPUTED,NARROW_INT,0.025,10.600,2.7212,356.327180,-0.0298,0*c42006c6
#BESTVELA,FILE,0,30.5,FINESTEERING,2319,304486.650,02000000,10a2,17139;SOL_COMPUTED,NARROW_INT,0.025,10.650,2.7810,355.773082,-0.0179,0*6ce4305d
#BESTVELA,FILE,0,30.5,FINESTEERING,2319,304486.700,02000000,10a2,17139;SOL_COMPUTED,NARROW_INT,0.025,10.700,2.8436,356.601194,0.0364,0*4bf89a30
#BESTVELA,FILE,0,30.5,FINESTEERING,2319,304486.750,02000000,10a2,17139;SOL_COMPUTED,NARROW_INT,0.025,10.750,2.9082,356.313445,-0.0800,0*7a52258c
#BESTVELA,FILE,0,30.5,FINESTEERING,2319,304486.800,02000000,10a2,17139;SOL_COMPUTED,NARROW_INT,0.025,10.800,2.9710,356.032870,0.0229,0*ee11f542
#BESTVELA,FILE,0,30.5,FINESTEERING,2319,304486.850,02000000,10a2,17139;SOL_COMPUTED,NARROW_INT,0.025,10.850,2.9741,356.197555,-0.0535,0*79956f15
#BESTVELA,FILE,0,30.5,FINESTEERING,2319,304486.900,02000000,10a2,17139;SOL_COMPUTED,NARROW_INT,0.025,10.900,3.0081,356.977374,-0.0516,0*f740c5c2
#BESTVELA,FILE,0,30.5,FINESTEERING,2319,304486.950,02000000,10a2,17139;SOL_COMPUTED,NARROW_INT,0.025,10.950,3.0560,356.641849,-0.0335,0*44d826ba
#BESTVELA,FILE,0,30.5,FINESTEERING,2319,304487.000,02000000,10a2,17139;SOL_COMPUTED,NARROW_INT,0.025,11.000,3.0944,356.302673,0.0726,0*80afa1dd
#BESTVELA,FILE,0,30.5,FINESTEERING,2319,304487.050,02000000,10a2,17139;SOL_COMPUTED,NARROW_INT,0.025,11.050,3.0856,356.154023,-0.0538,0*421b8c0c
#BESTVELA,FILE,0,29.0,FINESTEERING,2319,304487.100,02000000,10a2,17139;SOL_COMPUTED,NARROW_INT,0.025,11.100,3.1000,356.590035,-0.0498,0*e8f281e2
#BESTVELA,FILE,0,29.0,FINESTEERING,2319,304487.150,02000000,10a2,17139;SOL_COMPUTED,NARROW_INT,0.025,11.150,3.1039,356.546825,0.1072,0*b69602a1
#BESTVELA,FILE,0,29.0,FINESTEERING,2319,304487.200,02000000,10a2,17139;SOL_COMPUTED,NARROW_INT,0.025,11.200,3.1105,356.581996,0.0041,0*3c454086
#BESTVELA,FILE,0,29.0,FINESTEERING,2319,304487.250,02000000,10a2,17139;SOL_COMPUTED,NARROW_INT,0.025,11.250,3.1008,355.870664,-0.0735,0*d71d1751
#BESTVELA,FILE,0,29.0,FINESTEERING,2319,304487.300,02000000,10a2,17139;SOL_COMPUTED,NARROW_INT,0.025,11.300,3.1139,355.119165,-0.0542,0*dbdca6a4
#BESTVELA,FILE,0,29.0,FINESTEERING,2319,304487.350,02000000,10a2,17139;SOL_COMPUTED,NARROW_INT,0.025,11.350,3.1000,356.600927,0.0226,0*7ba3e376
#BESTVELA,FILE,0,29.0,FINESTEERING,2319,304487.400,02000000,10a2,17139;SOL_COMPUTED,NARROW_INT,0.025,11.400,3.1094,356.234520,0.0091,0*5560413d
#BESTVELA,FILE,0,29.0,FINESTEERING,2319,304487.450,02000000,10a2,17139;SOL_COMPUTED,NARROW_INT,0.025,11.450,3.1524,355.906262,-0.1447,0*cdfc7e7b
#BESTVELA,FILE,0,29.0,FINESTEERING,2319,304487.500,02000000,10a2,17139;SOL_COMPUTED,NARROW_INT,0.025,11.500,3.1262,355.813336,0.0043,0*7907b29d
#BESTVELA,FILE,0,29.0,FINESTEERING,2319,304487.550,02000000,10a2,17139;SOL_COMPUTED,NARROW_INT,0.025,11.550,3.1471,356.002544,0.0231,0*ab8f1c29
#BESTVELA,FILE,0,29.0,FINESTEERING,2319,304487.600,02000000,10a2,17139;SOL_COMPUTED,NARROW_INT,0.025,11.600,3.1298,355.772909,-0.0698,0*a6369b40
#BESTVELA,FILE,0,29.0,FINESTEERING,2319,304487.650,02000000,10a2,17139;SOL_COMPUTED,NARROW_INT,0.025,11.650,3.1234,356.052415,0.0048,0*9745a89b
#BESTVELA,FILE,0,29.0,FINESTEERING,2319,304487.700,02000000,10a2,17139;SOL_COMPUTED,NARROW_INT,0.025,11.700,3.1176,355.982614,0.0127,0*e37a6e13
#BESTVELA,FILE,0,29.0,FINESTEERING,2319,304487.750,02000000,10a2,17139;SOL_COMPUTED,NARROW_INT,0.025,11.750,3.1315,355.625321,0.0254,0*6a081656
#BESTVELA,FILE,0,29.0,FINESTEERING,2319,304487.800,02000000,10a2,17139;SOL_COMPUTED,NARROW_INT,0.025,11.800,3.1413,355.959105,-0.0474,0*3b91294e
#BESTVELA,FILE,0,29.0,FINESTEERING,2319,304487.850,02000000,10a2,17139;SOL_COMPUTED,NARROW_INT,0.025,11.850,3.1201,355.370694,-0.0218,0*f4f0b4e9
#BESTVELA,FILE,0,29.0,FINESTEERING,2319,304487.900,02000000,10a2,17139;SOL_COMPUTED,NARROW_INT,0.025,11.900,3.1145,355.628061,-0.0136,0*2dde29c1
#BESTVELA,FILE,0,29.0,FINESTEERING,2319,304487.950,02000000,10a2,17139;SOL_COMPUTED,NARROW_INT,0.025,11.950,3.1321,355.858415,-0.0406,0*9ad9854f
#BESTVELA,FILE,0,29.0,FINESTEERING,2319,304488.000,02000000,10a2,17139;SOL_COMPUTED,NARROW_INT,0.025,12.000,3.1461,356.439722,-0.0387,0*614484a3
#BESTVELA,FILE,0,29.0,FINESTEERING,2319,304488.050,02000000,10a2,17139;SOL_COMPUTED,NARROW_INT,0.025,12.050,3.0985,356.248630,-0.0021,0*921a94dd
#BESTVELA,FILE,0,29.0,FINESTEERING,2319,304488.100,02000000,10a2,17139;SOL_COMPUTED,NARROW_INT,0.025,12.100,3.1120,356.474685,-0.0527,0*04d03edb
#BESTVELA,FILE,0,30.0,FINESTEERING,2319,304488.150,02000000,10a2,17139;SOL_COMPUTED,NARROW_INT,0.025,12.150,3.0797,357.089178,0.0147,0*5d616abb
#BESTVELA,FILE,0,30.0,FINESTEERING,2319,304488.200,02000000,10a2,17139;SOL_COMPUTED,NARROW_INT,0.025,12.200,3.0959,358.065605,-0.0666,0*8c71f019
#BESTVELA,FILE,0,30.0,FINESTEERING,2319,304488.250,02000000,10a2,17139;SOL_COMPUTED,NARROW_INT,0.025,3.250,3.0753,357.838716,-0.0174,0*1c7d80bf
#BESTVELA,FILE,0,30.0,FINESTEERING,2319,304488.300,02000000,10a2,17139;SOL_COMPUTED,NARROW_INT,0.025,3.300,3.0771,358.078344,-0.0820,0*1e1410c6
#BESTVELA,FILE,0,30.0,FINESTEERING,2319,304488.350,02000000,10a2,17139;SOL_COMPUTED,NARROW_INT,0.025,3.350,3.0852,358.380537,-0.0404,0*128d4fd3
#BESTVELA,FILE,0,30.0,FINESTEERING,2319,304488.400,02000000,10a2,17139;SOL_COMPUTED,NARROW_INT,0.025,3.400,3.0594,358.606396,-0.0291,0*e7c8476a
#BESTVELA,FILE,0,30.0,FINESTEERING,2319,304488.450,02000000,10a2,17139;SOL_COMPUTED,NARROW_INT,0.025,3.450,3.0347,359.463284,-0.0389,0*fe343469
#BESTVELA,FILE,0,30.0,FINESTEERING,2319,304488.500,02000000,10a2,17139;SOL_COMPUTED,NARROW_INT,0.025,3.500,3.0549,359.654140,-0.0189,0*f77cb442
#BESTVELA,FILE,0,30.0,FINESTEERING,2319,304488.550,02000000,10a2,17139;SOL_COMPUTED,NARROW_INT,0.025,3.550,3.0534,0.340946,-0.0330,0*a8fa2cf6
#BESTVELA,FILE,0,30.0,FINESTEERING,2319,304488.600,02000000,10a2,17139;SOL_COMPUTED,NARROW_INT,0.025,3.600,3.0585,1.414197,-0.0092,0*d2de828c
#BESTVELA,FILE,0,30.0,FINESTEERING,2319,304488.650,02000000,10a2,17139;SOL_COMPUTED,NARROW_INT,0.025,3.650,3.0442,1.579137,-0.0431,0*b483446d
#BESTVELA,FILE,0,30.0,FINESTEERING,2319,304488.700,02000000,10a2,17139;SOL_COMPUTED,NARROW_INT,0.025,3.700,3.0179,1.996791,-0.0690,0*9ae3d8cf
#BESTVELA,FILE,0,30.0,FINESTEERING,2319,304488.750,02000000,10a2,17139;SOL_COMPUTED,NARROW_INT,0.025,3.750,3.0245,2.909926,-0.0560,0*92414f1c
#BESTVELA,FILE,0,30.0,FINESTEERING,2319,304488.800,02000000,10a2,17139;SOL_COMPUTED,NARROW_INT,0.025,3.800,3.0156,3.638764,-0.0468,0*38509391
#BESTVELA,FILE,0,30.0,FINESTEERING,2319,304488.850,02000000,10a2,17139;SOL_COMPUTED,NARROW_INT,0.025,3.850,2.9898,4.139818,-0.0772,0*4236a7a5
#BESTVELA,FILE,0,30.0,FINESTEERING,2319,304488.900,02000000,10a2,17139;SOL_COMPUTED,NARROW_INT,0.025,3.900,3.0020,4.403379,-0.0831,0*ff86daa8
#BESTVELA,FILE,0,30.0,FINESTEERING,2319,304488.950,02000000,10a2,17139;SOL_COMPUTED,NARROW_INT,0.025,3.950,2.9813,5.598677,-0.0257,0*1e528e8e
#BESTVELA,FILE,0,30.0,FINESTEERING,2319,304489.000,02000000,10a2,17139;SOL_COMPUTED,NARROW_INT,0.025,4.000,2.9528,6.130206,-0.0250,0*4ef550db
#BESTVELA,FILE,0,30.0,FINESTEERING,2319,304489.050,02000000,10a2,17139;SOL_COMPUTED,NARROW_INT,0.025,4.050,2.9838,6.618066,-0.0414,0*2397a30c
#BESTVELA,FILE,0,28.0,FINESTEERING,2319,304489.100,02000000,10a2,17139;SOL_COMPUTED,NARROW_INT,0.025,4.100,2.9989,7.737051,0.0107,0*f9f0cbe4
#BESTVELA,FILE,0,28.0,FINESTEERING,2319,304489.150,02000000,10a2,17139;SOL_COMPUTED,NARROW_INT,0.025,4.150,2.9579,9.394008,-0.0652,0*eeb7e3a0
#BESTVELA,FILE,0,28.0,FINESTEERING,2319,304489.200,02000000,10a2,17139;SOL_COMPUTED,NARROW_INT,0.025,4.200,2.9332,9.996446,-0.0348,0*12866d7a
#BESTVELA,FILE,0,28.0,FINESTEERING,2319,304489.250,02000800,10a2,17139;SOL_COMPUTED,NARROW_INT,0.025,4.250,2.9607,10.886663,-0.0352,0*3d086cdf
#BESTVELA,FILE,0,28.0,FINESTEERING,2319,304489.300,02000800,10a2,17139;SOL_COMPUTED,NARROW_INT,0.025,4.300,2.9337,10.982490,0.0200,0*cc3dc95b
#BESTVELA,FILE,0,28.0,FINESTEERING,2319,304489.350,02000800,10a2,17139;SOL_COMPUTED,NARROW_INT,0.025,4.350,2.9106,12.023454,-0.0590,0*1f3fad74
#BESTVELA,FILE,0,28.0,FINESTEERING,2319,304489.400,02000800,10a2,17139;SOL_COMPUTED,NARROW_INT,0.025,4.400,2.8975,12.092353,-0.0855,0*f479f5bb
#BESTVELA,FILE,0,28.0,FINESTEERING,2319,304489.450,02000800,10a2,17139;SOL_COMPUTED,NARROW_INT,0.025,4.450,2.9205,12.086009,-0.0634,0*8b3e5d94
#BESTVELA,FILE,0,28.0,FINESTEERING,2319,304489.500,02000800,10a2,17139;SOL_COMPUTED,NARROW_INT,0.025,4.500,2.8998,12.815569,-0.0033,0*ccdb1204
#BESTVELA,FILE,0,28.0,FINESTEERING,2319,304489.550,02000800,10a2,17139;SOL_COMPUTED,NARROW_INT,0.025,4.550,2.9027,13.952221,-0.0445,0*0d1219b5
#BESTVELA,FILE,0,28.0,FINESTEERING,2319,304489.600,02000800,10a2,17139;SOL_COMPUTED,NARROW_INT,0.025,4.600,2.8818,14.385830,-0.0164,0*5701cd8c
#BESTVELA,FILE,0,28.0,FINESTEERING,2319,304489.650,02000800,10a2,17139;SOL_COMPUTED,NARROW_INT,0.025,4.650,2.8409,14.938949,-0.0621,0*ba8e36bd
#BESTVELA,FILE,0,28.0,FINESTEERING,2319,304489.700,02000800,10a2,17139;SOL_COMPUTED,NARROW_INT,0.025,4.700,2.8317,15.854948,-0.0265,0*4abb2655
#BESTVELA,FILE,0,28.0,FINESTEERING,2319,304489.750,02000800,10a2,17139;SOL_COMPUTED,NARROW_INT,0.025,4.750,2.8405,17.132430,-0.0311,0*f25fe54e
#BESTVELA,FILE,0,28.0,FINESTEERING,2319,304489.800,02000800,10a2,17139;SOL_COMPUTED,NARROW_INT,0.025,4.800,2.8461,18.461070,-0.0082,0*4b1434ba
#BESTVELA,FILE,0,28.0,FINESTEERING,2319,304489.850,02000800,10a2,17139;SOL_COMPUTED,NARROW_INT,0.025,4.850,2.8526,19.481217,0.0037,0*802eed81
#BESTVELA,FILE,0,28.0,FINESTEERING,2319,304489.900,02000800,10a2,17139;SOL_COMPUTED,NARROW_INT,0.025,4.900,2.8393,21.040348,0.0181,0*85bd1361
#BESTVELA,FILE,0,28.0,FINESTEERING,2319,304489.950,02000800,10a2,17139;SOL_COMPUTED,NARROW_INT,0.025,4.950,2.8607,21.939914,-0.0303,0*9c13e425
#BESTVELA,FILE,0,28.0,FINESTEERING,2319,304490.000,02000800,10a2,17139;SOL_COMPUTED,NARROW_INT,0.025,5.000,2.8674,22.920161,-0.0039,0*e8e151f1
#BESTVELA,FILE,0,28.0,FINESTEERING,2319,304490.050,02000800,10a2,17139;SOL_COMPUTED,NARROW_INT,0.025,5.050,2.8729,23.346902,-0.0328,0*92fe2341
#BESTVELA,FILE,0,28.0,FINESTEERING,2319,304490.100,02000800,10a2,17139;SOL_COMPUTED,NARROW_INT,0.025,5.100,2.8118,24.520311,-0.0623,0*fa876bea
#BESTVELA,FILE,0,29.5,FINESTEERING,2319,304490.150,02000800,10a2,17139;SOL_COMPUTED,NARROW_INT,0.025,5.150,2.7882,25.820049,-0.0367,0*845f4d09
#BESTVELA,FILE,0,29.5,FINESTEERING,2319,304490.200,02000800,10a2,17139;SOL_COMPUTED,NARROW_INT,0.025,5.200,2.8083,25.490652,-0.0658,0*6974e08c
#BESTVELA,FILE,0,29.5,FINESTEERING,2319,304490.250,02000800,10a2,17139;SOL_COMPUTED,NARROW_INT,0.025,5.250,2.8415,26.703892,-0.0726,0*bc09357f
#BESTVELA,FILE,0,29.5,FINESTEERING,2319,304490.300,02000800,10a2,17139;SOL_COMPUTED,NARROW_INT,0.025,5.300,2.9081,27.295979,-0.0698,0*da1b4ae8
#BESTVELA,FILE,0,29.5,FINESTEERING,2319,304490.350,02000800,10a2,17139;SOL_COMPUTED,NARROW_INT,0.025,5.350,3.0343,27.669841,-0.0443,0*367abd8d
#BESTVELA,FILE,0,29.5,FINESTEERING,2319,304490.400,02000000,10a2,17139;SOL_COMPUTED,NARROW_INT,0.025,5.400,3.1066,29.350440,0.0016,0*f461da65
#BESTVELA,FILE,0,29.5,FINESTEERING,2319,304490.450,02000000,10a2,17139;SOL_COMPUTED,NARROW_INT,0.025,5.450,3.1927,29.533176,0.0361,0*771f4db3
#BESTVELA,FILE,0,29.5,FINESTEERING,2319,304490.500,02000000,10a2,17139;SOL_COMPUTED,NARROW_INT,0.025,5.500,3.2523,29.931047,0.0865,0*9498c79b
#BESTVELA,FILE,0,29.5,FINESTEERING,2319,304490.550,02000000,10a2,17139;SOL_COMPUTED,NARROW_INT,0.025,5.550,3.2909,30.397127,0.0298,0*de97a8e7
#BESTVELA,FILE,0,29.5,FINESTEERING,2319,304490.600,02000000,10a2,17139;SOL_COMPUTED,NARROW_INT,0.025,5.600,3.3442,32.031807,0.0228,0*6566d5ad
#BESTVELA,FILE,0,29.5,FINESTEERING,2319,304490.650,02000000,10a2,17139;SOL_COMPUTED,NARROW_INT,0.025,5.650,3.3779,32.452628,0.0006,0*ae198805
#BESTVELA,FILE,0,29.5,FINESTEERING,2319,304490.700,02000000,10a2,17139;SOL_COMPUTED,NARROW_INT,0.025,5.700,3.4628,33.165194,-0.0182,0*5671c793
#BESTVELA,FILE,0,29.5,FINESTEERING,2319,304490.750,02000000,10a2,17139;SOL_COMPUTED,NARROW_INT,0.025,5.750,3.5499,35.436902,-0.1214,0*d5692fc2
#BESTVELA,FILE,0,29.5,FINESTEERING,2319,304490.800,02000000,10a2,17139;SOL_COMPUTED,NARROW_INT,0.025,5.800,3.5948,36.859370,-0.0147,0*54387d2e
#BESTVELA,FILE,0,29.5,FINESTEERING,2319,304490.850,02000000,10a2,17139;SOL_COMPUTED,NARROW_INT,0.025,5.850,3.7438,39.243443,0.0287,0*2f25c796
#BESTVELA,FILE,0,29.5,FINESTEERING,2319,304490.900,02000000,10a2,17139;SOL_COMPUTED,NARROW_INT,0.025,5.900,3.8600,40.403009,0.0217,0*7513ea5f
#BESTVELA,FILE,0,29.5,FINESTEERING,2319,304490.950,02000000,10a2,17139;SOL_COMPUTED,NARROW_INT,0.025,5.950,3.9437,41.751840,-0.0112,0*5db3057b
#BESTVELA,FILE,0,29.5,FINESTEERING,2319,304491.000,02000000,10a2,17139;SOL_COMPUTED,NARROW_INT,0.025,6.000,4.0378,42.552899,0.0633,0*31fda1d8
#BESTVELA,FILE,0,29.5,FINESTEERING,2319,304491.050,02000000,10a2,17139;SOL_COMPUTED,NARROW_INT,0.025,6.050,4.0838,43.961680,0.0188,0*f307baae
#BESTVELA,FILE,0,28.0,FINESTEERING,2319,304491.100,02000000,10a2,17139;SOL_COMPUTED,NARROW_INT,0.025,6.100,4.1277,44.141294,-0.0399,0*b7c658ec
#BESTVELA,FILE,0,28.0,FINESTEERING,2319,304491.150,02000000,10a2,17139;SOL_COMPUTED,NARROW_INT,0.025,6.150,4.2201,44.394565,-0.1356,0*d6618bf9
#BESTVELA,FILE,0,28.0,FINESTEERING,2319,304491.200,02000000,10a2,17139;SOL_COMPUTED,NARROW_INT,0.025,6.200,4.2598,45.351966,-0.0638,0*946d3b79
#BESTVELA,FILE,0,28.0,FINESTEERING,2319,304491.250,02000000,10a2,17139;SOL_COMPUTED,NARROW_INT,0.025,6.250,4.2835,46.214352,-0.0531,0*de8e864d
#BESTVELA,FILE,0,28.0,FINESTEERING,2319,304491.300,02000000,10a2,17139;SOL_COMPUTED,NARROW_INT,0.025,6.300,4.3427,47.469242,-0.0949,0*9ba611de
#BESTVELA,FILE,0,28.0,FINESTEERING,2319,304491.350,02000000,10a2,17139;SOL_COMPUTED,NARROW_INT,0.025,6.350,4.4109,48.504143,-0.0267,0*bbf54b60
#BESTVELA,FILE,0,28.0,FINESTEERING,2319,304491.400,02000000,10a2,17139;SOL_COMPUTED,NARROW_INT,0.025,6.400,4.4725,49.990348,-0.0645,0*a099a7fc
#BESTVELA,FILE,0,28.0,FINESTEERING,2319,304491.450,02000000,10a2,17139;SOL_COMPUTED,NARROW_INT,0.025,6.450,4.5099,51.988311,0.0051,0*3fdbbedd
#BESTVELA,FILE,0,28.0,FINESTEERING,2319,304491.500,02000000,10a2,17139;SOL_COMPUTED,NARROW_INT,0.025,6.500,4.5585,53.638362,-0.0176,0*4e7165a1
#BESTVELA,FILE,0,28.0,FINESTEERING,2319,304491.550,02000000,10a2,17139;SOL_COMPUTED,NARROW_INT,0.025,6.550,4.5831,54.910256,-0.0254,0*562d2b70
#BESTVELA,FILE,0,28.0,FINESTEERING,2319,304491.600,02000000,10a2,17139;SOL_COMPUTED,NARROW_INT,0.025,6.600,4.6299,56.875986,-0.0441,0*35aa3a18
#BESTVELA,FILE,0,28.0,FINESTEERING,2319,304491.650,02000000,10a2,17139;SOL_COMPUTED,NARROW_INT,0.025,6.650,4.6452,58.441777,-0.0550,0*09bd2f47
#BESTVELA,FILE,0,28.0,FINESTEERING,2319,304491.700,02000000,10a2,17139;SOL_COMPUTED,NARROW_INT,0.025,6.700,4.6972,59.629149,-0.1132,0*ef2fab0e
#BESTVELA,FILE,0,28.0,FINESTEERING,2319,304491.750,02000000,10a2,17139;SOL_COMPUTED,NARROW_INT,0.025,6.750,4.7419,61.195106,-0.0713,0*0ab8ae2e
#BESTVELA,FILE,0,28.0,FINESTEERING,2319,304491.800,02000000,10a2,17139;SOL_COMPUTED,NARROW_INT,0.025,6.800,4.7569,63.007806,-0.0699,0*5bb66a00
#BESTVELA,FILE,0,28.0,FINESTEERING,2319,304491.850,02000000,10a2,17139;SOL_COMPUTED,NARROW_INT,0.025,6.850,4.8295,64.471824,-0.0724,0*3456e169
#BESTVELA,FILE,0,28.0,FINESTEERING,2319,304491.900,02000000,10a2,17139;SOL_COMPUTED,NARROW_INT,0.025,6.900,4.8573,65.975153,-0.0945,0*7640c25e
#BESTVELA,FILE,0,28.0,FINESTEERING,2319,304491.950,02000000,10a2,17139;SOL_COMPUTED,NARROW_INT,0.025,6.950,4.8901,67.332194,-0.0129,0*c8b1a1d1
#BESTVELA,FILE,0,28.0,FINESTEERING,2319,304492.000,02000000,10a2,17139;SOL_COMPUTED,NARROW_INT,0.025,7.000,4.9432,68.146478,-0.0253,0*c2ad560f
#BESTVELA,FILE,0,28.0,FINESTEERING,2319,304492.050,02000000,10a2,17139;SOL_COMPUTED,NARROW_INT,0.025,7.050,4.9792,69.392287,-0.0322,0*5f183403
#BESTVELA,FILE,0,28.0,FINESTEERING,2319,304492.100,02000000,10a2,17139;SOL_COMPUTED,NARROW_INT,0.025,7.100,4.9989,70.132441,-0.0379,0*f50ba914
#BESTVELA,FILE,0,28.0,FINESTEERING,2319,304492.150,02000000,10a2,17139;SOL_COMPUTED,NARROW_INT,0.025,7.150,5.0374,71.491621,-0.0478,0*7b53d000
#BESTVELA,FILE,0,30.5,FINESTEERING,2319,304492.200,02000000,10a2,17139;SOL_COMPUTED,NARROW_INT,0.025,7.200,5.0805,71.657468,-0.0096,0*9d8169f2
#BESTVELA,FILE,0,30.5,FINESTEERING,2319,304492.250,02000000,10a2,17139;SOL_COMPUTED,NARROW_INT,0.025,7.250,5.1060,72.414633,-0.0969,0*ecea4f9a
#BESTVELA,FILE,0,30.5,FINESTEERING,2319,304492.300,02000000,10a2,17139;SOL_COMPUTED,NARROW_INT,0.025,7.300,5.1514,72.706122,-0.0211,0*05cf9c64
#BESTVELA,FILE,0,30.5,FINESTEERING,2319,304492.350,02000000,10a2,17139;SOL_COMPUTED,NARROW_INT,0.025,7.350,5.2075,73.438966,-0.0074,0*96fada48
#BESTVELA,FILE,0,30.5,FINESTEERING,2319,304492.400,02000000,10a2,17139;SOL_COMPUTED,NARROW_INT,0.025,7.400,5.1956,73.990729,0.0032,0*f9524aab
#BESTVELA,FILE,0,30.5,FINESTEERING,2319,304492.450,02000000,10a2,17139;SOL_COMPUTED,NARROW_INT,0.025,7.450,5.2358,74.424403,0.0021,0*3e758652
#BESTVELA,FILE,0,30.5,FINESTEERING,2319,304492.500,02000000,10a2,17139;SOL_COMPUTED,NARROW_INT,0.025,7.500,5.2704,75.225479,0.0001,0*56830d17
#BESTVELA,FILE,0,30.5,FINESTEERING,2319,304492.550,02000000,10a2,17139;SOL_COMPUTED,NARROW_INT,0.025,7.550,5.2950,75.498844,0.0359,0*8d74c53b
#BESTVELA,FILE,0,30.5,FINESTEERING,2319,304492.600,02000000,10a2,17139;SOL_COMPUTED,NARROW_INT,0.025,7.600,5.3111,76.279379,0.0529,0*e73a93f3
#BESTVELA,FILE,0,30.5,FINESTEERING,2319,304492.650,02000000,10a2,17139;SOL_COMPUTED,NARROW_INT,0.025,7.650,5.3351,76.988902,-0.0150,0*f147cf85
#BESTVELA,FILE,0,30.5,FINESTEERING,2319,304492.700,02000000,10a2,17139;SOL_COMPUTED,NARROW_INT,0.025,7.700,5.3494,77.544669,-0.0579,0*c4405ea9
#BESTVELA,FILE,0,30.5,FINESTEERING,2319,304492.750,02000000,10a2,17139;SOL_COMPUTED,NARROW_INT,0.025,7.750,5.3608,78.555159,0.0154,0*16344a09
#BESTVELA,FILE,0,30.5,FINESTEERING,2319,304492.800,02000000,10a2,17139;SOL_COMPUTED,NARROW_INT,0.025,7.800,5.3918,79.272137,-0.0344,0*0e43871e
#BESTVELA,FILE,0,30.5,FINESTEERING,2319,304492.850,02000000,10a2,17139;SOL_COMPUTED,NARROW_INT,0.025,7.850,5.4178,80.092472,0.0096,0*66f1e067
#BESTVELA,FILE,0,30.5,FINESTEERING,2319,304492.900,02000000,10a2,17139;SOL_COMPUTED,NARROW_INT,0.025,7.900,5.4493,80.651303,0.0327,0*dc9a80d4
#BESTVELA,FILE,0,30.5,FINESTEERING,2319,304492.950,02000000,10a2,17139;SOL_COMPUTED,NARROW_INT,0.025,7.950,5.4733,80.647889,0.0354,0*b4c2648d
#BESTVELA,FILE,0,30.5,FINESTEERING,2319,304493.000,02000000,10a2,17139;SOL_COMPUTED,NARROW_INT,0.025,8.000,5.5242,81.013783,-0.0101,0*86748039
#BESTVELA,FILE,0,30.5,FINESTEERING,2319,304493.050,02000000,10a2,17139;SOL_COMPUTED,NARROW_INT,0.025,8.050,5.5514,80.934913,0.0224,0*b7b2d24a
#BESTVELA,FILE,0,30.5,FINESTEERING,2319,304493.100,02000000,10a2,17139;SOL_COMPUTED,NARROW_INT,0.025,8.100,5.5383,81.075939,0.0114,0*3702fb4b
#BESTVELA,FILE,0,31.0,FINESTEERING,2319,304493.150,02000000,10a2,17139;SOL_COMPUTED,NARROW_INT,0.025,8.150,5.5763,81.222804,-0.0162,0*7eded968
#BESTVELA,FILE,0,31.0,FINESTEERING,2319,304493.200,02000000,10a2,17139;SOL_COMPUTED,NARROW_INT,0.025,8.200,5.6108,81.293624,0.0257,0*063aefaf
#BESTVELA,FILE,0,31.0,FINESTEERING,2319,304493.250,02000000,10a2,17139;SOL_COMPUTED,NARROW_INT,0.025,8.250,5.6095,81.647122,0.0389,0*b25811f0
#BESTVELA,FILE,0,31.0,FINESTEERING,2319,304493.300,02000000,10a2,17139;SOL_COMPUTED,NARROW_INT,0.025,8.300,5.6652,82.225513,0.0787,0*5b3eb4c0
#BESTVELA,FILE,0,31.0,FINESTEERING,2319,304493.350,02000000,10a2,17139;SOL_COMPUTED,NARROW_INT,0.025,8.350,5.6756,82.174141,0.0657,0*1d037c7e
#BESTVELA,FILE,0,31.0,FINESTEERING,2319,304493.400,02000000,10a2,17139;SOL_COMPUTED,NARROW_INT,0.025,8.400,5.6685,82.693920,0.0617,0*805ef5d0
#BESTVELA,FILE,0,31.0,FINESTEERING,2319,304493.450,02000000,10a2,17139;SOL_COMPUTED,NARROW_INT,0.025,8.450,5.6449,82.829308,0.0145,0*1bcf8c0b
#BESTVELA,FILE,0,31.0,FINESTEERING,2319,304493.500,02000000,10a2,17139;SOL_COMPUTED,NARROW_INT,0.025,8.500,5.6681,83.429232,0.0618,0*43c7d0fb
#BESTVELA,FILE,0,31.0,FINESTEERING,2319,304493.550,02000000,10a2,17139;SOL_COMPUTED,NARROW_INT,0.025,8.550,5.6881,83.012327,0.0451,0*31ced8e8
#BESTVELA,FILE,0,31.0,FINESTEERING,2319,304493.600,02000000,10a2,17139;SOL_COMPUTED,NARROW_INT,0.025,8.600,5.7138,83.051023,-0.0020,0*c3f8624d
#BESTVELA,FILE,0,31.0,FINESTEERING,2319,304493.650,02000000,10a2,17139;SOL_COMPUTED,NARROW_INT,0.025,8.650,5.7173,82.623392,0.0226,0*edfcf3c2
#BESTVELA,FILE,0,31.0,FINESTEERING,2319,304493.700,02000000,10a2,17139;SOL_COMPUTED,NARROW_INT,0.025,8.700,5.7564,82.983476,0.0248,0*cf146592
#BESTVELA,FILE,0,31.0,FINESTEERING,2319,304493.750,02000000,10a2,17139;SOL_COMPUTED,NARROW_INT,0.025,8.750,5.7317,83.196676,0.0232,0*21c1ae0a
#BESTVELA,FILE,0,31.0,FINESTEERING,2319,304493.800,02000000,10a2,17139;SOL_COMPUTED,NARROW_INT,0.025,8.800,5.7883,83.101902,0.0128,0*fafa1c43
#BESTVELA,FILE,0,31.0,FINESTEERING,2319,304493.850,02000000,10a2,17139;SOL_COMPUTED,NARROW_INT,0.025,8.850,5.7855,82.999765,0.0324,0*14eea0d7
#BESTVELA,FILE,0,31.0,FINESTEERING,2319,304493.900,02000000,10a2,17139;SOL_COMPUTED,NARROW_INT,0.025,8.900,5.8308,83.574075,0.0850,0*49c3988b
#BESTVELA,FILE,0,31.0,FINESTEERING,2319,304493.950,02000000,10a2,17139;SOL_COMPUTED,NARROW_INT,0.025,8.950,5.8615,83.937849,0.0523,0*c69f3eb2
#BESTVELA,FILE,0,31.0,FINESTEERING,2319,304494.000,02000000,10a2,17139;SOL_COMPUTED,NARROW_INT,0.025,9.000,5.8707,83.916910,0.0448,0*375eb9e9
#BESTVELA,FILE,0,31.0,FINESTEERING,2319,304494.050,02000000,10a2,17139;SOL_COMPUTED,NARROW_INT,0.025,9.050,5.9189,84.245219,-0.0035,0*cfece022
#BESTVELA,FILE,0,31.0,FINESTEERING,2319,304494.100,02000000,10a2,17139;SOL_COMPUTED,NARROW_INT,0.025,9.100,5.9483,84.576860,0.0048,0*4c7778c2
#BESTVELA,FILE,0,32.0,FINESTEERING,2319,304494.150,02000000,10a2,17139;SOL_COMPUTED,NARROW_INT,0.025,9.150,5.9915,84.056613,0.0043,0*19200705
#BESTVELA,FILE,0,32.0,FINESTEERING,2319,304494.200,02000000,10a2,17139;SOL_COMPUTED,NARROW_INT,0.025,9.200,6.0315,84.289606,0.0248,0*1ebe69ea
#BESTVELA,FILE,0,32.0,FINESTEERING,2319,304494.250,02000000,10a2,17139;SOL_COMPUTED,NARROW_INT,0.025,9.250,6.0681,84.330088,0.0311,0*70e2afb6
#BESTVELA,FILE,0,32.0,FINESTEERING,2319,304494.300,02000000,10a2,17139;SOL_COMPUTED,NARROW_INT,0.025,9.300,6.1110,84.878257,0.0478,0*04fa292c
#BESTVELA,FILE,0,32.0,FINESTEERING,2319,304494.350,02000000,10a2,17139;SOL_COMPUTED,NARROW_INT,0.025,9.350,6.1399,84.977049,0.0279,0*3a8fc853
#BESTVELA,FILE,0,32.0,FINESTEERING,2319,304494.400,02000000,10a2,17139;SOL_COMPUTED,NARROW_INT,0.025,9.400,6.1805,85.286095,0.0338,0*4d6fbf66
#BESTVELA,FILE,0,32.0,FINESTEERING,2319,304494.450,02000000,10a2,17139;SOL_COMPUTED,NARROW_INT,0.025,9.450,6.2073,85.298827,0.0390,0*a68cea90
#BESTVELA,FILE,0,32.0,FINESTEERING,2319,304494.500,02000000,10a2,17139;SOL_COMPUTED,NARROW_INT,0.025,9.500,6.2417,85.363356,0.0063,0*662d60a0
#BESTVELA,FILE,0,32.0,FINESTEERING,2319,304494.550,02000000,10a2,17139;SOL_COMPUTED,NARROW_INT,0.025,9.550,6.2918,85.658336,0.0161,0*7818fef4
#BESTVELA,FILE,0,32.0,FINESTEERING,2319,304494.600,02000000,10a2,17139;SOL_COMPUTED,NARROW_INT,0.025,9.600,6.3464,85.757514,-0.0013,0*aff30356
#BESTVELA,FILE,0,32.0,FINESTEERING,2319,304494.650,02000000,10a2,17139;SOL_COMPUTED,NARROW_INT,0.025,9.650,6.3630,86.073382,-0.0359,0*bc036a77
#BESTVELA,FILE,0,32.0,FINESTEERING,2319,304494.700,02000000,10a2,17139;SOL_COMPUTED,NARROW_INT,0.025,9.700,6.3839,86.393987,-0.0258,0*ef7230b5
#BESTVELA,FILE,0,32.0,FINESTEERING,2319,304494.750,02000000,10a2,17139;SOL_COMPUTED,NARROW_INT,0.025,9.750,6.4537,86.006007,0.0387,0*a96e291d
#BESTVELA,FILE,0,32.0,FINESTEERING,2319,304494.800,02000000,10a2,17139;SOL_COMPUTED,NARROW_INT,0.025,9.800,6.5000,86.357160,-0.0328,0*4a7c8616
#BESTVELA,FILE,0,32.0,FINESTEERING,2319,304494.850,02000000,10a2,17139;SOL_COMPUTED,NARROW_INT,0.025,9.850,6.5619,86.730002,0.0636,0*7be7471d
#BESTVELA,FILE,0,32.0,FINESTEERING,2319,304494.900,02000000,10a2,17139;SOL_COMPUTED,NARROW_INT,0.025,9.900,6.5814,86.839522,0.0820,0*904fb65c
#BESTVELA,FILE,0,32.0,FINESTEERING,2319,304494.950,02000000,10a2,17139;SOL_COMPUTED,NARROW_INT,0.025,9.950,6.6160,86.901805,-0.0088,0*42cf8d97
#BESTVELA,FILE,0,32.0,FINESTEERING,2319,304495.000,02000000,10a2,17139;SOL_COMPUTED,NARROW_INT,0.025,10.000,6.6663,87.179147,0.0236,0*fcec543c
#BESTVELA,FILE,0,32.0,FINESTEERING,2319,304495.050,02000000,10a2,17139;SOL_COMPUTED,NARROW_INT,0.025,10.050,6.6893,87.362342,0.0747,0*d508671f
#BESTVELA,FILE,0,31.5,FINESTEERING,2319,304495.100,02000000,10a2,17139;SOL_COMPUTED,NARROW_INT,0.025,10.100,6.7684,87.754610,-0.0017,0*068794aa
#BESTVELA,FILE,0,31.5,FINESTEERING,2319,304495.150,02000000,10a2,17139;SOL_COMPUTED,NARROW_INT,0.025,10.150,6.8292,87.591284,0.0515,0*ef8005eb
#BESTVELA,FILE,0,31.5,FINESTEERING,2319,304495.200,02000000,10a2,17139;SOL_COMPUTED,NARROW_INT,0.025,10.200,6.8760,87.958044,0.0225,0*7fb2da71
#BESTVELA,FILE,0,31.5,FINESTEERING,2319,304495.250,02000000,10a2,17139;SOL_COMPUTED,NARROW_INT,0.025,10.250,6.9074,88.077178,0.0710,0*c0c0dc79
#BESTVELA,FILE,0,31.5,FINESTEERING,2319,304495.300,02000000,10a2,17139;SOL_COMPUTED,NARROW_INT,0.025,10.300,6.9284,88.174421,0.0530,0*b8cb0a20
#BESTVELA,FILE,0,31.5,FINESTEERING,2319,304495.350,02000000,10a2,17139;SOL_COMPUTED,NARROW_INT,0.025,10.350,6.9985,88.461183,0.0906,0*61e530d0
#BESTVELA,FILE,0,31.5,FINESTEERING,2319,304495.400,02000000,10a2,17139;SOL_COMPUTED,NARROW_INT,0.025,10.400,7.0527,88.461237,0.1156,0*837462f6
#BESTVELA,FILE,0,31.5,FINESTEERING,2319,304495.450,02000000,10a2,17139;SOL_COMPUTED,NARROW_INT,0.025,10.450,7.0547,88.815619,0.1418,0*bf932e4e
#BESTVELA,FILE,0,31.5,FINESTEERING,2319,304495.500,02000000,10a2,17139;SOL_COMPUTED,NARROW_INT,0.025,10.500,7.1174,88.950406,0.0787,0*eccf88e1
#BESTVELA,FILE,0,31.5,FINESTEERING,2319,304495.550,02000000,10a2,17139;SOL_COMPUTED,NARROW_INT,0.025,10.550,7.1557,88.929173,0.0432,0*fa64c67f
#BESTVELA,FILE,0,31.5,FINESTEERING,2319,304495.600,02000000,10a2,17139;SOL_COMPUTED,NARROW_INT,0.025,10.600,7.1757,88.849542,0.0350,0*87a5623c
#BESTVELA,FILE,0,31.5,FINESTEERING,2319,304495.650,02000000,10a2,17139;SOL_COMPUTED,NARROW_INT,0.025,10.650,7.2188,88.708842,0.0965,0*25c8b956
#BESTVELA,FILE,0,31.5,FINESTEERING,2319,304495.700,02000000,10a2,17139;SOL_COMPUTED,NARROW_INT,0.025,10.700,7.2872,88.587960,0.0253,0*518f2568
#BESTVELA,FILE,0,31.5,FINESTEERING,2319,304495.750,02000000,10a2,17139;SOL_COMPUTED,NARROW_INT,0.025,10.750,7.2707,88.815336,0.0275,0*e76274d9
#BESTVELA,FILE,0,31.5,FINESTEERING,2319,304495.800,02000000,10a2,17139;SOL_COMPUTED,NARROW_INT,0.025,10.800,7.3844,88.926917,0.0536,0*0421ecf0
#BESTVELA,FILE,0,31.5,FINESTEERING,2319,304495.850,02000000,10a2,17139;SOL_COMPUTED,NARROW_INT,0.025,10.850,7.3698,88.743166,0.1135,0*6261a78b
#BESTVELA,FILE,0,31.5,FINESTEERING,2319,304495.900,02000000,10a2,17139;SOL_COMPUTED,NARROW_INT,0.025,10.900,7.4097,88.435283,0.1214,0*3a1eac9c
#BESTVELA,FILE,0,31.5,FINESTEERING,2319,304495.950,02000000,10a2,17139;SOL_COMPUTED,NARROW_INT,0.025,10.950,7.4531,88.370180,0.0089,0*d1016f93
#BESTVELA,FILE,0,31.5,FINESTEERING,2319,304496.000,02000000,10a2,17139;SOL_COMPUTED,NARROW_INT,0.025,11.000,7.4651,88.679889,0.0020,0*262286ea
#BESTVELA,FILE,0,31.5,FINESTEERING,2319,304496.050,02000000,10a2,17139;SOL_COMPUTED,NARROW_INT,0.025,11.050,7.4942,88.480321,0.1018,0*c6b86910
#BESTVELA,FILE,0,31.5,FINESTEERING,2319,304496.100,02000000,10a2,17139;SOL_COMPUTED,NARROW_INT,0.025,11.100,7.5960,88.685547,0.0044,0*e2317f02
#BESTVELA,FILE,0,32.0,FINESTEERING,2319,304496.150,02000000,10a2,17139;SOL_COMPUTED,NARROW_INT,0.025,11.150,7.6422,88.616868,-0.0547,0*bf4353cd
#BESTVELA,FILE,0,32.0,FINESTEERING,2319,304496.200,02000000,10a2,17139;SOL_COMPUTED,NARROW_INT,0.025,11.200,7.6488,88.423839,-0.0068,0*0bc91016
#BESTVELA,FILE,0,32.0,FINESTEERING,2319,304496.250,02000000,10a2,17139;SOL_COMPUTED,NARROW_INT,0.025,11.250,7.7789,89.145839,0.1202,0*7ef80ee3
#BESTVELA,FILE,0,32.0,FINESTEERING,2319,304496.300,02000000,10a2,17139;SOL_COMPUTED,NARROW_INT,0.025,11.300,7.7904,88.809667,0.0513,0*c9d196de
#BESTVELA,FILE,0,32.0,FINESTEERING,2319,304496.350,02000000,10a2,17139;SOL_COMPUTED,NARROW_INT,0.025,11.350,7.7952,88.943651,0.0392,0*a7f7b829
#BESTVELA,FILE,0,32.0,FINESTEERING,2319,304496.400,02000000,10a2,17139;SOL_COMPUTED,NARROW_INT,0.025,11.400,7.8340,89.061017,0.0272,0*4f3f119a
#BESTVELA,FILE,0,32.0,FINESTEERING,2319,304496.450,02000000,10a2,17139;SOL_COMPUTED,NARROW_INT,0.025,11.450,7.9073,89.073903,0.0729,0*4093bf7e
#BESTVELA,FILE,0,32.0,FINESTEERING,2319,304496.500,02000000,10a2,17139;SOL_COMPUTED,NARROW_INT,0.025,11.500,7.8963,89.546930,-0.0175,0*e9be3613
#BESTVELA,FILE,0,32.0,FINESTEERING,2319,304496.550,02000000,10a2,17139;SOL_COMPUTED,NARROW_INT,0.025,11.550,7.9843,89.072748,0.0658,0*a6960903
#BESTVELA,FILE,0,32.0,FINESTEERING,2319,304496.600,02000000,10a2,17139;SOL_COMPUTED,NARROW_INT,0.025,11.600,7.9977,89.361355,-0.0596,0*296b2611
#BESTVELA,FILE,0,32.0,FINESTEERING,2319,304496.650,02000000,10a2,17139;SOL_COMPUTED,NARROW_INT,0.025,11.650,8.0330,89.983417,-0.0448,0*9d7dd804
#BESTVELA,FILE,0,32.0,FINESTEERING,2319,304496.700,02000000,10a2,17139;SOL_COMPUTED,NARROW_INT,0.025,11.700,8.0798,89.522918,0.0194,0*4d6280c2
#BESTVELA,FILE,0,32.0,FINESTEERING,2319,304496.750,02000000,10a2,17139;SOL_COMPUTED,NARROW_INT,0.025,11.750,8.1029,89.343322,0.0927,0*2cc96998
#BESTVELA,FILE,0,32.0,FINESTEERING,2319,304496.800,02000000,10a2,17139;SOL_COMPUTED,NARROW_INT,0.025,11.800,8.1319,89.482989,0.0779,0*73f25773
#BESTVELA,FILE,0,32.0,FINESTEERING,2319,304496.850,02000000,10a2,17139;SOL_COMPUTED,NARROW_INT,0.025,11.850,8.1800,89.525040,0.0335,0*b8aa59f1
#BESTVELA,FILE,0,32.0,FINESTEERING,2319,304496.900,02000000,10a2,17139;SOL_COMPUTED,NARROW_INT,0.025,11.900,8.2151,89.865525,0.0454,0*b623b036
#BESTVELA,FILE,0,32.0,FINESTEERING,2319,304496.950,02000000,10a2,17139;SOL_COMPUTED,NARROW_INT,0.025,11.950,8.2533,90.001664,0.0328,0*83ebff8a
#BESTVELA,FILE,0,32.0,FINESTEERING,2319,304497.000,02000000,10a2,17139;SOL_COMPUTED,NARROW_INT,0.025,12.000,8.3042,89.767975,0.0481,0*a326a405
#BESTVELA,FILE,0,32.0,FINESTEERING,2319,304497.050,02000000,10a2,17139;SOL_COMPUTED,NARROW_INT,0.025,12.050,8.3640,89.794261,0.0365,0*3ea22f96
#BESTVELA,FILE,0,31.0,FINESTEERING,2319,304497.100,02000000,10a2,17139;SOL_COMPUTED,NARROW_INT,0.025,12.100,8.3799,89.770385,0.1058,0*3a033b5d
#BESTVELA,FILE,0,31.0,FINESTEERING,2319,304497.150,02000000,10a2,17139;SOL_COMPUTED,NARROW_INT,0.025,12.150,8.4362,89.854867,0.1130,0*08ce960e
#BESTVELA,FILE,0,31.0,FINESTEERING,2319,304497.200,02000000,10a2,17139;SOL_COMPUTED,NARROW_INT,0.025,12.200,8.4798,89.866459,0.1340,0*c525561b
#BESTVELA,FILE,0,31.0,FINESTEERING,2319,304497.250,02000000,10a2,17139;SOL_COMPUTED,NARROW_INT,0.025,12.250,8.5212,90.094746,0.0584,0*7ca1dd71
#BESTVELA,FILE,0,31.0,FINESTEERING,2319,304497.300,02000000,10a2,17139;SOL_COMPUTED,NARROW_INT,0.025,12.300,8.5707,89.987341,0.0538,0*bfbdc31a
#BESTVELA,FILE,0,31.0,FINESTEERING,2319,304497.350,02000000,10a2,17139;SOL_COMPUTED,NARROW_INT,0.025,12.350,8.6090,89.886493,0.1305,0*54ec2390
#BESTVELA,FILE,0,31.0,FINESTEERING,2319,304497.400,02000000,10a2,17139;SOL_COMPUTED,NARROW_INT,0.025,12.400,8.6400,89.989973,0.0593,0*7ec236b5
#BESTVELA,FILE,0,31.0,FINESTEERING,2319,304497.450,02000000,10a2,17139;SOL_COMPUTED,NARROW_INT,0.025,12.450,8.6570,90.080517,0.1052,0*f116f298
#BESTVELA,FILE,0,31.0,FINESTEERING,2319,304497.500,02000000,10a2,17139;SOL_COMPUTED,NARROW_INT,0.025,12.500,8.7070,90.182353,0.0381,0*09c37464
#BESTVELA,FILE,0,31.0,FINESTEERING,2319,304497.550,02000000,10a2,17139;SOL_COMPUTED,NARROW_INT,0.025,12.550,8.7183,90.151806,0.0824,0*2dc9b9af
#BESTVELA,FILE,0,31.0,FINESTEERING,2319,304497.600,02000000,10a2,17139;SOL_COMPUTED,NARROW_INT,0.025,12.600,8.7822,90.001423,0.0667,0*60b149b3
#BESTVELA,FILE,0,31.0,FINESTEERING,2319,304497.650,02000000,10a2,17139;SOL_COMPUTED,NARROW_INT,0.025,12.650,8.7818,90.328196,0.0024,0*46178f00
#BESTVELA,FILE,0,31.0,FINESTEERING,2319,304497.700,02000000,10a2,17139;SOL_COMPUTED,NARROW_INT,0.025,12.700,8.8107,90.010912,0.0556,0*72e661fc
#BESTVELA,FILE,0,31.0,FINESTEERING,2319,304497.750,02000000,10a2,17139;SOL_COMPUTED,NARROW_INT,0.025,12.750,8.8943,90.174413,-0.0037,0*3ceb1dc4
#BESTVELA,FILE,0,31.0,FINESTEERING,2319,304497.800,02000000,10a2,17139;SOL_COMPUTED,NARROW_INT,0.025,12.800,8.9220,90.329992,0.0643,0*5d23238a
#BESTVELA,FILE,0,31.0,FINESTEERING,2319,304497.850,02000000,10a2,17139;SOL_COMPUTED,NARROW_INT,0.025,12.850,8.9331,89.914131,0.1001,0*879aa2b4
#BESTVELA,FILE,0,31.0,FINESTEERING,2319,304497.900,02000000,10a2,17139;SOL_COMPUTED,NARROW_INT,0.025,12.900,8.9948,89.843230,0.0376,0*9696e760
#BESTVELA,FILE,0,31.0,FINESTEERING,2319,304497.950,02000000,10a2,17139;SOL_COMPUTED,NARROW_INT,0.025,12.950,9.0335,90.023529,0.0147,0*5b8d2834
#BESTVELA,FILE,0,31.0,FINESTEERING,2319,304498.000,02000000,10a2,17139;SOL_COMPUTED,NARROW_INT,0.025,13.000,9.0561,89.819422,0.0358,0*9dfd342c
#BESTVELA,FILE,0,31.0,FINESTEERING,2319,304498.050,02000000,10a2,17139;SOL_COMPUTED,NARROW_INT,0.025,13.050,9.1124,89.968658,0.1177,0*82f382bb
#BESTVELA,FILE,0,29.5,FINESTEERING,2319,304498.100,02000000,10a2,17139;SOL_COMPUTED,NARROW_INT,0.025,13.100,9.1225,90.173694,0.0930,0*29180657
#BESTVELA,FILE,0,29.5,FINESTEERING,2319,304498.150,02000000,10a2,17139;SOL_COMPUTED,NARROW_INT,0.025,13.150,9.1608,89.929940,0.0756,0*d4642c98
#BESTVELA,FILE,0,29.5,FINESTEERING,2319,304498.200,02000000,10a2,17139;SOL_COMPUTED,NARROW_INT,0.025,13.200,9.1473,89.951743,0.0682,0*a72b2c46
#BESTVELA,FILE,0,29.5,FINESTEERING,2319,304498.250,02000000,10a2,17139;SOL_COMPUTED,NARROW_INT,0.025,13.250,9.2187,90.091376,-0.0161,0*c9ef7a07
#BESTVELA,FILE,0,29.5,FINESTEERING,2319,304498.300,02000000,10a2,17139;SOL_COMPUTED,NARROW_INT,0.025,13.300,9.2668,90.229792,0.0226,0*7d390a7d
#BESTVELA,FILE,0,29.5,FINESTEERING,2319,304498.350,02000000,10a2,17139;SOL_COMPUTED,NARROW_INT,0.025,13.350,9.3149,90.188512,0.0340,0*74765f5d
#BESTVELA,FILE,0,29.5,FINESTEERING,2319,304498.400,02000000,10a2,17139;SOL_COMPUTED,NARROW_INT,0.025,13.400,9.3449,90.161669,0.1076,0*ec1c8c9d
#BESTVELA,FILE,0,29.5,FINESTEERING,2319,304498.450,02000000,10a2,17139;SOL_COMPUTED,NARROW_INT,0.025,13.450,9.4064,90.348132,0.0050,0*e0ff817d
#BESTVELA,FILE,0,29.5,FINESTEERING,2319,304498.500,02000000,10a2,17139;SOL_COMPUTED,NARROW_INT,0.025,13.500,9.4334,90.178048,0.1717,0*0df934b2
#BESTVELA,FILE,0,29.5,FINESTEERING,2319,304498.550,02000000,10a2,17139;SOL_COMPUTED,NARROW_INT,0.025,13.550,9.5053,89.968668,0.0985,0*fbbc8253
#BESTVELA,FILE,0,29.5,FINESTEERING,2319,304498.600,02000000,10a2,17139;SOL_COMPUTED,NARROW_INT,0.025,13.600,9.5269,90.180639,0.0737,0*2f73a755
#BESTVELA,FILE,0,29.5,FINESTEERING,2319,304498.650,02000000,10a2,17139;SOL_COMPUTED,NARROW_INT,0.025,13.650,9.5417,89.920188,0.0683,0*c930b0be
#BESTVELA,FILE,0,29.5,FINESTEERING,2319,304498.700,02000000,10a2,17139;SOL_COMPUTED,NARROW_INT,0.025,13.700,9.5369,89.750250,0.0178,0*c6d44172
#BESTVELA,FILE,0,29.5,FINESTEERING,2319,304498.750,02000000,10a2,17139;SOL_COMPUTED,NARROW_INT,0.025,13.750,9.5944,89.795006,0.0367,0*4f3e1d52
#BESTVELA,FILE,0,29.5,FINESTEERING,2319,304498.800,02000000,10a2,17139;SOL_COMPUTED,NARROW_INT,0.025,13.800,9.6125,89.639131,0.0648,0*68adcb07
#BESTVELA,FILE,0,29.5,FINESTEERING,2319,304498.850,02000000,10a2,17139;SOL_COMPUTED,NARROW_INT,0.025,13.850,9.6652,89.459650,-0.0055,0*ba3ad661
#BESTVELA,FILE,0,29.5,FINESTEERING,2319,304498.900,02000000,10a2,17139;SOL_COMPUTED,NARROW_INT,0.025,13.900,9.7091,89.751144,0.1084,0*debc33bc
#BESTVELA,FILE,0,29.5,FINESTEERING,2319,304498.950,02000000,10a2,17139;SOL_COMPUTED,NARROW_INT,0.025,13.950,9.7505,89.411832,0.0667,0*54cc5779
#BESTVELA,FILE,0,29.5,FINESTEERING,2319,304499.000,02000000,10a2,17139;SOL_COMPUTED,NARROW_INT,0.025,14.000,9.8322,89.662066,0.1138,0*1a0c1984
#BESTVELA,FILE,0,29.5,FINESTEERING,2319,304499.050,02000000,10a2,17139;SOL_COMPUTED,NARROW_INT,0.025,14.050,9.8382,89.404480,0.0417,0*f7f820c4
#BESTVELA,FILE,0,29.5,FINESTEERING,2319,304499.100,02000000,10a2,17139;SOL_COMPUTED,NARROW_INT,0.025,14.100,9.8718,89.352539,0.1174,0*427436ab
#BESTVELA,FILE,0,30.0,FINESTEERING,2319,304499.150,02000000,10a2,17139;SOL_COMPUTED,NARROW_INT,0.025,14.150,9.8803,89.252180,-0.0214,0*0e226b38
#BESTVELA,FILE,0,30.0,FINESTEERING,2319,304499.200,02000000,10a2,17139;SOL_COMPUTED,NARROW_INT,0.025,3.200,9.9090,89.616742,0.0883,0*e1b516bf
#BESTVELA,FILE,0,30.0,FINESTEERING,2319,304499.250,02000000,10a2,17139;SOL_COMPUTED,NARROW_INT,0.025,3.250,9.9698,89.460228,0.0930,0*023c4fa8
#BESTVELA,FILE,0,30.0,FINESTEERING,2319,304499.300,02000000,10a2,17139;SOL_COMPUTED,NARROW_INT,0.025,3.300,9.9925,89.345439,0.0415,0*42e054c5
#BESTVELA,FILE,0,30.0,FINESTEERING,2319,304499.350,02000000,10a2,17139;SOL_COMPUTED,NARROW_INT,0.025,0.350,9.9848,89.303437,0.0588,0*07a2b3da
#BESTVELA,FILE,0,30.0,FINESTEERING,2319,304499.400,02000000,10a2,17139;SOL_COMPUTED,NARROW_INT,0.025,0.400,10.0832,89.218992,0.0610,0*3bd7138c
#BESTVELA,FILE,0,30.0,FINESTEERING,2319,304499.450,02000000,10a2,17139;SOL_COMPUTED,NARROW_INT,0.025,0.450,10.1110,89.325212,0.0823,0*d70eadc9
#BESTVELA,FILE,0,30.0,FINESTEERING,2319,304499.500,02000000,10a2,17139;SOL_COMPUTED,NARROW_INT,0.025,0.500,10.1655,89.529957,0.0398,0*0f39ab0f
#BESTVELA,FILE,0,30.0,FINESTEERING,2319,304499.550,02000000,10a2,17139;SOL_COMPUTED,NARROW_INT,0.025,0.550,10.1713,89.356283,0.0231,0*118253fe
#BESTVELA,FILE,0,30.0,FINESTEERING,2319,304499.600,02000000,10a2,17139;SOL_COMPUTED,NARROW_INT,0.025,0.600,10.1938,89.426679,0.0146,0*8b4d7baa
#BESTVELA,FILE,0,30.0,FINESTEERING,2319,304499.650,02000000,10a2,17139;SOL_COMPUTED,NARROW_INT,0.025,0.650,10.2308,89.635985,0.1012,0*b5b22f6f
#BESTVELA,FILE,0,30.0,FINESTEERING,2319,304499.700,02000000,10a2,17139;SOL_COMPUTED,NARROW_INT,0.025,0.700,10.2249,89.632497,0.0480,0*04c8568a
#BESTVELA,FILE,0,30.0,FINESTEERING,2319,304499.750,02000000,10a2,17139;SOL_COMPUTED,NARROW_INT,0.025,0.750,10.3047,89.315161,0.0874,0*8ab9f1ad
#BESTVELA,FILE,0,30.0,FINESTEERING,2319,304499.800,02000000,10a2,17139;SOL_COMPUTED,NARROW_INT,0.025,0.800,10.3624,89.580945,0.0481,0*1d5e9c72
#BESTVELA,FILE,0,30.0,FINESTEERING,2319,304499.850,02000000,10a2,17139;SOL_COMPUTED,NARROW_INT,0.025,0.850,10.3760,89.363655,0.0803,0*a3fcbead
#BESTVELA,FILE,0,30.0,FINESTEERING,2319,304499.900,02000000,10a2,17139;SOL_COMPUTED,NARROW_INT,0.025,0.900,10.4107,89.475540,0.1190,0*4826ac06
#BESTVELA,FILE,0,30.0,FINESTEERING,2319,304499.950,02000000,10a2,17139;SOL_COMPUTED,NARROW_INT,0.025,0.950,10.4643,89.696170,0.0695,0*5b80702b
#BESTVELA,FILE,0,30.0,FINESTEERING,2319,304500.000,02000000,10a2,17139;SOL_COMPUTED,NARROW_INT,0.025,1.000,10.4867,89.476200,0.1072,0*4279e316
#BESTVELA,FILE,0,30.0,FINESTEERING,2319,304500.050,02000000,10a2,17139;SOL_COMPUTED,NARROW_INT,0.025,1.050,10.4856,89.557265,0.1065,0*7b83f9e4
#BESTVELA,FILE,0,24.5,FINESTEERING,2319,304500.100,02000000,10a2,17139;SOL_COMPUTED,NARROW_INT,0.025,1.100,10.5459,89.613836,0.0628,0*61021281
#BESTVELA,FILE,0,24.5,FINESTEERING,2319,304500.150,02000000,10a2,17139;SOL_COMPUTED,NARROW_INT,0.025,1.150,10.5394,89.525005,0.0645,0*00fdc5dd
#BESTVELA,FILE,0,24.5,FINESTEERING,2319,304500.200,02000000,10a2,17139;SOL_COMPUTED,NARROW_INT,0.025,1.200,10.6029,89.564792,0.0911,0*1d8ae9dd
#BESTVELA,FILE,0,24.5,FINESTEERING,2319,304500.250,02000000,10a2,17139;SOL_COMPUTED,NARROW_INT,0.025,1.250,10.6235,89.580663,0.0882,0*c04abfba
#BESTVELA,FILE,0,24.5,FINESTEERING,2319,304500.300,02000000,10a2,17139;SOL_COMPUTED,NARROW_INT,0.025,1.300,10.6649,89.377150,0.0529,0*0529cafe
#BESTVELA,FILE,0,24.5,FINESTEERING,2319,304500.350,02000000,10a2,17139;SOL_COMPUTED,NARROW_INT,0.025,1.350,10.7315,89.306631,0.1407,0*07365c77
#BESTVELA,FILE,0,24.5,FINESTEERING,2319,304500.400,02000000,10a2,17139;SOL_COMPUTED,NARROW_INT,0.025,1.400,10.7365,89.459474,0.0977,0*95f04845
#BESTVELA,FILE,0,24.5,FINESTEERING,2319,304500.450,02000000,10a2,17139;SOL_COMPUTED,NARROW_INT,0.025,1.450,10.7448,89.585734,0.0760,0*e26c181e
#BESTVELA,FILE,0,24.5,FINESTEERING,2319,304500.500,02000000,10a2,17139;SOL_COMPUTED,NARROW_INT,0.025,1.500,10.7633,89.488069,0.1229,0*ad7b8d4a
#BESTVELA,FILE,0,24.5,FINESTEERING,2319,304500.550,02000000,10a2,17139;SOL_COMPUTED,NARROW_INT,0.025,1.550,10.8038,89.644334,0.1489,0*8114fbcb
#BESTVELA,FILE,0,24.5,FINESTEERING,2319,304500.600,02000000,10a2,17139;SOL_COMPUTED,NARROW_INT,0.025,1.600,10.8452,89.401666,0.1356,0*576c68a2
#BESTVELA,FILE,0,24.5,FINESTEERING,2319,304500.650,02000000,10a2,17139;SOL_COMPUTED,NARROW_INT,0.025,1.650,10.8542,89.097746,0.1122,0*6969e9d9
#BESTVELA,FILE,0,24.5,FINESTEERING,2319,304500.700,02000000,10a2,17139;SOL_COMPUTED,NARROW_INT,0.025,1.700,10.9012,89.331482,0.0925,0*6a28b669
#BESTVELA,FILE,0,24.5,FINESTEERING,2319,304500.750,02000000,10a2,17139;SOL_COMPUTED,NARROW_INT,0.025,1.750,10.9669,89.513191,0.0702,0*53073211
#BESTVELA,FILE,0,24.5,FINESTEERING,2319,304500.800,02000000,10a2,17139;SOL_COMPUTED,NARROW_INT,0.025,1.800,11.0177,89.598241,0.0434,0*566dddb1
#BESTVELA,FILE,0,24.5,FINESTEERING,2319,304500.850,02000000,10a2,17139;SOL_COMPUTED,NARROW_INT,0.025,1.850,10.9838,89.420467,0.1717,0*8bf247ce
#BESTVELA,FILE,0,24.5,FINESTEERING,2319,304500.900,02000000,10a2,17139;SOL_COMPUTED,NARROW_INT,0.025,1.900,11.0309,89.200438,0.0616,0*28fcff77
#BESTVELA,FILE,0,24.5,FINESTEERING,2319,304500.950,02000000,10a2,17139;SOL_COMPUTED,NARROW_INT,0.025,1.950,11.0251,89.398412,0.1032,0*d53f47cf
#BESTVELA,FILE,0,24.5,FINESTEERING,2319,304501.000,02000000,10a2,17139;SOL_COMPUTED,NARROW_INT,0.025,2.000,11.0699,89.135338,0.0157,0*ef89bf02
#BESTVELA,FILE,0,24.5,FINESTEERING,2319,304501.050,02000000,10a2,17139;SOL_COMPUTED,NARROW_INT,0.025,2.050,11.1263,89.262558,0.1249,0*f34f7243
#BESTVELA,FILE,0,24.5,FINESTEERING,2319,304501.100,02000000,10a2,17139;SOL_COMPUTED,NARROW_INT,0.025,2.100,11.1102,89.091275,0.0630,0*d85ee195
#BESTVELA,FILE,0,27.5,FINESTEERING,2319,304501.150,02000000,10a2,17139;SOL_COMPUTED,NARROW_INT,0.025,2.150,11.1316,89.265181,0.0070,0*20eaec2b
