#BESTPOSA,FILE,0,35.0,FINESTEERING,2319,304478.750,02000800,cdba,17139;SOL_COMPUTED,NARROW_INT,17.59638046134,78.12163846888,526.7366,-76.2000,WGS84,0.0071,0.0078,0.0181,"0",2.750,0.000,54,53,53,51,00,21,3f,37*48a72f77
#BESTPOSA,FILE,0,35.0,FINESTEERING,2319,304478.800,02000800,cdba,17139;SOL_COMPUTED,NARROW_INT,17.59638022224,78.12163847469,526.7371,-76.2000,WGS84,0.0072,0.0079,0.0182,"0",2.800,0.000,54,53,53,51,00,21,3f,37*5bbb0d0e
#BESTPOSA,FILE,0,35.0,FINESTEERING,2319,304478.900,02000800,cdba,17139;SOL_COMPUTED,NARROW_INT,17.59637974539,78.12163848244,526.7371,-76.2000,WGS84,0.0072,0.0079,0.0182,"0",2.900,0.000,54,53,53,51,00,21,3f,37*1d914b2d
#BESTPOSA,FILE,0,35.0,FINESTEERING,2319,304479.000,02000800,cdba,17139;SOL_COMPUTED,NARROW_INT,17.59637925201,78.12163849017,526.7390,-76.2000,WGS84,0.0072,0.0079,0.0183,"0",3.000,0.000,54,53,53,51,00,21,3f,37*e06e8f23
#BESTPOSA,FILE,0,35.0,FINESTEERING,2319,304479.050,02000800,cdba,17139;SOL_COMPUTED,NARROW_INT,17.59637900824,78.12163850150,526.7368,-76.2000,WGS84,0.0073,0.0080,0.0184,"0",3.050,0.000,54,54,54,52,00,21,3f,37*68a24dde
#BESTPOSA,FILE,0,33.0,FINESTEERING,2319,304479.100,02000800,cdba,17139;SOL_COMPUTED,NARROW_INT,17.59637876437,78.12163850708,526.7386,-76.2000,WGS84,0.0073,0.0080,0.0185,"0",3.100,0.000,54,54,54,52,00,21,3f,37*6d161d6a
#BESTPOSA,FILE,0,33.0,FINESTEERING,2319,304479.300,02000800,cdba,17139;SOL_COMPUTED,NARROW_INT,17.59637790364,78.12163856611,526.7408,-76.2000,WGS84,0.0074,0.0081,0.0186,"0",3.300,0.000,54,54,54,52,00,21,3f,37*2b74a568
#BESTPOSA,FILE,0,33.0,FINESTEERING,2319,304479.600,02000800,cdba,17139;SOL_COMPUTED,NARROW_INT,17.59637698307,78.12163862561,526.7405,-76.2000,WGS84,0.0075,0.0081,0.0188,"0",3.600,0.000,54,54,54,52,00,21,3f,37*1eb2eeea
#BESTPOSA,FILE,0,33.0,FINESTEERING,2319,304479.650,02000800,cdba,17139;SOL_COMPUTED,NARROW_INT,17.59637690601,78.12163862817,526.7409,-76.2000,WGS84,0.0075,0.0082,0.0188,"0",3.650,0.000,54,54,54,52,00,21,3f,37*5e34a375
#BESTPOSA,FILE,0,33.0,FINESTEERING,2319,304479.700,02000800,cdba,17139;SOL_COMPUTED,NARROW_INT,17.59637685454,78.12163863112,526.7400,-76.2000,WGS84,0.0075,0.0082,0.0188,"0",3.700,0.000,54,54,54,52,00,21,3f,37*65401172
#BESTPOSA,FILE,0,33.0,FINESTEERING,2319,304479.750,02000800,cdba,17139;SOL_COMPUTED,NARROW_INT,17.59637682618,78.12163862886,526.7405,-76.2000,WGS84,0.0075,0.0082,0.0188,"0",3.750,0.000,54,54,54,52,00,21,3f,37*854000cf
#BESTPOSA,FILE,0,33.0,FINESTEERING,2319,304479.850,02000800,cdba,17139;SOL_COMPUTED,NARROW_INT,17.59637684288,78.12163862462,526.7410,-76.2000,WGS84,0.0076,0.0082,0.0189,"0",3.850,0.000,54,54,54,52,00,21,3f,37*f114f440
#BESTPOSA,FILE,0,33.0,FINESTEERING,2319,304479.950,02000800,cdba,17139;SOL_COMPUTED,NARROW_INT,17.59637690089,78.12163862503,526.7410,-76.2000,WGS84,0.0076,0.0082,0.0190,"0",3.950,0.000,54,54,54,52,00,21,3f,37*a86812bd
#BESTPOSA,FILE,0,33.0,FINESTEERING,2319,304480.000,02000800,cdba,17139;SOL_COMPUTED,NARROW_INT,17.59637692025,78.12163862555,526.7397,-76.2000,WGS84,0.0076,0.0083,0.0190,"0",4.000,0.000,54,54,54,52,00,21,3f,37*2c36b6fa
#BESTPOSA,FILE,0,33.0,FINESTEERING,2319,304480.050,02000800,cdba,17139;SOL_COMPUTED,NARROW_INT,17.59637692579,78.12163863504,526.7387,-76.2000,WGS84,0.0077,0.0083,0.0191,"0",4.050,0.000,54,54,54,52,00,21,3f,37*8cb0c8fb
#BESTPOSA,FILE,0,33.0,FINESTEERING,2319,304480.100,02000800,cdba,17139;SOL_COMPUTED,NARROW_INT,17.59637692210,78.12163863407,526.7395,-76.2000,WGS84,0.0077,0.0083,0.0192,"0",4.100,0.000,54,54,54,52,00,21,3f,37*e7b34e90
#BESTPOSA,FILE,0,33.0,FINESTEERING,2319,304480.150,02000800,cdba,17139;SOL_COMPUTED,NARROW_INT,17.59637691980,78.12163862572,526.7384,-76.2000,WGS84,0.0077,0.0084,0.0192,"0",4.150,0.000,54,54,54,52,00,21,3f,37*b7f0c039
#BESTPOSA,FILE,0,33.0,FINESTEERING,2319,304480.450,02000800,cdba,17139;SOL_COMPUTED,NARROW_INT,17.59637690669,78.12163861873,526.7400,-76.2000,WGS84,0.0078,0.0084,0.0193,"0",4.450,0.000,54,54,54,52,00,21,3f,37*b858f68b
#BESTPOSA,FILE,0,33.0,FINESTEERING,2319,304480.600,02000800,cdba,17139;SOL_COMPUTED,NARROW_INT,17.59637691119,78.12163861322,526.7397,-76.2000,WGS84,0.0079,0.0085,0.0194,"0",4.600,0.000,54,54,54,52,00,21,3f,37*cf0ea4da
#BESTPOSA,FILE,0,33.0,FINESTEERING,2319,304480.650,02000800,cdba,17139;SOL_COMPUTED,NARROW_INT,17.59637691635,78.12163861704,526.7383,-76.2000,WGS84,0.0079,0.0085,0.0194,"0",4.650,0.000,54,54,54,52,00,21,3f,37*d7abfc80
#BESTPOSA,FILE,0,33.0,FINESTEERING,2319,304480.700,02000800,cdba,17139;SOL_COMPUTED,NARROW_INT,17.59637691284,78.12163861273,526.7386,-76.2000,WGS84,0.0079,0.0085,0.0195,"0",4.700,0.000,54,54,54,52,00,21,3f,37*15a53efe
#BESTPOSA,FILE,0,33.0,FINESTEERING,2319,304480.750,02000800,cdba,17139;SOL_COMPUTED,NARROW_INT,17.59637690848,78.12163861245,526.7380,-76.2000,WGS84,0.0079,0.0085,0.0195,"0",4.750,0.000,54,54,54,52,00,21,3f,37*57c14674
#BESTPOSA,FILE,0,33.0,FINESTEERING,2319,304480.800,02000800,cdba,17139;SOL_COMPUTED,NARROW_INT,17.59637690900,78.12163861243,526.7394,-76.2000,WGS84,0.0079,0.0085,0.0195,"0",4.800,0.000,54,54,54,52,00,21,3f,37*34f469f8
#BESTPOSA,FILE,0,33.0,FINESTEERING,2319,304480.850,02000800,cdba,17139;SOL_COMPUTED,NARROW_INT,17.59637691258,78.12163861767,526.7392,-76.2000,WGS84,0.0079,0.0085,0.0196,"0",4.850,0.000,54,54,54,52,00,21,3f,37*5a014e1b
#BESTPOSA,FILE,0,33.0,FINESTEERING,2319,304480.900,02000800,cdba,17139;SOL_COMPUTED,NARROW_INT,17.59637691613,78.12163862123,526.7387,-76.2000,WGS84,0.0079,0.0086,0.0196,"0",4.900,0.000,54,54,54,52,00,21,3f,37*ac4baf9b
#BESTPOSA,FILE,0,33.0,FINESTEERING,2319,304481.050,02000800,cdba,17139;SOL_COMPUTED,NARROW_INT,17.59637690873,78.12163861627,526.7388,-76.2000,WGS84,0.0081,0.0087,0.0198,"0",5.050,0.000,54,54,54,52,00,21,3f,37*5315cd91
#BESTPOSA,FILE,0,33.0,FINESTEERING,2319,304481.200,02000800,cdba,17139;SOL_COMPUTED,NARROW_INT,17.59637690751,78.12163861709,526.7391,-76.2000,WGS84,0.0081,0.0087,0.0199,"0",5.200,0.000,54,54,54,52,00,21,3f,37*a47be75c
#BESTPOSA,FILE,0,34.0,FINESTEERING,2319,304481.400,02000800,cdba,17139;SOL_COMPUTED,NARROW_INT,17.59637690971,78.12163862286,526.7393,-76.2000,WGS84,0.0082,0.0088,0.0200,"0",5.400,0.000,54,54,54,52,00,21,3f,37*dc56fafb
#BESTPOSA,FILE,0,34.0,FINESTEERING,2319,304481.450,02000800,cdba,17139;SOL_COMPUTED,NARROW_INT,17.59637690372,78.12163862576,526.7395,-76.2000,WGS84,0.0082,0.0088,0.0200,"0",5.450,0.000,54,54,54,52,00,21,3f,37*00eb6c01
#BESTPOSA,FILE,0,34.0,FINESTEERING,2319,304481.550,02000800,cdba,17139;SOL_COMPUTED,NARROW_INT,17.59637691565,78.12163862678,526.7370,-76.2000,WGS84,0.0082,0.0088,0.0201,"0",5.550,0.000,54,54,54,52,00,21,3f,37*28c01528
#BESTPOSA,FILE,0,34.0,FINESTEERING,2319,304481.600,02000800,cdba,17139;SOL_COMPUTED,NARROW_INT,17.59637691542,78.12163862572,526.7379,-76.2000,WGS84,0.0082,0.0088,0.0201,"0",5.600,0.000,54,54,54,52,00,21,3f,37*9f77c0d7
#BESTPOSA,FILE,0,34.0,FINESTEERING,2319,304481.650,02000800,cdba,17139;SOL_COMPUTED,NARROW_INT,17.59637690935,78.12163862355,526.7374,-76.2000,WGS84,0.0082,0.0088,0.0201,"0",5.650,0.000,54,54,54,52,00,21,3f,37*81eaf353
#BESTPOSA,FILE,0,34.0,FINESTEERING,2319,304481.800,02000800,cdba,17139;SOL_COMPUTED,NARROW_INT,17.59637691735,78.12163862604,526.7374,-76.2000,WGS84,0.0083,0.0089,0.0202,"0",5.800,0.000,54,54,54,52,00,21,3f,37*37a44193
#BESTPOSA,FILE,0,34.0,FINESTEERING,2319,304482.000,02000800,cdba,17139;SOL_COMPUTED,NARROW_INT,17.59637691651,78.12163861348,526.7384,-76.2000,WGS84,0.0083,0.0089,0.0203,"0",6.000,0.000,54,54,54,52,00,21,3f,37*ebc4fabd
#BESTPOSA,FILE,0,34.0,FINESTEERING,2319,304482.050,02000800,cdba,17139;SOL_COMPUTED,NARROW_INT,17.59637691601,78.12163862286,526.7363,-76.2000,WGS84,0.0084,0.0090,0.0205,"0",6.050,0.000,54,54,54,52,00,21,3f,37*3370b579
#BESTPOSA,FILE,0,33.5,FINESTEERING,2319,304482.100,02000800,cdba,17139;SOL_COMPUTED,NARROW_INT,17.59637691213,78.12163862929,526.7376,-76.2000,WGS84,0.0084,0.0090,0.0205,"0",6.100,0.000,54,54,54,52,00,21,3f,37*4f2e1cfb
#BESTPOSA,FILE,0,33.5,FINESTEERING,2319,304482.200,02000800,cdba,17139;SOL_COMPUTED,NARROW_INT,17.59637691243,78.12163861687,526.7396,-76.2000,WGS84,0.0085,0.0090,0.0205,"0",6.200,0.000,54,54,54,52,00,21,3f,37*37b61aeb
#BESTPOSA,FILE,0,33.5,FINESTEERING,2319,304482.250,02000800,cdba,17139;SOL_COMPUTED,NARROW_INT,17.59637691806,78.12163861418,526.7383,-76.2000,WGS84,0.0085,0.0090,0.0206,"0",6.250,0.000,54,54,54,52,00,21,3f,37*beec8bca
#BESTPOSA,FILE,0,33.5,FINESTEERING,2319,304482.300,02000800,cdba,17139;SOL_COMPUTED,NARROW_INT,17.59637691812,78.12163860883,526.7374,-76.2000,WGS84,0.0085,0.0090,0.0206,"0",6.300,0.000,54,54,54,52,00,21,3f,37*f700f8d6
#BESTPOSA,FILE,0,33.5,FINESTEERING,2319,304482.350,02000800,cdba,17139;SOL_COMPUTED,NARROW_INT,17.59637690968,78.12163861874,526.7372,-76.2000,WGS84,0.0085,0.0091,0.0206,"0",6.350,0.000,54,54,54,52,00,21,3f,37*bb37c92a
#BESTPOSA,FILE,0,33.5,FINESTEERING,2319,304482.400,02000800,cdba,17139;SOL_COMPUTED,NARROW_INT,17.59637691519,78.12163862113,526.7372,-76.2000,WGS84,0.0085,0.0091,0.0206,"0",6.400,0.000,54,54,54,52,00,21,3f,37*443af38b
#BESTPOSA,FILE,0,33.5,FINESTEERING,2319,304482.450,02000800,cdba,17139;SOL_COMPUTED,NARROW_INT,17.59637691910,78.12163863045,526.7389,-76.2000,WGS84,0.0085,0.0091,0.0207,"0",6.450,0.000,54,54,54,52,00,21,3f,37*b43687f5
#BESTPOSA,FILE,0,33.5,FINESTEERING,2319,304482.500,02000800,cdba,17139;SOL_COMPUTED,NARROW_INT,17.59637691601,78.12163862275,526.7395,-76.2000,WGS84,0.0085,0.0091,0.0207,"0",6.500,0.000,54,54,54,52,00,21,3f,37*f430bbf0
#BESTPOSA,FILE,0,33.5,FINESTEERING,2319,304482.550,02000800,cdba,17139;SOL_COMPUTED,NARROW_INT,17.59637690834,78.12163862075,526.7397,-76.2000,WGS84,0.0086,0.0091,0.0207,"0",6.550,0.000,54,54,54,52,00,21,3f,37*0b183812
#BESTPOSA,FILE,0,33.5,FINESTEERING,2319,304482.600,02000800,cdba,17139;SOL_COMPUTED,NARROW_INT,17.59637690842,78.12163862134,526.7398,-76.2000,WGS84,0.0086,0.0091,0.0207,"0",6.600,0.000,54,54,54,52,00,21,3f,37*d48b9dff
#BESTPOSA,FILE,0,33.5,FINESTEERING,2319,304482.650,02000800,cdba,17139;SOL_COMPUTED,NARROW_INT,17.59637690898,78.12163861733,526.7399,-76.2000,WGS84,0.0086,0.0091,0.0208,"0",6.650,0.000,54,54,54,52,00,21,3f,37*2b73680e
#BESTPOSA,FILE,0,33.5,FINESTEERING,2319,304482.700,02000800,cdba,17139;SOL_COMPUTED,NARROW_INT,17.59637691260,78.12163861484,526.7381,-76.2000,WGS84,0.0086,0.0091,0.0208,"0",6.700,0.000,54,54,54,52,00,21,3f,37*46bfbc4b
#BESTPOSA,FILE,0,33.5,FINESTEERING,2319,304482.750,02000000,cdba,17139;SOL_COMPUTED,NARROW_INT,17.59637691270,78.12163861942,526.7388,-76.2000,WGS84,0.0086,0.0091,0.0208,"0",6.750,0.000,54,54,54,52,00,21,3f,37*fd822b87
#BESTPOSA,FILE,0,33.5,FINESTEERING,2319,304482.800,02000000,cdba,17139;SOL_COMPUTED,NARROW_INT,17.59637690838,78.12163861781,526.7388,-76.2000,WGS84,0.0086,0.0092,0.0208,"0",6.800,0.000,54,54,54,52,00,21,3f,37*17ec4121
#BESTPOSA,FILE,0,33.5,FINESTEERING,2319,304482.850,02000000,cdba,17139;SOL_COMPUTED,NARROW_INT,17.59637690275,78.12163862240,526.7391,-76.2000,WGS84,0.0086,0.0092,0.0209,"0",6.850,0.000,54,54,54,51,00,21,3f,37*cde73015
#BESTPOSA,FILE,0,33.5,FINESTEERING,2319,304482.900,02000000,cdba,17139;SOL_COMPUTED,NARROW_INT,17.59637690521,78.12163861744,526.7384,-76.2000,WGS84,0.0087,0.0092,0.0209,"0",6.900,0.000,54,54,54,51,00,21,3f,37*613f2488
#BESTPOSA,FILE,0,33.5,FINESTEERING,2319,304482.950,02000000,cdba,17139;SOL_COMPUTED,NARROW_INT,17.59637690899,78.12163862253,526.7384,-76.2000,WGS84,0.0087,0.0092,0.0209,"0",6.950,0.000,54,54,54,51,00,21,3f,37*790a9c38
#BESTPOSA,FILE,0,33.5,FINESTEERING,2319,304483.000,02000000,cdba,17139;SOL_COMPUTED,NARROW_INT,17.59637690989,78.12163861837,526.7375,-76.2000,WGS84,0.0087,0.0092,0.0209,"0",7.000,0.000,54,54,54,51,00,21,3f,37*2da62a8d
#BESTPOSA,FILE,0,33.5,FINESTEERING,2319,304483.050,02000000,cdba,17139;SOL_COMPUTED,NARROW_INT,17.59637690720,78.12163861656,526.7363,-76.2000,WGS84,0.0088,0.0093,0.0211,"0",7.050,0.000,54,54,54,51,00,21,3f,37*0de0ebaf
#BESTPOSA,FILE,0,24.5,FINESTEERING,2319,304483.100,02000000,cdba,17139;SOL_COMPUTED,NARROW_INT,17.59637691227,78.12163862279,526.7375,-76.2000,WGS84,0.0088,0.0093,0.0211,"0",7.100,0.000,54,54,54,51,00,21,3f,37*c80ea723
#BESTPOSA,FILE,0,24.5,FINESTEERING,2319,304483.150,02000000,cdba,17139;SOL_COMPUTED,NARROW_INT,17.59637691269,78.12163862208,526.7378,-76.2000,WGS84,0.0088,0.0093,0.0211,"0",7.150,0.000,54,54,54,52,00,21,3f,37*9486d9a9
#BESTPOSA,FILE,0,24.5,FINESTEERING,2319,304483.200,02000000,cdba,17139;SOL_COMPUTED,NARROW_INT,17.59637691486,78.12163861888,526.7380,-76.2000,WGS84,0.0088,0.0093,0.0212,"0",7.200,0.000,54,54,54,52,00,21,3f,37*252c5ec8
#BESTPOSA,FILE,0,24.5,FINESTEERING,2319,304483.250,02000000,cdba,17139;SOL_COMPUTED,NARROW_INT,17.59637693739,78.12163861865,526.7375,-76.2000,WGS84,0.0088,0.0093,0.0212,"0",7.250,0.000,54,54,54,52,00,21,3f,37*24b2f3d5
#BESTPOSA,FILE,0,24.5,FINESTEERING,2319,304483.300,02000000,cdba,17139;SOL_COMPUTED,NARROW_INT,17.59637695755,78.12163860747,526.7384,-76.2000,WGS84,0.0088,0.0093,0.0212,"0",7.300,0.000,54,54,54,52,00,21,3f,37*9a993f0a
#BESTPOSA,FILE,0,24.5,FINESTEERING,2319,304483.350,02000000,cdba,17139;SOL_COMPUTED,NARROW_INT,17.59637699210,78.12163861359,526.7374,-76.2000,WGS84,0.0088,0.0094,0.0212,"0",7.350,0.000,54,54,54,52,00,21,3f,37*41a2fc3b
#BESTPOSA,FILE,0,24.5,FINESTEERING,2319,304483.400,02000000,cdba,17139;SOL_COMPUTED,NARROW_INT,17.59637703142,78.12163861285,526.7379,-76.2000,WGS84,0.0089,0.0094,0.0213,"0",7.400,0.000,54,54,54,52,00,21,3f,37*e5b05424
#BESTPOSA,FILE,0,24.5,FINESTEERING,2319,304483.450,02000000,cdba,17139;SOL_COMPUTED,NARROW_INT,17.59637707809,78.12163860481,526.7368,-76.2000,WGS84,0.0089,0.0094,0.0213,"0",7.450,0.000,54,54,54,52,00,21,3f,37*707e964d
#BESTPOSA,FILE,0,24.5,FINESTEERING,2319,304483.500,02000000,cdba,17139;SOL_COMPUTED,NARROW_INT,17.59637715350,78.12163859358,526.7378,-76.2000,WGS84,0.0089,0.0094,0.0213,"0",7.500,0.000,54,54,54,52,00,21,3f,37*dcb95c12
#BESTPOSA,FILE,0,24.5,FINESTEERING,2319,304483.550,02000000,cdba,17139;SOL_COMPUTED,NARROW_INT,17.59637723947,78.12163860106,526.7372,-76.2000,WGS84,0.0089,0.0094,0.0213,"0",7.550,0.000,54,54,54,52,00,21,3f,37*ade00095
#BESTPOSA,FILE,0,24.5,FINESTEERING,2319,304483.600,02000000,cdba,17139;SOL_COMPUTED,NARROW_INT,17.59637733310,78.12163859373,526.7375,-76.2000,WGS84,0.0089,0.0094,0.0214,"0",7.600,0.000,54,54,54,52,00,21,3f,37*50c32f71
#BESTPOSA,FILE,0,24.5,FINESTEERING,2319,304483.650,02000000,cdba,17139;SOL_COMPUTED,NARROW_INT,17.59637743297,78.12163858776,526.7372,-76.2000,WGS84,0.0089,0.0094,0.0214,"0",7.650,0.000,54,54,54,52,00,21,3f,37*1e303ad7
#BESTPOSA,FILE,0,24.5,FINESTEERING,2319,304483.700,02000000,cdba,17139;SOL_COMPUTED,NARROW_INT,17.59637756863,78.12163857350,526.7358,-76.2000,WGS84,0.0089,0.0094,0.0214,"0",7.700,0.000,54,54,54,52,00,21,3f,37*b5517175
#BESTPOSA,FILE,0,24.5,FINESTEERING,2319,304483.750,02000000,cdba,17139;SOL_COMPUTED,NARROW_INT,17.59637770125,78.12163856365,526.7370,-76.2000,WGS84,0.0090,0.0094,0.0214,"0",7.750,0.000,54,54,54,52,00,21,3f,37*e79726f4
#BESTPOSA,FILE,0,24.5,FINESTEERING,2319,304483.800,02000000,cdba,17139;SOL_COMPUTED,NARROW_INT,17.59637784176,78.12163855679,526.7384,-76.2000,WGS84,0.0090,0.0095,0.0214,"0",7.800,0.000,54,54,54,52,00,21,3f,37*3513f4ff
#BESTPOSA,FILE,0,24.5,FINESTEERING,2319,304483.850,02000000,cdba,17139;SOL_COMPUTED,NARROW_INT,17.59637799271,78.12163855607,526.7386,-76.2000,WGS84,0.0090,0.0095,0.0215,"0",7.850,0.000,54,54,54,52,00,21,3f,37*d911fe97
#BESTPOSA,FILE,0,24.5,FINESTEERING,2319,304483.900,02000000,cdba,17139;SOL_COMPUTED,NARROW_INT,17.59637815641,78.12163854955,526.7396,-76.2000,WGS84,0.0090,0.0095,0.0215,"0",7.900,0.000,54,54,54,52,00,21,3f,37*ed8e3a53
#BESTPOSA,FILE,0,24.5,FINESTEERING,2319,304483.950,02000000,cdba,17139;SOL_COMPUTED,NARROW_INT,17.59637832397,78.12163854415,526.7407,-76.2000,WGS84,0.0090,0.0095,0.0215,"0",7.950,0.000,54,54,54,52,00,21,3f,37*2070c2a4
#BESTPOSA,FILE,0,24.5,FINESTEERING,2319,304484.000,02000000,cdba,17139;SOL_COMPUTED,NARROW_INT,17.59637851420,78.12163853043,526.7400,-76.2000,WGS84,0.0090,0.0095,0.0215,"0",8.000,0.000,54,54,54,52,00,21,3f,37*31474918
#BESTPOSA,FILE,0,24.5,FINESTEERING,2319,304484.050,02000000,cdba,17139;SOL_COMPUTED,NARROW_INT,17.59637869980,78.12163851783,526.7408,-76.2000,WGS84,0.0091,0.0096,0.0217,"0",8.050,0.000,54,54,54,52,00,21,3f,37*9985fd71
#BESTPOSA,FILE,0,24.5,FINESTEERING,2319,304484.100,02000800,cdba,17139;SOL_COMPUTED,NARROW_INT,17.59637892003,78.12163850565,526.7380,-76.2000,WGS84,0.0091,0.0096,0.0217,"0",8.100,0.000,54,54,54,52,00,21,3f,37*99c888ad
#BESTPOSA,FILE,0,28.0,FINESTEERING,2319,304484.150,02000800,cdba,17139;SOL_COMPUTED,NARROW_INT,17.59637915609,78.12163849334,526.7350,-76.2000,WGS84,0.0091,0.0096,0.0218,"0",8.150,0.000,54,54,54,52,00,21,3f,37*d5fd5925
#BESTPOSA,FILE,0,28.0,FINESTEERING,2319,304484.200,02000800,cdba,17139;SOL_COMPUTED,NARROW_INT,17.59637938586,78.12163849169,526.7375,-76.2000,WGS84,0.0091,0.0096,0.0218,"0",8.200,0.000,54,54,54,52,00,21,3f,37*9151ae69
#BESTPOSA,FILE,0,28.0,FINESTEERING,2319,304484.250,02000800,cdba,17139;SOL_COMPUTED,NARROW_INT,17.59637963320,78.12163848675,526.7376,-76.2000,WGS84,0.0092,0.0096,0.0218,"0",8.250,0.000,54,54,54,52,00,21,3f,37*dd3add77
#BESTPOSA,FILE,0,28.0,FINESTEERING,2319,304484.300,02000800,cdba,17139;SOL_COMPUTED,NARROW_INT,17.59637988627,78.12163847426,526.7384,-76.2000,WGS84,0.0092,0.0096,0.0218,"0",8.300,0.000,54,54,54,52,00,21,3f,37*fffe9ad3
#BESTPOSA,FILE,0,28.0,FINESTEERING,2319,304484.350,02000800,cdba,17139;SOL_COMPUTED,NARROW_INT,17.59638015538,78.12163845600,526.7366,-76.2000,WGS84,0.0092,0.0097,0.0219,"0",8.350,0.000,54,54,54,52,00,21,3f,37*9f2ff43a
#BESTPOSA,FILE,0,28.0,FINESTEERING,2319,304484.400,02000800,cdba,17139;SOL_COMPUTED,NARROW_INT,17.59638041577,78.12163844939,526.7363,-76.2000,WGS84,0.0092,0.0097,0.0219,"0",8.400,0.000,54,54,54,52,00,21,3f,37*17526e75
#BESTPOSA,FILE,0,28.0,FINESTEERING,2319,304484.450,02000800,cdba,17139;SOL_COMPUTED,NARROW_INT,17.59638069735,78.12163843291,526.7378,-76.2000,WGS84,0.0092,0.0097,0.0219,"0",8.450,0.000,54,54,54,52,00,21,3f,37*4bfb011a
#BESTPOSA,FILE,0,28.0,FINESTEERING,2319,304484.500,02000800,cdba,17139;SOL_COMPUTED,NARROW_INT,17.59638099535,78.12163842047,526.7389,-76.2000,WGS84,0.0092,0.0097,0.0219,"0",8.500,0.000,54,54,54,52,00,21,3f,37*9cdcb810
#BESTPOSA,FILE,0,28.0,FINESTEERING,2319,304484.550,02000800,cdba,17139;SOL_COMPUTED,NARROW_INT,17.59638131936,78.12163840083,526.7371,-76.2000,WGS84,0.0092,0.0097,0.0220,"0",8.550,0.000,54,54,54,52,00,21,3f,37*6cc303d9
#BESTPOSA,FILE,0,28.0,FINESTEERING,2319,304484.600,02000800,cdba,17139;SOL_COMPUTED,NARROW_INT,17.59638162605,78.12163839742,526.7384,-76.2000,WGS84,0.0093,0.0097,0.0220,"0",8.600,0.000,54,54,54,52,00,21,3f,37*0b2c0c2e
#BESTPOSA,FILE,0,28.0,FINESTEERING,2319,304484.650,02000800,cdba,17139;SOL_COMPUTED,NARROW_INT,17.59638193972,78.12163839486,526.7391,-76.2000,WGS84,0.0093,0.0097,0.0220,"0",8.650,0.000,54,54,54,52,00,21,3f,37*ed750eec
#BESTPOSA,FILE,0,28.0,FINESTEERING,2319,304484.700,02000800,cdba,17139;SOL_COMPUTED,NARROW_INT,17.59638226338,78.12163838272,526.7376,-76.2000,WGS84,0.0093,0.0097,0.0220,"0",8.700,0.000,54,54,54,52,00,21,3f,37*3c249795
#BESTPOSA,FILE,0,28.0,FINESTEERING,2319,304484.750,02000800,cdba,17139;SOL_COMPUTED,NARROW_INT,17.59638261201,78.12163834692,526.7390,-76.2000,WGS84,0.0093,0.0098,0.0221,"0",8.750,0.000,54,54,54,52,00,21,3f,37*38b5d571
#BESTPOSA,FILE,0,28.0,FINESTEERING,2319,304484.800,02000800,cdba,17139;SOL_COMPUTED,NARROW_INT,17.59638296429,78.12163832911,526.7370,-76.2000,WGS84,0.0093,0.0098,0.0221,"0",8.800,0.000,54,54,54,52,00,21,3f,37*03eb537a
#BESTPOSA,FILE,0,28.0,FINESTEERING,2319,304484.850,02000800,cdba,17139;SOL_COMPUTED,NARROW_INT,17.59638332922,78.12163831546,526.7342,-76.2000,WGS84,0.0093,0.0098,0.0221,"0",8.850,0.000,54,54,54,52,00,21,3f,37*58d61494
#BESTPOSA,FILE,0,28.0,FINESTEERING,2319,304484.900,02000800,cdba,17139;SOL_COMPUTED,NARROW_INT,17.59638370023,78.12163830246,526.7331,-76.2000,WGS84,0.0093,0.0098,0.0221,"0",8.900,0.000,54,54,54,52,00,21,3f,37*46fd1dc6
#BESTPOSA,FILE,0,28.0,FINESTEERING,2319,304484.950,02000800,cdba,17139;SOL_COMPUTED,NARROW_INT,17.59638407695,78.12163828767,526.7316,-76.2000,WGS84,0.0093,0.0098,0.0221,"0",8.950,0.000,54,54,54,52,00,21,3f,37*f3ca16d2
#BESTPOSA,FILE,0,28.0,FINESTEERING,2319,304485.000,02000800,cdba,17139;SOL_COMPUTED,NARROW_INT,17.59638448393,78.12163828201,526.7295,-76.2000,WGS84,0.0094,0.0098,0.0222,"0",9.000,0.000,54,54,54,52,00,21,3f,37*42689dbd
#BESTPOSA,FILE,0,28.0,FINESTEERING,2319,304485.050,02000800,cdba,17139;SOL_COMPUTED,NARROW_INT,17.59638488292,78.12163825157,526.7278,-76.2000,WGS84,0.0094,0.0099,0.0223,"0",9.050,0.000,54,54,54,52,00,21,3f,37*a7a8b00e
#BESTPOSA,FILE,0,28.0,FINESTEERING,2319,304485.100,02000800,cdba,17139;SOL_COMPUTED,NARROW_INT,17.59638526971,78.12163822672,526.7290,-76.2000,WGS84,0.0095,0.0099,0.0224,"0",9.100,0.000,54,54,54,52,00,21,3f,37*03450e2b
#BESTPOSA,FILE,0,29.5,FINESTEERING,2319,304485.150,02000000,cdba,17139;SOL_COMPUTED,NARROW_INT,17.59638568594,78.12163820550,526.7279,-76.2000,WGS84,0.0095,0.0099,0.0224,"0",9.150,0.000,54,54,54,52,00,21,3f,37*c49da84b
#BESTPOSA,FILE,0,29.5,FINESTEERING,2319,304485.200,02000000,cdba,17139;SOL_COMPUTED,NARROW_INT,17.59638611458,78.12163817896,526.7294,-76.2000,WGS84,0.0095,0.0099,0.0224,"0",9.200,0.000,54,54,54,52,00,21,3f,37*a90e7619
#BESTPOSA,FILE,0,29.5,FINESTEERING,2319,304485.250,02000000,cdba,17139;SOL_COMPUTED,NARROW_INT,17.59638656323,78.12163814527,526.7317,-76.2000,WGS84,0.0095,0.0099,0.0224,"0",9.250,0.000,54,54,54,52,00,21,3f,37*c3eb7c03
#BESTPOSA,FILE,0,29.5,FINESTEERING,2319,304485.300,02000000,cdba,17139;SOL_COMPUTED,NARROW_INT,17.59638705200,78.12163811686,526.7254,-76.2000,WGS84,0.0095,0.0100,0.0225,"0",9.300,0.000,54,54,54,52,00,21,3f,37*2c3a7215
#BESTPOSA,FILE,0,29.5,FINESTEERING,2319,304485.350,02000000,cdba,17139;SOL_COMPUTED,NARROW_INT,17.59638753400,78.12163811182,526.7243,-76.2000,WGS84,0.0095,0.0100,0.0225,"0",9.350,0.000,54,54,54,52,00,21,3f,37*47b5669b
#BESTPOSA,FILE,0,29.5,FINESTEERING,2319,304485.400,02000000,cdba,17139;SOL_COMPUTED,NARROW_INT,17.59638803748,78.12163808977,526.7247,-76.2000,WGS84,0.0096,0.0100,0.0225,"0",9.400,0.000,54,54,54,52,00,21,3f,37*522a6da4
#BESTPOSA,FILE,0,29.5,FINESTEERING,2319,304485.450,02000000,cdba,17139;SOL_COMPUTED,NARROW_INT,17.59638857295,78.12163805225,526.7236,-76.2000,WGS84,0.0096,0.0100,0.0225,"0",9.450,0.000,54,54,54,52,00,21,3f,37*037dfdd8
#BESTPOSA,FILE,0,29.5,FINESTEERING,2319,304485.500,02000000,cdba,17139;SOL_COMPUTED,NARROW_INT,17.59638914201,78.12163800738,526.7228,-76.2000,WGS84,0.0096,0.0100,0.0226,"0",9.500,0.000,54,54,54,52,00,21,3f,37*663c1b93
#BESTPOSA,FILE,0,29.5,FINESTEERING,2319,304485.550,02000000,cdba,17139;SOL_COMPUTED,NARROW_INT,17.59638973213,78.12163796812,526.7220,-76.2000,WGS84,0.0096,0.0100,0.0226,"0",9.550,0.000,54,54,54,52,00,21,3f,37*ae8f85ab
#BESTPOSA,FILE,0,29.5,FINESTEERING,2319,304485.600,02000000,cdba,17139;SOL_COMPUTED,NARROW_INT,17.59639036240,78.12163794923,526.7233,-76.2000,WGS84,0.0096,0.0100,0.0226,"0",9.600,0.000,54,54,54,52,00,21,3f,37*2205a4b9
#BESTPOSA,FILE,0,29.5,FINESTEERING,2319,304485.650,02000000,cdba,17139;SOL_COMPUTED,NARROW_INT,17.59639100578,78.12163792079,526.7243,-76.2000,WGS84,0.0096,0.0100,0.0226,"0",9.650,0.000,54,54,54,52,00,21,3f,37*955fcadc
#BESTPOSA,FILE,0,29.5,FINESTEERING,2319,304485.700,02000000,cdba,17139;SOL_COMPUTED,NARROW_INT,17.59639167788,78.12163788888,526.7225,-76.2000,WGS84,0.0096,0.0100,0.0227,"0",9.700,0.000,54,54,54,52,00,21,3f,37*13f0ffff
#BESTPOSA,FILE,0,29.5,FINESTEERING,2319,304485.750,02000000,cdba,17139;SOL_COMPUTED,NARROW_INT,17.59639236672,78.12163783958,526.7208,-76.2000,WGS84,0.0097,0.0101,0.0227,"0",9.750,0.000,54,54,54,52,00,21,3f,37*b2e000d9
#BESTPOSA,FILE,0,29.5,FINESTEERING,2319,304485.800,02000000,cdba,17139;SOL_COMPUTED,NARROW_INT,17.59639309986,78.12163781764,526.7189,-76.2000,WGS84,0.0097,0.0101,0.0227,"0",9.800,0.000,54,54,54,52,00,21,3f,37*4f99c75d
#BESTPOSA,FILE,0,29.5,FINESTEERING,2319,304485.850,02000000,cdba,17139;SOL_COMPUTED,NARROW_INT,17.59639385535,78.12163779882,526.7199,-76.2000,WGS84,0.0097,0.0101,0.0228,"0",9.850,0.000,54,54,54,52,00,21,3f,37*7f1f9b86
#BESTPOSA,FILE,0,29.5,FINESTEERING,2319,304485.900,02000000,cdba,17139;SOL_COMPUTED,NARROW_INT,17.59639464850,78.12163776015,526.7169,-76.2000,WGS84,0.0097,0.0101,0.0228,"0",9.900,0.000,54,54,54,52,00,21,3f,37*bf832d84
#BESTPOSA,FILE,0,29.5,FINESTEERING,2319,304485.950,02000000,cdba,17139;SOL_COMPUTED,NARROW_INT,17.59639546923,78.12163770788,526.7158,-76.2000,WGS84,0.0097,0.0101,0.0228,"0",9.950,0.000,54,54,54,52,00,21,3f,37*3acd6293
#BESTPOSA,FILE,0,29.5,FINESTEERING,2319,304486.000,02000000,cdba,17139;SOL_COMPUTED,NARROW_INT,17.59639632004,78.12163765517,526.7167,-76.2000,WGS84,0.0097,0.0101,0.0228,"0",10.000,0.000,54,54,54,52,00,21,3f,37*8d9bb993
#BESTPOSA,FILE,0,29.5,FINESTEERING,2319,304486.050,02000000,cdba,17139;SOL_COMPUTED,NARROW_INT,17.59639720220,78.12163759305,526.7155,-76.2000,WGS84,0.0098,0.0102,0.0230,"0",10.050,0.000,54,54,54,52,00,21,3f,37*c38274e9
#BESTPOSA,FILE,0,29.5,FINESTEERING,2319,304486.100,02000000,cdba,17139;SOL_COMPUTED,NARROW_INT,17.59639808950,78.12163755148,526.7125,-76.2000,WGS84,0.0099,0.0102,0.0231,"0",10.100,0.000,54,54,54,52,00,21,3f,37*5b09b2f3
#BESTPOSA,FILE,0,30.5,FINESTEERING,2319,304486.150,02000000,cdba,17139;SOL_COMPUTED,NARROW_INT,17.59639904008,78.12163751066,526.7098,-76.2000,WGS84,0.0099,0.0102,0.0231,"0",10.150,0.000,54,54,54,52,00,21,3f,37*6ddc75cb
#BESTPOSA,FILE,0,30.5,FINESTEERING,2319,304486.200,02000000,cdba,17139;SOL_COMPUTED,NARROW_INT,17.59640000238,78.12163744833,526.7101,-76.2000,WGS84,0.0099,0.0103,0.0231,"0",10.200,0.000,54,54,54,52,00,21,3f,37*9d481f60
#BESTPOSA,FILE,0,30.5,FINESTEERING,2319,304486.250,02000000,cdba,17139;SOL_COMPUTED,NARROW_INT,17.59640099421,78.12163738417,526.7085,-76.2000,WGS84,0.0099,0.0103,0.0231,"0",10.250,0.000,54,54,54,52,00,21,3f,37*a1d142b9
#BESTPOSA,FILE,0,30.5,FINESTEERING,2319,304486.300,02000000,cdba,17139;SOL_COMPUTED,NARROW_INT,17.59640203712,78.12163733279,526.7118,-76.2000,WGS84,0.0099,0.0103,0.0232,"0",10.300,0.000,54,54,54,52,00,21,3f,37*9a3a132d
#BESTPOSA,FILE,0,30.5,FINESTEERING,2319,304486.350,02000000,cdba,17139;SOL_COMPUTED,NARROW_INT,17.59640311943,78.12163726605,526.7102,-76.2000,WGS84,0.0099,0.0103,0.0232,"0",10.350,0.000,54,54,54,52,00,21,3f,37*0d74cc47
#BESTPOSA,FILE,0,30.5,FINESTEERING,2319,304486.400,02000000,cdba,17139;SOL_COMPUTED,NARROW_INT,17.59640422426,78.12163720914,526.7055,-76.2000,WGS84,0.0100,0.0103,0.0232,"0",10.400,0.000,54,54,54,52,00,21,3f,37*d6b8866e
#BESTPOSA,FILE,0,30.5,FINESTEERING,2319,304486.450,02000000,cdba,17139;SOL_COMPUTED,NARROW_INT,17.59640536511,78.12163714464,526.7059,-76.2000,WGS84,0.0100,0.0103,0.0233,"0",10.450,0.000,54,54,54,52,00,21,3f,37*efe81e32
#BESTPOSA,FILE,0,30.5,FINESTEERING,2319,304486.500,02000000,cdba,17139;SOL_COMPUTED,NARROW_INT,17.59640654281,78.12163707855,526.7036,-76.2000,WGS84,0.0100,0.0103,0.0233,"0",10.500,0.000,54,54,54,52,00,21,3f,37*b0cf331a
#BESTPOSA,FILE,0,30.5,FINESTEERING,2319,304486.550,02000000,cdba,17139;SOL_COMPUTED,NARROW_INT,17.59640772959,78.12163700290,526.7017,-76.2000,WGS84,0.0100,0.0104,0.0233,"0",10.550,0.000,54,54,54,52,00,21,3f,37*b843945b
#BESTPOSA,FILE,0,30.5,FINESTEERING,2319,304486.600,02000000,cdba,17139;SOL_COMPUTED,NARROW_INT,17.59640895633,78.12163692079,526.7002,-76.2000,WGS84,0.0100,0.0104,0.0233,"0",10.600,0.000,54,54,54,52,00,21,3f,37*b00920f7
#BESTPOSA,FILE,0,30.5,FINESTEERING,2319,304486.650,02000000,cdba,17139;SOL_COMPUTED,NARROW_INT,17.59641020922,78.12163682424,526.6993,-76.2000,WGS84,0.0100,0.0104,0.0234,"0",10.650,0.000,54,54,54,52,00,21,3f,37*862ae279
#BESTPOSA,FILE,0,30.5,FINESTEERING,2319,304486.700,02000000,cdba,17139;SOL_COMPUTED,NARROW_INT,17.59641149152,78.12163674484,526.7011,-76.2000,WGS84,0.0100,0.0104,0.0234,"0",10.700,0.000,54,54,54,52,00,21,3f,37*106579fc
#BESTPOSA,FILE,0,30.5,FINESTEERING,2319,304486.750,02000000,cdba,17139;SOL_COMPUTED,NARROW_INT,17.59641280255,78.12163665676,526.6971,-76.2000,WGS84,0.0100,0.0104,0.0234,"0",10.750,0.000,54,54,54,52,00,21,3f,37*9d3d5055
#BESTPOSA,FILE,0,30.5,FINESTEERING,2319,304486.800,02000000,cdba,17139;SOL_COMPUTED,NARROW_INT,17.59641414146,78.12163655994,526.6983,-76.2000,WGS84,0.0101,0.0104,0.0235,"0",10.800,0.000,53,53,53,51,00,21,3f,37*96e05104
#BESTPOSA,FILE,0,30.5,FINESTEERING,2319,304486.850,02000000,cdba,17139;SOL_COMPUTED,NARROW_INT,17.59641548203,78.12163646703,526.6956,-76.2000,WGS84,0.0101,0.0104,0.0235,"0",10.850,0.000,54,53,53,51,00,21,3f,37*682f0881
#BESTPOSA,FILE,0,30.5,FINESTEERING,2319,304486.900,02000000,cdba,17139;SOL_COMPUTED,NARROW_INT,17.59641683903,78.12163639232,526.6930,-76.2000,WGS84,0.0101,0.0105,0.0235,"0",10.900,0.000,54,53,53,51,00,21,3f,37*c3ce6f67
#BESTPOSA,FILE,0,30.5,FINESTEERING,2319,304486.950,02000000,cdba,17139;SOL_COMPUTED,NARROW_INT,17.59641821715,78.12163630800,526.6913,-76.2000,WGS84,0.0101,0.0105,0.0236,"0",10.950,0.000,54,53,53,51,00,21,3f,37*84b40a65
#BESTPOSA,FILE,0,30.5,FINESTEERING,2319,304487.000,02000000,cdba,17139;SOL_COMPUTED,NARROW_INT,17.59641961208,78.12163621401,526.6950,-76.2000,WGS84,0.0101,0.0105,0.0236,"0",11.000,0.000,54,53,53,51,00,21,3f,37*9fdf6e2e
#BESTPOSA,FILE,0,30.5,FINESTEERING,2319,304487.050,02000000,cdba,17139;SOL_COMPUTED,NARROW_INT,17.59642100283,78.12163611653,526.6923,-76.2000,WGS84,0.0102,0.0106,0.0238,"0",11.050,0.000,54,53,53,51,00,21,3f,37*00ca1c73
#BESTPOSA,FILE,0,29.0,FINESTEERING,2319,304487.100,02000000,cdba,17139;SOL_COMPUTED,NARROW_INT,17.59642240071,78.12163602968,526.6898,-76.2000,WGS84,0.0102,0.0106,0.0239,"0",11.100,0.000,54,54,54,52,00,21,3f,37*199e0fcd
#BESTPOSA,FILE,0,29.0,FINESTEERING,2319,304487.150,02000000,cdba,17139;SOL_COMPUTED,NARROW_INT,17.59642380033,78.12163594161,526.6952,-76.2000,WGS84,0.0103,0.0106,0.0239,"0",11.150,0.000,54,54,54,52,00,21,3f,37*d5e7b70e
#BESTPOSA,FILE,0,29.0,FINESTEERING,2319,304487.200,02000000,cdba,17139;SOL_COMPUTED,NARROW_INT,17.59642520295,78.12163585426,526.6954,-76.2000,WGS84,0.0103,0.0106,0.0239,"0",11.200,0.000,54,54,54,52,00,21,3f,37*f62fe2b5
#BESTPOSA,FILE,0,29.0,FINESTEERING,2319,304487.250,02000000,cdba,17139;SOL_COMPUTED,NARROW_INT,17.59642660005,78.12163574909,526.6917,-76.2000,WGS84,0.0103,0.0107,0.0239,"0",11.250,0.000,54,54,54,52,00,21,3f,37*4468c2c6
#BESTPOSA,FILE,0,29.0,FINESTEERING,2319,304487.300,02000000,cdba,17139;SOL_COMPUTED,NARROW_INT,17.59642800160,78.12163562430,526.6890,-76.2000,WGS84,0.0103,0.0107,0.0240,"0",11.300,0.000,54,54,54,52,00,21,3f,37*4b921e1a
#BESTPOSA,FILE,0,29.0,FINESTEERING,2319,304487.350,02000000,cdba,17139;SOL_COMPUTED,NARROW_INT,17.59642939952,78.12163553772,526.6901,-76.2000,WGS84,0.0103,0.0107,0.0240,"0",11.350,0.000,54,54,54,52,00,21,3f,37*e7d57a17
#BESTPOSA,FILE,0,29.0,FINESTEERING,2319,304487.400,02000000,cdba,17139;SOL_COMPUTED,NARROW_INT,17.59643080111,78.12163544154,526.6906,-76.2000,WGS84,0.0103,0.0107,0.0240,"0",11.400,0.000,54,54,54,52,00,21,3f,37*cb6f2fc4
#BESTPOSA,FILE,0,29.0,FINESTEERING,2319,304487.450,02000000,cdba,17139;SOL_COMPUTED,NARROW_INT,17.59643222154,78.12163533554,526.6833,-76.2000,WGS84,0.0103,0.0107,0.0241,"0",11.450,0.000,54,54,54,52,00,21,3f,37*cb0e24c6
#BESTPOSA,FILE,0,29.0,FINESTEERING,2319,304487.500,02000000,cdba,17139;SOL_COMPUTED,NARROW_INT,17.59643363002,78.12163522803,526.6835,-76.2000,WGS84,0.0103,0.0107,0.0241,"0",11.500,0.000,54,54,54,52,00,21,3f,37*19246388
#BESTPOSA,FILE,0,29.0,FINESTEERING,2319,304487.550,02000000,cdba,17139;SOL_COMPUTED,NARROW_INT,17.59643504823,78.12163512469,526.6847,-76.2000,WGS84,0.0104,0.0107,0.0241,"0",11.550,0.000,54,54,54,52,00,21,3f,37*a7673b3e
#BESTPOSA,FILE,0,29.0,FINESTEERING,2319,304487.600,02000000,cdba,17139;SOL_COMPUTED,NARROW_INT,17.59643645823,78.12163501603,526.6812,-76.2000,WGS84,0.0104,0.0108,0.0241,"0",11.600,0.000,54,54,54,52,00,21,3f,37*ce79dc99
#BESTPOSA,FILE,0,29.0,FINESTEERING,2319,304487.650,02000000,cdba,17139;SOL_COMPUTED,NARROW_INT,17.59643786583,78.12163491474,526.6814,-76.2000,WGS84,0.0104,0.0108,0.0242,"0",11.650,0.000,54,54,54,52,00,21,3f,37*0dff067b
#BESTPOSA,FILE,0,29.0,FINESTEERING,2319,304487.700,02000000,cdba,17139;SOL_COMPUTED,NARROW_INT,17.59643927073,78.12163481186,526.6821,-76.2000,WGS84,0.0104,0.0108,0.0242,"0",11.700,0.000,54,54,54,52,00,21,3f,37*5b0a04f0
#BESTPOSA,FILE,0,29.0,FINESTEERING,2319,304487.750,02000000,cdba,17139;SOL_COMPUTED,NARROW_INT,17.59644068121,78.12163469935,526.6833,-76.2000,WGS84,0.0104,0.0108,0.0242,"0",11.750,0.000,54,54,54,52,00,21,3f,37*72271ad6
#BESTPOSA,FILE,0,29.0,FINESTEERING,2319,304487.800,02000000,cdba,17139;SOL_COMPUTED,NARROW_INT,17.59644209674,78.12163459508,526.6810,-76.2000,WGS84,0.0104,0.0108,0.0242,"0",11.800,0.000,54,54,54,52,00,21,3f,37*95432e4a
#BESTPOSA,FILE,0,29.0,FINESTEERING,2319,304487.850,02000000,cdba,17139;SOL_COMPUTED,NARROW_INT,17.59644350159,78.12163447647,526.6799,-76.2000,WGS84,0.0104,0.0108,0.0242,"0",11.850,0.000,54,54,54,52,00,21,3f,37*1ae54e96
#BESTPOSA,FILE,0,29.0,FINESTEERING,2319,304487.900,02000000,cdba,17139;SOL_COMPUTED,NARROW_INT,17.59644490442,78.12163436464,526.6792,-76.2000,WGS84,0.0104,0.0108,0.0243,"0",11.900,0.000,54,54,54,52,00,21,3f,37*6aa67c3f
#BESTPOSA,FILE,0,29.0,FINESTEERING,2319,304487.950,02000000,cdba,17139;SOL_COMPUTED,NARROW_INT,17.59644631562,78.12163425809,526.6772,-76.2000,WGS84,0.0104,0.0108,0.0243,"0",11.950,0.000,54,54,54,52,00,21,3f,37*1346597d
#BESTPOSA,FILE,0,29.0,FINESTEERING,2319,304488.000,02000000,cdba,17139;SOL_COMPUTED,NARROW_INT,17.59644773411,78.12163416607,526.6752,-76.2000,WGS84,0.0105,0.0108,0.0243,"0",12.000,0.000,54,54,54,52,00,21,3f,37*c6475164
#BESTPOSA,FILE,0,29.0,FINESTEERING,2319,304488.050,02000000,cdba,17139;SOL_COMPUTED,NARROW_INT,17.59644913079,78.12163407058,526.6751,-76.2000,WGS84,0.0106,0.0110,0.0246,"0",12.050,0.000,54,54,54,52,00,21,3f,37*82c99c6a
#BESTPOSA,FILE,0,29.0,FINESTEERING,2319,304488.100,02000000,cdba,17139;SOL_COMPUTED,NARROW_INT,17.59645053394,78.12163398044,526.6725,-76.2000,WGS84,0.0106,0.0110,0.0246,"0",12.100,0.000,54,54,54,52,00,21,3f,37*042fcc1a
#BESTPOSA,FILE,0,30.0,FINESTEERING,2319,304488.150,02000000,cdba,17139;SOL_COMPUTED,NARROW_INT,17.59645192336,78.12163390678,526.6732,-76.2000,WGS84,0.0106,0.0110,0.0246,"0",12.150,0.000,54,54,54,52,00,21,3f,37*3b550d13
#BESTPOSA,FILE,0,30.0,FINESTEERING,2319,304488.200,02000000,cdba,17139;SOL_COMPUTED,NARROW_INT,17.59645332109,78.12163385756,526.6699,-76.2000,WGS84,0.0106,0.0110,0.0246,"0",12.200,0.000,54,54,54,52,00,21,3f,37*883afd88
#BESTPOSA,FILE,0,30.0,FINESTEERING,2319,304488.250,02000000,cdba,17139;SOL_COMPUTED,NARROW_INT,17.59645470936,78.12163380293,526.6690,-76.2000,WGS84,0.0106,0.0110,0.0246,"0",3.250,0.000,54,54,54,52,00,21,3f,37*25c8a5e1
#BESTPOSA,FILE,0,30.0,FINESTEERING,2319,304488.300,02000000,cdba,17139;SOL_COMPUTED,NARROW_INT,17.59645609861,78.12163375432,526.6649,-76.2000,WGS84,0.0106,0.0110,0.0247,"0",3.300,0.000,54,54,54,52,00,21,3f,37*b56ad9e6
#BESTPOSA,FILE,0,30.0,FINESTEERING,2319,304488.350,02000000,cdba,17139;SOL_COMPUTED,NARROW_INT,17.59645749174,78.12163371326,526.6629,-76.2000,WGS84,0.0106,0.0110,0.0247,"0",3.350,0.000,54,54,54,52,00,21,3f,37*1ab88460
#BESTPOSA,FILE,0,30.0,FINESTEERING,2319,304488.400,02000000,cdba,17139;SOL_COMPUTED,NARROW_INT,17.59645887337,78.12163367821,526.6615,-76.2000,WGS84,0.0106,0.0110,0.0247,"0",3.400,0.000,54,54,54,52,00,21,3f,37*cd057923
#BESTPOSA,FILE,0,30.0,FINESTEERING,2319,304488.450,02000000,cdba,17139;SOL_COMPUTED,NARROW_INT,17.59646024420,78.12163366482,526.6595,-76.2000,WGS84,0.0107,0.0111,0.0247,"0",3.450,0.000,54,54,54,52,00,21,3f,37*b357360d
#BESTPOSA,FILE,0,30.0,FINESTEERING,2319,304488.500,02000000,cdba,17139;SOL_COMPUTED,NARROW_INT,17.59646162420,78.12163365613,526.6586,-76.2000,WGS84,0.0107,0.0111,0.0248,"0",3.500,0.000,54,54,54,52,00,21,3f,37*d4072408
#BESTPOSA,FILE,0,30.0,FINESTEERING,2319,304488.550,02000000,cdba,17139;SOL_COMPUTED,NARROW_INT,17.59646300351,78.12163366469,526.6569,-76.2000,WGS84,0.0107,0.0111,0.0248,"0",3.550,0.000,54,54,54,52,00,21,3f,37*2f1ba974
#BESTPOSA,FILE,0,30.0,FINESTEERING,2319,304488.600,02000000,cdba,17139;SOL_COMPUTED,NARROW_INT,17.59646438473,78.12163370025,526.6565,-76.2000,WGS84,0.0107,0.0111,0.0248,"0",3.600,0.000,54,54,54,52,00,21,3f,37*70a195cd
#BESTPOSA,FILE,0,30.0,FINESTEERING,2319,304488.650,02000000,cdba,17139;SOL_COMPUTED,NARROW_INT,17.59646575941,78.12163373976,526.6543,-76.2000,WGS84,0.0107,0.0111,0.0248,"0",3.650,0.000,54,54,54,52,00,21,3f,37*1019c359
#BESTPOSA,FILE,0,30.0,FINESTEERING,2319,304488.700,02000000,cdba,17139;SOL_COMPUTED,NARROW_INT,17.59646712187,78.12163378929,526.6509,-76.2000,WGS84,0.0107,0.0111,0.0249,"0",3.700,0.000,54,54,54,52,00,21,3f,37*c46b7012
#BESTPOSA,FILE,0,30.0,FINESTEERING,2319,304488.750,02000000,cdba,17139;SOL_COMPUTED,NARROW_INT,17.59646848640,78.12163386162,526.6481,-76.2000,WGS84,0.0107,0.0111,0.0249,"0",3.750,0.000,54,54,54,52,00,21,3f,37*5ef442f7
#BESTPOSA,FILE,0,30.0,FINESTEERING,2319,304488.800,02000000,cdba,17139;SOL_COMPUTED,NARROW_INT,17.59646984592,78.12163395176,526.6457,-76.2000,WGS84,0.0107,0.0111,0.0249,"0",3.800,0.000,54,54,54,52,00,21,3f,37*7a253c8f
#BESTPOSA,FILE,0,30.0,FINESTEERING,2319,304488.850,02000000,cdba,17139;SOL_COMPUTED,NARROW_INT,17.59647119301,78.12163405343,526.6419,-76.2000,WGS84,0.0107,0.0111,0.0249,"0",3.850,0.000,54,54,54,52,00,21,3f,37*c949de36
#BESTPOSA,FILE,0,30.0,FINESTEERING,2319,304488.900,02000000,cdba,17139;SOL_COMPUTED,NARROW_INT,17.59647254511,78.12163416199,526.6377,-76.2000,WGS84,0.0108,0.0112,0.0249,"0",3.900,0.000,54,54,54,52,00,21,3f,37*3f1d3856
#BESTPOSA,FILE,0,30.0,FINESTEERING,2319,304488.950,02000000,cdba,17139;SOL_COMPUTED,NARROW_INT,17.59647388545,78.12163429900,526.6364,-76.2000,WGS84,0.0108,0.0112,0.0250,"0",3.950,0.000,54,54,54,52,00,21,3f,37*da0a7b04
#BESTPOSA,FILE,0,30.0,FINESTEERING,2319,304489.000,02000000,cdba,17139;SOL_COMPUTED,NARROW_INT,17.59647521172,78.12163444752,526.6352,-76.2000,WGS84,0.0108,0.0112,0.0250,"0",4.000,0.000,54,54,54,52,00,21,3f,37*eef9ae0a
#BESTPOSA,FILE,0,30.0,FINESTEERING,2319,304489.050,02000000,cdba,17139;SOL_COMPUTED,NARROW_INT,17.59647655063,78.12163460950,526.6331,-76.2000,WGS84,0.0109,0.0113,0.0252,"0",4.050,0.000,54,54,54,52,00,21,3f,37*6a781dc8
#BESTPOSA,FILE,0,28.0,FINESTEERING,2319,304489.100,02000000,cdba,17139;SOL_COMPUTED,NARROW_INT,17.59647789303,78.12163479967,526.6336,-76.2000,WGS84,0.0109,0.0113,0.0252,"0",4.100,0.000,54,54,54,52,00,21,3f,37*6653808a
#BESTPOSA,FILE,0,28.0,FINESTEERING,2319,304489.150,02000000,cdba,17139;SOL_COMPUTED,NARROW_INT,17.59647921131,78.12163502709,526.6304,-76.2000,WGS84,0.0109,0.0113,0.0252,"0",4.150,0.000,54,54,54,52,00,21,3f,37*0b6db205
#BESTPOSA,FILE,0,28.0,FINESTEERING,2319,304489.200,02000000,cdba,17139;SOL_COMPUTED,NARROW_INT,17.59648051622,78.12163526692,526.6286,-76.2000,WGS84,0.0109,0.0113,0.0253,"0",4.200,0.000,54,54,54,52,00,21,3f,37*111782e8
#BESTPOSA,FILE,0,28.0,FINESTEERING,2319,304489.250,02000800,cdba,17139;SOL_COMPUTED,NARROW_INT,17.59648182959,78.12163553030,526.6269,-76.2000,WGS84,0.0109,0.0113,0.0253,"0",4.250,0.000,54,54,54,52,00,21,3f,37*93d2e131
#BESTPOSA,FILE,0,28.0,FINESTEERING,2319,304489.300,02000800,cdba,17139;SOL_COMPUTED,NARROW_INT,17.59648313060,78.12163579356,526.6279,-76.2000,WGS84,0.0109,0.0113,0.0253,"0",4.300,0.000,54,54,54,52,00,21,3f,37*6d1300ea
#BESTPOSA,FILE,0,28.0,FINESTEERING,2319,304489.350,02000800,cdba,17139;SOL_COMPUTED,NARROW_INT,17.59648441658,78.12163607915,526.6249,-76.2000,WGS84,0.0110,0.0113,0.0253,"0",4.350,0.000,54,54,54,52,00,21,3f,37*0f8893ee
#BESTPOSA,FILE,0,28.0,FINESTEERING,2319,304489.400,02000800,cdba,17139;SOL_COMPUTED,NARROW_INT,17.59648569644,78.12163636506,526.6207,-76.2000,WGS84,0.0110,0.0114,0.0254,"0",4.400,0.000,54,54,54,52,00,21,3f,37*df0d71ed
#BESTPOSA,FILE,0,28.0,FINESTEERING,2319,304489.450,02000800,cdba,17139;SOL_COMPUTED,NARROW_INT,17.59648698651,78.12163665309,526.6175,-76.2000,WGS84,0.0110,0.0114,0.0254,"0",4.450,0.000,54,54,54,52,00,21,3f,37*ef801c77
#BESTPOSA,FILE,0,28.0,FINESTEERING,2319,304489.500,02000800,cdba,17139;SOL_COMPUTED,NARROW_INT,17.59648826385,78.12163695607,526.6173,-76.2000,WGS84,0.0110,0.0114,0.0254,"0",4.500,0.000,54,54,54,52,00,21,3f,37*20e2dc6c
#BESTPOSA,FILE,0,28.0,FINESTEERING,2319,304489.550,02000800,cdba,17139;SOL_COMPUTED,NARROW_INT,17.59648953644,78.12163728574,526.6151,-76.2000,WGS84,0.0110,0.0114,0.0254,"0",4.550,0.000,54,54,54,52,00,21,3f,37*805c0427
#BESTPOSA,FILE,0,28.0,FINESTEERING,2319,304489.600,02000800,cdba,17139;SOL_COMPUTED,NARROW_INT,17.59649079745,78.12163762299,526.6143,-76.2000,WGS84,0.0110,0.0114,0.0254,"0",4.600,0.000,54,54,54,52,00,21,3f,37*7cc3c641
#BESTPOSA,FILE,0,28.0,FINESTEERING,2319,304489.650,02000800,cdba,17139;SOL_COMPUTED,NARROW_INT,17.59649203743,78.12163796795,526.6112,-76.2000,WGS84,0.0110,0.0114,0.0255,"0",4.650,0.000,54,54,54,52,00,21,3f,37*7fc84153
#BESTPOSA,FILE,0,28.0,FINESTEERING,2319,304489.700,02000800,cdba,17139;SOL_COMPUTED,NARROW_INT,17.59649326795,78.12163833236,526.6098,-76.2000,WGS84,0.0110,0.0114,0.0255,"0",4.700,0.000,54,54,54,52,00,21,3f,37*da9d9032
#BESTPOSA,FILE,0,28.0,FINESTEERING,2319,304489.750,02000800,cdba,17139;SOL_COMPUTED,NARROW_INT,17.59649449417,78.12163872649,526.6083,-76.2000,WGS84,0.0110,0.0114,0.0255,"0",4.750,0.000,54,54,54,52,00,21,3f,37*91eb3049
#BESTPOSA,FILE,0,28.0,FINESTEERING,2319,304489.800,02000800,cdba,17139;SOL_COMPUTED,NARROW_INT,17.59649571371,78.12163915101,526.6079,-76.2000,WGS84,0.0110,0.0114,0.0255,"0",4.800,0.000,54,54,54,52,00,21,3f,37*175fbcff
#BESTPOSA,FILE,0,28.0,FINESTEERING,2319,304489.850,02000800,cdba,17139;SOL_COMPUTED,NARROW_INT,17.59649692857,78.12163959911,526.6081,-76.2000,WGS84,0.0111,0.0114,0.0255,"0",4.850,0.000,54,54,54,52,00,21,3f,37*d37b4368
#BESTPOSA,FILE,0,28.0,FINESTEERING,2319,304489.900,02000800,cdba,17139;SOL_COMPUTED,NARROW_INT,17.59649812566,78.12164007927,526.6090,-76.2000,WGS84,0.0111,0.0114,0.0255,"0",4.900,0.000,54,54,54,52,00,21,3f,37*9e1c271f
#BESTPOSA,FILE,0,28.0,FINESTEERING,2319,304489.950,02000800,cdba,17139;SOL_COMPUTED,NARROW_INT,17.59649932435,78.12164058273,526.6075,-76.2000,WGS84,0.0111,0.0115,0.0256,"0",4.950,0.000,54,54,54,52,00,21,3f,37*bacada2f
#BESTPOSA,FILE,0,28.0,FINESTEERING,2319,304490.000,02000800,cdba,17139;SOL_COMPUTED,NARROW_INT,17.59650051741,78.12164110874,526.6073,-76.2000,WGS84,0.0111,0.0115,0.0256,"0",5.000,0.000,54,54,54,52,00,21,3f,37*8fc86abf
#BESTPOSA,FILE,0,28.0,FINESTEERING,2319,304490.050,02000800,cdba,17139;SOL_COMPUTED,NARROW_INT,17.59650170897,78.12164164502,526.6056,-76.2000,WGS84,0.0112,0.0116,0.0258,"0",5.050,0.000,54,54,54,52,00,21,3f,37*d18338f8
#BESTPOSA,FILE,0,28.0,FINESTEERING,2319,304490.100,02000800,cdba,17139;SOL_COMPUTED,NARROW_INT,17.59650286460,78.12164219468,526.6025,-76.2000,WGS84,0.0112,0.0116,0.0258,"0",5.100,0.000,54,54,54,52,00,21,3f,37*3faf8cf9
#BESTPOSA,FILE,0,29.5,FINESTEERING,2319,304490.150,02000800,cdba,17139;SOL_COMPUTED,NARROW_INT,17.59650399841,78.12164276670,526.6007,-76.2000,WGS84,0.0112,0.0116,0.0258,"0",5.150,0.000,54,54,54,52,00,21,3f,37*c3a4563d
#BESTPOSA,FILE,0,29.5,FINESTEERING,2319,304490.200,02000800,cdba,17139;SOL_COMPUTED,NARROW_INT,17.59650514354,78.12164333598,526.5974,-76.2000,WGS84,0.0112,0.0116,0.0259,"0",5.200,0.000,54,54,54,52,00,21,3f,37*ca6d7588
#BESTPOSA,FILE,0,29.5,FINESTEERING,2319,304490.250,02000800,cdba,17139;SOL_COMPUTED,NARROW_INT,17.59650629026,78.12164393745,526.5938,-76.2000,WGS84,0.0112,0.0116,0.0259,"0",5.250,0.000,54,54,54,52,00,21,3f,37*1b7797c6
#BESTPOSA,FILE,0,29.5,FINESTEERING,2319,304490.300,02000800,cdba,17139;SOL_COMPUTED,NARROW_INT,17.59650745767,78.12164456562,526.5903,-76.2000,WGS84,0.0112,0.0116,0.0259,"0",5.300,0.000,54,54,54,52,00,21,3f,37*6e4a3407
#BESTPOSA,FILE,0,29.5,FINESTEERING,2319,304490.350,02000800,cdba,17139;SOL_COMPUTED,NARROW_INT,17.59650867164,78.12164522934,526.5880,-76.2000,WGS84,0.0113,0.0116,0.0259,"0",5.350,0.000,54,54,54,52,00,21,3f,37*e848ea26
#BESTPOSA,FILE,0,29.5,FINESTEERING,2319,304490.400,02000000,cdba,17139;SOL_COMPUTED,NARROW_INT,17.59650989487,78.12164594657,526.5881,-76.2000,WGS84,0.0113,0.0116,0.0259,"0",5.400,0.000,54,54,54,52,00,21,3f,37*eb916e31
#BESTPOSA,FILE,0,29.5,FINESTEERING,2319,304490.450,02000000,cdba,17139;SOL_COMPUTED,NARROW_INT,17.59651114973,78.12164668786,526.5899,-76.2000,WGS84,0.0113,0.0116,0.0259,"0",5.450,0.000,54,54,54,52,00,21,3f,37*cba97627
#BESTPOSA,FILE,0,29.5,FINESTEERING,2319,304490.500,02000000,cdba,17139;SOL_COMPUTED,NARROW_INT,17.59651242296,78.12164745222,526.5943,-76.2000,WGS84,0.0113,0.0117,0.0260,"0",5.500,0.000,54,54,54,52,00,21,3f,37*4d17a9f5
#BESTPOSA,FILE,0,29.5,FINESTEERING,2319,304490.550,02000000,cdba,17139;SOL_COMPUTED,NARROW_INT,17.59651370523,78.12164823656,526.5957,-76.2000,WGS84,0.0113,0.0117,0.0260,"0",5.550,0.000,54,54,54,52,00,21,3f,37*03045ae5
#BESTPOSA,FILE,0,29.5,FINESTEERING,2319,304490.600,02000000,cdba,17139;SOL_COMPUTED,NARROW_INT,17.59651498593,78.12164907203,526.5969,-76.2000,WGS84,0.0113,0.0117,0.0260,"0",5.600,0.000,53,53,53,51,00,21,3f,37*d55f1f67
#BESTPOSA,FILE,0,29.5,FINESTEERING,2319,304490.650,02000000,cdba,17139;SOL_COMPUTED,NARROW_INT,17.59651627356,78.12164992581,526.5969,-76.2000,WGS84,0.0113,0.0117,0.0260,"0",5.650,0.000,54,53,53,51,00,21,3f,37*894f30c9
#BESTPOSA,FILE,0,29.5,FINESTEERING,2319,304490.700,02000000,cdba,17139;SOL_COMPUTED,NARROW_INT,17.59651758300,78.12165081809,526.5960,-76.2000,WGS84,0.0113,0.0117,0.0261,"0",5.700,0.000,54,53,53,51,00,21,3f,37*924166fd
#BESTPOSA,FILE,0,29.5,FINESTEERING,2319,304490.750,02000000,cdba,17139;SOL_COMPUTED,NARROW_INT,17.59651888955,78.12165178759,526.5899,-76.2000,WGS84,0.0114,0.0117,0.0261,"0",5.750,0.000,53,53,53,51,00,21,3f,37*c68ba987
#BESTPOSA,FILE,0,29.5,FINESTEERING,2319,304490.800,02000000,cdba,17139;SOL_COMPUTED,NARROW_INT,17.59652018886,78.12165280329,526.5892,-76.2000,WGS84,0.0114,0.0117,0.0261,"0",5.800,0.000,53,53,53,51,00,21,3f,37*6e7bdd04
#BESTPOSA,FILE,0,29.5,FINESTEERING,2319,304490.850,02000000,cdba,17139;SOL_COMPUTED,NARROW_INT,17.59652149865,78.12165391888,526.5906,-76.2000,WGS84,0.0114,0.0117,0.0261,"0",5.850,0.000,54,53,53,51,00,21,3f,37*cacdfe41
#BESTPOSA,FILE,0,29.5,FINESTEERING,2319,304490.900,02000000,cdba,17139;SOL_COMPUTED,NARROW_INT,17.59652282651,78.12165509735,526.5917,-76.2000,WGS84,0.0114,0.0117,0.0261,"0",5.900,0.000,53,53,53,51,00,21,3f,37*5bedc8f5
#BESTPOSA,FILE,0,29.5,FINESTEERING,2319,304490.950,02000000,cdba,17139;SOL_COMPUTED,NARROW_INT,17.59652415557,78.12165633432,526.5912,-76.2000,WGS84,0.0114,0.0117,0.0262,"0",5.950,0.000,53,53,53,51,00,21,3f,37*7cdc9ffc
#BESTPOSA,FILE,0,29.5,FINESTEERING,2319,304491.000,02000000,cdba,17139;SOL_COMPUTED,NARROW_INT,17.59652549926,78.12165762055,526.5943,-76.2000,WGS84,0.0114,0.0117,0.0262,"0",6.000,0.000,54,53,53,51,00,21,3f,37*222ca8db
#BESTPOSA,FILE,0,29.5,FINESTEERING,2319,304491.050,02000000,cdba,17139;SOL_COMPUTED,NARROW_INT,17.59652682714,78.12165895585,526.5953,-76.2000,WGS84,0.0115,0.0118,0.0264,"0",6.050,0.000,54,53,53,51,00,21,3f,37*7122595b
#BESTPOSA,FILE,0,28.0,FINESTEERING,2319,304491.100,02000000,cdba,17139;SOL_COMPUTED,NARROW_INT,17.59652816525,78.12166030989,526.5933,-76.2000,WGS84,0.0115,0.0119,0.0264,"0",6.100,0.000,54,53,53,51,00,21,3f,37*fdf637b1
#BESTPOSA,FILE,0,28.0,FINESTEERING,2319,304491.150,02000000,cdba,17139;SOL_COMPUTED,NARROW_INT,17.59652952744,78.12166170055,526.5865,-76.2000,WGS84,0.0115,0.0119,0.0264,"0",6.150,0.000,54,53,53,51,00,21,3f,37*52183403
#BESTPOSA,FILE,0,28.0,FINESTEERING,2319,304491.200,02000000,cdba,17139;SOL_COMPUTED,NARROW_INT,17.59653087974,78.12166312803,526.5833,-76.2000,WGS84,0.0115,0.0119,0.0264,"0",6.200,0.000,54,54,54,52,00,21,3f,37*947caf29
#BESTPOSA,FILE,0,28.0,FINESTEERING,2319,304491.250,02000000,cdba,17139;SOL_COMPUTED,NARROW_INT,17.59653221869,78.12166458463,526.5806,-76.2000,WGS84,0.0116,0.0119,0.0265,"0",6.250,0.000,53,53,53,51,00,21,3f,37*767e7809
#BESTPOSA,FILE,0,28.0,FINESTEERING,2319,304491.300,02000000,cdba,17139;SOL_COMPUTED,NARROW_INT,17.59653354482,78.12166609201,526.5759,-76.2000,WGS84,0.0116,0.0119,0.0265,"0",6.300,0.000,53,53,53,51,00,21,3f,37*23b54997
#BESTPOSA,FILE,0,28.0,FINESTEERING,2319,304491.350,02000000,cdba,17139;SOL_COMPUTED,NARROW_INT,17.59653486504,78.12166764820,526.5746,-76.2000,WGS84,0.0116,0.0119,0.0265,"0",6.350,0.000,54,53,53,51,00,21,3f,37*32ecb428
#BESTPOSA,FILE,0,28.0,FINESTEERING,2319,304491.400,02000000,cdba,17139;SOL_COMPUTED,NARROW_INT,17.59653616398,78.12166926177,526.5713,-76.2000,WGS84,0.0116,0.0119,0.0265,"0",6.400,0.000,54,53,53,51,00,21,3f,37*ce9e0683
#BESTPOSA,FILE,0,28.0,FINESTEERING,2319,304491.450,02000000,cdba,17139;SOL_COMPUTED,NARROW_INT,17.59653741859,78.12167093547,526.5716,-76.2000,WGS84,0.0116,0.0119,0.0266,"0",6.450,0.000,53,53,53,51,00,21,3f,37*0a782a53
#BESTPOSA,FILE,0,28.0,FINESTEERING,2319,304491.500,02000000,cdba,17139;SOL_COMPUTED,NARROW_INT,17.59653863948,78.12167266458,526.5707,-76.2000,WGS84,0.0116,0.0119,0.0266,"0",6.500,0.000,54,53,53,51,00,21,3f,37*f2155660
#BESTPOSA,FILE,0,28.0,FINESTEERING,2319,304491.550,02000000,cdba,17139;SOL_COMPUTED,NARROW_INT,17.59653982963,78.12167443099,526.5695,-76.2000,WGS84,0.0116,0.0119,0.0266,"0",6.550,0.000,53,53,53,51,00,21,3f,37*843124a4
#BESTPOSA,FILE,0,28.0,FINESTEERING,2319,304491.600,02000000,cdba,17139;SOL_COMPUTED,NARROW_INT,17.59654097253,78.12167625739,526.5673,-76.2000,WGS84,0.0116,0.0120,0.0266,"0",6.600,0.000,54,53,53,51,00,21,3f,37*4f5936c7
#BESTPOSA,FILE,0,28.0,FINESTEERING,2319,304491.650,02000000,cdba,17139;SOL_COMPUTED,NARROW_INT,17.59654207077,78.12167812182,526.5645,-76.2000,WGS84,0.0117,0.0120,0.0266,"0",6.650,0.000,54,53,53,51,00,21,3f,37*4842a399
#BESTPOSA,FILE,0,28.0,FINESTEERING,2319,304491.700,02000000,cdba,17139;SOL_COMPUTED,NARROW_INT,17.59654314358,78.12168003070,526.5588,-76.2000,WGS84,0.0117,0.0120,0.0267,"0",6.700,0.000,54,53,53,51,00,21,3f,37*27da59f5
#BESTPOSA,FILE,0,28.0,FINESTEERING,2319,304491.750,02000000,cdba,17139;SOL_COMPUTED,NARROW_INT,17.59654417569,78.12168198789,526.5553,-76.2000,WGS84,0.0117,0.0120,0.0267,"0",6.750,0.000,53,53,53,51,00,21,3f,37*ada4f12c
#BESTPOSA,FILE,0,28.0,FINESTEERING,2319,304491.800,02000000,cdba,17139;SOL_COMPUTED,NARROW_INT,17.59654515101,78.12168398447,526.5518,-76.2000,WGS84,0.0117,0.0120,0.0267,"0",6.800,0.000,53,53,53,51,00,21,3f,37*0e83e236
#BESTPOSA,FILE,0,28.0,FINESTEERING,2319,304491.850,02000000,cdba,17139;SOL_COMPUTED,NARROW_INT,17.59654609120,78.12168603720,526.5482,-76.2000,WGS84,0.0117,0.0120,0.0267,"0",6.850,0.000,53,53,53,51,00,21,3f,37*3cc810e2
#BESTPOSA,FILE,0,28.0,FINESTEERING,2319,304491.900,02000000,cdba,17139;SOL_COMPUTED,NARROW_INT,17.59654698455,78.12168812693,526.5434,-76.2000,WGS84,0.0117,0.0120,0.0267,"0",6.900,0.000,53,53,53,51,00,21,3f,37*f566e7be
#BESTPOSA,FILE,0,28.0,FINESTEERING,2319,304491.950,02000000,cdba,17139;SOL_COMPUTED,NARROW_INT,17.59654783589,78.12169025240,526.5428,-76.2000,WGS84,0.0117,0.0120,0.0268,"0",6.950,0.000,53,53,53,51,00,21,3f,37*d987fb6d
#BESTPOSA,FILE,0,28.0,FINESTEERING,2319,304492.000,02000000,cdba,17139;SOL_COMPUTED,NARROW_INT,17.59654866710,78.12169241346,526.5415,-76.2000,WGS84,0.0117,0.0120,0.0268,"0",7.000,0.000,53,53,53,51,00,21,3f,37*93388cc5
#BESTPOSA,FILE,0,28.0,FINESTEERING,2319,304492.050,02000000,cdba,17139;SOL_COMPUTED,NARROW_INT,17.59654945877,78.12169460872,526.5399,-76.2000,WGS84,0.0118,0.0121,0.0270,"0",7.050,0.000,53,53,53,51,00,21,3f,37*9c825b34
#BESTPOSA,FILE,0,28.0,FINESTEERING,2319,304492.100,02000000,cdba,17139;SOL_COMPUTED,NARROW_INT,17.59655022620,78.12169682318,526.5380,-76.2000,WGS84,0.0118,0.0121,0.0270,"0",7.100,0.000,53,53,53,51,00,21,3f,37*bcf1af2a
#BESTPOSA,FILE,0,28.0,FINESTEERING,2319,304492.150,02000000,cdba,17139;SOL_COMPUTED,NARROW_INT,17.59655094857,78.12169907319,526.5356,-76.2000,WGS84,0.0119,0.0121,0.0270,"0",7.150,0.000,53,53,53,51,00,21,3f,37*d0c718a8
#BESTPOSA,FILE,0,30.5,FINESTEERING,2319,304492.200,02000000,cdba,17139;SOL_COMPUTED,NARROW_INT,17.59655167082,78.12170134468,526.5352,-76.2000,WGS84,0.0119,0.0121,0.0271,"0",7.200,0.000,53,53,53,51,00,21,3f,37*d6ed62ed
#BESTPOSA,FILE,0,30.5,FINESTEERING,2319,304492.250,02000000,cdba,17139;SOL_COMPUTED,NARROW_INT,17.59655236769,78.12170363737,526.5303,-76.2000,WGS84,0.0119,0.0122,0.0271,"0",7.250,0.000,53,53,53,51,00,21,3f,37*52eaf02c
#BESTPOSA,FILE,0,30.5,FINESTEERING,2319,304492.300,02000000,cdba,17139;SOL_COMPUTED,NARROW_INT,17.59655305947,78.12170595414,526.5293,-76.2000,WGS84,0.0119,0.0122,0.0271,"0",7.300,0.000,53,53,53,51,00,21,3f,37*8394ac57
#BESTPOSA,FILE,0,30.5,FINESTEERING,2319,304492.350,02000000,cdba,17139;SOL_COMPUTED,NARROW_INT,17.59655372999,78.12170830525,526.5289,-76.2000,WGS84,0.0119,0.0122,0.0271,"0",7.350,0.000,53,53,53,51,00,21,3f,37*ec007e4f
#BESTPOSA,FILE,0,30.5,FINESTEERING,2319,304492.400,02000000,cdba,17139;SOL_COMPUTED,NARROW_INT,17.59655437729,78.12171065759,526.5290,-76.2000,WGS84,0.0119,0.0122,0.0271,"0",7.400,0.000,53,53,53,51,00,21,3f,37*7c2f5532
#BESTPOSA,FILE,0,30.5,FINESTEERING,2319,304492.450,02000000,cdba,17139;SOL_COMPUTED,NARROW_INT,17.59655501236,78.12171303323,526.5291,-76.2000,WGS84,0.0119,0.0122,0.0272,"0",7.450,0.000,53,53,53,51,00,21,3f,37*f124df15
#BESTPOSA,FILE,0,30.5,FINESTEERING,2319,304492.500,02000000,cdba,17139;SOL_COMPUTED,NARROW_INT,17.59655561952,78.12171543366,526.5292,-76.2000,WGS84,0.0119,0.0122,0.0272,"0",7.500,0.000,53,53,53,51,00,21,3f,37*4df80a21
#BESTPOSA,FILE,0,30.5,FINESTEERING,2319,304492.550,02000000,cdba,17139;SOL_COMPUTED,NARROW_INT,17.59655621846,78.12171784830,526.5309,-76.2000,WGS84,0.0119,0.0122,0.0272,"0",7.550,0.000,53,53,53,51,00,21,3f,37*662058e6
#BESTPOSA,FILE,0,30.5,FINESTEERING,2319,304492.600,02000000,cdba,17139;SOL_COMPUTED,NARROW_INT,17.59655678752,78.12172027858,526.5336,-76.2000,WGS84,0.0120,0.0122,0.0272,"0",7.600,0.000,53,53,53,51,00,21,3f,37*f1140820
#BESTPOSA,FILE,0,30.5,FINESTEERING,2319,304492.650,02000000,cdba,17139;SOL_COMPUTED,NARROW_INT,17.59655733012,78.12172272706,526.5328,-76.2000,WGS84,0.0120,0.0122,0.0272,"0",7.650,0.000,53,53,53,51,00,21,3f,37*40dbc634
#BESTPOSA,FILE,0,30.5,FINESTEERING,2319,304492.700,02000000,cdba,17139;SOL_COMPUTED,NARROW_INT,17.59655785132,78.12172518750,526.5300,-76.2000,WGS84,0.0120,0.0122,0.0273,"0",7.700,0.000,53,53,53,51,00,21,3f,37*824310ba
#BESTPOSA,FILE,0,30.5,FINESTEERING,2319,304492.750,02000000,cdba,17139;SOL_COMPUTED,NARROW_INT,17.59655833184,78.12172766238,526.5307,-76.2000,WGS84,0.0120,0.0122,0.0273,"0",7.750,0.000,53,53,53,51,00,21,3f,37*24b9c399
#BESTPOSA,FILE,0,30.5,FINESTEERING,2319,304492.800,02000000,cdba,17139;SOL_COMPUTED,NARROW_INT,17.59655878522,78.12173015767,526.5290,-76.2000,WGS84,0.0120,0.0122,0.0273,"0",7.800,0.000,53,53,53,51,00,21,3f,37*6c3f4221
#BESTPOSA,FILE,0,30.5,FINESTEERING,2319,304492.850,02000000,cdba,17139;SOL_COMPUTED,NARROW_INT,17.59655920633,78.12173267158,526.5295,-76.2000,WGS84,0.0120,0.0123,0.0273,"0",7.850,0.000,53,53,53,51,00,21,3f,37*e5fa9e29
#BESTPOSA,FILE,0,30.5,FINESTEERING,2319,304492.900,02000000,cdba,17139;SOL_COMPUTED,NARROW_INT,17.59655960620,78.12173520425,526.5311,-76.2000,WGS84,0.0120,0.0123,0.0273,"0",7.900,0.000,53,53,53,51,00,21,3f,37*fc96b1a1
#BESTPOSA,FILE,0,30.5,FINESTEERING,2319,304492.950,02000000,cdba,17139;SOL_COMPUTED,NARROW_INT,17.59656000799,78.12173774809,526.5329,-76.2000,WGS84,0.0120,0.0123,0.0273,"0",7.950,0.000,53,53,53,51,00,21,3f,37*fea27a4c
#BESTPOSA,FILE,0,30.5,FINESTEERING,2319,304493.000,02000000,cdba,17139;SOL_COMPUTED,NARROW_INT,17.59656039777,78.12174031822,526.5324,-76.2000,WGS84,0.0120,0.0123,0.0274,"0",8.000,0.000,53,53,53,51,00,21,3f,37*97c89405
#BESTPOSA,FILE,0,30.5,FINESTEERING,2319,304493.050,02000000,cdba,17139;SOL_COMPUTED,NARROW_INT,17.59656079289,78.12174290041,526.5335,-76.2000,WGS84,0.0121,0.0124,0.0276,"0",8.050,0.000,53,53,53,51,00,21,3f,37*8d037400
#BESTPOSA,FILE,0,30.5,FINESTEERING,2319,304493.100,02000000,cdba,17139;SOL_COMPUTED,NARROW_INT,17.59656118099,78.12174547754,526.5341,-76.2000,WGS84,0.0122,0.0124,0.0276,"0",8.100,0.000,53,53,53,51,00,21,3f,37*8a21c7bf
#BESTPOSA,FILE,0,31.0,FINESTEERING,2319,304493.150,02000000,cdba,17139;SOL_COMPUTED,NARROW_INT,17.59656156537,78.12174807337,526.5333,-76.2000,WGS84,0.0122,0.0124,0.0276,"0",8.150,0.000,53,53,53,51,00,21,3f,37*e751bf75
#BESTPOSA,FILE,0,31.0,FINESTEERING,2319,304493.200,02000000,cdba,17139;SOL_COMPUTED,NARROW_INT,17.59656194903,78.12175068574,526.5346,-76.2000,WGS84,0.0122,0.0124,0.0276,"0",8.200,0.000,53,53,53,51,00,21,3f,37*a6639018
#BESTPOSA,FILE,0,31.0,FINESTEERING,2319,304493.250,02000000,cdba,17139;SOL_COMPUTED,NARROW_INT,17.59656231714,78.12175329995,526.5365,-76.2000,WGS84,0.0122,0.0124,0.0277,"0",8.250,0.000,53,53,53,51,00,21,3f,37*521a2c4f
#BESTPOSA,FILE,0,31.0,FINESTEERING,2319,304493.300,02000000,cdba,17139;SOL_COMPUTED,NARROW_INT,17.59656266334,78.12175594390,526.5404,-76.2000,WGS84,0.0122,0.0124,0.0277,"0",8.300,0.000,53,53,53,51,00,21,3f,37*52fe378a
#BESTPOSA,FILE,0,31.0,FINESTEERING,2319,304493.350,02000000,cdba,17139;SOL_COMPUTED,NARROW_INT,17.59656301244,78.12175859238,526.5437,-76.2000,WGS84,0.0122,0.0124,0.0277,"0",8.350,0.000,53,53,53,51,00,21,3f,37*19c133d1
#BESTPOSA,FILE,0,31.0,FINESTEERING,2319,304493.400,02000000,cdba,17139;SOL_COMPUTED,NARROW_INT,17.59656333808,78.12176124075,526.5468,-76.2000,WGS84,0.0122,0.0124,0.0277,"0",8.400,0.000,53,53,53,51,00,21,3f,37*ffb722e3
#BESTPOSA,FILE,0,31.0,FINESTEERING,2319,304493.450,02000000,cdba,17139;SOL_COMPUTED,NARROW_INT,17.59656365639,78.12176387887,526.5475,-76.2000,WGS84,0.0122,0.0124,0.0277,"0",8.450,0.000,53,53,53,51,00,21,3f,37*fc676a80
#BESTPOSA,FILE,0,31.0,FINESTEERING,2319,304493.500,02000000,cdba,17139;SOL_COMPUTED,NARROW_INT,17.59656394939,78.12176653117,526.5506,-76.2000,WGS84,0.0122,0.0125,0.0278,"0",8.500,0.000,53,53,53,51,00,21,3f,37*d08f490d
#BESTPOSA,FILE,0,31.0,FINESTEERING,2319,304493.550,02000000,cdba,17139;SOL_COMPUTED,NARROW_INT,17.59656426199,78.12176919054,526.5529,-76.2000,WGS84,0.0122,0.0125,0.0278,"0",8.550,0.000,53,53,53,51,00,21,3f,37*86c4ca0a
#BESTPOSA,FILE,0,31.0,FINESTEERING,2319,304493.600,02000000,cdba,17139;SOL_COMPUTED,NARROW_INT,17.59656457427,78.12177186215,526.5528,-76.2000,WGS84,0.0123,0.0125,0.0278,"0",8.600,0.000,53,53,53,51,00,21,3f,37*6ebe363e
#BESTPOSA,FILE,0,31.0,FINESTEERING,2319,304493.650,02000000,cdba,17139;SOL_COMPUTED,NARROW_INT,17.59656490586,78.12177453286,526.5539,-76.2000,WGS84,0.0123,0.0125,0.0278,"0",8.650,0.000,53,53,53,51,00,21,3f,37*f15c567d
#BESTPOSA,FILE,0,31.0,FINESTEERING,2319,304493.700,02000000,cdba,17139;SOL_COMPUTED,NARROW_INT,17.59656522351,78.12177722397,526.5551,-76.2000,WGS84,0.0123,0.0125,0.0278,"0",8.700,0.000,53,53,53,51,00,21,3f,37*6d828c8e
#BESTPOSA,FILE,0,31.0,FINESTEERING,2319,304493.750,02000000,cdba,17139;SOL_COMPUTED,NARROW_INT,17.59656553023,78.12177990473,526.5563,-76.2000,WGS84,0.0123,0.0125,0.0278,"0",8.750,0.000,53,53,53,51,00,21,3f,37*62132171
#BESTPOSA,FILE,0,31.0,FINESTEERING,2319,304493.800,02000000,cdba,17139;SOL_COMPUTED,NARROW_INT,17.59656584428,78.12178261145,526.5570,-76.2000,WGS84,0.0123,0.0125,0.0279,"0",8.800,0.000,53,53,53,51,00,21,3f,37*96d81bfa
#BESTPOSA,FILE,0,31.0,FINESTEERING,2319,304493.850,02000000,cdba,17139;SOL_COMPUTED,NARROW_INT,17.59656616280,78.12178531626,526.5586,-76.2000,WGS84,0.0123,0.0125,0.0279,"0",8.850,0.000,53,53,53,51,00,21,3f,37*800345c1
#BESTPOSA,FILE,0,31.0,FINESTEERING,2319,304493.900,02000000,cdba,17139;SOL_COMPUTED,NARROW_INT,17.59656645759,78.12178804547,526.5628,-76.2000,WGS84,0.0123,0.0125,0.0279,"0",8.900,0.000,53,53,53,51,00,21,3f,37*2924da5c
#BESTPOSA,FILE,0,31.0,FINESTEERING,2319,304493.950,02000000,cdba,17139;SOL_COMPUTED,NARROW_INT,17.59656673723,78.12179079098,526.5654,-76.2000,WGS84,0.0123,0.0125,0.0279,"0",8.950,0.000,53,53,53,51,00,21,3f,37*52bd6958
