#CORRIMUDATAA,FILE,0,35.0,FINESTEERING,2319,304478.650,02000800,e5fc,17139;2319,304478.650000000,0.0001492123386235,0.0000627052458223,0.0013480295309011,0.0042562308520647,-0.0001852548243656,0.0016372357360708*48a87afe
#CORRIMUDATAA,FILE,0,35.0,FINESTEERING,2319,304478.700,02000800,e5fc,17139;2319,304478.700000000,0.0000860870331677,-0.0000157602485001,0.0016737291429774,0.0040375153756175,-0.0004334557133915,0.0026520061144838*58272e90
#CORRIMUDATAA,FILE,0,35.0,FINESTEERING,2319,304478.750,02000800,e5fc,17139;2319,304478.750000000,-0.0000083671021501,-0.0000781589972234,0.0013135484416739,0.0002244846042594,-0.0001743162197554,0.0015087700658329*de166f33
#CORRIMUDATAA,FILE,0,35.0,FINESTEERING,2319,304478.850,02000800,e5fc,17139;2319,304478.850000000,0.0000466768342225,-0.0000662000714399,0.0011918452293382,-0.0023920114599944,0.0003617847702852,-0.0017364010334520*6eeb6250
#CORRIMUDATAA,FILE,0,33.0,FINESTEERING,2319,304479.100,02000800,e5fc,17139;2319,304479.100000000,0.0001341823954378,0.0000522823924632,0.0005935999626842,0.0010425658475362,0.0073066609043799,-0.0018347803344126*10a723eb
#CORRIMUDATAA,FILE,0,33.0,FINESTEERING,2319,304479.150,02000800,e5fc,17139;2319,304479.150000000,0.0002657478624214,0.0000739907375370,0.0005461953409936,-0.0001789301923323,0.0132230483672977,-0.0033259340385973*dea7e2fb
#CORRIMUDATAA,FILE,0,33.0,FINESTEERING,2319,304479.200,02000800,e5fc,17139;2319,304479.200000000,0.0002572250214541,0.0001178768345476,0.0003563384392831,-0.0015328168493558,0.0143171806797195,0.0011607894952643*e01e20d7
#CORRIMUDATAA,FILE,0,33.0,FINESTEERING,2319,304479.250,02000800,e5fc,17139;2319,304479.250000000,0.0002352355243108,0.0001865177464152,0.0002245680382742,-0.0002634439606526,0.0165427548765071,0.0017600700368750*4494823a
#CORRIMUDATAA,FILE,0,33.0,FINESTEERING,2319,304479.400,02000800,e5fc,17139;2319,304479.400000000,0.0006224064427975,0.0000262972675305,0.0000793112640970,0.0025187074552140,0.0369206078271169,-0.0012541848742473*efffca07
#CORRIMUDATAA,FILE,0,33.0,FINESTEERING,2319,304479.450,02000800,e5fc,17139;2319,304479.450000000,0.0005767252335632,0.0000891129247086,0.0000900429099159,0.0018051593796123,0.0358208529530649,-0.0003772219653726*0decba09
#CORRIMUDATAA,FILE,0,33.0,FINESTEERING,2319,304479.500,02000800,e5fc,17139;2319,304479.500000000,0.0006568139763231,0.0001365321415654,0.0001205987642341,0.0020171397994666,0.0469779657966171,0.0012523438872519*5c7942f9
#CORRIMUDATAA,FILE,0,33.0,FINESTEERING,2319,304479.550,02000800,e5fc,17139;2319,304479.550000000,0.0005606608490582,0.0000906707273119,0.0000717968688393,0.0007201982017731,0.0460888124343341,0.0001283998605320*8175d31c
#CORRIMUDATAA,FILE,0,33.0,FINESTEERING,2319,304479.600,02000800,e5fc,17139;2319,304479.600000000,0.0004599801240470,0.0000478642067563,0.0000143610308313,-0.0001130573257636,0.0483773789731802,0.0016058602510822*fc656d25
#CORRIMUDATAA,FILE,0,33.0,FINESTEERING,2319,304479.800,02000800,e5fc,17139;2319,304479.800000000,-0.0000837428681704,-0.0000774775371192,0.0000434952856748,0.0024135000066641,0.0497279369443206,0.0025008432450639*e8a82019
#CORRIMUDATAA,FILE,0,33.0,FINESTEERING,2319,304480.100,02000800,e5fc,17139;2319,304480.100000000,-0.0004890984772241,0.0002192152381554,-0.0000520293449267,0.0006485916707446,0.0064928496819775,-0.0064580200005331*0421e09d
#CORRIMUDATAA,FILE,0,33.0,FINESTEERING,2319,304480.200,02000800,e5fc,17139;2319,304480.200000000,0.0001118014788125,0.0000217843680593,0.0000350876503366,0.0013717269469719,0.0010650304876218,0.0040055362481610*ccb313bf
#CORRIMUDATAA,FILE,0,33.0,FINESTEERING,2319,304480.250,02000800,e5fc,17139;2319,304480.250000000,0.0000379767764942,0.0000247384869874,0.0000527965588061,-0.0029056050723263,-0.0088412353067185,0.0054454841716280*9c34b9a5
#CORRIMUDATAA,FILE,0,33.0,FINESTEERING,2319,304480.300,02000800,e5fc,17139;2319,304480.300000000,0.0000390301123641,-0.0000241792446020,0.0000220351890641,-0.0026995998137486,-0.0062476403860867,0.0024171873212426*60382cad
#CORRIMUDATAA,FILE,0,33.0,FINESTEERING,2319,304480.400,02000800,e5fc,17139;2319,304480.400000000,0.0001282559483199,-0.0001172661750709,-0.0000518001323520,0.0009054557649768,0.0061237446441547,-0.0057619083208565*65195bee
#CORRIMUDATAA,FILE,0,33.0,FINESTEERING,2319,304480.450,02000800,e5fc,17139;2319,304480.450000000,0.0001476473997275,-0.0000981871607611,-0.0000265769690194,0.0020294155652868,0.0026935120604896,-0.0037281523142672*e95ca9a0
#CORRIMUDATAA,FILE,0,33.0,FINESTEERING,2319,304480.550,02000800,e5fc,17139;2319,304480.550000000,0.0000461309843960,-0.0000241363375792,0.0000214117767906,-0.0000768729168548,0.0010121360750572,-0.0008289874071939*547551a1
#CORRIMUDATAA,FILE,0,33.0,FINESTEERING,2319,304480.800,02000800,e5fc,17139;2319,304480.800000000,0.0000789642851664,0.0000372110509120,0.0000277828777357,0.0002462315016241,-0.0011667080323186,0.0008054465191666*da9c4d53
#CORRIMUDATAA,FILE,0,33.0,FINESTEERING,2319,304480.850,02000800,e5fc,17139;2319,304480.850000000,0.0000714042271500,-0.0000198127893457,0.0000318926073207,-0.0006285672928194,0.0016511189331466,-0.0018213639087402*bd5f92a0
#CORRIMUDATAA,FILE,0,33.0,FINESTEERING,2319,304480.900,02000800,e5fc,17139;2319,304480.900000000,0.0000512173378979,0.0000037963882765,0.0000240972524651,-0.0001667488288000,0.0010888137709900,0.0022338852384789*bfa205b1
#CORRIMUDATAA,FILE,0,33.0,FINESTEERING,2319,304480.950,02000800,e5fc,17139;2319,304480.950000000,0.0000087305561297,-0.0000279669256846,-0.0000274753480070,-0.0000142339260704,0.0008510997906786,0.0002318216970366*aa5328ef
#CORRIMUDATAA,FILE,0,33.0,FINESTEERING,2319,304481.000,02000800,e5fc,17139;2319,304481.000000000,-0.0000325646127663,-0.0000267434630753,-0.0000271961111102,0.0008025451618903,-0.0014149627214603,0.0014493999001775*3c535523
#CORRIMUDATAA,FILE,0,33.0,FINESTEERING,2319,304481.050,02000800,e5fc,17139;2319,304481.050000000,-0.0000278042581832,0.0000201101221734,-0.0000175835593319,0.0007741285811428,-0.0002541808660753,-0.0024138226746891*43b0bf73
#CORRIMUDATAA,FILE,0,33.0,FINESTEERING,2319,304481.100,02000800,e5fc,17139;2319,304481.100000000,0.0000023509293524,0.0000188570724164,0.0000140907393906,0.0005071304570770,-0.0003564712526716,0.0010360069094714*1b918795
#CORRIMUDATAA,FILE,0,34.0,FINESTEERING,2319,304481.200,02000800,e5fc,17139;2319,304481.200000000,0.0000413532521843,-0.0000209004125395,0.0000191635225987,-0.0010044947682931,-0.0000225723543501,0.0000830060609823*fa50c2de
#CORRIMUDATAA,FILE,0,34.0,FINESTEERING,2319,304481.300,02000800,e5fc,17139;2319,304481.300000000,0.0000458661681289,0.0000062715500798,-0.0000360710380068,0.0005162484500638,0.0011833734580109,-0.0010566068124543*d55b8af9
#CORRIMUDATAA,FILE,0,34.0,FINESTEERING,2319,304481.500,02000800,e5fc,17139;2319,304481.500000000,0.0001704868474194,0.0000434514801090,0.0000458180892478,-0.0013518781173525,0.0003310392782587,-0.0022118471861028*58fc8e2b
#CORRIMUDATAA,FILE,0,34.0,FINESTEERING,2319,304481.600,02000800,e5fc,17139;2319,304481.600000000,0.0001592151370395,0.0000690931674297,-0.0000486089273418,-0.0002294754953392,-0.0030152690648276,-0.0009350903534702*a5c51408
#CORRIMUDATAA,FILE,0,34.0,FINESTEERING,2319,304481.650,02000800,e5fc,17139;2319,304481.650000000,0.0000772249173479,-0.0000497978812382,-0.0000163205629590,0.0012185301865901,-0.0053644227383465,0.0056058958857754*3796a589
#CORRIMUDATAA,FILE,0,34.0,FINESTEERING,2319,304481.900,02000800,e5fc,17139;2319,304481.900000000,-0.0000503530330743,-0.0000490973668602,-0.0000244122290594,0.0001822031112162,-0.0019921925004000,-0.0005426403747801*651d4697
#CORRIMUDATAA,FILE,0,34.0,FINESTEERING,2319,304481.950,02000800,e5fc,17139;2319,304481.950000000,-0.0000664501179690,0.0000598832034265,-0.0000097482623442,-0.0001269078558858,-0.0009118812370166,-0.0018124014250113*8994e467
#CORRIMUDATAA,FILE,0,33.5,FINESTEERING,2319,304482.100,02000800,e5fc,17139;2319,304482.100000000,0.0000675759453611,-0.0000534016270719,0.0000223249202491,-0.0014690201503601,-0.0005198143241804,0.0021038227271476*96137827
#CORRIMUDATAA,FILE,0,33.5,FINESTEERING,2319,304482.200,02000800,e5fc,17139;2319,304482.200000000,-0.0000580882686518,-0.0000647801702212,-0.0000343150857874,-0.0003790623571180,0.0010808052835908,-0.0003698239795951*4410c1c3
#CORRIMUDATAA,FILE,0,33.5,FINESTEERING,2319,304482.250,02000800,e5fc,17139;2319,304482.250000000,-0.0000477566247860,-0.0000559612601742,-0.0000291201941858,0.0009104994197719,0.0009903084945065,-0.0013391685447121*ae15a271
#CORRIMUDATAA,FILE,0,33.5,FINESTEERING,2319,304482.300,02000800,e5fc,17139;2319,304482.300000000,-0.0000070224960168,0.0000056832497182,0.0000025547445122,0.0021083336088740,-0.0006699747991527,-0.0011188950900270*0465e6f6
#CORRIMUDATAA,FILE,0,33.5,FINESTEERING,2319,304482.350,02000800,e5fc,17139;2319,304482.350000000,0.0000456607662909,0.0000027460810210,0.0000257510566494,0.0021656259215383,-0.0013016827696995,-0.0002439472374416*f8a4067c
#CORRIMUDATAA,FILE,0,33.5,FINESTEERING,2319,304482.400,02000800,e5fc,17139;2319,304482.400000000,0.0000497307042710,0.0000527764869166,0.0000214034745203,0.0004959052992146,-0.0006961814725870,0.0014778420451755*abfc018d
#CORRIMUDATAA,FILE,0,33.5,FINESTEERING,2319,304482.450,02000800,e5fc,17139;2319,304482.450000000,0.0000365770774497,0.0000870766426808,0.0000005353649805,-0.0004505000598658,0.0013371588840823,0.0006109122685831*6716f947
#CORRIMUDATAA,FILE,0,33.5,FINESTEERING,2319,304482.500,02000800,e5fc,17139;2319,304482.500000000,-0.0000187465519882,0.0000661203395028,0.0000006193842628,-0.0005968778566400,0.0012057210943181,0.0003915593803692*e4c0d584
#CORRIMUDATAA,FILE,0,33.5,FINESTEERING,2319,304482.550,02000800,e5fc,17139;2319,304482.550000000,-0.0000450099116805,0.0000069216074818,0.0000096242665932,-0.0012827591891306,0.0001312232803495,-0.0004560146284074*ed8d9ad2
#CORRIMUDATAA,FILE,0,33.5,FINESTEERING,2319,304482.600,02000800,e5fc,17139;2319,304482.600000000,-0.0000445767654512,-0.0000319696280939,0.0000042612203733,-0.0017366351560429,-0.0011358919791426,-0.0008026452265674*0f0f2ec3
#CORRIMUDATAA,FILE,0,33.5,FINESTEERING,2319,304482.650,02000800,e5fc,17139;2319,304482.650000000,-0.0000027804142057,-0.0000537162144686,-0.0000006680620589,-0.0003636331769675,-0.0006103120802655,-0.0006958486404965*ee9de4df
#CORRIMUDATAA,FILE,0,33.5,FINESTEERING,2319,304482.700,02000800,e5fc,17139;2319,304482.700000000,0.0000357953204877,-0.0000710658535702,-0.0000062415999943,0.0010717035244592,-0.0000454881020751,0.0005962526719550*905f1291
#CORRIMUDATAA,FILE,0,33.5,FINESTEERING,2319,304482.750,02000000,e5fc,17139;2319,304482.750000000,0.0000395014442508,-0.0000459902202103,-0.0000068799810305,0.0013502041889262,0.0003748927598023,0.0006222939050426*69dc6a40
#CORRIMUDATAA,FILE,0,33.5,FINESTEERING,2319,304482.800,02000000,e5fc,17139;2319,304482.800000000,0.0000201382040955,-0.0000020652332933,0.0000017146612618,0.0007449491186280,0.0002112981926838,-0.0001967281258475*91bdbcbe
#CORRIMUDATAA,FILE,0,33.5,FINESTEERING,2319,304482.850,02000000,e5fc,17139;2319,304482.850000000,-0.0000243466527743,0.0000270033774681,0.0000031879128009,-0.0001408114459326,0.0002743840934990,-0.0000321349634102*311e738c
#CORRIMUDATAA,FILE,0,33.5,FINESTEERING,2319,304482.900,02000000,e5fc,17139;2319,304482.900000000,-0.0000273006920484,0.0000222799049998,-0.0000061724935619,-0.0002536163487002,0.0003562474938116,-0.0002243991215692*4ea7e781
#CORRIMUDATAA,FILE,0,33.5,FINESTEERING,2319,304482.950,02000000,e5fc,17139;2319,304482.950000000,-0.0000135216660767,0.0000112622800414,-0.0000082298160224,-0.0004272765461377,-0.0003009044632126,0.0001815539397330*d5679777
#CORRIMUDATAA,FILE,0,33.5,FINESTEERING,2319,304483.000,02000000,e5fc,17139;2319,304483.000000000,0.0000020496116660,-0.0000008575933183,-0.0000001240628225,0.0003607750739388,-0.0004875296325726,-0.0003737996092243*0da1ad97
#CORRIMUDATAA,FILE,0,33.5,FINESTEERING,2319,304483.050,02000000,e5fc,17139;2319,304483.050000000,0.0000543629459337,-0.0000263659935611,0.0000247203785530,0.0014159998252397,0.0012454451789017,-0.0008902270756039*de888e11
#CORRIMUDATAA,FILE,0,24.5,FINESTEERING,2319,304483.100,02000000,e5fc,17139;2319,304483.100000000,0.0000859532801678,-0.0000312925167024,0.0000572219891619,0.0006752320929264,0.0037093601527052,0.0001024760392289*c4c0db09
#CORRIMUDATAA,FILE,0,24.5,FINESTEERING,2319,304483.150,02000000,e5fc,17139;2319,304483.150000000,0.0000938095908880,-0.0000015251408327,0.0000526173745023,-0.0001263905854723,0.0066118006146117,-0.0001016941885925*bcd5c539
#CORRIMUDATAA,FILE,0,24.5,FINESTEERING,2319,304483.200,02000000,e5fc,17139;2319,304483.200000000,0.0001279465550835,-0.0000070704208340,0.0000200534759857,-0.0006615035813223,0.0111996163125833,0.0000330050033839*bb306bb0
#CORRIMUDATAA,FILE,0,24.5,FINESTEERING,2319,304483.250,02000000,e5fc,17139;2319,304483.250000000,0.0001323251086148,-0.0000175034594649,-0.0000131797597026,-0.0005491908037899,0.0140260841508475,-0.0000460707082743*487039da
#CORRIMUDATAA,FILE,0,24.5,FINESTEERING,2319,304483.300,02000000,e5fc,17139;2319,304483.300000000,0.0001878661440047,-0.0000180438641082,-0.0000308260882038,0.0000027042839902,0.0184649419699594,-0.0002702367414212*b00a8c1f
#CORRIMUDATAA,FILE,0,24.5,FINESTEERING,2319,304483.350,02000000,e5fc,17139;2319,304483.350000000,0.0003266469610285,-0.0000375462297963,-0.0000284810138592,0.0009887151583457,0.0259812172157213,-0.0021735948394613*5ee31355
#CORRIMUDATAA,FILE,0,24.5,FINESTEERING,2319,304483.400,02000000,e5fc,17139;2319,304483.400000000,0.0003316185679136,-0.0000053109856449,-0.0000004612353067,0.0017569548843372,0.0243747235845635,-0.0011754303614216*dca58312
#CORRIMUDATAA,FILE,0,24.5,FINESTEERING,2319,304483.450,02000000,e5fc,17139;2319,304483.450000000,0.0003676797116212,-0.0000513529470630,0.0000275485134265,0.0016407039790128,0.0279319662011556,0.0019200665824147*4dd9a91c
#CORRIMUDATAA,FILE,0,24.5,FINESTEERING,2319,304483.500,02000000,e5fc,17139;2319,304483.500000000,0.0002867698245963,-0.0000415364377226,0.0000411882908508,0.0012621363346656,0.0300210454367083,0.0030781388222809*3d30b286
#CORRIMUDATAA,FILE,0,24.5,FINESTEERING,2319,304483.550,02000000,e5fc,17139;2319,304483.550000000,0.0001224140196841,-0.0000092973415136,0.0000188004335430,0.0004853617125422,0.0244767994520095,0.0012463665944059*c409d194
#CORRIMUDATAA,FILE,0,24.5,FINESTEERING,2319,304483.600,02000000,e5fc,17139;2319,304483.600000000,0.0000021018092160,0.0000224025253012,-0.0000037050226731,0.0007524532386388,0.0271484314716190,0.0011004499752959*a9f34424
#CORRIMUDATAA,FILE,0,24.5,FINESTEERING,2319,304483.650,02000000,e5fc,17139;2319,304483.650000000,-0.0000755722191685,-0.0000188672942471,-0.0000119224818210,0.0011008688110764,0.0293346314723290,-0.0010919430509530*5b3eb11a
#CORRIMUDATAA,FILE,0,24.5,FINESTEERING,2319,304483.700,02000000,e5fc,17139;2319,304483.700000000,-0.0000752369933862,-0.0000003835292101,-0.0000031764754828,0.0010251460320318,0.0230443233586752,-0.0029553970420145*73ce8e22
#CORRIMUDATAA,FILE,0,24.5,FINESTEERING,2319,304483.750,02000000,e5fc,17139;2319,304483.750000000,-0.0000350682858487,0.0000465512553467,0.0000159978369748,0.0022601806964293,0.0250714568003249,-0.0004924187574231*de86d5a4
#CORRIMUDATAA,FILE,0,24.5,FINESTEERING,2319,304483.800,02000000,e5fc,17139;2319,304483.800000000,0.0000178873269739,0.0000070450528619,0.0000360359047337,0.0010155670361213,0.0245542924707209,0.0012221382342108*30398bfd
#CORRIMUDATAA,FILE,0,24.5,FINESTEERING,2319,304483.850,02000000,e5fc,17139;2319,304483.850000000,0.0000223604605234,0.0001060881457223,0.0000467356018592,0.0014712171313068,0.0269629590157481,0.0017109197431489*8c494667
#CORRIMUDATAA,FILE,0,24.5,FINESTEERING,2319,304483.900,02000000,e5fc,17139;2319,304483.900000000,-0.0000056010033598,-0.0000350044652658,0.0000463054600004,0.0011091979785718,0.0227163174819507,0.0007828202882514*153f2ef6
#CORRIMUDATAA,FILE,0,24.5,FINESTEERING,2319,304483.950,02000000,e5fc,17139;2319,304483.950000000,-0.0000629288153009,-0.0001307337289623,0.0000171681813366,-0.0018829805177824,0.0276963034143896,-0.0006955095872003*7c3efd5b
#CORRIMUDATAA,FILE,0,24.5,FINESTEERING,2319,304484.000,02000000,e5fc,17139;2319,304484.000000000,-0.0000928319645088,-0.0000134371380044,-0.0000244658314500,-0.0009954882464930,0.0247032185280052,-0.0020155683001178*f159e65a
#CORRIMUDATAA,FILE,0,24.5,FINESTEERING,2319,304484.050,02000000,e5fc,17139;2319,304484.050000000,-0.0000306263328814,-0.0000274734575028,-0.0000146387265600,0.0014168418353381,0.0232278237893596,-0.0013482221546429*a9414044
#CORRIMUDATAA,FILE,0,24.5,FINESTEERING,2319,304484.100,02000800,e5fc,17139;2319,304484.100000000,0.0000547877240971,-0.0000465090656074,0.0000160764735935,0.0022620479678358,0.0280933173503515,-0.0016150211524303*d755f844
#CORRIMUDATAA,FILE,0,28.0,FINESTEERING,2319,304484.150,02000800,e5fc,17139;2319,304484.150000000,0.0000566944940660,0.0000203855897285,0.0000409236669553,0.0022334123480811,0.0220044360758761,0.0025006266181374*3939397b
#CORRIMUDATAA,FILE,0,28.0,FINESTEERING,2319,304484.200,02000800,e5fc,17139;2319,304484.200000000,-0.0000010290628422,-0.0000397376986715,0.0000774097348479,0.0029968034628238,0.0260927812801409,0.0028623762120771*f4ce9afe
#CORRIMUDATAA,FILE,0,28.0,FINESTEERING,2319,304484.250,02000800,e5fc,17139;2319,304484.250000000,-0.0001107734721821,-0.0000748165166293,0.0000672328265725,0.0004370134721296,0.0226563624726783,0.0013031300285954*b9be7b41
#CORRIMUDATAA,FILE,0,28.0,FINESTEERING,2319,304484.300,02000800,e5fc,17139;2319,304484.300000000,-0.0001238820773013,-0.0000144835436569,0.0000288299466896,-0.0016989574429345,0.0196900878266366,0.0000959931775272*e2efe23b
#CORRIMUDATAA,FILE,0,28.0,FINESTEERING,2319,304484.350,02000800,e5fc,17139;2319,304484.350000000,-0.0000821934472212,0.0001399983895678,-0.0000179255503965,-0.0011723702193099,0.0246748875370376,-0.0011025549038029*d4969201
#CORRIMUDATAA,FILE,0,28.0,FINESTEERING,2319,304484.400,02000800,e5fc,17139;2319,304484.400000000,-0.0000391446522328,0.0001174336071495,-0.0000073716592287,0.0028236150529485,0.0219444896361012,-0.0019827951943768*07cc28d8
#CORRIMUDATAA,FILE,0,28.0,FINESTEERING,2319,304484.450,02000800,e5fc,17139;2319,304484.450000000,-0.0000240001587132,-0.0000095733095649,0.0000360675118603,0.0031295688533855,0.0215758454387408,0.0026783771324124*ffd4f1b8
#CORRIMUDATAA,FILE,0,28.0,FINESTEERING,2319,304484.500,02000800,e5fc,17139;2319,304484.500000000,-0.0000432548702616,0.0000406695142705,0.0000613703034462,0.0012375493505721,0.0220435146532826,0.0006372513551329*affc77bc
#CORRIMUDATAA,FILE,0,28.0,FINESTEERING,2319,304484.550,02000800,e5fc,17139;2319,304484.550000000,-0.0000180868043443,0.0000631946096914,0.0000743003807770,0.0007705246755046,0.0223855392971746,-0.0030648693875418*72183d39
#CORRIMUDATAA,FILE,0,28.0,FINESTEERING,2319,304484.600,02000800,e5fc,17139;2319,304484.600000000,-0.0000414957923314,0.0001118820442935,0.0000612540317696,-0.0007015662447801,0.0221105971618660,0.0018811616613061*d42ef71c
#CORRIMUDATAA,FILE,0,28.0,FINESTEERING,2319,304484.650,02000800,e5fc,17139;2319,304484.650000000,-0.0000440931263993,0.0000749254675536,0.0000193959497472,-0.0001718664592810,0.0199467169775582,-0.0003192040483012*7861af75
#CORRIMUDATAA,FILE,0,28.0,FINESTEERING,2319,304484.700,02000800,e5fc,17139;2319,304484.700000000,-0.0000265271843336,0.0001164005688456,0.0000014779613277,0.0008563100556020,0.0238711548693805,-0.0025280817864915*27395978
#CORRIMUDATAA,FILE,0,28.0,FINESTEERING,2319,304484.750,02000800,e5fc,17139;2319,304484.750000000,-0.0000109425438060,0.0000428448956435,0.0000058613414048,0.0014896368491803,0.0206365905634707,0.0005858360021654*768f5f76
#CORRIMUDATAA,FILE,0,28.0,FINESTEERING,2319,304484.800,02000800,e5fc,17139;2319,304484.800000000,0.0000007451808745,0.0000760577736677,0.0000520162733194,0.0010165889211991,0.0203930161799945,-0.0004539241237125*8b9b1987
#CORRIMUDATAA,FILE,0,28.0,FINESTEERING,2319,304484.850,02000800,e5fc,17139;2319,304484.850000000,-0.0000041161663056,0.0000839758147757,0.0000757138328531,0.0012634278634670,0.0208818164981450,0.0020741732849805*eca9d116
#CORRIMUDATAA,FILE,0,28.0,FINESTEERING,2319,304484.900,02000800,e5fc,17139;2319,304484.900000000,-0.0000333914307959,-0.0000863837062216,0.0000801243841145,0.0005324357051356,0.0214244268148423,-0.0008793911723580*eff35739
#CORRIMUDATAA,FILE,0,28.0,FINESTEERING,2319,304484.950,02000800,e5fc,17139;2319,304484.950000000,-0.0000589555733113,-0.0001077195813224,0.0000535280158261,-0.0024697753462051,0.0215787151637626,-0.0002328840224372*2a71aa44
#CORRIMUDATAA,FILE,0,28.0,FINESTEERING,2319,304485.000,02000800,e5fc,17139;2319,304485.000000000,-0.0000284451486114,0.0000298570392969,0.0000316406043911,0.0009240269975186,0.0206998303275144,-0.0005139384295767*1707cdd7
#CORRIMUDATAA,FILE,0,28.0,FINESTEERING,2319,304485.050,02000800,e5fc,17139;2319,304485.050000000,0.0000735338000277,-0.0000604164092903,0.0000526105075382,0.0018448474000792,0.0212757921427324,-0.0012957984462979*530153e1
#CORRIMUDATAA,FILE,0,28.0,FINESTEERING,2319,304485.100,02000800,e5fc,17139;2319,304485.100000000,0.0001526629191349,-0.0000848332128498,0.0000573847867565,0.0017717414447092,0.0251241568679061,-0.0031558183628100*46fa64fd
#CORRIMUDATAA,FILE,0,29.5,FINESTEERING,2319,304485.150,02000000,e5fc,17139;2319,304485.150000000,0.0001996166547928,-0.0000671958333636,0.0000560627146146,0.0018181268853199,0.0248933736708320,-0.0020345275048598*e7e2a3ae
#CORRIMUDATAA,FILE,0,29.5,FINESTEERING,2319,304485.200,02000000,e5fc,17139;2319,304485.200000000,0.0003744776473202,-0.0001545628706191,0.0000573853903172,0.0009242517860826,0.0357725305995630,-0.0029523324092624*6986486c
#CORRIMUDATAA,FILE,0,29.5,FINESTEERING,2319,304485.250,02000000,e5fc,17139;2319,304485.250000000,0.0003417628517152,-0.0000622104525300,0.0000478461309372,0.0006092017148275,0.0334799819780396,-0.0032402274568873*69097699
#CORRIMUDATAA,FILE,0,29.5,FINESTEERING,2319,304485.300,02000000,e5fc,17139;2319,304485.300000000,0.0004904841352381,-0.0000318675285208,0.0000562511332526,0.0011460732995167,0.0474073624730871,-0.0005362842803336*ad31ea20
#CORRIMUDATAA,FILE,0,29.5,FINESTEERING,2319,304485.350,02000000,e5fc,17139;2319,304485.350000000,0.0004452911447342,-0.0000541639734603,0.0000373259509822,0.0009354627976648,0.0435924039803487,-0.0010569464483455*4ca0f002
#CORRIMUDATAA,FILE,0,29.5,FINESTEERING,2319,304485.400,02000000,e5fc,17139;2319,304485.400000000,0.0006916070521621,-0.0000582896133012,0.0000221880923657,0.0015319127043625,0.0590969206324608,-0.0015630802971475*8d423ff9
#CORRIMUDATAA,FILE,0,29.5,FINESTEERING,2319,304485.450,02000000,e5fc,17139;2319,304485.450000000,0.0005119705943876,-0.0000477519942745,0.0000103728383116,0.0020648170063847,0.0502837822595009,0.0025058152038798*b13da65c
#CORRIMUDATAA,FILE,0,29.5,FINESTEERING,2319,304485.500,02000000,e5fc,17139;2319,304485.500000000,0.0005768195928007,-0.0000859316516499,0.0000460304872356,0.0034632286114077,0.0567167102350774,0.0029284845572430*a3e058d6
#CORRIMUDATAA,FILE,0,29.5,FINESTEERING,2319,304485.550,02000000,e5fc,17139;2319,304485.550000000,0.0003826714859504,-0.0000823972971564,0.0001036372022582,0.0035395457146359,0.0565767666547805,0.0051298203315882*b0873fdf
#CORRIMUDATAA,FILE,0,29.5,FINESTEERING,2319,304485.600,02000000,e5fc,17139;2319,304485.600000000,0.0002196579373338,-0.0001040897922322,0.0001698597895012,0.0026253092489904,0.0627903580907290,0.0051621379458292*5a426068
#CORRIMUDATAA,FILE,0,29.5,FINESTEERING,2319,304485.650,02000000,e5fc,17139;2319,304485.650000000,0.0000783794044136,-0.0001096390333108,0.0001578347211471,0.0015434516257475,0.0597082402101718,0.0006133680029209*b0978d24
#CORRIMUDATAA,FILE,0,29.5,FINESTEERING,2319,304485.700,02000000,e5fc,17139;2319,304485.700000000,-0.0000120444876184,-0.0000749632228741,0.0001281826398867,0.0008104582663047,0.0546185822431199,-0.0034641516216244*00c2b62e
#CORRIMUDATAA,FILE,0,29.5,FINESTEERING,2319,304485.750,02000000,e5fc,17139;2319,304485.750000000,0.0000599932279132,0.0000047495043020,0.0001102719549135,-0.0001602601041829,0.0609271326231019,-0.0026621098933042*35504a61
#CORRIMUDATAA,FILE,0,29.5,FINESTEERING,2319,304485.800,02000000,e5fc,17139;2319,304485.800000000,0.0001812092797438,0.0001891513737811,0.0001078889214300,0.0012966801231726,0.0618206630036277,-0.0006437842733696*5cd3d15b
#CORRIMUDATAA,FILE,0,29.5,FINESTEERING,2319,304485.850,02000000,e5fc,17139;2319,304485.850000000,0.0003167195785663,0.0001280006348814,0.0002080513478996,0.0062503688593168,0.0707889981370401,-0.0014846928786867*47a1ef8c
#CORRIMUDATAA,FILE,0,29.5,FINESTEERING,2319,304485.900,02000000,e5fc,17139;2319,304485.900000000,0.0002462939046906,0.0000129284739825,0.0002957144116339,0.0039222951933674,0.0587798800118052,-0.0005865897283577*36753892
#CORRIMUDATAA,FILE,0,29.5,FINESTEERING,2319,304485.950,02000000,e5fc,17139;2319,304485.950000000,0.0003120867518697,-0.0000483385745164,0.0004771928056079,0.0029565871768827,0.0742116769205994,-0.0010014611991275*9cd61040
#CORRIMUDATAA,FILE,0,29.5,FINESTEERING,2319,304486.000,02000000,e5fc,17139;2319,304486.000000000,0.0003110734045550,-0.0000888324155657,0.0004847437351391,-0.0011734185326528,0.0677516765930033,0.0027797960011658*3e56646c
#CORRIMUDATAA,FILE,0,29.5,FINESTEERING,2319,304486.050,02000000,e5fc,17139;2319,304486.050000000,0.0001741831712384,-0.0000040888354911,0.0004224565984537,-0.0011329203903130,0.0602637242921359,0.0033922587042672*e05bca8c
#CORRIMUDATAA,FILE,0,29.5,FINESTEERING,2319,304486.100,02000000,e5fc,17139;2319,304486.100000000,0.0001939139873589,-0.0001880733622411,0.0004269748444930,-0.0017817202632259,0.0755804456604096,-0.0000734886969177*3aad6b1c
#CORRIMUDATAA,FILE,0,30.5,FINESTEERING,2319,304486.150,02000000,e5fc,17139;2319,304486.150000000,0.0001907822084939,-0.0002511975880120,0.0003186543603631,0.0001194412257002,0.0714151376215487,-0.0050093296238178*a437e168
#CORRIMUDATAA,FILE,0,30.5,FINESTEERING,2319,304486.200,02000000,e5fc,17139;2319,304486.200000000,0.0002925444861567,-0.0001832197866403,0.0003395574644343,0.0013103142988695,0.0722287999066897,-0.0023231127059453*1fdd1e26
#CORRIMUDATAA,FILE,0,30.5,FINESTEERING,2319,304486.250,02000000,e5fc,17139;2319,304486.250000000,0.0004762744134682,-0.0001504804311084,0.0004920594068823,0.0047608846984458,0.0734734268945857,-0.0012924371699589*581d65e1
#CORRIMUDATAA,FILE,0,30.5,FINESTEERING,2319,304486.300,02000000,e5fc,17139;2319,304486.300000000,0.0004874861404591,-0.0001095953630321,0.0007351132463736,0.0062006063818021,0.0758163863505654,-0.0018647288326056*1bcc448b
#CORRIMUDATAA,FILE,0,30.5,FINESTEERING,2319,304486.350,02000000,e5fc,17139;2319,304486.350000000,0.0003863570467153,-0.0000166524914282,0.0009963537019914,0.0043632712859364,0.0731346612369944,0.0014418187777695*5333e2bd
#CORRIMUDATAA,FILE,0,30.5,FINESTEERING,2319,304486.400,02000000,e5fc,17139;2319,304486.400000000,0.0002301757079278,-0.0000457362122842,0.0011550003440014,0.0026758492325690,0.0704903869549573,0.0072228968382896*8cf87130
#CORRIMUDATAA,FILE,0,30.5,FINESTEERING,2319,304486.450,02000000,e5fc,17139;2319,304486.450000000,0.0000331861722166,-0.0001088401990731,0.0011651949880548,-0.0011840290660932,0.0697337244547360,0.0080830173115612*601e502f
#CORRIMUDATAA,FILE,0,30.5,FINESTEERING,2319,304486.500,02000000,e5fc,17139;2319,304486.500000000,-0.0001829447665785,-0.0001347524345446,0.0010566537204893,-0.0041329718210063,0.0687351335699025,-0.0003836241873333*3d5b38a1
#CORRIMUDATAA,FILE,0,30.5,FINESTEERING,2319,304486.550,02000000,e5fc,17139;2319,304486.550000000,-0.0002519940948363,-0.0001263763396240,0.0008653423612226,-0.0032726265418352,0.0658161680996883,-0.0015374404266812*54d035c9
#CORRIMUDATAA,FILE,0,30.5,FINESTEERING,2319,304486.600,02000000,e5fc,17139;2319,304486.600000000,-0.0002247197018001,-0.0005614768915974,0.0006733638816996,-0.0038841248646791,0.0631955514204214,-0.0011636294083752*17fb4f96
#CORRIMUDATAA,FILE,0,30.5,FINESTEERING,2319,304486.650,02000000,e5fc,17139;2319,304486.650000000,-0.0002322235942281,-0.0004547214425367,0.0004697010331371,-0.0036220585593582,0.0539020247035025,-0.0021833069984600*e7278a93
#CORRIMUDATAA,FILE,0,30.5,FINESTEERING,2319,304486.700,02000000,e5fc,17139;2319,304486.700000000,-0.0001722864632265,-0.0004568756466451,0.0004495854425954,0.0007235160650209,0.0612804593045054,-0.0000336117325602*0a0e7ba7
#CORRIMUDATAA,FILE,0,30.5,FINESTEERING,2319,304486.750,02000000,e5fc,17139;2319,304486.750000000,-0.0002104101783022,-0.0006264802175146,0.0003744443862381,0.0040560087352823,0.0510499272776448,-0.0015229562549532*4f5d76e0
#CORRIMUDATAA,FILE,0,30.5,FINESTEERING,2319,304486.800,02000000,e5fc,17139;2319,304486.800000000,-0.0001204363906468,-0.0008604093126544,0.0003042095696194,-0.0011478381883760,0.0469587648606364,-0.0017230603155463*df26a9a7
#CORRIMUDATAA,FILE,0,30.5,FINESTEERING,2319,304486.850,02000000,e5fc,17139;2319,304486.850000000,-0.0001840368132532,-0.0005049379207275,0.0002022200084111,-0.0021868251703905,0.0361802791188581,0.0097720498649302*7c61126f
#CORRIMUDATAA,FILE,0,30.5,FINESTEERING,2319,304486.900,02000000,e5fc,17139;2319,304486.900000000,-0.0004862124152456,-0.0004591227705877,0.0001834632300224,0.0021724368749108,0.0350828444779599,0.0065356991832074*5d456c1d
#CORRIMUDATAA,FILE,0,30.5,FINESTEERING,2319,304486.950,02000000,e5fc,17139;2319,304486.950000000,-0.0007453002474446,-0.0004642177768089,0.0002039265605219,0.0049602421516875,0.0248766803920707,0.0066447196253830*082665d4
#CORRIMUDATAA,FILE,0,30.5,FINESTEERING,2319,304487.000,02000000,e5fc,17139;2319,304487.000000000,-0.0009754160868019,-0.0004334838124547,0.0002829854992778,0.0017776523717158,0.0173150458337711,0.0048657508029865*364a4d61
#CORRIMUDATAA,FILE,0,30.5,FINESTEERING,2319,304487.050,02000000,e5fc,17139;2319,304487.050000000,-0.0009887694017081,-0.0002462494622652,0.0002714525538594,-0.0009977674139808,0.0117123626504841,0.0049727414463701*c382c6a6
#CORRIMUDATAA,FILE,0,29.0,FINESTEERING,2319,304487.100,02000000,e5fc,17139;2319,304487.100000000,-0.0009106991115414,-0.0002725229120967,0.0002608523422503,-0.0001256478575420,0.0092975025441121,-0.0036015723520619*22751519
#CORRIMUDATAA,FILE,0,29.0,FINESTEERING,2319,304487.150,02000000,e5fc,17139;2319,304487.150000000,-0.0005907434515714,-0.0002579183750206,0.0002138204006887,-0.0009982732725819,0.0074671636557240,-0.0069474921248936*ec8d3767
#CORRIMUDATAA,FILE,0,29.0,FINESTEERING,2319,304487.200,02000000,e5fc,17139;2319,304487.200000000,-0.0003737810603196,-0.0004066699205302,0.0002307357445398,-0.0001055668174616,0.0082114697951969,-0.0101147249864553*152bad61
#CORRIMUDATAA,FILE,0,29.0,FINESTEERING,2319,304487.250,02000000,e5fc,17139;2319,304487.250000000,-0.0001564579401754,-0.0007220155540505,0.0002426035309194,-0.0024526379402845,0.0082463742833720,-0.0098026831501179*95110f31
#CORRIMUDATAA,FILE,0,29.0,FINESTEERING,2319,304487.300,02000000,e5fc,17139;2319,304487.300000000,-0.0001283992213065,-0.0006733238554882,0.0002007489403162,-0.0034286029631831,0.0056487568949081,-0.0064199471933473*1e6268b9
#CORRIMUDATAA,FILE,0,29.0,FINESTEERING,2319,304487.350,02000000,e5fc,17139;2319,304487.350000000,0.0000243057597356,-0.0007740390754679,0.0002143049377972,-0.0036290757124696,0.0062785861244129,-0.0032073399286392*13667f8f
#CORRIMUDATAA,FILE,0,29.0,FINESTEERING,2319,304487.400,02000000,e5fc,17139;2319,304487.400000000,-0.0001084031283476,-0.0007394620333365,0.0001743863665148,0.0000308793922138,0.0038871317618862,0.0031709701919185*17cfa674
#CORRIMUDATAA,FILE,0,29.0,FINESTEERING,2319,304487.450,02000000,e5fc,17139;2319,304487.450000000,-0.0002590043632685,-0.0009003649016533,0.0001745877459950,-0.0010602400253760,0.0029940106592390,0.0047193859066352*4590f1f2
#CORRIMUDATAA,FILE,0,29.0,FINESTEERING,2319,304487.500,02000000,e5fc,17139;2319,304487.500000000,-0.0005291696280953,-0.0009650343907604,0.0001851562150449,-0.0020652990646321,0.0006099129461547,0.0038585058393716*67836d31
#CORRIMUDATAA,FILE,0,29.0,FINESTEERING,2319,304487.550,02000000,e5fc,17139;2319,304487.550000000,-0.0005577915783223,-0.0007506083483721,0.0002045433404448,0.0010937681555897,0.0006588223826321,0.0025693162868147*23d830c1
#CORRIMUDATAA,FILE,0,29.0,FINESTEERING,2319,304487.600,02000000,e5fc,17139;2319,304487.600000000,-0.0003892221971562,-0.0005623865506704,0.0002465607322444,0.0023921332935762,0.0000818812258664,0.0046921027918373*00036fdc
#CORRIMUDATAA,FILE,0,29.0,FINESTEERING,2319,304487.650,02000000,e5fc,17139;2319,304487.650000000,-0.0004540268125331,-0.0006126617189066,0.0002599393601028,0.0040172940526768,0.0005674091715458,0.0057281162166704*a994a857
#CORRIMUDATAA,FILE,0,29.0,FINESTEERING,2319,304487.700,02000000,e5fc,17139;2319,304487.700000000,-0.0002837674761989,-0.0008033635286490,0.0001189805246142,0.0011233191731943,0.0010511968444319,-0.0064146067444902*f266a550
#CORRIMUDATAA,FILE,0,29.0,FINESTEERING,2319,304487.750,02000000,e5fc,17139;2319,304487.750000000,-0.0003611645170528,-0.0012504166572528,-0.0001709665197395,-0.0063654267222095,-0.0006475251307203,-0.0007956598373502*7186129b
#CORRIMUDATAA,FILE,0,29.0,FINESTEERING,2319,304487.800,02000000,e5fc,17139;2319,304487.800000000,-0.0005871003538843,-0.0014126603163398,-0.0006447245596019,-0.0082919177587482,-0.0076266525204063,0.0057086862646651*4635f214
#CORRIMUDATAA,FILE,0,29.0,FINESTEERING,2319,304487.850,02000000,e5fc,17139;2319,304487.850000000,-0.0009070734254874,-0.0018693004015108,-0.0013833306467426,-0.0075272940737173,-0.0066406248631272,0.0065319480947473*a3da0617
#CORRIMUDATAA,FILE,0,29.0,FINESTEERING,2319,304487.900,02000000,e5fc,17139;2319,304487.900000000,-0.0011035608831086,-0.0015637291092798,-0.0018526826827641,-0.0028381017359959,-0.0031547432171084,-0.0004085891135960*89e29dcc
#CORRIMUDATAA,FILE,0,29.0,FINESTEERING,2319,304487.950,02000000,e5fc,17139;2319,304487.950000000,-0.0011135105515391,-0.0015004780061081,-0.0023598240517154,0.0038677973820043,-0.0001740689845302,-0.0019338569806076*4a51bdf5
#CORRIMUDATAA,FILE,0,29.0,FINESTEERING,2319,304488.000,02000000,e5fc,17139;2319,304488.000000000,-0.0011683328349237,-0.0013671425717721,-0.0026850440836425,0.0121398428137492,-0.0049512088666227,-0.0004648819019843*31953a34
#CORRIMUDATAA,FILE,0,29.0,FINESTEERING,2319,304488.050,02000000,e5fc,17139;2319,304488.050000000,-0.0008837565181106,-0.0013329363840724,-0.0026054444243182,0.0115812509967610,-0.0038887752743302,-0.0068836229735312*9029a7b2
#CORRIMUDATAA,FILE,0,29.0,FINESTEERING,2319,304488.100,02000000,e5fc,17139;2319,304488.100000000,-0.0008217925596570,-0.0014232757933764,-0.0034543413400562,0.0127702534344039,-0.0040344795140885,-0.0087212076929690*7c4a7102
#CORRIMUDATAA,FILE,0,30.0,FINESTEERING,2319,304488.150,02000000,e5fc,17139;2319,304488.150000000,-0.0004960435376407,-0.0010210100854019,-0.0034921732765797,0.0089167804469595,-0.0002632453816667,-0.0088760585434529*afd3029d
#CORRIMUDATAA,FILE,0,30.0,FINESTEERING,2319,304488.200,02000000,e5fc,17139;2319,304488.200000000,-0.0001625040869847,-0.0008844492478328,-0.0040255089486690,0.0093877378365258,-0.0012923673399782,-0.0132244033039480*b3393276
#CORRIMUDATAA,FILE,0,30.0,FINESTEERING,2319,304488.250,02000000,e5fc,17139;2319,304488.250000000,0.0000658165242945,-0.0009644450632803,-0.0041795980794003,0.0080772756744507,-0.0031150569697817,-0.0079258291843014*18a15c15
#CORRIMUDATAA,FILE,0,30.0,FINESTEERING,2319,304488.300,02000000,e5fc,17139;2319,304488.300000000,0.0001404861140233,-0.0012643427113979,-0.0059241392823392,0.0085691469577559,-0.0068602963290235,0.0046983565565399*57925b1f
#CORRIMUDATAA,FILE,0,30.0,FINESTEERING,2319,304488.350,02000000,e5fc,17139;2319,304488.350000000,0.0001245104022887,-0.0009328155872874,-0.0054875572518753,0.0110259937326374,-0.0030058825031447,0.0036059569231952*081af989
#CORRIMUDATAA,FILE,0,30.0,FINESTEERING,2319,304488.400,02000000,e5fc,17139;2319,304488.400000000,0.0000092796827843,-0.0009484412526053,-0.0067334823172815,0.0153330202728288,-0.0046011394896066,0.0069897727631885*f880550c
#CORRIMUDATAA,FILE,0,30.0,FINESTEERING,2319,304488.450,02000000,e5fc,17139;2319,304488.450000000,-0.0001868672130834,-0.0009861241498426,-0.0080804124553279,0.0212437594870616,-0.0079904555052588,0.0062118346446424*d74dc644
#CORRIMUDATAA,FILE,0,30.0,FINESTEERING,2319,304488.500,02000000,e5fc,17139;2319,304488.500000000,0.0001032971208413,-0.0010556339441988,-0.0078414501417650,0.0259898781851369,-0.0044079993623335,0.0021351967149588*f83ef66d
#CORRIMUDATAA,FILE,0,30.0,FINESTEERING,2319,304488.550,02000000,e5fc,17139;2319,304488.550000000,-0.0002985147141015,-0.0009960648656290,-0.0072978304189611,0.0202736808050353,-0.0056146339822894,0.0042410846998912*24bd3843
#CORRIMUDATAA,FILE,0,30.0,FINESTEERING,2319,304488.600,02000000,e5fc,17139;2319,304488.600000000,-0.0001535603087220,-0.0008560670668005,-0.0084790095994149,0.0213671327472625,-0.0013158195855328,-0.0005269253036196*a4d09626
#CORRIMUDATAA,FILE,0,30.0,FINESTEERING,2319,304488.650,02000000,e5fc,17139;2319,304488.650000000,-0.0002282863109919,-0.0006202708464843,-0.0097749663071963,0.0259368853885636,-0.0056033235983986,-0.0094823032659857*352c06e4
#CORRIMUDATAA,FILE,0,30.0,FINESTEERING,2319,304488.700,02000000,e5fc,17139;2319,304488.700000000,0.0000830168921718,-0.0006280607336071,-0.0092638822976810,0.0294829132225912,-0.0029700432315664,-0.0116497745583731*757373e5
#CORRIMUDATAA,FILE,0,30.0,FINESTEERING,2319,304488.750,02000000,e5fc,17139;2319,304488.750000000,0.0002573212566063,-0.0007268252109069,-0.0096249315416413,0.0296269891483226,-0.0064372889993449,-0.0094684777230920*815bb673
#CORRIMUDATAA,FILE,0,30.0,FINESTEERING,2319,304488.800,02000000,e5fc,17139;2319,304488.800000000,0.0004567120443307,-0.0005878988395706,-0.0090203535586181,0.0255185528466082,-0.0026788252658291,-0.0048320859054154*d295c934
#CORRIMUDATAA,FILE,0,30.0,FINESTEERING,2319,304488.850,02000000,e5fc,17139;2319,304488.850000000,0.0005655593246527,-0.0007607876546961,-0.0105192653586699,0.0268033466636792,-0.0055635042060863,-0.0038272310575920*46f5692c
#CORRIMUDATAA,FILE,0,30.0,FINESTEERING,2319,304488.900,02000000,e5fc,17139;2319,304488.900000000,0.0007967917088930,-0.0009194182633894,-0.0121620429544087,0.0314005140284741,-0.0054168529217599,0.0044062132030917*d6148102
#CORRIMUDATAA,FILE,0,30.0,FINESTEERING,2319,304488.950,02000000,e5fc,17139;2319,304488.950000000,0.0006481996104234,-0.0010464064011182,-0.0116214113571251,0.0318719112868285,-0.0077233063395574,0.0035345588746768*310a7792
#CORRIMUDATAA,FILE,0,30.0,FINESTEERING,2319,304489.000,02000000,e5fc,17139;2319,304489.000000000,0.0005304769057119,-0.0010450383285779,-0.0120702295995950,0.0317106938917539,-0.0059639858222480,0.0067305384675563*52d01b8e
#CORRIMUDATAA,FILE,0,30.0,FINESTEERING,2319,304489.050,02000000,e5fc,17139;2319,304489.050000000,0.0003560663807635,-0.0007662046117872,-0.0125444178483285,0.0334929755376413,-0.0075844049896598,0.0084163793165101*9340b6d3
#CORRIMUDATAA,FILE,0,28.0,FINESTEERING,2319,304489.100,02000000,e5fc,17139;2319,304489.100000000,0.0003815831354335,-0.0005417424216800,-0.0116265624781401,0.0340095881241895,-0.0067502496698508,0.0030048905699506*eaf8a81e
#CORRIMUDATAA,FILE,0,28.0,FINESTEERING,2319,304489.150,02000000,e5fc,17139;2319,304489.150000000,0.0004600744395224,-0.0000880636242599,-0.0131501287880114,0.0407996193873899,-0.0094565688295045,0.0082661205615422*9dbd8b76
#CORRIMUDATAA,FILE,0,28.0,FINESTEERING,2319,304489.200,02000000,e5fc,17139;2319,304489.200000000,0.0003714946941959,-0.0000737413794805,-0.0132050039879854,0.0462057320799079,-0.0091864515923745,0.0047944990632389*4464d097
#CORRIMUDATAA,FILE,0,28.0,FINESTEERING,2319,304489.250,02000800,e5fc,17139;2319,304489.250000000,0.0003996417647778,-0.0002423345769393,-0.0143990882640831,0.0473468118700963,-0.0063230498201003,-0.0030376144341490*702bbf8f
#CORRIMUDATAA,FILE,0,28.0,FINESTEERING,2319,304489.300,02000800,e5fc,17139;2319,304489.300000000,0.0003407016908391,-0.0001227541789567,-0.0116830731283924,0.0342946462517800,-0.0060865783706262,0.0007489941064455*d3226ca3
#CORRIMUDATAA,FILE,0,28.0,FINESTEERING,2319,304489.350,02000800,e5fc,17139;2319,304489.350000000,0.0004160021864013,-0.0003394770614843,-0.0142909430613014,0.0428335831248726,-0.0072224877027018,-0.0038651483811287*5222f04a
#CORRIMUDATAA,FILE,0,28.0,FINESTEERING,2319,304489.400,02000800,e5fc,17139;2319,304489.400000000,0.0001049921896806,-0.0012379523190007,-0.0131177147491781,0.0349263389445207,-0.0105479246040042,0.0055236436458071*7333f4e9
#CORRIMUDATAA,FILE,0,28.0,FINESTEERING,2319,304489.450,02000800,e5fc,17139;2319,304489.450000000,0.0002187265568393,-0.0017666724586245,-0.0117834083509500,0.0339383317370817,-0.0013856538853006,-0.0137811390592260*c1986258
#CORRIMUDATAA,FILE,0,28.0,FINESTEERING,2319,304489.500,02000800,e5fc,17139;2319,304489.500000000,0.0001946653673088,-0.0019631206231350,-0.0144780321732125,0.0313903179354214,-0.0057658194919800,-0.0033406652084812*6fa312de
#CORRIMUDATAA,FILE,0,28.0,FINESTEERING,2319,304489.550,02000800,e5fc,17139;2319,304489.550000000,0.0003244250302043,-0.0020049317106444,-0.0131996915314196,0.0336053411179221,-0.0081620419551517,-0.0052333679796653*78c69d9a
#CORRIMUDATAA,FILE,0,28.0,FINESTEERING,2319,304489.600,02000800,e5fc,17139;2319,304489.600000000,0.0008416054150339,-0.0022522519505413,-0.0134704084178524,0.0340058865866046,-0.0079046747508154,-0.0041335127655434*161a1a0a
#CORRIMUDATAA,FILE,0,28.0,FINESTEERING,2319,304489.650,02000800,e5fc,17139;2319,304489.650000000,0.0011707710115086,-0.0020762311374787,-0.0136551127655451,0.0395204944366725,-0.0105697720977849,-0.0004307030863504*3a6099e0
#CORRIMUDATAA,FILE,0,28.0,FINESTEERING,2319,304489.700,02000800,e5fc,17139;2319,304489.700000000,0.0015811756606115,-0.0022027012109167,-0.0139122316103186,0.0428077957464410,-0.0108645917767380,0.0087142376184934*470efc7e
#CORRIMUDATAA,FILE,0,28.0,FINESTEERING,2319,304489.750,02000800,e5fc,17139;2319,304489.750000000,0.0013692007488490,-0.0015898935096929,-0.0140626226324689,0.0422945891749291,-0.0110034228106065,0.0170238767119312*ac447ce7
#CORRIMUDATAA,FILE,0,28.0,FINESTEERING,2319,304489.800,02000800,e5fc,17139;2319,304489.800000000,0.0009623264918646,-0.0011681656260525,-0.0127751130350488,0.0395912612811508,-0.0093286137163971,0.0172975005900685*b2a8bb72
#CORRIMUDATAA,FILE,0,28.0,FINESTEERING,2319,304489.850,02000800,e5fc,17139;2319,304489.850000000,0.0007192849334845,-0.0005435792903140,-0.0155302994594858,0.0493565357244020,-0.0056200540357441,0.0039577196613467*1bfecdab
#CORRIMUDATAA,FILE,0,28.0,FINESTEERING,2319,304489.900,02000800,e5fc,17139;2319,304489.900000000,0.0002306805752671,0.0000279440784693,-0.0140467959286399,0.0489106208867059,-0.0061033542661980,0.0026655872294071*823e4d04
#CORRIMUDATAA,FILE,0,28.0,FINESTEERING,2319,304489.950,02000800,e5fc,17139;2319,304489.950000000,-0.0004656161769792,0.0002929567433002,-0.0140556150458494,0.0434550804675149,-0.0081617875345176,0.0068656682670284*1f53d222
#CORRIMUDATAA,FILE,0,28.0,FINESTEERING,2319,304490.000,02000800,e5fc,17139;2319,304490.000000000,-0.0004294567558405,0.0002685621657203,-0.0143136683863796,0.0400008343273597,0.0020485803814434,-0.0185128196637599*49e7c0a7
#CORRIMUDATAA,FILE,0,28.0,FINESTEERING,2319,304490.050,02000800,e5fc,17139;2319,304490.050000000,-0.0005169360065332,0.0007761640129702,-0.0129907724705737,0.0358082830806567,-0.0011447258050762,-0.0137051670083270*9785c25b
#CORRIMUDATAA,FILE,0,28.0,FINESTEERING,2319,304490.100,02000800,e5fc,17139;2319,304490.100000000,0.0008138614992159,0.0003115086033032,-0.0146477646320534,0.0436096114537260,0.0154974360783336,-0.0398517429206511*76edc5fe
#CORRIMUDATAA,FILE,0,29.5,FINESTEERING,2319,304490.150,02000800,e5fc,17139;2319,304490.150000000,0.0022959581878582,0.0003346364968697,-0.0163510781851439,0.0331478631381775,0.0157561265533363,-0.0196490695720174*ca2aeb04
#CORRIMUDATAA,FILE,0,29.5,FINESTEERING,2319,304490.200,02000800,e5fc,17139;2319,304490.200000000,0.0029366907788185,0.0003900173658135,-0.0137994940999814,0.0327583008387620,0.0267982440765647,-0.0071850811134380*fab40f3c
#CORRIMUDATAA,FILE,0,29.5,FINESTEERING,2319,304490.250,02000800,e5fc,17139;2319,304490.250000000,0.0026109924281266,0.0000546207584994,-0.0157066143350105,0.0498408195209266,0.0281623155923210,0.0072514266871960*21416252
#CORRIMUDATAA,FILE,0,29.5,FINESTEERING,2319,304490.300,02000800,e5fc,17139;2319,304490.300000000,0.0023850611876742,-0.0008521660463256,-0.0175909641155104,0.0478099534700901,0.0492023834634875,0.0251395606455822*74f43255
#CORRIMUDATAA,FILE,0,29.5,FINESTEERING,2319,304490.350,02000800,e5fc,17139;2319,304490.350000000,-0.0000148235139540,-0.0000756216806839,-0.0163220349827859,0.0439922156124086,0.0403006478870190,0.0446962310525328*1d6fcc3f
#CORRIMUDATAA,FILE,0,29.5,FINESTEERING,2319,304490.400,02000000,e5fc,17139;2319,304490.400000000,-0.0012549094766131,-0.0006279124648624,-0.0164507061247138,0.0524300167363273,0.0480366590896523,0.0385877652856374*54e93e60
#CORRIMUDATAA,FILE,0,29.5,FINESTEERING,2319,304490.450,02000000,e5fc,17139;2319,304490.450000000,-0.0023271833213506,-0.0010538088232670,-0.0147566086704687,0.0460776524587942,0.0407227195134121,0.0437850170191010*bf790652
#CORRIMUDATAA,FILE,0,29.5,FINESTEERING,2319,304490.500,02000000,e5fc,17139;2319,304490.500000000,-0.0026237808627544,-0.0018721262947534,-0.0163967171456050,0.0529092155206684,0.0661473430678797,0.0077801798356624*7c1d1b0c
#CORRIMUDATAA,FILE,0,29.5,FINESTEERING,2319,304490.550,02000000,e5fc,17139;2319,304490.550000000,-0.0028907057895817,-0.0022168664038987,-0.0164389915754169,0.0527686362387537,0.0710868882746515,-0.0090427668101303*60f7c094
#CORRIMUDATAA,FILE,0,29.5,FINESTEERING,2319,304490.600,02000000,e5fc,17139;2319,304490.600000000,-0.0023613242093515,-0.0024131906510076,-0.0168787114429657,0.0460573679076611,0.0778435552813138,-0.0228143266415339*3bf4fcb5
#CORRIMUDATAA,FILE,0,29.5,FINESTEERING,2319,304490.650,02000000,e5fc,17139;2319,304490.650000000,-0.0011108011844154,-0.0027515039880255,-0.0174650624208041,0.0485623587910235,0.0896941184918285,-0.0424966946730657*49056c28
#CORRIMUDATAA,FILE,0,29.5,FINESTEERING,2319,304490.700,02000000,e5fc,17139;2319,304490.700000000,-0.0001530004729933,-0.0025059088353022,-0.0197567554557887,0.0708144220637684,0.1019761309823567,-0.0729844450213002*2efad957
#CORRIMUDATAA,FILE,0,29.5,FINESTEERING,2319,304490.750,02000000,e5fc,17139;2319,304490.750000000,0.0004699807177998,-0.0014424353817551,-0.0182692139013850,0.0746886281614579,0.0850861460584787,-0.0265250075745933*22a7271e
#CORRIMUDATAA,FILE,0,29.5,FINESTEERING,2319,304490.800,02000000,e5fc,17139;2319,304490.800000000,0.0004894661835685,0.0000819699758740,-0.0186179463406201,0.0717268473390984,0.0691312344650757,0.0336785698147028*f162bfbd
#CORRIMUDATAA,FILE,0,29.5,FINESTEERING,2319,304490.850,02000000,e5fc,17139;2319,304490.850000000,-0.0000402713669329,0.0011098464018708,-0.0170807806464400,0.0658809572673342,0.0689724672412636,0.0543024675560324*9a520ed3
#CORRIMUDATAA,FILE,0,29.5,FINESTEERING,2319,304490.900,02000000,e5fc,17139;2319,304490.900000000,-0.0015648713421838,0.0015478742229737,-0.0193182977794426,0.0977778291232676,0.0818238215232981,0.0132345120520482*167c11f0
#CORRIMUDATAA,FILE,0,29.5,FINESTEERING,2319,304490.950,02000000,e5fc,17139;2319,304490.950000000,-0.0019860810504229,0.0011029826533170,-0.0215962237716004,0.0988167445690224,0.0919137037177562,0.0005226124020031*12ef9adb
#CORRIMUDATAA,FILE,0,29.5,FINESTEERING,2319,304491.000,02000000,e5fc,17139;2319,304491.000000000,-0.0028446240518181,0.0014856957800937,-0.0200401654191061,0.0780719762149968,0.0749556068572514,0.0125763607655809*d3b3b292
#CORRIMUDATAA,FILE,0,29.5,FINESTEERING,2319,304491.050,02000000,e5fc,17139;2319,304491.050000000,-0.0013154068589768,0.0004766662052585,-0.0187482497591557,0.0528026998399910,0.0699744785260419,-0.0461576290740828*1ce72012
#CORRIMUDATAA,FILE,0,28.0,FINESTEERING,2319,304491.100,02000000,e5fc,17139;2319,304491.100000000,-0.0023962332565531,0.0012021327601709,-0.0238725579425402,0.0646173593703290,0.0781336725606872,-0.0242026713555447*9662c346
#CORRIMUDATAA,FILE,0,28.0,FINESTEERING,2319,304491.150,02000000,e5fc,17139;2319,304491.150000000,-0.0013312853550942,-0.0007781669518586,-0.0223315349910731,0.0777653659118545,0.0606318400286659,-0.0171488627684076*d572d822
#CORRIMUDATAA,FILE,0,28.0,FINESTEERING,2319,304491.200,02000000,e5fc,17139;2319,304491.200000000,-0.0017708628449994,-0.0014188085578347,-0.0224682940452613,0.0918413831273015,0.0549571656417094,-0.0081827451413950*3e67cc65
#CORRIMUDATAA,FILE,0,28.0,FINESTEERING,2319,304491.250,02000000,e5fc,17139;2319,304491.250000000,-0.0011516121396880,-0.0028499757210182,-0.0224936407294909,0.0948469989661602,0.0561939757507653,-0.0080442227426641*6b909d8e
#CORRIMUDATAA,FILE,0,28.0,FINESTEERING,2319,304491.300,02000000,e5fc,17139;2319,304491.300000000,-0.0015637911903101,-0.0033288769019950,-0.0226618311245310,0.0890099435140869,0.0507074785650822,0.0086714485840151*f511ed37
#CORRIMUDATAA,FILE,0,28.0,FINESTEERING,2319,304491.350,02000000,e5fc,17139;2319,304491.350000000,-0.0016255622810771,-0.0031546190466346,-0.0229670221971505,0.0905934763569828,0.0506394806858102,0.0133341898345801*6ff6ab06
#CORRIMUDATAA,FILE,0,28.0,FINESTEERING,2319,304491.400,02000000,e5fc,17139;2319,304491.400000000,-0.0019301975791511,-0.0027582800376780,-0.0232260427002480,0.1008173393115548,0.0465486288036629,0.0186996160957864*f2152e48
#CORRIMUDATAA,FILE,0,28.0,FINESTEERING,2319,304491.450,02000000,e5fc,17139;2319,304491.450000000,-0.0020766892929492,-0.0021731147864053,-0.0234403294301622,0.1112870817703128,0.0493378428119884,0.0075734898916534*b7fe0599
#CORRIMUDATAA,FILE,0,28.0,FINESTEERING,2319,304491.500,02000000,e5fc,17139;2319,304491.500000000,-0.0022725676962723,-0.0018947600755199,-0.0235350523047067,0.1165009063411691,0.0497416822251042,-0.0081524470141823*59f06cec
#CORRIMUDATAA,FILE,0,28.0,FINESTEERING,2319,304491.550,02000000,e5fc,17139;2319,304491.550000000,-0.0020530456524231,-0.0013715897532327,-0.0236283723358197,0.1113033274536540,0.0522910851138528,-0.0217360815218655*9cdd7919
#CORRIMUDATAA,FILE,0,28.0,FINESTEERING,2319,304491.600,02000000,e5fc,17139;2319,304491.600000000,-0.0015605565814145,-0.0004356307203235,-0.0238549838484408,0.1086667692053658,0.0518847441215163,-0.0267317017334489*c7acd0c4
#CORRIMUDATAA,FILE,0,28.0,FINESTEERING,2319,304491.650,02000000,e5fc,17139;2319,304491.650000000,-0.0008305340351501,0.0000243894944741,-0.0217500236630541,0.0999128445018322,0.0471749910728143,-0.0251341374369373*15298c90
#CORRIMUDATAA,FILE,0,28.0,FINESTEERING,2319,304491.700,02000000,e5fc,17139;2319,304491.700000000,-0.0004127871101460,0.0001052770288844,-0.0268205788708385,0.1299104424384007,0.0556510111582013,-0.0271258361817586*34a63787
#CORRIMUDATAA,FILE,0,28.0,FINESTEERING,2319,304491.750,02000000,e5fc,17139;2319,304491.750000000,0.0001819074806400,0.0007142219230618,-0.0242711518820338,0.1225385308758520,0.0494311124182175,-0.0154780955269595*80321fd6
#CORRIMUDATAA,FILE,0,28.0,FINESTEERING,2319,304491.800,02000000,e5fc,17139;2319,304491.800000000,0.0002296273083835,0.0011313010851988,-0.0215643843657053,0.1120603928872798,0.0348352688361935,0.0034946620535407*1c561cde
#CORRIMUDATAA,FILE,0,28.0,FINESTEERING,2319,304491.850,02000000,e5fc,17139;2319,304491.850000000,0.0001088895944932,0.0017205375410080,-0.0257489501736992,0.1379385481340056,0.0405049080789885,0.0102801823261335*a6da18f3
#CORRIMUDATAA,FILE,0,28.0,FINESTEERING,2319,304491.900,02000000,e5fc,17139;2319,304491.900000000,-0.0000499160446063,0.0017437813736890,-0.0203399207433382,0.1120769691753561,0.0342464864432520,0.0160469727799447*fa9d01ef
#CORRIMUDATAA,FILE,0,28.0,FINESTEERING,2319,304491.950,02000000,e5fc,17139;2319,304491.950000000,-0.0003072491045371,0.0021109736114308,-0.0216620395773420,0.1185498245980390,0.0410030931435861,0.0026265426086246*07122f84
#CORRIMUDATAA,FILE,0,28.0,FINESTEERING,2319,304492.000,02000000,e5fc,17139;2319,304492.000000000,-0.0001511825797403,0.0026047796210348,-0.0225913495617745,0.1235738687307849,0.0404102215471174,-0.0046203532790243*8d5f1fe6
#CORRIMUDATAA,FILE,0,28.0,FINESTEERING,2319,304492.050,02000000,e5fc,17139;2319,304492.050000000,0.0000821559041219,0.0025451706752562,-0.0192054118796676,0.1068428021730617,0.0386390640219387,-0.0017966052272999*7a6ad1f5
#CORRIMUDATAA,FILE,0,28.0,FINESTEERING,2319,304492.100,02000000,e5fc,17139;2319,304492.100000000,0.0002257702325810,0.0026049895796105,-0.0160929776403765,0.0979383246532849,0.0328772516405756,-0.0021669994159833*c585e0eb
#CORRIMUDATAA,FILE,0,28.0,FINESTEERING,2319,304492.150,02000000,e5fc,17139;2319,304492.150000000,0.0003942841089151,0.0027028915967704,-0.0180228343806374,0.1115354819671436,0.0378504730603683,-0.0108500621119806*be5bc346
#CORRIMUDATAA,FILE,0,30.5,FINESTEERING,2319,304492.200,02000000,e5fc,17139;2319,304492.200000000,0.0003668596778517,0.0016955220640714,-0.0149712439193455,0.0871859704645555,0.0290479792983630,0.0011819267010258*1907519e
#CORRIMUDATAA,FILE,0,30.5,FINESTEERING,2319,304492.250,02000000,e5fc,17139;2319,304492.250000000,0.0001801899349362,0.0009619050413426,-0.0124465621062366,0.0698322473647760,0.0269209763109227,0.0001988844442077*74a67133
#CORRIMUDATAA,FILE,0,30.5,FINESTEERING,2319,304492.300,02000000,e5fc,17139;2319,304492.300000000,0.0000748061826136,0.0008446805576078,-0.0129158278181155,0.0686442962665508,0.0286015674333957,0.0097726259697396*4c7cb1a2
#CORRIMUDATAA,FILE,0,30.5,FINESTEERING,2319,304492.350,02000000,e5fc,17139;2319,304492.350000000,-0.0000945199442345,0.0010500905076572,-0.0122537274023011,0.0620776903009348,0.0266229267999239,0.0089166178794165*4cd64fb0
#CORRIMUDATAA,FILE,0,30.5,FINESTEERING,2319,304492.400,02000000,e5fc,17139;2319,304492.400000000,-0.0002291459228382,0.0007948965976925,-0.0119405937450774,0.0627615473096499,0.0273480325463311,0.0064611282324645*bce17803
#CORRIMUDATAA,FILE,0,30.5,FINESTEERING,2319,304492.450,02000000,e5fc,17139;2319,304492.450000000,-0.0003411754859283,0.0000900569046077,-0.0129304939772967,0.0652231588387183,0.0278716059458817,0.0077106463890241*f068eed6
#CORRIMUDATAA,FILE,0,30.5,FINESTEERING,2319,304492.500,02000000,e5fc,17139;2319,304492.500000000,-0.0003310555736601,-0.0000656474505599,-0.0105405804866851,0.0492406824670053,0.0229231650216431,0.0068132820174182*a0ce738a
#CORRIMUDATAA,FILE,0,30.5,FINESTEERING,2319,304492.550,02000000,e5fc,17139;2319,304492.550000000,-0.0004148070154696,-0.0002840539599383,-0.0115344650570773,0.0634677998615083,0.0251653623516152,-0.0012945536353017*0735c049
#CORRIMUDATAA,FILE,0,30.5,FINESTEERING,2319,304492.600,02000000,e5fc,17139;2319,304492.600000000,-0.0002130222166790,-0.0002983447646335,-0.0112486675397664,0.0629400723582918,0.0262319145966721,-0.0074537509590132*5a1695a8
#CORRIMUDATAA,FILE,0,30.5,FINESTEERING,2319,304492.650,02000000,e5fc,17139;2319,304492.650000000,0.0000704858801693,-0.0001235868677340,-0.0119782695685701,0.0677374044844613,0.0272832981318868,-0.0165394172570769*9d4f47cf
#CORRIMUDATAA,FILE,0,30.5,FINESTEERING,2319,304492.700,02000000,e5fc,17139;2319,304492.700000000,0.0003789246758171,0.0003801171845663,-0.0104179796195478,0.0611271760361888,0.0251022380965340,-0.0083364368545443*a1c923d5
#CORRIMUDATAA,FILE,0,30.5,FINESTEERING,2319,304492.750,02000000,e5fc,17139;2319,304492.750000000,0.0005704974907375,0.0009218363692591,-0.0099016456676617,0.0622992894913176,0.0223343392617062,0.0052987613377599*79e49bd2
#CORRIMUDATAA,FILE,0,30.5,FINESTEERING,2319,304492.800,02000000,e5fc,17139;2319,304492.800000000,0.0005498717578553,0.0014906836575650,-0.0092157623515296,0.0671342797159357,0.0233628537141840,0.0024262308941639*55830f08
#CORRIMUDATAA,FILE,0,30.5,FINESTEERING,2319,304492.850,02000000,e5fc,17139;2319,304492.850000000,0.0006136596008528,0.0016006746729454,-0.0077078778751946,0.0576068759775946,0.0218862816856542,0.0003456010420639*0251e3bc
#CORRIMUDATAA,FILE,0,30.5,FINESTEERING,2319,304492.900,02000000,e5fc,17139;2319,304492.900000000,0.0007595968524472,0.0020061944376698,-0.0087320193262156,0.0573806903007587,0.0269824722413927,0.0059650525836521*c9ac3f7e
#CORRIMUDATAA,FILE,0,30.5,FINESTEERING,2319,304492.950,02000000,e5fc,17139;2319,304492.950000000,0.0005802252077807,0.0017093535662474,-0.0074592471801660,0.0419531934011401,0.0270224425080708,0.0011606197576193*8466464f
#CORRIMUDATAA,FILE,0,30.5,FINESTEERING,2319,304493.000,02000000,e5fc,17139;2319,304493.000000000,0.0006767792258093,0.0017618787401449,-0.0068834065477606,0.0407492495991592,0.0266057656710863,0.0056104021990328*e31177a1
#CORRIMUDATAA,FILE,0,30.5,FINESTEERING,2319,304493.050,02000000,e5fc,17139;2319,304493.050000000,0.0006828306777436,0.0011452134699838,-0.0056790170615391,0.0376456399478151,0.0238795566288100,-0.0008474021400943*0e68c7f6
#CORRIMUDATAA,FILE,0,30.5,FINESTEERING,2319,304493.100,02000000,e5fc,17139;2319,304493.100000000,0.0007034022974583,0.0005388240323012,-0.0057079246818655,0.0339030976421902,0.0242250157877192,0.0040728731622193*4a7b03fc
#CORRIMUDATAA,FILE,0,31.0,FINESTEERING,2319,304493.150,02000000,e5fc,17139;2319,304493.150000000,0.0006043882829972,-0.0003137736790132,-0.0057807634179473,0.0279971026341660,0.0268756538841970,0.0078181100415903*f7ea71e4
#CORRIMUDATAA,FILE,0,31.0,FINESTEERING,2319,304493.200,02000000,e5fc,17139;2319,304493.200000000,0.0003100521070294,-0.0002480733636056,-0.0049075932961979,0.0232646889443770,0.0170036534818837,0.0077636476091342*e3012c01
#CORRIMUDATAA,FILE,0,31.0,FINESTEERING,2319,304493.250,02000000,e5fc,17139;2319,304493.250000000,0.0001144026432276,-0.0001209379647829,-0.0045714326447387,0.0263587843720081,0.0132113817946016,0.0108439313103596*d5e23ed3
#CORRIMUDATAA,FILE,0,31.0,FINESTEERING,2319,304493.300,02000000,e5fc,17139;2319,304493.300000000,-0.0002822515055932,0.0000376035487868,-0.0042388186648068,0.0320147546311415,0.0069593232588300,0.0042598685299340*ceec29ad
#CORRIMUDATAA,FILE,0,31.0,FINESTEERING,2319,304493.350,02000000,e5fc,17139;2319,304493.350000000,-0.0004818003016287,0.0001813972754400,-0.0033743751107989,0.0291690757377985,0.0019249417412889,0.0076550271826084*5b4bed2b
#CORRIMUDATAA,FILE,0,31.0,FINESTEERING,2319,304493.400,02000000,e5fc,17139;2319,304493.400000000,-0.0008313972944119,0.0005443835885351,-0.0037422268991973,0.0266297813567485,-0.0009142966520691,0.0066086396411317*0b1d8391
#CORRIMUDATAA,FILE,0,31.0,FINESTEERING,2319,304493.450,02000000,e5fc,17139;2319,304493.450000000,-0.0005621726413341,0.0007881495296420,-0.0029710872192370,0.0247584623626309,0.0067242871887746,-0.0029446863859747*337d64c3
#CORRIMUDATAA,FILE,0,31.0,FINESTEERING,2319,304493.500,02000000,e5fc,17139;2319,304493.500000000,-0.0003780031337966,0.0006385412283599,-0.0024021049549878,0.0186210410119878,0.0131706130690595,-0.0062116357088584*7bcfb9cc
#CORRIMUDATAA,FILE,0,31.0,FINESTEERING,2319,304493.550,02000000,e5fc,17139;2319,304493.550000000,-0.0002408053668031,0.0002720849980805,-0.0025793534910325,0.0140277620964357,0.0154401543631260,-0.0110422977206635*c17b5aa7
#CORRIMUDATAA,FILE,0,31.0,FINESTEERING,2319,304493.600,02000000,e5fc,17139;2319,304493.600000000,-0.0000245326085379,-0.0001573045711734,-0.0019791837298799,0.0086927838221947,0.0149822248092314,-0.0062637211577761*6a8c100b
#CORRIMUDATAA,FILE,0,31.0,FINESTEERING,2319,304493.650,02000000,e5fc,17139;2319,304493.650000000,-0.0000249181872595,-0.0004588050017693,-0.0020002519913178,0.0106726512500701,0.0156131221083449,0.0019331858456664*efd72c65
#CORRIMUDATAA,FILE,0,31.0,FINESTEERING,2319,304493.700,02000000,e5fc,17139;2319,304493.700000000,-0.0001467892492724,-0.0009004540334680,-0.0019250931720412,0.0102930063213713,0.0189255469170264,-0.0033006726462218*7081c2f7
#CORRIMUDATAA,FILE,0,31.0,FINESTEERING,2319,304493.750,02000000,e5fc,17139;2319,304493.750000000,-0.0001169827920882,-0.0011369068309016,-0.0019101232130048,0.0067967642920276,0.0179624272323783,-0.0023993759159529*c7626f13
