#INSPVAXA,FILE,0,35.0,FINESTEERING,2319,304478.650,02000800,46eb,17139;INS_SOLUTION_GOOD,INS_RTKFIXED,17.59638118782,78.12163297205,525.3817,-76.2000,-0.5243,0.0480,-0.0046,2.925341485,-1.057704530,356.460288154,0.0603,0.0605,0.0549,0.0186,0.0186,0.0131,0.0228,0.0229,0.5716,ab001041,0*e79a2404
#INSPVAXA,FILE,0,35.0,FINESTEERING,2319,304478.750,02000800,46eb,17139;INS_SOLUTION_GOOD,INS_RTKFIXED,17.59638070288,78.12163298876,525.3820,-76.2000,-0.5252,0.0485,-0.0012,2.921272308,-1.048254968,356.292096442,0.0603,0.0605,0.0549,0.0186,0.0186,0.0131,0.0228,0.0229,0.5716,ab001041,0*a5aace2a
#INSPVAXA,FILE,0,35.0,FINESTEERING,2319,304478.800,02000800,46eb,17139;INS_SOLUTION_GOOD,INS_RTKFIXED,17.59638046017,78.12163299652,525.3822,-76.2000,-0.5254,0.0462,-0.0002,2.925541677,-1.043178774,356.222334522,0.0603,0.0605,0.0549,0.0186,0.0186,0.0131,0.0228,0.0229,0.5716,ab001041,0*ffd70490
#INSPVAXA,FILE,0,35.0,FINESTEERING,2319,304478.950,02000800,46eb,17139;INS_SOLUTION_GOOD,INS_RTKFIXED,17.59637973342,78.12163301513,525.3827,-76.2000,-0.5231,0.0442,-0.0023,2.931475458,-1.030410670,356.081747852,0.0603,0.0605,0.0549,0.0186,0.0186,0.0131,0.0228,0.0229,0.5716,ab001041,0*c8b9affe
#INSPVAXA,FILE,0,35.0,FINESTEERING,2319,304479.000,02000800,46eb,17139;INS_SOLUTION_GOOD,INS_RTKFIXED,17.59637949192,78.12163302128,525.3829,-76.2000,-0.5215,0.0462,0.0005,2.929684383,-1.024842398,356.043906746,0.0603,0.0605,0.0549,0.0186,0.0186,0.0131,0.0228,0.0229,0.5716,ab001041,0*aef8f0ed
#INSPVAXA,FILE,0,35.0,FINESTEERING,2319,304479.050,02000800,46eb,17139;INS_SOLUTION_GOOD,INS_RTKFIXED,17.59637925081,78.12163302744,525.3832,-76.2000,-0.5161,0.0471,0.0009,2.933835291,-1.019903103,356.007994011,0.0601,0.0601,0.0548,0.0184,0.0184,0.0130,0.0228,0.0228,0.5726,ab001241,0*af02ad0e
#INSPVAXA,FILE,0,33.0,FINESTEERING,2319,304479.150,02000800,46eb,17139;INS_SOLUTION_GOOD,INS_RTKFIXED,17.59637877380,78.12163303046,525.3837,-76.2000,-0.4940,0.0445,-0.0046,2.941839433,-0.989993124,355.951677541,0.0601,0.0601,0.0548,0.0184,0.0184,0.0130,0.0228,0.0228,0.5726,ab001241,0*e74a5586
#INSPVAXA,FILE,0,33.0,FINESTEERING,2319,304479.350,02000800,46eb,17139;INS_SOLUTION_GOOD,INS_RTKFIXED,17.59637791192,78.12163303152,525.3843,-76.2000,-0.4031,0.0391,-0.0087,2.970592199,-0.906133709,355.918561212,0.0601,0.0601,0.0548,0.0184,0.0184,0.0130,0.0228,0.0228,0.5726,ab001241,0*f8fcc980
#INSPVAXA,FILE,0,33.0,FINESTEERING,2319,304479.400,02000800,46eb,17139;INS_SOLUTION_GOOD,INS_RTKFIXED,17.59637772954,78.12163303140,525.3842,-76.2000,-0.3650,0.0381,-0.0106,2.971584002,-0.869929266,355.915561374,0.0601,0.0601,0.0548,0.0184,0.0184,0.0130,0.0228,0.0228,0.5726,ab001241,0*2deb9eca
#INSPVAXA,FILE,0,33.0,FINESTEERING,2319,304479.450,02000800,46eb,17139;INS_SOLUTION_GOOD,INS_RTKFIXED,17.59637756582,78.12163303253,525.3840,-76.2000,-0.3243,0.0373,-0.0109,2.978688155,-0.831700707,355.911433074,0.0601,0.0601,0.0548,0.0184,0.0184,0.0130,0.0228,0.0228,0.5726,ab001241,0*ecc30794
#INSPVAXA,FILE,0,33.0,FINESTEERING,2319,304479.550,02000800,46eb,17139;INS_SOLUTION_GOOD,INS_RTKFIXED,17.59637729508,78.12163302778,525.3838,-76.2000,-0.2336,0.0315,-0.0106,2.990110761,-0.768550509,355.905536464,0.0601,0.0601,0.0548,0.0184,0.0184,0.0130,0.0228,0.0228,0.5726,ab001241,0*51667dba
#INSPVAXA,FILE,0,33.0,FINESTEERING,2319,304479.600,02000800,46eb,17139;INS_SOLUTION_GOOD,INS_RTKFIXED,17.59637719206,78.12163302408,525.3836,-76.2000,-0.1846,0.0275,-0.0095,2.991346972,-0.743828734,355.907442985,0.0601,0.0601,0.0548,0.0184,0.0184,0.0130,0.0228,0.0228,0.5726,ab001241,0*a4ddfb94
#INSPVAXA,FILE,0,33.0,FINESTEERING,2319,304479.650,02000800,46eb,17139;INS_SOLUTION_GOOD,INS_RTKFIXED,17.59637711162,78.12163301846,525.3836,-76.2000,-0.1336,0.0229,-0.0073,2.992358498,-0.726502024,355.911950649,0.0601,0.0601,0.0548,0.0184,0.0184,0.0130,0.0228,0.0228,0.5726,ab001241,0*4e4cc44f
#INSPVAXA,FILE,0,33.0,FINESTEERING,2319,304479.850,02000800,46eb,17139;INS_SOLUTION_GOOD,INS_RTKFIXED,17.59637701948,78.12163298936,525.3835,-76.2000,0.0521,0.0152,-0.0037,2.983264856,-0.750601580,355.905859473,0.0601,0.0601,0.0548,0.0184,0.0184,0.0130,0.0228,0.0228,0.5726,ab001241,0*eb5447f3
#INSPVAXA,FILE,0,33.0,FINESTEERING,2319,304480.100,02000800,46eb,17139;INS_SOLUTION_GOOD,INS_RTKFIXED,17.59637701682,78.12163295072,525.3847,-76.2000,0.0048,0.0174,-0.0116,2.985550262,-1.009538961,355.892516496,0.0601,0.0602,0.0549,0.0185,0.0185,0.0131,0.0229,0.0229,0.5736,ab001041,0*acebf57b
#INSPVAXA,FILE,0,33.0,FINESTEERING,2319,304480.200,02000800,46eb,17139;INS_SOLUTION_GOOD,INS_RTKFIXED,17.59637701629,78.12163294212,525.3842,-76.2000,0.0102,0.0200,-0.0076,2.990857944,-0.999573826,355.890391887,0.0601,0.0602,0.0549,0.0185,0.0185,0.0131,0.0229,0.0229,0.5736,ab001041,0*ebca964b
#INSPVAXA,FILE,0,33.0,FINESTEERING,2319,304480.250,02000800,46eb,17139;INS_SOLUTION_GOOD,INS_RTKFIXED,17.59637701300,78.12163293740,525.3844,-76.2000,-0.0011,0.0167,-0.0011,2.993477005,-1.000584591,355.887692568,0.0601,0.0602,0.0549,0.0185,0.0185,0.0131,0.0229,0.0229,0.5736,ab001041,0*b1bcb2d0
#INSPVAXA,FILE,0,33.0,FINESTEERING,2319,304480.350,02000800,46eb,17139;INS_SOLUTION_GOOD,INS_RTKFIXED,17.59637700045,78.12163292634,525.3848,-76.2000,-0.0008,0.0136,-0.0051,2.987854017,-0.994735215,355.890126932,0.0601,0.0602,0.0549,0.0185,0.0185,0.0131,0.0229,0.0229,0.5736,ab001041,0*2e2a5976
#INSPVAXA,FILE,0,33.0,FINESTEERING,2319,304480.400,02000800,46eb,17139;INS_SOLUTION_GOOD,INS_RTKFIXED,17.59637699666,78.12163291990,525.3847,-76.2000,0.0059,0.0141,-0.0116,2.980021793,-0.985858523,355.893806888,0.0601,0.0602,0.0549,0.0185,0.0185,0.0131,0.0229,0.0229,0.5736,ab001041,0*15fe8034
#INSPVAXA,FILE,0,33.0,FINESTEERING,2319,304480.450,02000800,46eb,17139;INS_SOLUTION_GOOD,INS_RTKFIXED,17.59637699362,78.12163291309,525.3844,-76.2000,0.0057,0.0158,-0.0131,2.975253627,-0.978283205,355.894348980,0.0601,0.0602,0.0549,0.0185,0.0185,0.0131,0.0229,0.0229,0.5736,ab001041,0*c8ab5772
#INSPVAXA,FILE,0,33.0,FINESTEERING,2319,304480.700,02000800,46eb,17139;INS_SOLUTION_GOOD,INS_RTKFIXED,17.59637698319,78.12163288943,525.3836,-76.2000,0.0031,0.0158,-0.0043,2.972835091,-0.966542706,355.893804935,0.0601,0.0602,0.0549,0.0185,0.0185,0.0131,0.0229,0.0229,0.5736,ab001041,0*01e61a47
#INSPVAXA,FILE,0,33.0,FINESTEERING,2319,304480.750,02000800,46eb,17139;INS_SOLUTION_GOOD,INS_RTKFIXED,17.59637697930,78.12163288502,525.3834,-76.2000,0.0005,0.0164,-0.0105,2.973376695,-0.965455796,355.894728523,0.0601,0.0602,0.0549,0.0185,0.0185,0.0131,0.0229,0.0229,0.5736,ab001041,0*a5fdec52
#INSPVAXA,FILE,0,33.0,FINESTEERING,2319,304480.800,02000800,46eb,17139;INS_SOLUTION_GOOD,INS_RTKFIXED,17.59637697487,78.12163288070,525.3833,-76.2000,0.0010,0.0160,-0.0075,2.972384642,-0.957485349,355.892097098,0.0601,0.0602,0.0549,0.0185,0.0185,0.0131,0.0229,0.0229,0.5736,ab001041,0*357216d2
#INSPVAXA,FILE,0,33.0,FINESTEERING,2319,304480.850,02000800,46eb,17139;INS_SOLUTION_GOOD,INS_RTKFIXED,17.59637697065,78.12163287492,525.3832,-76.2000,0.0023,0.0148,-0.0100,2.973304749,-0.955617858,355.891189200,0.0601,0.0602,0.0549,0.0185,0.0185,0.0131,0.0229,0.0229,0.5736,ab001041,0*b8b43700
#INSPVAXA,FILE,0,33.0,FINESTEERING,2319,304480.900,02000800,46eb,17139;INS_SOLUTION_GOOD,INS_RTKFIXED,17.59637696784,78.12163287132,525.3831,-76.2000,0.0037,0.0146,-0.0067,2.971278827,-0.952361813,355.890045925,0.0601,0.0602,0.0549,0.0185,0.0185,0.0131,0.0229,0.0229,0.5736,ab001041,0*5247d687
#INSPVAXA,FILE,0,33.0,FINESTEERING,2319,304481.000,02000800,46eb,17139;INS_SOLUTION_GOOD,INS_RTKFIXED,17.59637696119,78.12163286099,525.3831,-76.2000,0.0018,0.0152,-0.0061,2.968489216,-0.955331975,355.893972363,0.0601,0.0602,0.0549,0.0185,0.0185,0.0131,0.0229,0.0229,0.5736,ab001041,0*f79abb52
#INSPVAXA,FILE,0,33.0,FINESTEERING,2319,304481.050,02000800,46eb,17139;INS_SOLUTION_GOOD,INS_RTKFIXED,17.59637695779,78.12163285683,525.3830,-76.2000,0.0015,0.0158,-0.0091,2.972102523,-0.957998484,355.894714867,0.0602,0.0603,0.0550,0.0186,0.0186,0.0132,0.0230,0.0230,0.5746,ab001041,0*42a0fb73
#INSPVAXA,FILE,0,33.0,FINESTEERING,2319,304481.100,02000800,46eb,17139;INS_SOLUTION_GOOD,INS_RTKFIXED,17.59637695431,78.12163285236,525.3830,-76.2000,0.0019,0.0158,-0.0077,2.969660993,-0.955113211,355.892960722,0.0602,0.0603,0.0550,0.0186,0.0186,0.0132,0.0230,0.0230,0.5746,ab001041,0*0e100be5
#INSPVAXA,FILE,0,34.0,FINESTEERING,2319,304481.300,02000800,46eb,17139;INS_SOLUTION_GOOD,INS_RTKFIXED,17.59637694280,78.12163283188,525.3827,-76.2000,0.0048,0.0137,-0.0100,2.973110589,-0.948286049,355.894264512,0.0602,0.0603,0.0550,0.0186,0.0186,0.0132,0.0230,0.0230,0.5746,ab001041,0*081eabaa
#INSPVAXA,FILE,0,34.0,FINESTEERING,2319,304481.400,02000800,46eb,17139;INS_SOLUTION_GOOD,INS_RTKFIXED,17.59637693859,78.12163282336,525.3824,-76.2000,0.0042,0.0164,-0.0094,2.976541555,-0.936406574,355.894609307,0.0602,0.0603,0.0550,0.0186,0.0186,0.0132,0.0230,0.0230,0.5746,ab001041,0*56fa071c
#INSPVAXA,FILE,0,34.0,FINESTEERING,2319,304481.450,02000800,46eb,17139;INS_SOLUTION_GOOD,INS_RTKFIXED,17.59637693735,78.12163282102,525.3822,-76.2000,0.0058,0.0164,-0.0112,2.974306773,-0.928326185,355.891940772,0.0602,0.0603,0.0550,0.0186,0.0186,0.0132,0.0230,0.0230,0.5746,ab001041,0*9445deaf
#INSPVAXA,FILE,0,34.0,FINESTEERING,2319,304481.550,02000800,46eb,17139;INS_SOLUTION_GOOD,INS_RTKFIXED,17.59637693425,78.12163281120,525.3816,-76.2000,0.0055,0.0115,-0.0156,2.981277827,-0.908460915,355.893546153,0.0602,0.0603,0.0550,0.0186,0.0186,0.0132,0.0230,0.0230,0.5746,ab001041,0*eb6c0562
#INSPVAXA,FILE,0,34.0,FINESTEERING,2319,304481.600,02000800,46eb,17139;INS_SOLUTION_GOOD,INS_RTKFIXED,17.59637693185,78.12163280602,525.3812,-76.2000,0.0005,0.0121,-0.0143,2.984222123,-0.899680521,355.896678570,0.0602,0.0603,0.0550,0.0186,0.0186,0.0132,0.0230,0.0230,0.5746,ab001041,0*603b221b
#INSPVAXA,FILE,0,34.0,FINESTEERING,2319,304481.700,02000800,46eb,17139;INS_SOLUTION_GOOD,INS_RTKFIXED,17.59637692174,78.12163279868,525.3811,-76.2000,-0.0046,0.0141,-0.0018,2.972110687,-0.902862529,355.894428944,0.0602,0.0603,0.0550,0.0186,0.0186,0.0132,0.0230,0.0230,0.5746,ab001041,0*06f8a351
#INSPVAXA,FILE,0,34.0,FINESTEERING,2319,304481.900,02000800,46eb,17139;INS_SOLUTION_GOOD,INS_RTKFIXED,17.59637691040,78.12163278317,525.3813,-76.2000,0.0002,0.0140,-0.0078,2.967407652,-0.900770239,355.895572738,0.0602,0.0603,0.0550,0.0186,0.0186,0.0132,0.0230,0.0230,0.5746,ab001041,0*e02c5c75
#INSPVAXA,FILE,0,33.5,FINESTEERING,2319,304482.100,02000800,46eb,17139;INS_SOLUTION_GOOD,INS_RTKFIXED,17.59637689821,78.12163276730,525.3810,-76.2000,-0.0001,0.0120,-0.0058,2.972404803,-0.892511403,355.891482935,0.0604,0.0605,0.0551,0.0187,0.0186,0.0132,0.0230,0.0231,0.5756,ab001041,0*abb56f16
#INSPVAXA,FILE,0,33.5,FINESTEERING,2319,304482.150,02000800,46eb,17139;INS_SOLUTION_GOOD,INS_RTKFIXED,17.59637689598,78.12163276336,525.3810,-76.2000,0.0004,0.0106,-0.0062,2.967339391,-0.893143900,355.893496467,0.0604,0.0605,0.0551,0.0187,0.0186,0.0132,0.0230,0.0231,0.5756,ab001041,0*c6ae10f7
#INSPVAXA,FILE,0,33.5,FINESTEERING,2319,304482.250,02000800,46eb,17139;INS_SOLUTION_GOOD,INS_RTKFIXED,17.59637689227,78.12163275274,525.3812,-76.2000,0.0023,0.0114,-0.0080,2.961732194,-0.899984182,355.895919076,0.0604,0.0605,0.0551,0.0187,0.0186,0.0132,0.0230,0.0231,0.5756,ab001041,0*e5caec57
#INSPVAXA,FILE,0,33.5,FINESTEERING,2319,304482.300,02000800,46eb,17139;INS_SOLUTION_GOOD,INS_RTKFIXED,17.59637689072,78.12163274986,525.3811,-76.2000,0.0008,0.0141,-0.0085,2.963032324,-0.899635718,355.895226867,0.0604,0.0605,0.0551,0.0187,0.0186,0.0132,0.0230,0.0231,0.5756,ab001041,0*57478d4a
#INSPVAXA,FILE,0,33.5,FINESTEERING,2319,304482.350,02000800,46eb,17139;INS_SOLUTION_GOOD,INS_RTKFIXED,17.59637688850,78.12163274712,525.3811,-76.2000,-0.0004,0.0152,-0.0080,2.963466839,-0.895392969,355.893486108,0.0604,0.0605,0.0551,0.0187,0.0186,0.0132,0.0230,0.0231,0.5756,ab001041,0*d1e0cf66
#INSPVAXA,FILE,0,33.5,FINESTEERING,2319,304482.400,02000800,46eb,17139;INS_SOLUTION_GOOD,INS_RTKFIXED,17.59637688597,78.12163274478,525.3811,-76.2000,-0.0003,0.0152,-0.0071,2.967184871,-0.892281859,355.893017087,0.0604,0.0605,0.0551,0.0187,0.0186,0.0132,0.0230,0.0231,0.5756,ab001041,0*23bf028f
#INSPVAXA,FILE,0,33.5,FINESTEERING,2319,304482.450,02000800,46eb,17139;INS_SOLUTION_GOOD,INS_RTKFIXED,17.59637688370,78.12163274137,525.3811,-76.2000,0.0017,0.0141,-0.0067,2.971177239,-0.890916289,355.893227706,0.0604,0.0605,0.0551,0.0187,0.0186,0.0132,0.0230,0.0231,0.5756,ab001041,0*832ebfbd
#INSPVAXA,FILE,0,33.5,FINESTEERING,2319,304482.500,02000800,46eb,17139;INS_SOLUTION_GOOD,INS_RTKFIXED,17.59637688247,78.12163273931,525.3812,-76.2000,0.0025,0.0130,-0.0050,2.975019889,-0.893781432,355.892878658,0.0604,0.0605,0.0551,0.0187,0.0186,0.0132,0.0230,0.0231,0.5756,ab001041,0*696527b7
#INSPVAXA,FILE,0,33.5,FINESTEERING,2319,304482.550,02000800,46eb,17139;INS_SOLUTION_GOOD,INS_RTKFIXED,17.59637688106,78.12163273586,525.3812,-76.2000,0.0013,0.0113,-0.0060,2.974516542,-0.897029717,355.892007645,0.0604,0.0605,0.0551,0.0187,0.0186,0.0132,0.0230,0.0231,0.5756,ab001041,0*b60f84ad
#INSPVAXA,FILE,0,33.5,FINESTEERING,2319,304482.600,02000800,46eb,17139;INS_SOLUTION_GOOD,INS_RTKFIXED,17.59637687910,78.12163273156,525.3812,-76.2000,0.0000,0.0092,-0.0072,2.971292368,-0.898342266,355.891938333,0.0604,0.0605,0.0551,0.0187,0.0186,0.0132,0.0230,0.0231,0.5756,ab001041,0*c50da8de
#INSPVAXA,FILE,0,33.5,FINESTEERING,2319,304482.650,02000800,46eb,17139;INS_SOLUTION_GOOD,INS_RTKFIXED,17.59637687665,78.12163272631,525.3812,-76.2000,-0.0002,0.0099,-0.0081,2.968091824,-0.897738212,355.892162447,0.0604,0.0605,0.0551,0.0187,0.0186,0.0132,0.0230,0.0231,0.5756,ab001041,0*f06d6c4a
#INSPVAXA,FILE,0,33.5,FINESTEERING,2319,304482.700,02000800,46eb,17139;INS_SOLUTION_GOOD,INS_RTKFIXED,17.59637687437,78.12163272226,525.3812,-76.2000,0.0001,0.0110,-0.0072,2.962972995,-0.895126368,355.892611373,0.0604,0.0605,0.0551,0.0187,0.0186,0.0132,0.0230,0.0231,0.5756,ab001041,0*92f7d6d3
#INSPVAXA,FILE,0,33.5,FINESTEERING,2319,304482.750,02000000,46eb,17139;INS_SOLUTION_GOOD,INS_RTKFIXED,17.59637687232,78.12163271888,525.3812,-76.2000,0.0006,0.0121,-0.0060,2.961827541,-0.893647994,355.893039701,0.0604,0.0605,0.0551,0.0187,0.0186,0.0132,0.0230,0.0231,0.5756,ab001041,0*29dad65a
#INSPVAXA,FILE,0,33.5,FINESTEERING,2319,304482.800,02000000,46eb,17139;INS_SOLUTION_GOOD,INS_RTKFIXED,17.59637687037,78.12163271589,525.3812,-76.2000,0.0005,0.0124,-0.0065,2.962342490,-0.892575721,355.892763522,0.0604,0.0605,0.0551,0.0187,0.0186,0.0132,0.0230,0.0231,0.5756,ab001041,0*eb4bc333
#INSPVAXA,FILE,0,33.5,FINESTEERING,2319,304482.850,02000000,46eb,17139;INS_SOLUTION_GOOD,INS_RTKFIXED,17.59637686858,78.12163271285,525.3813,-76.2000,0.0007,0.0115,-0.0065,2.964060269,-0.894393271,355.892561092,0.0604,0.0605,0.0551,0.0187,0.0186,0.0132,0.0230,0.0231,0.5756,ab001041,0*1dea25f0
#INSPVAXA,FILE,0,33.5,FINESTEERING,2319,304482.900,02000000,46eb,17139;INS_SOLUTION_GOOD,INS_RTKFIXED,17.59637686690,78.12163270970,525.3813,-76.2000,0.0011,0.0113,-0.0073,2.964874588,-0.895917659,355.893051917,0.0604,0.0605,0.0551,0.0187,0.0186,0.0132,0.0230,0.0231,0.5756,ab001041,0*eedd0ad6
#INSPVAXA,FILE,0,33.5,FINESTEERING,2319,304482.950,02000000,46eb,17139;INS_SOLUTION_GOOD,INS_RTKFIXED,17.59637686512,78.12163270632,525.3813,-76.2000,0.0005,0.0106,-0.0064,2.964817409,-0.896276779,355.893414951,0.0604,0.0605,0.0551,0.0187,0.0186,0.0132,0.0230,0.0231,0.5756,ab001041,0*3f393a9a
#INSPVAXA,FILE,0,33.5,FINESTEERING,2319,304483.000,02000000,46eb,17139;INS_SOLUTION_GOOD,INS_RTKFIXED,17.59637686313,78.12163270311,525.3813,-76.2000,0.0001,0.0113,-0.0074,2.965037687,-0.895977361,355.893117695,0.0604,0.0605,0.0551,0.0187,0.0186,0.0132,0.0230,0.0231,0.5756,ab001041,0*70688277
#INSPVAXA,FILE,0,33.5,FINESTEERING,2319,304483.050,02000000,46eb,17139;INS_SOLUTION_GOOD,INS_RTKFIXED,17.59637686162,78.12163269976,525.3813,-76.2000,0.0021,0.0124,-0.0078,2.963211071,-0.891955944,355.891288066,0.0605,0.0606,0.0552,0.0187,0.0187,0.0133,0.0230,0.0230,0.5767,ab001041,0*0960bad2
#INSPVAXA,FILE,0,24.5,FINESTEERING,2319,304483.100,02000000,46eb,17139;INS_SOLUTION_GOOD,INS_RTKFIXED,17.59637686193,78.12163269713,525.3812,-76.2000,0.0071,0.0122,-0.0076,2.961269626,-0.886609785,355.887730606,0.0605,0.0606,0.0552,0.0187,0.0187,0.0133,0.0230,0.0230,0.5767,ab001041,0*5f1f08e2
#INSPVAXA,FILE,0,24.5,FINESTEERING,2319,304483.150,02000000,46eb,17139;INS_SOLUTION_GOOD,INS_RTKFIXED,17.59637686495,78.12163269427,525.3812,-76.2000,0.0147,0.0112,-0.0078,2.960986212,-0.879318549,355.885535572,0.0605,0.0606,0.0552,0.0187,0.0187,0.0133,0.0230,0.0230,0.5767,ab001041,0*c8bb9f5c
#INSPVAXA,FILE,0,24.5,FINESTEERING,2319,304483.200,02000000,46eb,17139;INS_SOLUTION_GOOD,INS_RTKFIXED,17.59637687280,78.12163269076,525.3812,-76.2000,0.0274,0.0090,-0.0075,2.960632085,-0.872430851,355.885458428,0.0605,0.0606,0.0552,0.0187,0.0187,0.0133,0.0230,0.0230,0.5767,ab001041,0*7e592cae
#INSPVAXA,FILE,0,24.5,FINESTEERING,2319,304483.250,02000000,46eb,17139;INS_SOLUTION_GOOD,INS_RTKFIXED,17.59637688756,78.12163268718,525.3811,-76.2000,0.0446,0.0073,-0.0084,2.959697884,-0.863548762,355.887429242,0.0605,0.0606,0.0552,0.0187,0.0187,0.0133,0.0230,0.0230,0.5767,ab001041,0*58673fe3
#INSPVAXA,FILE,0,24.5,FINESTEERING,2319,304483.300,02000000,46eb,17139;INS_SOLUTION_GOOD,INS_RTKFIXED,17.59637691039,78.12163268222,525.3810,-76.2000,0.0639,0.0059,-0.0086,2.958265217,-0.851842091,355.889988696,0.0605,0.0606,0.0552,0.0187,0.0187,0.0133,0.0230,0.0230,0.5767,ab001041,0*136ea3d0
#INSPVAXA,FILE,0,24.5,FINESTEERING,2319,304483.350,02000000,46eb,17139;INS_SOLUTION_GOOD,INS_RTKFIXED,17.59637694363,78.12163267616,525.3809,-76.2000,0.0906,0.0053,-0.0125,2.956290403,-0.831582845,355.892129031,0.0605,0.0606,0.0552,0.0187,0.0187,0.0133,0.0230,0.0230,0.5767,ab001041,0*102ba1c2
#INSPVAXA,FILE,0,24.5,FINESTEERING,2319,304483.400,02000000,46eb,17139;INS_SOLUTION_GOOD,INS_RTKFIXED,17.59637698919,78.12163267141,525.3806,-76.2000,0.1181,0.0052,-0.0120,2.955345548,-0.809077942,355.892573545,0.0605,0.0606,0.0552,0.0187,0.0187,0.0133,0.0230,0.0230,0.5767,ab001041,0*684b1abe
#INSPVAXA,FILE,0,24.5,FINESTEERING,2319,304483.450,02000000,46eb,17139;INS_SOLUTION_GOOD,INS_RTKFIXED,17.59637704723,78.12163266586,525.3804,-76.2000,0.1461,0.0044,-0.0098,2.951495620,-0.789548819,355.891566475,0.0605,0.0606,0.0552,0.0187,0.0187,0.0133,0.0230,0.0230,0.5767,ab001041,0*10616520
#INSPVAXA,FILE,0,24.5,FINESTEERING,2319,304483.500,02000000,46eb,17139;INS_SOLUTION_GOOD,INS_RTKFIXED,17.59637711750,78.12163265938,525.3803,-76.2000,0.1731,0.0035,-0.0076,2.949662886,-0.776473795,355.890116244,0.0605,0.0606,0.0552,0.0187,0.0187,0.0133,0.0230,0.0230,0.5767,ab001041,0*c512d01c
#INSPVAXA,FILE,0,24.5,FINESTEERING,2319,304483.550,02000000,46eb,17139;INS_SOLUTION_GOOD,INS_RTKFIXED,17.59637720033,78.12163265359,525.3802,-76.2000,0.2001,0.0017,-0.0077,2.950556303,-0.772067478,355.889541722,0.0605,0.0606,0.0552,0.0187,0.0187,0.0133,0.0230,0.0230,0.5767,ab001041,0*3b39ed71
#INSPVAXA,FILE,0,24.5,FINESTEERING,2319,304483.600,02000000,46eb,17139;INS_SOLUTION_GOOD,INS_RTKFIXED,17.59637729532,78.12163264665,525.3802,-76.2000,0.2274,0.0009,-0.0077,2.951170353,-0.775976194,355.890182493,0.0605,0.0606,0.0552,0.0187,0.0187,0.0133,0.0230,0.0230,0.5767,ab001041,0*3db8ffa7
#INSPVAXA,FILE,0,24.5,FINESTEERING,2319,304483.650,02000000,46eb,17139;INS_SOLUTION_GOOD,INS_RTKFIXED,17.59637740217,78.12163263849,525.3802,-76.2000,0.2535,-0.0006,-0.0093,2.949178678,-0.780841333,355.890515542,0.0605,0.0606,0.0552,0.0187,0.0187,0.0133,0.0230,0.0230,0.5767,ab001041,0*ba2a196e
#INSPVAXA,FILE,0,24.5,FINESTEERING,2319,304483.700,02000000,46eb,17139;INS_SOLUTION_GOOD,INS_RTKFIXED,17.59637752098,78.12163263136,525.3799,-76.2000,0.2786,-0.0011,-0.0127,2.951442973,-0.785586036,355.890144377,0.0605,0.0606,0.0552,0.0187,0.0187,0.0133,0.0230,0.0230,0.5767,ab001041,0*cb3fe15e
#INSPVAXA,FILE,0,24.5,FINESTEERING,2319,304483.750,02000000,46eb,17139;INS_SOLUTION_GOOD,INS_RTKFIXED,17.59637765101,78.12163262370,525.3796,-76.2000,0.3038,-0.0004,-0.0122,2.952862471,-0.784745095,355.888657478,0.0605,0.0606,0.0552,0.0187,0.0187,0.0133,0.0230,0.0230,0.5767,ab001041,0*652b94f9
#INSPVAXA,FILE,0,24.5,FINESTEERING,2319,304483.800,02000000,46eb,17139;INS_SOLUTION_GOOD,INS_RTKFIXED,17.59637779206,78.12163261564,525.3794,-76.2000,0.3280,-0.0022,-0.0115,2.953544074,-0.782134755,355.886437898,0.0605,0.0606,0.0552,0.0187,0.0187,0.0133,0.0230,0.0230,0.5767,ab001041,0*2d3cce9f
#INSPVAXA,FILE,0,24.5,FINESTEERING,2319,304483.850,02000000,46eb,17139;INS_SOLUTION_GOOD,INS_RTKFIXED,17.59637794415,78.12163260680,525.3792,-76.2000,0.3531,-0.0019,-0.0097,2.959814670,-0.781185471,355.883705275,0.0605,0.0606,0.0552,0.0187,0.0187,0.0133,0.0230,0.0230,0.5767,ab001041,0*52fc4d26
#INSPVAXA,FILE,0,24.5,FINESTEERING,2319,304483.900,02000000,46eb,17139;INS_SOLUTION_GOOD,INS_RTKFIXED,17.59637810788,78.12163259904,525.3790,-76.2000,0.3781,-0.0034,-0.0102,2.954250731,-0.782968896,355.880909818,0.0605,0.0606,0.0552,0.0187,0.0187,0.0133,0.0230,0.0230,0.5767,ab001041,0*6bd671e4
#INSPVAXA,FILE,0,24.5,FINESTEERING,2319,304483.950,02000000,46eb,17139;INS_SOLUTION_GOOD,INS_RTKFIXED,17.59637828259,78.12163258831,525.3788,-76.2000,0.4027,-0.0084,-0.0113,2.947313027,-0.787903493,355.880912038,0.0605,0.0606,0.0552,0.0187,0.0187,0.0133,0.0230,0.0230,0.5767,ab001041,0*83c5d61c
#INSPVAXA,FILE,0,24.5,FINESTEERING,2319,304484.000,02000000,46eb,17139;INS_SOLUTION_GOOD,INS_RTKFIXED,17.59637846864,78.12163257688,525.3785,-76.2000,0.4274,-0.0102,-0.0136,2.949478594,-0.792726103,355.882491673,0.0605,0.0606,0.0552,0.0187,0.0187,0.0133,0.0230,0.0230,0.5767,ab001041,0*fbc9677d
#INSPVAXA,FILE,0,24.5,FINESTEERING,2319,304484.050,02000000,46eb,17139;INS_SOLUTION_GOOD,INS_RTKFIXED,17.59637866627,78.12163256490,525.3781,-76.2000,0.4538,-0.0099,-0.0164,2.945323535,-0.793442226,355.882757562,0.0606,0.0607,0.0553,0.0187,0.0188,0.0133,0.0228,0.0229,0.5777,ab001041,0*96975c4f
#INSPVAXA,FILE,0,24.5,FINESTEERING,2319,304484.100,02000800,46eb,17139;INS_SOLUTION_GOOD,INS_RTKFIXED,17.59637887535,78.12163255181,525.3778,-76.2000,0.4788,-0.0103,-0.0167,2.944114976,-0.788610347,355.881369362,0.0606,0.0607,0.0553,0.0187,0.0188,0.0133,0.0228,0.0229,0.5777,ab001041,0*b2f9babe
#INSPVAXA,FILE,0,28.0,FINESTEERING,2319,304484.150,02000800,46eb,17139;INS_SOLUTION_GOOD,INS_RTKFIXED,17.59637909591,78.12163254038,525.3775,-76.2000,0.5031,-0.0087,-0.0129,2.946052297,-0.784282692,355.878386247,0.0606,0.0607,0.0553,0.0187,0.0188,0.0133,0.0228,0.0229,0.5777,ab001041,0*13df63c7
#INSPVAXA,FILE,0,28.0,FINESTEERING,2319,304484.200,02000800,46eb,17139;INS_SOLUTION_GOOD,INS_RTKFIXED,17.59637932703,78.12163252818,525.3774,-76.2000,0.5264,-0.0090,-0.0115,2.940841065,-0.786974921,355.873593034,0.0606,0.0607,0.0553,0.0187,0.0188,0.0133,0.0228,0.0229,0.5777,ab001041,0*331d2f22
#INSPVAXA,FILE,0,28.0,FINESTEERING,2319,304484.250,02000800,46eb,17139;INS_SOLUTION_GOOD,INS_RTKFIXED,17.59637956856,78.12163251628,525.3773,-76.2000,0.5485,-0.0107,-0.0114,2.936586932,-0.795698937,355.869710927,0.0606,0.0607,0.0553,0.0187,0.0188,0.0133,0.0228,0.0229,0.5777,ab001041,0*879679ac
#INSPVAXA,FILE,0,28.0,FINESTEERING,2319,304484.300,02000800,46eb,17139;INS_SOLUTION_GOOD,INS_RTKFIXED,17.59637982009,78.12163250351,525.3771,-76.2000,0.5705,-0.0149,-0.0112,2.940422680,-0.803450941,355.868482956,0.0606,0.0607,0.0553,0.0187,0.0188,0.0133,0.0228,0.0229,0.5777,ab001041,0*111e4d3a
#INSPVAXA,FILE,0,28.0,FINESTEERING,2319,304484.350,02000800,46eb,17139;INS_SOLUTION_GOOD,INS_RTKFIXED,17.59638008139,78.12163248803,525.3770,-76.2000,0.5928,-0.0168,-0.0133,2.947407407,-0.804893765,355.870236043,0.0606,0.0607,0.0553,0.0187,0.0188,0.0133,0.0228,0.0229,0.5777,ab001041,0*99b23001
#INSPVAXA,FILE,0,28.0,FINESTEERING,2319,304484.400,02000800,46eb,17139;INS_SOLUTION_GOOD,INS_RTKFIXED,17.59638035283,78.12163247362,525.3767,-76.2000,0.6144,-0.0148,-0.0137,2.954487181,-0.808291404,355.869561020,0.0606,0.0607,0.0553,0.0187,0.0188,0.0133,0.0228,0.0229,0.5777,ab001041,0*3bd9f020
#INSPVAXA,FILE,0,28.0,FINESTEERING,2319,304484.450,02000800,46eb,17139;INS_SOLUTION_GOOD,INS_RTKFIXED,17.59638063411,78.12163245998,525.3765,-76.2000,0.6366,-0.0135,-0.0121,2.951220405,-0.807344941,355.867004623,0.0606,0.0607,0.0553,0.0187,0.0188,0.0133,0.0228,0.0229,0.5777,ab001041,0*1e63674f
#INSPVAXA,FILE,0,28.0,FINESTEERING,2319,304484.500,02000800,46eb,17139;INS_SOLUTION_GOOD,INS_RTKFIXED,17.59638092529,78.12163244627,525.3763,-76.2000,0.6586,-0.0149,-0.0120,2.954600070,-0.810276609,355.862627911,0.0606,0.0607,0.0553,0.0187,0.0188,0.0133,0.0228,0.0229,0.5777,ab001041,0*921c7a25
#INSPVAXA,FILE,0,28.0,FINESTEERING,2319,304484.550,02000800,46eb,17139;INS_SOLUTION_GOOD,INS_RTKFIXED,17.59638122661,78.12163243220,525.3760,-76.2000,0.6808,-0.0161,-0.0158,2.960602881,-0.811056064,355.858370048,0.0606,0.0607,0.0553,0.0187,0.0188,0.0133,0.0228,0.0229,0.5777,ab001041,0*1e6df43c
#INSPVAXA,FILE,0,28.0,FINESTEERING,2319,304484.600,02000800,46eb,17139;INS_SOLUTION_GOOD,INS_RTKFIXED,17.59638153791,78.12163241709,525.3757,-76.2000,0.7027,-0.0186,-0.0135,2.965232642,-0.811995972,355.855382376,0.0606,0.0607,0.0553,0.0187,0.0188,0.0133,0.0228,0.0229,0.5777,ab001041,0*de5a49e7
#INSPVAXA,FILE,0,28.0,FINESTEERING,2319,304484.650,02000800,46eb,17139;INS_SOLUTION_GOOD,INS_RTKFIXED,17.59638185923,78.12163240170,525.3753,-76.2000,0.7247,-0.0205,-0.0162,2.970187973,-0.817385248,355.854431712,0.0606,0.0607,0.0553,0.0187,0.0188,0.0133,0.0228,0.0229,0.5777,ab001041,0*81766f55
#INSPVAXA,FILE,0,28.0,FINESTEERING,2319,304484.700,02000800,46eb,17139;INS_SOLUTION_GOOD,INS_RTKFIXED,17.59638219025,78.12163238467,525.3749,-76.2000,0.7459,-0.0209,-0.0167,2.976987018,-0.818384877,355.854686356,0.0606,0.0607,0.0553,0.0187,0.0188,0.0133,0.0228,0.0229,0.5777,ab001041,0*557ed255
#INSPVAXA,FILE,0,28.0,FINESTEERING,2319,304484.750,02000800,46eb,17139;INS_SOLUTION_GOOD,INS_RTKFIXED,17.59638253068,78.12163236817,525.3745,-76.2000,0.7665,-0.0209,-0.0170,2.977664009,-0.817829797,355.853823318,0.0606,0.0607,0.0553,0.0187,0.0188,0.0133,0.0228,0.0229,0.5777,ab001041,0*9bd7b1ff
#INSPVAXA,FILE,0,28.0,FINESTEERING,2319,304484.800,02000800,46eb,17139;INS_SOLUTION_GOOD,INS_RTKFIXED,17.59638288032,78.12163235150,525.3741,-76.2000,0.7867,-0.0219,-0.0176,2.984896961,-0.817255222,355.849968136,0.0606,0.0607,0.0553,0.0187,0.0188,0.0133,0.0228,0.0229,0.5777,ab001041,0*dd1b4f58
#INSPVAXA,FILE,0,28.0,FINESTEERING,2319,304484.850,02000800,46eb,17139;INS_SOLUTION_GOOD,INS_RTKFIXED,17.59638323942,78.12163233477,525.3736,-76.2000,0.8083,-0.0217,-0.0158,2.986203652,-0.817463380,355.845292411,0.0606,0.0607,0.0553,0.0187,0.0188,0.0133,0.0228,0.0229,0.5777,ab001041,0*1a09f0e2
#INSPVAXA,FILE,0,28.0,FINESTEERING,2319,304484.900,02000800,46eb,17139;INS_SOLUTION_GOOD,INS_RTKFIXED,17.59638360815,78.12163231759,525.3732,-76.2000,0.8296,-0.0243,-0.0165,2.977804897,-0.819133691,355.840821907,0.0606,0.0607,0.0553,0.0187,0.0188,0.0133,0.0228,0.0229,0.5777,ab001041,0*6bbfbea9
#INSPVAXA,FILE,0,28.0,FINESTEERING,2319,304484.950,02000800,46eb,17139;INS_SOLUTION_GOOD,INS_RTKFIXED,17.59638398654,78.12163229875,525.3727,-76.2000,0.8507,-0.0286,-0.0185,2.974031871,-0.822340372,355.838260403,0.0606,0.0607,0.0553,0.0187,0.0188,0.0133,0.0228,0.0229,0.5777,ab001041,0*8caa6408
#INSPVAXA,FILE,0,28.0,FINESTEERING,2319,304485.000,02000800,46eb,17139;INS_SOLUTION_GOOD,INS_RTKFIXED,17.59638437433,78.12163227935,525.3722,-76.2000,0.8708,-0.0277,-0.0193,2.976404426,-0.824588117,355.836166616,0.0606,0.0607,0.0553,0.0187,0.0188,0.0133,0.0228,0.0229,0.5777,ab001041,0*145012d2
#INSPVAXA,FILE,0,28.0,FINESTEERING,2319,304485.050,02000800,46eb,17139;INS_SOLUTION_GOOD,INS_RTKFIXED,17.59638477222,78.12163225932,525.3716,-76.2000,0.8933,-0.0281,-0.0201,2.972158501,-0.818377053,355.833060956,0.0601,0.0603,0.0553,0.0185,0.0187,0.0132,0.0225,0.0226,0.5777,ab000241,0*7a7327f8
#INSPVAXA,FILE,0,28.0,FINESTEERING,2319,304485.100,02000800,46eb,17139;INS_SOLUTION_GOOD,INS_RTKFIXED,17.59638518205,78.12163223938,525.3709,-76.2000,0.9198,-0.0283,-0.0246,2.966529322,-0.806233618,355.830581981,0.0601,0.0603,0.0553,0.0185,0.0187,0.0132,0.0225,0.0226,0.5777,ab000241,0*2bb08832
#INSPVAXA,FILE,0,29.5,FINESTEERING,2319,304485.150,02000000,46eb,17139;INS_SOLUTION_GOOD,INS_RTKFIXED,17.59638560423,78.12163221987,525.3699,-76.2000,0.9488,-0.0292,-0.0261,2.962478945,-0.790965608,355.827483698,0.0601,0.0603,0.0553,0.0185,0.0187,0.0132,0.0225,0.0226,0.5777,ab000241,0*7ea887ed
#INSPVAXA,FILE,0,29.5,FINESTEERING,2319,304485.200,02000000,46eb,17139;INS_SOLUTION_GOOD,INS_RTKFIXED,17.59638604098,78.12163219858,525.3689,-76.2000,0.9834,-0.0316,-0.0302,2.953453759,-0.769734530,355.825953562,0.0601,0.0603,0.0553,0.0185,0.0187,0.0132,0.0225,0.0226,0.5777,ab000241,0*08e4c051
#INSPVAXA,FILE,0,29.5,FINESTEERING,2319,304485.250,02000000,46eb,17139;INS_SOLUTION_GOOD,INS_RTKFIXED,17.59638649418,78.12163217731,525.3676,-76.2000,1.0225,-0.0341,-0.0331,2.949386256,-0.745702852,355.823889725,0.0601,0.0603,0.0553,0.0185,0.0187,0.0132,0.0225,0.0226,0.5777,ab000241,0*57af49c3
#INSPVAXA,FILE,0,29.5,FINESTEERING,2319,304485.300,02000000,46eb,17139;INS_SOLUTION_GOOD,INS_RTKFIXED,17.59638696671,78.12163215398,525.3663,-76.2000,1.0686,-0.0361,-0.0341,2.949129392,-0.717831827,355.822519631,0.0601,0.0603,0.0553,0.0185,0.0187,0.0132,0.0225,0.0226,0.5777,ab000241,0*a362ad8c
#INSPVAXA,FILE,0,29.5,FINESTEERING,2319,304485.350,02000000,46eb,17139;INS_SOLUTION_GOOD,INS_RTKFIXED,17.59638746081,78.12163213056,525.3648,-76.2000,1.1178,-0.0388,-0.0359,2.946213782,-0.690426131,355.821798535,0.0601,0.0603,0.0553,0.0185,0.0187,0.0132,0.0225,0.0226,0.5777,ab000241,0*ca697d86
#INSPVAXA,FILE,0,29.5,FINESTEERING,2319,304485.400,02000000,46eb,17139;INS_SOLUTION_GOOD,INS_RTKFIXED,17.59638797901,78.12163210480,525.3633,-76.2000,1.1743,-0.0412,-0.0384,2.942739629,-0.650821420,355.823329777,0.0601,0.0603,0.0553,0.0185,0.0187,0.0132,0.0225,0.0226,0.5777,ab000241,0*462d56f5
#INSPVAXA,FILE,0,29.5,FINESTEERING,2319,304485.450,02000000,46eb,17139;INS_SOLUTION_GOOD,INS_RTKFIXED,17.59638852233,78.12163207930,525.3618,-76.2000,1.2308,-0.0432,-0.0354,2.937697697,-0.619688905,355.824002107,0.0601,0.0603,0.0553,0.0185,0.0187,0.0132,0.0225,0.0226,0.5777,ab000241,0*721f3d77
#INSPVAXA,FILE,0,29.5,FINESTEERING,2319,304485.500,02000000,46eb,17139;INS_SOLUTION_GOOD,INS_RTKFIXED,17.59638909129,78.12163205300,525.3605,-76.2000,1.2876,-0.0436,-0.0327,2.933295596,-0.591212581,355.821323458,0.0601,0.0603,0.0553,0.0185,0.0187,0.0132,0.0225,0.0226,0.5777,ab000241,0*9614ad84
#INSPVAXA,FILE,0,29.5,FINESTEERING,2319,304485.550,02000000,46eb,17139;INS_SOLUTION_GOOD,INS_RTKFIXED,17.59638968591,78.12163202654,525.3593,-76.2000,1.3440,-0.0443,-0.0263,2.927910125,-0.573542249,355.814700475,0.0601,0.0603,0.0553,0.0185,0.0187,0.0132,0.0225,0.0226,0.5777,ab000241,0*86cfffd5
#INSPVAXA,FILE,0,29.5,FINESTEERING,2319,304485.600,02000000,46eb,17139;INS_SOLUTION_GOOD,INS_RTKFIXED,17.59639030648,78.12163199880,525.3584,-76.2000,1.4021,-0.0464,-0.0230,2.923533995,-0.563048748,355.805585353,0.0601,0.0603,0.0553,0.0185,0.0187,0.0132,0.0225,0.0226,0.5777,ab000241,0*edd04343
#INSPVAXA,FILE,0,29.5,FINESTEERING,2319,304485.650,02000000,46eb,17139;INS_SOLUTION_GOOD,INS_RTKFIXED,17.59639095375,78.12163197034,525.3575,-76.2000,1.4627,-0.0491,-0.0250,2.915707630,-0.562053526,355.796646254,0.0601,0.0603,0.0553,0.0185,0.0187,0.0132,0.0225,0.0226,0.5777,ab000241,0*1c7aa022
#INSPVAXA,FILE,0,29.5,FINESTEERING,2319,304485.700,02000000,46eb,17139;INS_SOLUTION_GOOD,INS_RTKFIXED,17.59639162828,78.12163194076,525.3564,-76.2000,1.5226,-0.0533,-0.0308,2.912984093,-0.561713211,355.788918110,0.0601,0.0603,0.0553,0.0185,0.0187,0.0132,0.0225,0.0226,0.5777,ab000241,0*54f9c673
#INSPVAXA,FILE,0,29.5,FINESTEERING,2319,304485.750,02000000,46eb,17139;INS_SOLUTION_GOOD,INS_RTKFIXED,17.59639233024,78.12163190841,525.3552,-76.2000,1.5845,-0.0590,-0.0352,2.915313077,-0.555081036,355.783963484,0.0601,0.0603,0.0553,0.0185,0.0187,0.0132,0.0225,0.0226,0.5777,ab000241,0*39770369
#INSPVAXA,FILE,0,29.5,FINESTEERING,2319,304485.800,02000000,46eb,17139;INS_SOLUTION_GOOD,INS_RTKFIXED,17.59639306007,78.12163187453,525.3538,-76.2000,1.6466,-0.0609,-0.0338,2.929574333,-0.543288596,355.777548203,0.0601,0.0603,0.0553,0.0185,0.0187,0.0132,0.0225,0.0226,0.5777,ab000241,0*dd534406
#INSPVAXA,FILE,0,29.5,FINESTEERING,2319,304485.850,02000000,46eb,17139;INS_SOLUTION_GOOD,INS_RTKFIXED,17.59639381907,78.12163184039,525.3524,-76.2000,1.7120,-0.0587,-0.0367,2.935124289,-0.525079905,355.764291874,0.0601,0.0603,0.0553,0.0185,0.0187,0.0132,0.0225,0.0226,0.5777,ab000241,0*a4d82592
#INSPVAXA,FILE,0,29.5,FINESTEERING,2319,304485.900,02000000,46eb,17139;INS_SOLUTION_GOOD,INS_RTKFIXED,17.59639460754,78.12163180716,525.3508,-76.2000,1.7789,-0.0606,-0.0364,2.934247917,-0.504639972,355.744034456,0.0601,0.0603,0.0553,0.0185,0.0187,0.0132,0.0225,0.0226,0.5777,ab000241,0*e99c8a8d
#INSPVAXA,FILE,0,29.5,FINESTEERING,2319,304485.950,02000000,46eb,17139;INS_SOLUTION_GOOD,INS_RTKFIXED,17.59639542647,78.12163177186,525.3493,-76.2000,1.8460,-0.0640,-0.0384,2.931227528,-0.488069987,355.717521994,0.0601,0.0603,0.0553,0.0185,0.0187,0.0132,0.0225,0.0226,0.5777,ab000241,0*1cb694be
#INSPVAXA,FILE,0,29.5,FINESTEERING,2319,304486.000,02000000,46eb,17139;INS_SOLUTION_GOOD,INS_RTKFIXED,17.59639627584,78.12163173444,525.3478,-76.2000,1.9130,-0.0709,-0.0371,2.924617465,-0.467481671,355.690380734,0.0601,0.0603,0.0553,0.0185,0.0187,0.0132,0.0225,0.0226,0.5777,ab000241,0*125ab144
#INSPVAXA,FILE,0,29.5,FINESTEERING,2319,304486.050,02000000,46eb,17139;INS_SOLUTION_GOOD,INS_RTKFIXED,17.59639715508,78.12163169255,525.3465,-76.2000,1.9797,-0.0776,-0.0325,2.924260330,-0.461930293,355.664593259,0.0598,0.0601,0.0552,0.0182,0.0192,0.0132,0.0223,0.0223,0.5787,ab000241,0*8f93ca9d
#INSPVAXA,FILE,0,29.5,FINESTEERING,2319,304486.100,02000000,46eb,17139;INS_SOLUTION_GOOD,INS_RTKFIXED,17.59639806475,78.12163164418,525.3454,-76.2000,2.0495,-0.0843,-0.0359,2.912257580,-0.449870992,355.645212007,0.0598,0.0601,0.0552,0.0182,0.0192,0.0132,0.0223,0.0223,0.5787,ab000241,0*d4996fd4
#INSPVAXA,FILE,0,30.5,FINESTEERING,2319,304486.150,02000000,46eb,17139;INS_SOLUTION_GOOD,INS_RTKFIXED,17.59639900641,78.12163159385,525.3440,-76.2000,2.1216,-0.0895,-0.0427,2.896113286,-0.435317851,355.627988399,0.0598,0.0601,0.0552,0.0182,0.0192,0.0132,0.0223,0.0223,0.5787,ab000241,0*f2926d4c
#INSPVAXA,FILE,0,30.5,FINESTEERING,2319,304486.200,02000000,46eb,17139;INS_SOLUTION_GOOD,INS_RTKFIXED,17.59639998051,78.12163154129,525.3424,-76.2000,2.1946,-0.0935,-0.0427,2.886250973,-0.415271623,355.607708308,0.0598,0.0601,0.0552,0.0182,0.0192,0.0132,0.0223,0.0223,0.5787,ab000241,0*c072f121
#INSPVAXA,FILE,0,30.5,FINESTEERING,2319,304486.250,02000000,46eb,17139;INS_SOLUTION_GOOD,INS_RTKFIXED,17.59640098776,78.12163148811,525.3407,-76.2000,2.2683,-0.0935,-0.0436,2.879272383,-0.383725276,355.576565563,0.0598,0.0601,0.0552,0.0182,0.0192,0.0132,0.0223,0.0223,0.5787,ab000241,0*2daa191e
#INSPVAXA,FILE,0,30.5,FINESTEERING,2319,304486.300,02000000,46eb,17139;INS_SOLUTION_GOOD,INS_RTKFIXED,17.59640202927,78.12163143500,525.3389,-76.2000,2.3441,-0.0936,-0.0474,2.872842316,-0.352355440,355.530085705,0.0598,0.0601,0.0552,0.0182,0.0192,0.0132,0.0223,0.0223,0.5787,ab000241,0*2cd7762b
#INSPVAXA,FILE,0,30.5,FINESTEERING,2319,304486.350,02000000,46eb,17139;INS_SOLUTION_GOOD,INS_RTKFIXED,17.59640310401,78.12163138143,525.3371,-76.2000,2.4169,-0.0961,-0.0446,2.874581523,-0.328961482,355.469462829,0.0598,0.0601,0.0552,0.0182,0.0192,0.0132,0.0223,0.0223,0.5787,ab000241,0*08f3870a
#INSPVAXA,FILE,0,30.5,FINESTEERING,2319,304486.400,02000000,46eb,17139;INS_SOLUTION_GOOD,INS_RTKFIXED,17.59640421086,78.12163132673,525.3356,-76.2000,2.4862,-0.0994,-0.0372,2.871904038,-0.319615057,355.401062829,0.0598,0.0601,0.0552,0.0182,0.0192,0.0132,0.0223,0.0223,0.5787,ab000241,0*7c98a12b
#INSPVAXA,FILE,0,30.5,FINESTEERING,2319,304486.450,02000000,46eb,17139;INS_SOLUTION_GOOD,INS_RTKFIXED,17.59640534917,78.12163126927,525.3345,-76.2000,2.5551,-0.1071,-0.0293,2.864175291,-0.318950933,355.335241895,0.0598,0.0601,0.0552,0.0182,0.0192,0.0132,0.0223,0.0223,0.5787,ab000241,0*2a767a75
#INSPVAXA,FILE,0,30.5,FINESTEERING,2319,304486.500,02000000,46eb,17139;INS_SOLUTION_GOOD,INS_RTKFIXED,17.59640651827,78.12163120750,525.3335,-76.2000,2.6231,-0.1183,-0.0337,2.856858162,-0.326838672,355.277431451,0.0598,0.0601,0.0552,0.0182,0.0192,0.0132,0.0223,0.0223,0.5787,ab000241,0*782e2876
#INSPVAXA,FILE,0,30.5,FINESTEERING,2319,304486.550,02000000,46eb,17139;INS_SOLUTION_GOOD,INS_RTKFIXED,17.59640771711,78.12163114155,525.3323,-76.2000,2.6871,-0.1259,-0.0335,2.847875983,-0.340062724,355.230702134,0.0598,0.0601,0.0552,0.0182,0.0192,0.0132,0.0223,0.0223,0.5787,ab000241,0*73ed0886
#INSPVAXA,FILE,0,30.5,FINESTEERING,2319,304486.600,02000000,46eb,17139;INS_SOLUTION_GOOD,INS_RTKFIXED,17.59640894444,78.12163107126,525.3310,-76.2000,2.7493,-0.1362,-0.0371,2.806480402,-0.349894296,355.195429238,0.0598,0.0601,0.0552,0.0182,0.0192,0.0132,0.0223,0.0223,0.5787,ab000241,0*26606f10
#INSPVAXA,FILE,0,30.5,FINESTEERING,2319,304486.650,02000000,46eb,17139;INS_SOLUTION_GOOD,INS_RTKFIXED,17.59641019879,78.12163099734,525.3296,-76.2000,2.8063,-0.1453,-0.0345,2.784718137,-0.365772464,355.166726113,0.0598,0.0601,0.0552,0.0182,0.0192,0.0132,0.0223,0.0223,0.5787,ab000241,0*28809c4d
#INSPVAXA,FILE,0,30.5,FINESTEERING,2319,304486.700,02000000,46eb,17139;INS_SOLUTION_GOOD,INS_RTKFIXED,17.59641147817,78.12163091990,525.3283,-76.2000,2.8601,-0.1459,-0.0388,2.760126033,-0.371520880,355.145230527,0.0598,0.0601,0.0552,0.0182,0.0192,0.0132,0.0223,0.0223,0.5787,ab000241,0*82d94897
#INSPVAXA,FILE,0,30.5,FINESTEERING,2319,304486.750,02000000,46eb,17139;INS_SOLUTION_GOOD,INS_RTKFIXED,17.59641278112,78.12163084288,525.3268,-76.2000,2.9101,-0.1474,-0.0399,2.715607375,-0.382541219,355.123262204,0.0598,0.0601,0.0552,0.0182,0.0192,0.0132,0.0223,0.0223,0.5787,ab000241,0*054dc4ba
#INSPVAXA,FILE,0,30.5,FINESTEERING,2319,304486.800,02000000,46eb,17139;INS_SOLUTION_GOOD,INS_RTKFIXED,17.59641410548,78.12163076367,525.3252,-76.2000,2.9546,-0.1539,-0.0406,2.670450065,-0.388031933,355.107272493,0.0598,0.0601,0.0552,0.0182,0.0192,0.0132,0.0223,0.0223,0.5787,ab000241,0*be18a0b6
#INSPVAXA,FILE,0,30.5,FINESTEERING,2319,304486.850,02000000,46eb,17139;INS_SOLUTION_GOOD,INS_RTKFIXED,17.59641544817,78.12163068269,525.3241,-76.2000,2.9918,-0.1597,-0.0257,2.639910038,-0.399366907,355.095404066,0.0598,0.0601,0.0552,0.0182,0.0192,0.0132,0.0223,0.0223,0.5787,ab000241,0*d82ce673
#INSPVAXA,FILE,0,30.5,FINESTEERING,2319,304486.900,02000000,46eb,17139;INS_SOLUTION_GOOD,INS_RTKFIXED,17.59641680553,78.12163059982,525.3233,-76.2000,3.0210,-0.1568,-0.0231,2.619813958,-0.435243024,355.084405301,0.0598,0.0601,0.0552,0.0182,0.0192,0.0132,0.0223,0.0223,0.5787,ab000241,0*60ce8fdb
#INSPVAXA,FILE,0,30.5,FINESTEERING,2319,304486.950,02000000,46eb,17139;INS_SOLUTION_GOOD,INS_RTKFIXED,17.59641817474,78.12163051898,525.3227,-76.2000,3.0431,-0.1535,-0.0166,2.590067872,-0.482817924,355.068779594,0.0598,0.0601,0.0552,0.0182,0.0192,0.0132,0.0223,0.0223,0.5787,ab000241,0*3ffe1b0b
#INSPVAXA,FILE,0,30.5,FINESTEERING,2319,304487.000,02000000,46eb,17139;INS_SOLUTION_GOOD,INS_RTKFIXED,17.59641955236,78.12163043851,525.3224,-76.2000,3.0577,-0.1549,-0.0130,2.570365626,-0.540575540,355.048567741,0.0598,0.0601,0.0552,0.0182,0.0192,0.0132,0.0223,0.0223,0.5787,ab000241,0*0977b935
#INSPVAXA,FILE,0,30.5,FINESTEERING,2319,304487.050,02000000,46eb,17139;INS_SOLUTION_GOOD,INS_RTKFIXED,17.59642093600,78.12163035496,525.3225,-76.2000,3.0686,-0.1565,-0.0082,2.558134624,-0.594210454,355.031078124,0.0595,0.0601,0.0552,0.0180,0.0202,0.0130,0.0221,0.0220,0.5797,ab000241,0*a62a5384
#INSPVAXA,FILE,0,29.0,FINESTEERING,2319,304487.100,02000000,46eb,17139;INS_SOLUTION_GOOD,INS_RTKFIXED,17.59642232438,78.12163026950,525.3225,-76.2000,3.0765,-0.1577,-0.0161,2.542077676,-0.642711387,355.013475343,0.0595,0.0601,0.0552,0.0180,0.0202,0.0130,0.0221,0.0220,0.5797,ab000241,0*ae7a1bfa
#INSPVAXA,FILE,0,29.0,FINESTEERING,2319,304487.150,02000000,46eb,17139;INS_SOLUTION_GOOD,INS_RTKFIXED,17.59642371641,78.12163018403,525.3222,-76.2000,3.0850,-0.1602,-0.0254,2.525121954,-0.673939610,354.998671525,0.0595,0.0601,0.0552,0.0180,0.0202,0.0130,0.0221,0.0220,0.5797,ab000241,0*a49ac2e5
#INSPVAXA,FILE,0,29.0,FINESTEERING,2319,304487.200,02000000,46eb,17139;INS_SOLUTION_GOOD,INS_RTKFIXED,17.59642511211,78.12163009702,525.3213,-76.2000,3.0913,-0.1619,-0.0346,2.497044842,-0.690746317,354.983879081,0.0595,0.0601,0.0552,0.0180,0.0202,0.0130,0.0221,0.0220,0.5797,ab000241,0*633667b6
#INSPVAXA,FILE,0,29.0,FINESTEERING,2319,304487.250,02000000,46eb,17139;INS_SOLUTION_GOOD,INS_RTKFIXED,17.59642651096,78.12163000754,525.3201,-76.2000,3.0999,-0.1660,-0.0446,2.451759135,-0.690958128,354.970886134,0.0595,0.0601,0.0552,0.0180,0.0202,0.0130,0.0221,0.0220,0.5797,ab000241,0*a6d7c720
#INSPVAXA,FILE,0,29.0,FINESTEERING,2319,304487.300,02000000,46eb,17139;INS_SOLUTION_GOOD,INS_RTKFIXED,17.59642791253,78.12162991787,525.3184,-76.2000,3.1047,-0.1713,-0.0522,2.408270842,-0.698134201,354.957783796,0.0595,0.0601,0.0552,0.0180,0.0202,0.0130,0.0221,0.0220,0.5797,ab000241,0*1304500e
#INSPVAXA,FILE,0,29.0,FINESTEERING,2319,304487.350,02000000,46eb,17139;INS_SOLUTION_GOOD,INS_RTKFIXED,17.59642931647,78.12162982454,525.3167,-76.2000,3.1103,-0.1744,-0.0498,2.372855497,-0.693401665,354.946778197,0.0595,0.0601,0.0552,0.0180,0.0202,0.0130,0.0221,0.0220,0.5797,ab000241,0*ca3c885d
#INSPVAXA,FILE,0,29.0,FINESTEERING,2319,304487.400,02000000,46eb,17139;INS_SOLUTION_GOOD,INS_RTKFIXED,17.59643072243,78.12162973163,525.3150,-76.2000,3.1134,-0.1738,-0.0458,2.323738223,-0.701622724,354.935898413,0.0595,0.0601,0.0552,0.0180,0.0202,0.0130,0.0221,0.0220,0.5797,ab000241,0*ad79118f
#INSPVAXA,FILE,0,29.0,FINESTEERING,2319,304487.450,02000000,46eb,17139;INS_SOLUTION_GOOD,INS_RTKFIXED,17.59643212978,78.12162963924,525.3135,-76.2000,3.1162,-0.1778,-0.0401,2.265388645,-0.726883444,354.923592507,0.0595,0.0601,0.0552,0.0180,0.0202,0.0130,0.0221,0.0220,0.5797,ab000241,0*55d26cef
#INSPVAXA,FILE,0,29.0,FINESTEERING,2319,304487.500,02000000,46eb,17139;INS_SOLUTION_GOOD,INS_RTKFIXED,17.59643353729,78.12162954524,525.3122,-76.2000,3.1162,-0.1789,-0.0380,2.211400010,-0.758615867,354.910857111,0.0595,0.0601,0.0552,0.0180,0.0202,0.0130,0.0221,0.0220,0.5797,ab000241,0*c270d9e1
#INSPVAXA,FILE,0,29.0,FINESTEERING,2319,304487.550,02000000,46eb,17139;INS_SOLUTION_GOOD,INS_RTKFIXED,17.59643494530,78.12162945169,525.3111,-76.2000,3.1164,-0.1756,-0.0340,2.173650242,-0.788744624,354.896940141,0.0595,0.0601,0.0552,0.0180,0.0202,0.0130,0.0221,0.0220,0.5797,ab000241,0*7e0ca760
#INSPVAXA,FILE,0,29.0,FINESTEERING,2319,304487.600,02000000,46eb,17139;INS_SOLUTION_GOOD,INS_RTKFIXED,17.59643635352,78.12162935920,525.3102,-76.2000,3.1165,-0.1731,-0.0278,2.149684606,-0.806344790,354.880550535,0.0595,0.0601,0.0552,0.0180,0.0202,0.0130,0.0221,0.0220,0.5797,ab000241,0*f9578e0d
#INSPVAXA,FILE,0,29.0,FINESTEERING,2319,304487.650,02000000,46eb,17139;INS_SOLUTION_GOOD,INS_RTKFIXED,17.59643776218,78.12162926763,525.3097,-76.2000,3.1192,-0.1701,-0.0275,2.109051618,-0.830700732,354.866755149,0.0595,0.0601,0.0552,0.0180,0.0202,0.0130,0.0221,0.0220,0.5797,ab000241,0*09f6d6a2
#INSPVAXA,FILE,0,29.0,FINESTEERING,2319,304487.700,02000000,46eb,17139;INS_SOLUTION_GOOD,INS_RTKFIXED,17.59643917126,78.12162917831,525.3087,-76.2000,3.1189,-0.1715,-0.0319,2.053791205,-0.848147556,354.861457174,0.0595,0.0601,0.0552,0.0180,0.0202,0.0130,0.0221,0.0220,0.5797,ab000241,0*546dd182
#INSPVAXA,FILE,0,29.0,FINESTEERING,2319,304487.750,02000000,46eb,17139;INS_SOLUTION_GOOD,INS_RTKFIXED,17.59644057980,78.12162908529,525.3077,-76.2000,3.1165,-0.1802,-0.0315,1.968932357,-0.872006056,354.881426613,0.0595,0.0601,0.0552,0.0180,0.0202,0.0130,0.0221,0.0220,0.5797,ab000241,0*58d08967
#INSPVAXA,FILE,0,29.0,FINESTEERING,2319,304487.800,02000000,46eb,17139;INS_SOLUTION_GOOD,INS_RTKFIXED,17.59644198470,78.12162898881,525.3071,-76.2000,3.1053,-0.1884,-0.0197,1.887620043,-0.914321599,354.929438206,0.0595,0.0601,0.0552,0.0180,0.0202,0.0130,0.0221,0.0220,0.5797,ab000241,0*9f12920c
#INSPVAXA,FILE,0,29.0,FINESTEERING,2319,304487.850,02000000,46eb,17139;INS_SOLUTION_GOOD,INS_RTKFIXED,17.59644338657,78.12162888853,525.3068,-76.2000,3.1006,-0.1922,-0.0189,1.781002055,-0.972911206,355.015176934,0.0595,0.0601,0.0552,0.0180,0.0202,0.0130,0.0221,0.0220,0.5797,ab000241,0*54e9fe66
#INSPVAXA,FILE,0,29.0,FINESTEERING,2319,304487.900,02000000,46eb,17139;INS_SOLUTION_GOOD,INS_RTKFIXED,17.59644478686,78.12162878753,525.3065,-76.2000,3.0984,-0.1945,-0.0172,1.693944190,-1.039492892,355.129788579,0.0595,0.0601,0.0552,0.0180,0.0202,0.0130,0.0221,0.0220,0.5797,ab000241,0*35d11c6c
#INSPVAXA,FILE,0,29.0,FINESTEERING,2319,304487.950,02000000,46eb,17139;INS_SOLUTION_GOOD,INS_RTKFIXED,17.59644618706,78.12162868787,525.3061,-76.2000,3.0987,-0.1878,-0.0224,1.606832420,-1.110592516,355.271879191,0.0595,0.0601,0.0552,0.0180,0.0202,0.0130,0.0221,0.0220,0.5797,ab000241,0*1cc9d996
#INSPVAXA,FILE,0,29.0,FINESTEERING,2319,304488.000,02000000,46eb,17139;INS_SOLUTION_GOOD,INS_RTKFIXED,17.59644758566,78.12162859376,525.3057,-76.2000,3.0937,-0.1743,-0.0211,1.522086318,-1.179649024,355.428255225,0.0595,0.0601,0.0552,0.0180,0.0202,0.0130,0.0221,0.0220,0.5797,ab000241,0*b8367519
#INSPVAXA,FILE,0,29.0,FINESTEERING,2319,304488.050,02000000,46eb,17139;INS_SOLUTION_GOOD,INS_RTKFIXED,17.59644898248,78.12162850569,525.3047,-76.2000,3.0906,-0.1616,-0.0325,1.436856662,-1.240134258,355.597242854,0.0592,0.0606,0.0551,0.0178,0.0194,0.0128,0.0220,0.0219,0.5807,ab001241,0*df6e513a
#INSPVAXA,FILE,0,29.0,FINESTEERING,2319,304488.100,02000000,46eb,17139;INS_SOLUTION_GOOD,INS_RTKFIXED,17.59645037744,78.12162842217,525.3032,-76.2000,3.0893,-0.1519,-0.0381,1.363025162,-1.274115485,355.782296097,0.0592,0.0606,0.0551,0.0178,0.0194,0.0128,0.0220,0.0219,0.5807,ab001241,0*fe1db5ad
#INSPVAXA,FILE,0,30.0,FINESTEERING,2319,304488.150,02000000,46eb,17139;INS_SOLUTION_GOOD,INS_RTKFIXED,17.59645177234,78.12162834377,525.3012,-76.2000,3.0898,-0.1436,-0.0476,1.308524883,-1.304705910,355.990362385,0.0592,0.0606,0.0551,0.0178,0.0194,0.0128,0.0220,0.0219,0.5807,ab001241,0*859337de
#INSPVAXA,FILE,0,30.0,FINESTEERING,2319,304488.200,02000000,46eb,17139;INS_SOLUTION_GOOD,INS_RTKFIXED,17.59645316699,78.12162826966,525.2986,-76.2000,3.0866,-0.1337,-0.0630,1.251288187,-1.311994045,356.232915516,0.0592,0.0606,0.0551,0.0178,0.0194,0.0128,0.0220,0.0219,0.5807,ab001241,0*d1a849fc
#INSPVAXA,FILE,0,30.0,FINESTEERING,2319,304488.250,02000000,46eb,17139;INS_SOLUTION_GOOD,INS_RTKFIXED,17.59645456036,78.12162820055,525.2955,-76.2000,3.0829,-0.1261,-0.0709,1.177450070,-1.310759009,356.513451410,0.0592,0.0606,0.0551,0.0178,0.0194,0.0128,0.0220,0.0219,0.5807,ab001241,0*043bd413
#INSPVAXA,FILE,0,30.0,FINESTEERING,2319,304488.300,02000000,46eb,17139;INS_SOLUTION_GOOD,INS_RTKFIXED,17.59645595115,78.12162813388,525.2927,-76.2000,3.0769,-0.1165,-0.0608,1.104146374,-1.310038481,356.841356174,0.0592,0.0606,0.0551,0.0178,0.0194,0.0128,0.0220,0.0219,0.5807,ab001241,0*19be12bb
#INSPVAXA,FILE,0,30.0,FINESTEERING,2319,304488.350,02000000,46eb,17139;INS_SOLUTION_GOOD,INS_RTKFIXED,17.59645734073,78.12162807426,525.2899,-76.2000,3.0757,-0.1024,-0.0553,1.040088592,-1.311862642,357.204329799,0.0592,0.0606,0.0551,0.0178,0.0194,0.0128,0.0220,0.0219,0.5807,ab001241,0*5b14dd57
#INSPVAXA,FILE,0,30.0,FINESTEERING,2319,304488.400,02000000,46eb,17139;INS_SOLUTION_GOOD,INS_RTKFIXED,17.59645872864,78.12162802110,525.2875,-76.2000,3.0714,-0.0867,-0.0468,0.979648679,-1.317147757,357.607119749,0.0592,0.0606,0.0551,0.0178,0.0194,0.0128,0.0220,0.0219,0.5807,ab001241,0*c8881078
#INSPVAXA,FILE,0,30.0,FINESTEERING,2319,304488.450,02000000,46eb,17139;INS_SOLUTION_GOOD,INS_RTKFIXED,17.59646011386,78.12162797653,525.2855,-76.2000,3.0610,-0.0659,-0.0451,0.913836752,-1.345674556,358.041166213,0.0592,0.0606,0.0551,0.0178,0.0194,0.0128,0.0220,0.0219,0.5807,ab001241,0*4ff2cbc6
#INSPVAXA,FILE,0,30.0,FINESTEERING,2319,304488.500,02000000,46eb,17139;INS_SOLUTION_GOOD,INS_RTKFIXED,17.59646149692,78.12162794417,525.2835,-76.2000,3.0636,-0.0352,-0.0430,0.842509494,-1.339100558,358.497224579,0.0592,0.0606,0.0551,0.0178,0.0194,0.0128,0.0220,0.0219,0.5807,ab001241,0*4280067b
#INSPVAXA,FILE,0,30.0,FINESTEERING,2319,304488.550,02000000,46eb,17139;INS_SOLUTION_GOOD,INS_RTKFIXED,17.59646287779,78.12162792378,525.2817,-76.2000,3.0556,-0.0166,-0.0370,0.771742453,-1.360807709,358.969207821,0.0592,0.0606,0.0551,0.0178,0.0194,0.0128,0.0220,0.0219,0.5807,ab001241,0*8a55b328
#INSPVAXA,FILE,0,30.0,FINESTEERING,2319,304488.600,02000000,46eb,17139;INS_SOLUTION_GOOD,INS_RTKFIXED,17.59646425812,78.12162791290,525.2799,-76.2000,3.0573,0.0050,-0.0433,0.715120702,-1.385154522,359.463520213,0.0592,0.0606,0.0551,0.0178,0.0194,0.0128,0.0220,0.0219,0.5807,ab001241,0*126a8059
#INSPVAXA,FILE,0,30.0,FINESTEERING,2319,304488.650,02000000,46eb,17139;INS_SOLUTION_GOOD,INS_RTKFIXED,17.59646563590,78.12162791207,525.2777,-76.2000,3.0493,0.0299,-0.0525,0.673894763,-1.395249309,359.983397124,0.0592,0.0606,0.0551,0.0178,0.0194,0.0128,0.0220,0.0219,0.5807,ab001241,0*aefadf73
#INSPVAXA,FILE,0,30.0,FINESTEERING,2319,304488.700,02000000,46eb,17139;INS_SOLUTION_GOOD,INS_RTKFIXED,17.59646701244,78.12162792542,525.2749,-76.2000,3.0459,0.0601,-0.0663,0.624142223,-1.391754446,0.520157962,0.0592,0.0606,0.0551,0.0178,0.0194,0.0128,0.0220,0.0219,0.5807,ab001241,0*7af72cb3
#INSPVAXA,FILE,0,30.0,FINESTEERING,2319,304488.750,02000000,46eb,17139;INS_SOLUTION_GOOD,INS_RTKFIXED,17.59646838586,78.12162795277,525.2716,-76.2000,3.0388,0.0894,-0.0771,0.564551512,-1.378492600,1.080329288,0.0592,0.0606,0.0551,0.0178,0.0194,0.0128,0.0220,0.0219,0.5807,ab001241,0*90c3adb5
#INSPVAXA,FILE,0,30.0,FINESTEERING,2319,304488.800,02000000,46eb,17139;INS_SOLUTION_GOOD,INS_RTKFIXED,17.59646975757,78.12162799428,525.2680,-76.2000,3.0366,0.1158,-0.0773,0.516565990,-1.357259750,1.663871644,0.0592,0.0606,0.0551,0.0178,0.0194,0.0128,0.0220,0.0219,0.5807,ab001241,0*bb4e7f33
#INSPVAXA,FILE,0,30.0,FINESTEERING,2319,304488.850,02000000,46eb,17139;INS_SOLUTION_GOOD,INS_RTKFIXED,17.59647112626,78.12162804766,525.2641,-76.2000,3.0272,0.1427,-0.0792,0.455596152,-1.322300708,2.281556886,0.0592,0.0606,0.0551,0.0178,0.0194,0.0128,0.0220,0.0219,0.5807,ab001241,0*09a34b4d
#INSPVAXA,FILE,0,30.0,FINESTEERING,2319,304488.900,02000000,46eb,17139;INS_SOLUTION_GOOD,INS_RTKFIXED,17.59647249218,78.12162811361,525.2605,-76.2000,3.0224,0.1711,-0.0753,0.387802996,-1.286026473,2.927997475,0.0592,0.0606,0.0551,0.0178,0.0194,0.0128,0.0220,0.0219,0.5807,ab001241,0*22401bde
#INSPVAXA,FILE,0,30.0,FINESTEERING,2319,304488.950,02000000,46eb,17139;INS_SOLUTION_GOOD,INS_RTKFIXED,17.59647385421,78.12162819474,525.2570,-76.2000,3.0121,0.2041,-0.0703,0.310213962,-1.253548186,3.603945322,0.0592,0.0606,0.0551,0.0178,0.0194,0.0128,0.0220,0.0219,0.5807,ab001241,0*5b8eb98f
#INSPVAXA,FILE,0,30.0,FINESTEERING,2319,304489.000,02000000,46eb,17139;INS_SOLUTION_GOOD,INS_RTKFIXED,17.59647521262,78.12162829065,525.2538,-76.2000,3.0049,0.2350,-0.0625,0.237119341,-1.228004895,4.304862179,0.0592,0.0606,0.0551,0.0178,0.0194,0.0128,0.0220,0.0219,0.5807,ab001241,0*c7f308f7
#INSPVAXA,FILE,0,30.0,FINESTEERING,2319,304489.050,02000000,46eb,17139;INS_SOLUTION_GOOD,INS_RTKFIXED,17.59647657708,78.12162841926,525.2509,-76.2000,2.9939,0.2689,-0.0523,0.184445445,-1.215156704,5.033957024,0.0708,0.0734,0.0646,0.0188,0.0200,0.0138,0.0224,0.0221,0.5817,ab000342,0*9960ff5a
#INSPVAXA,FILE,0,28.0,FINESTEERING,2319,304489.100,02000000,46eb,17139;INS_SOLUTION_GOOD,INS_RTKFIXED,17.59647794640,78.12162858263,525.2482,-76.2000,2.9812,0.3092,-0.0527,0.145855507,-1.195013156,5.782798634,0.0708,0.0734,0.0646,0.0188,0.0200,0.0138,0.0224,0.0221,0.5817,ab000342,0*8e35c2e5
#INSPVAXA,FILE,0,28.0,FINESTEERING,2319,304489.150,02000000,46eb,17139;INS_SOLUTION_GOOD,INS_RTKFIXED,17.59647931139,78.12162876698,525.2458,-76.2000,2.9691,0.3515,-0.0388,0.135937612,-1.166751731,6.546361253,0.0708,0.0734,0.0646,0.0188,0.0200,0.0138,0.0224,0.0221,0.5817,ab000342,0*b8cb3571
#INSPVAXA,FILE,0,28.0,FINESTEERING,2319,304489.200,02000000,46eb,17139;INS_SOLUTION_GOOD,INS_RTKFIXED,17.59648066984,78.12162897236,525.2436,-76.2000,2.9554,0.3974,-0.0400,0.115102032,-1.147175679,7.303369750,0.0708,0.0734,0.0646,0.0188,0.0200,0.0138,0.0224,0.0221,0.5817,ab000342,0*aeb5d18c
#INSPVAXA,FILE,0,28.0,FINESTEERING,2319,304489.250,02000800,46eb,17139;INS_SOLUTION_GOOD,INS_RTKFIXED,17.59648202473,78.12162919993,525.2413,-76.2000,2.9468,0.4371,-0.0457,0.078233513,-1.126591840,8.053684312,0.0708,0.0734,0.0646,0.0188,0.0200,0.0138,0.0224,0.0221,0.5817,ab000342,0*db5e927d
#INSPVAXA,FILE,0,28.0,FINESTEERING,2319,304489.300,02000800,46eb,17139;INS_SOLUTION_GOOD,INS_RTKFIXED,17.59648337084,78.12162944036,525.2391,-76.2000,2.9354,0.4744,-0.0408,0.058934929,-1.108940248,8.797937356,0.0708,0.0734,0.0646,0.0188,0.0200,0.0138,0.0224,0.0221,0.5817,ab000342,0*bf454c08
#INSPVAXA,FILE,0,28.0,FINESTEERING,2319,304489.350,02000800,46eb,17139;INS_SOLUTION_GOOD,INS_RTKFIXED,17.59648471476,78.12162970265,525.2365,-76.2000,2.9192,0.5140,-0.0463,0.016191987,-1.093623882,9.546944532,0.0708,0.0734,0.0646,0.0188,0.0200,0.0138,0.0224,0.0221,0.5817,ab000342,0*b24ac45f
#INSPVAXA,FILE,0,28.0,FINESTEERING,2319,304489.400,02000800,46eb,17139;INS_SOLUTION_GOOD,INS_RTKFIXED,17.59648604958,78.12162997884,525.2343,-76.2000,2.9077,0.5438,-0.0424,-0.097163599,-1.080602772,10.305810537,0.0708,0.0734,0.0646,0.0188,0.0200,0.0138,0.0224,0.0221,0.5817,ab000342,0*c1b57d6e
#INSPVAXA,FILE,0,28.0,FINESTEERING,2319,304489.450,02000800,46eb,17139;INS_SOLUTION_GOOD,INS_RTKFIXED,17.59648737861,78.12163026975,525.2315,-76.2000,2.8992,0.5760,-0.0502,-0.208577858,-1.084442285,11.056035818,0.0708,0.0734,0.0646,0.0188,0.0200,0.0138,0.0224,0.0221,0.5817,ab000342,0*7ce8e0d9
#INSPVAXA,FILE,0,28.0,FINESTEERING,2319,304489.500,02000800,46eb,17139;INS_SOLUTION_GOOD,INS_RTKFIXED,17.59648870615,78.12163057819,525.2283,-76.2000,2.8870,0.6077,-0.0540,-0.333647471,-1.054765255,11.816343246,0.0708,0.0734,0.0646,0.0188,0.0200,0.0138,0.0224,0.0221,0.5817,ab000342,0*96737441
#INSPVAXA,FILE,0,28.0,FINESTEERING,2319,304489.550,02000800,46eb,17139;INS_SOLUTION_GOOD,INS_RTKFIXED,17.59649002553,78.12163089880,525.2251,-76.2000,2.8715,0.6391,-0.0598,-0.465188531,-1.025089686,12.577564920,0.0708,0.0734,0.0646,0.0188,0.0200,0.0138,0.0224,0.0221,0.5817,ab000342,0*cc0c7753
#INSPVAXA,FILE,0,28.0,FINESTEERING,2319,304489.600,02000800,46eb,17139;INS_SOLUTION_GOOD,INS_RTKFIXED,17.59649133795,78.12163123382,525.2217,-76.2000,2.8570,0.6750,-0.0690,-0.609479474,-0.956417134,13.356582787,0.0708,0.0734,0.0646,0.0188,0.0200,0.0138,0.0224,0.0221,0.5817,ab000342,0*4bc1043c
#INSPVAXA,FILE,0,28.0,FINESTEERING,2319,304489.650,02000800,46eb,17139;INS_SOLUTION_GOOD,INS_RTKFIXED,17.59649264201,78.12163158562,525.2183,-76.2000,2.8341,0.7114,-0.0625,-0.740549499,-0.877818202,14.146027558,0.0708,0.0734,0.0646,0.0188,0.0200,0.0138,0.0224,0.0221,0.5817,ab000342,0*cc6b2129
#INSPVAXA,FILE,0,28.0,FINESTEERING,2319,304489.700,02000800,46eb,17139;INS_SOLUTION_GOOD,INS_RTKFIXED,17.59649393668,78.12163195539,525.2153,-76.2000,2.8150,0.7524,-0.0529,-0.874498280,-0.772859241,14.948294517,0.0708,0.0734,0.0646,0.0188,0.0200,0.0138,0.0224,0.0221,0.5817,ab000342,0*4a5791cc
#INSPVAXA,FILE,0,28.0,FINESTEERING,2319,304489.750,02000800,46eb,17139;INS_SOLUTION_GOOD,INS_RTKFIXED,17.59649522169,78.12163234314,525.2132,-76.2000,2.7934,0.7891,-0.0326,-0.966236163,-0.687309740,15.760092465,0.0708,0.0734,0.0646,0.0188,0.0200,0.0138,0.0224,0.0221,0.5817,ab000342,0*ede75d8b
#INSPVAXA,FILE,0,28.0,FINESTEERING,2319,304489.800,02000800,46eb,17139;INS_SOLUTION_GOOD,INS_RTKFIXED,17.59649649519,78.12163274697,525.2120,-76.2000,2.7756,0.8289,-0.0162,-1.039333883,-0.620823750,16.574357621,0.0708,0.0734,0.0646,0.0188,0.0200,0.0138,0.0224,0.0221,0.5817,ab000342,0*b377de67
#INSPVAXA,FILE,0,28.0,FINESTEERING,2319,304489.850,02000800,46eb,17139;INS_SOLUTION_GOOD,INS_RTKFIXED,17.59649776384,78.12163317459,525.2110,-76.2000,2.7564,0.8736,-0.0149,-1.058820013,-0.580906089,17.384429562,0.0708,0.0734,0.0646,0.0188,0.0200,0.0138,0.0224,0.0221,0.5817,ab000342,0*e0fb2cb8
#INSPVAXA,FILE,0,28.0,FINESTEERING,2319,304489.900,02000800,46eb,17139;INS_SOLUTION_GOOD,INS_RTKFIXED,17.59649902177,78.12163362100,525.2102,-76.2000,2.7360,0.9198,-0.0093,-1.053863982,-0.558668434,18.189985796,0.0708,0.0734,0.0646,0.0188,0.0200,0.0138,0.0224,0.0221,0.5817,ab000342,0*589d49d3
#INSPVAXA,FILE,0,28.0,FINESTEERING,2319,304489.950,02000800,46eb,17139;INS_SOLUTION_GOOD,INS_RTKFIXED,17.59650027034,78.12163408615,525.2098,-76.2000,2.7150,0.9547,-0.0022,-1.042027121,-0.587962027,19.002075704,0.0708,0.0734,0.0646,0.0188,0.0200,0.0138,0.0224,0.0221,0.5817,ab000342,0*714df814
#INSPVAXA,FILE,0,28.0,FINESTEERING,2319,304490.000,02000800,46eb,17139;INS_SOLUTION_GOOD,INS_RTKFIXED,17.59650151322,78.12163456921,525.2087,-76.2000,2.7044,0.9954,-0.0313,-1.029876118,-0.599889463,19.830116346,0.0708,0.0734,0.0646,0.0188,0.0200,0.0138,0.0224,0.0221,0.5817,ab000342,0*9b8b0a1a
#INSPVAXA,FILE,0,28.0,FINESTEERING,2319,304490.050,02000800,46eb,17139;INS_SOLUTION_GOOD,INS_RTKFIXED,17.59650275604,78.12163508043,525.2070,-76.2000,2.6977,1.0374,-0.0519,-0.987004679,-0.580737409,20.661532170,0.0843,0.0892,0.0754,0.0217,0.0226,0.0171,0.0230,0.0223,0.5826,ab000342,0*9f74df0f
#INSPVAXA,FILE,0,28.0,FINESTEERING,2319,304490.100,02000800,46eb,17139;INS_SOLUTION_GOOD,INS_RTKFIXED,17.59650401029,78.12163563181,525.2036,-76.2000,2.6960,1.0888,-0.0993,-0.986136046,-0.510142397,21.507712446,0.0843,0.0892,0.0754,0.0217,0.0226,0.0171,0.0230,0.0223,0.5826,ab000342,0*b71b639e
#INSPVAXA,FILE,0,29.5,FINESTEERING,2319,304490.150,02000800,46eb,17139;INS_SOLUTION_GOOD,INS_RTKFIXED,17.59650526779,78.12163620365,525.1992,-76.2000,2.7020,1.1129,-0.0981,-0.978503223,-0.337601939,22.366721524,0.0843,0.0892,0.0754,0.0217,0.0226,0.0171,0.0230,0.0223,0.5826,ab000342,0*834de2b9
#INSPVAXA,FILE,0,29.5,FINESTEERING,2319,304490.200,02000800,46eb,17139;INS_SOLUTION_GOOD,INS_RTKFIXED,17.59650652503,78.12163678753,525.1943,-76.2000,2.7234,1.1677,-0.1041,-0.955333174,-0.116996195,23.253878507,0.0843,0.0892,0.0754,0.0217,0.0226,0.0171,0.0230,0.0223,0.5826,ab000342,0*094d74b5
#INSPVAXA,FILE,0,29.5,FINESTEERING,2319,304490.250,02000800,46eb,17139;INS_SOLUTION_GOOD,INS_RTKFIXED,17.59650778824,78.12163740187,525.1899,-76.2000,2.7242,1.2281,-0.0826,-0.970787463,0.024135494,24.156844246,0.0843,0.0892,0.0754,0.0217,0.0226,0.0171,0.0230,0.0223,0.5826,ab000342,0*a294640f
#INSPVAXA,FILE,0,29.5,FINESTEERING,2319,304490.300,02000800,46eb,17139;INS_SOLUTION_GOOD,INS_RTKFIXED,17.59650906491,78.12163804742,525.1866,-76.2000,2.7558,1.2867,-0.0533,-1.012930605,0.131503424,25.084221700,0.0843,0.0892,0.0754,0.0217,0.0226,0.0171,0.0230,0.0223,0.5826,ab000342,0*13cafbe9
#INSPVAXA,FILE,0,29.5,FINESTEERING,2319,304490.350,02000800,46eb,17139;INS_SOLUTION_GOOD,INS_RTKFIXED,17.59651034661,78.12163871550,525.1854,-76.2000,2.7718,1.3454,-0.0035,-1.017622095,0.118861094,26.025468276,0.0843,0.0892,0.0754,0.0217,0.0226,0.0171,0.0230,0.0223,0.5826,ab000342,0*ee40cd51
#INSPVAXA,FILE,0,29.5,FINESTEERING,2319,304490.400,02000000,46eb,17139;INS_SOLUTION_GOOD,INS_RTKFIXED,17.59651163743,78.12163941499,525.1863,-76.2000,2.7906,1.4149,0.0374,-1.054577073,0.016008720,26.972365978,0.0843,0.0892,0.0754,0.0217,0.0226,0.0171,0.0230,0.0223,0.5826,ab000342,0*a608022e
#INSPVAXA,FILE,0,29.5,FINESTEERING,2319,304490.450,02000000,46eb,17139;INS_SOLUTION_GOOD,INS_RTKFIXED,17.59651293345,78.12164014104,525.1896,-76.2000,2.8120,1.4823,0.0848,-1.148466632,-0.115768605,27.912952603,0.0843,0.0892,0.0754,0.0217,0.0226,0.0171,0.0230,0.0223,0.5826,ab000342,0*4d6c6689
#INSPVAXA,FILE,0,29.5,FINESTEERING,2319,304490.500,02000000,46eb,17139;INS_SOLUTION_GOOD,INS_RTKFIXED,17.59651424771,78.12164090772,525.1934,-76.2000,2.8474,1.5686,0.0743,-1.255605580,-0.268727155,28.859567659,0.0843,0.0892,0.0754,0.0217,0.0226,0.0171,0.0230,0.0223,0.5826,ab000342,0*ec36e799
