#BESTVELA,FILE,0,41.0,FINESTEERING,2319,307702.800,02000800,10a2,17139;SOL_COMPUTED,INS_RTKFIXED,0.000,26.000,4.2971,269.192943,-0.0325,0*7379f091
#BESTVELA,FILE,0,41.0,FINESTEERING,2319,307702.900,02000800,10a2,17139;SOL_COMPUTED,INS_RTKFIXED,0.000,26.000,4.2799,269.209938,-0.0143,0*ba6338e9
#BESTVELA,FILE,0,41.0,FINESTEERING,2319,307703.000,02000800,10a2,17139;SOL_COMPUTED,INS_RTKFIXED,0.000,26.000,4.2631,269.424860,0.0387,0*dc532f9e
#BESTVELA,FILE,0,41.0,FINESTEERING,2319,307703.050,02000800,10a2,17139;SOL_COMPUTED,INS_RTKFIXED,0.000,27.000,4.2409,269.385140,0.0165,0*c7ca4cbe
#BESTVELA,FILE,0,40.0,FINESTEERING,2319,307703.150,02000800,10a2,17139;SOL_COMPUTED,INS_RTKFIXED,0.000,27.000,4.2087,269.644547,-0.0022,0*4035e205
#BESTVELA,FILE,0,40.0,FINESTEERING,2319,307703.250,02000800,10a2,17139;SOL_COMPUTED,INS_RTKFIXED,0.000,27.000,4.1785,270.566862,-0.0642,0*ab4254c5
#BESTVELA,FILE,0,40.0,FINESTEERING,2319,307703.350,02000800,10a2,17139;SOL_COMPUTED,INS_RTKFIXED,0.000,27.000,4.1911,270.484026,-0.0803,0*9727a27e
#BESTVELA,FILE,0,40.0,FINESTEERING,2319,307703.450,02000800,10a2,17139;SOL_COMPUTED,INS_RTKFIXED,0.000,27.000,4.1802,270.426596,-0.0319,0*58a87377
#BESTVELA,FILE,0,40.0,FINESTEERING,2319,307703.550,02000800,10a2,17139;SOL_COMPUTED,INS_RTKFIXED,0.000,27.000,4.1933,270.065672,0.0680,0*087f12fa
#BESTVELA,FILE,0,40.0,FINESTEERING,2319,307703.650,02000800,10a2,17139;SOL_COMPUTED,INS_RTKFIXED,0.000,27.000,4.1960,270.227912,0.0739,0*3a4b9a8c
#BESTVELA,FILE,0,40.0,FINESTEERING,2319,307703.750,02000800,10a2,17139;SOL_COMPUTED,INS_RTKFIXED,0.000,27.000,4.1751,270.353140,0.0635,0*4efd296d
#BESTVELA,FILE,0,40.0,FINESTEERING,2319,307703.850,02000800,10a2,17139;SOL_COMPUTED,INS_RTKFIXED,0.000,27.000,4.1049,271.033102,-0.0138,0*7f388b22
#BESTVELA,FILE,0,40.0,FINESTEERING,2319,307703.900,02000800,10a2,17139;SOL_COMPUTED,INS_RTKFIXED,0.000,27.000,4.1088,271.139585,-0.0546,0*55561653
#BESTVELA,FILE,0,40.0,FINESTEERING,2319,307704.000,02000800,10a2,17139;SOL_COMPUTED,INS_RTKFIXED,0.000,27.000,4.0386,270.940308,-0.1055,0*f8e097d8
#BESTVELA,FILE,0,40.0,FINESTEERING,2319,307704.100,02000800,10a2,17139;SOL_COMPUTED,INS_RTKFIXED,0.000,28.000,4.0271,270.818599,-0.0474,0*a2408f31
#BESTVELA,FILE,0,40.5,FINESTEERING,2319,307704.200,02000800,10a2,17139;SOL_COMPUTED,INS_RTKFIXED,0.000,28.000,4.0346,270.952149,0.0133,0*cd1250e3
#BESTVELA,FILE,0,40.5,FINESTEERING,2319,307704.300,02000800,10a2,17139;SOL_COMPUTED,INS_RTKFIXED,0.000,28.000,4.0375,270.371726,0.0582,0*0523b865
#BESTVELA,FILE,0,40.5,FINESTEERING,2319,307704.400,02000800,10a2,17139;SOL_COMPUTED,INS_RTKFIXED,0.000,28.000,4.0239,270.814724,-0.0089,0*ef323656
#BESTVELA,FILE,0,40.5,FINESTEERING,2319,307704.500,02000800,10a2,17139;SOL_COMPUTED,INS_RTKFIXED,0.000,28.000,3.9642,272.064553,-0.0913,0*6552d31b
#BESTVELA,FILE,0,40.5,FINESTEERING,2319,307704.600,02000800,10a2,17139;SOL_COMPUTED,INS_RTKFIXED,0.000,28.000,3.9563,271.883457,-0.0425,0*ab46dfa8
#BESTVELA,FILE,0,40.5,FINESTEERING,2319,307704.700,02000800,10a2,17139;SOL_COMPUTED,INS_RTKFIXED,0.000,28.000,3.9847,271.187314,0.0130,0*08ed9588
#BESTVELA,FILE,0,40.5,FINESTEERING,2319,307704.800,02000800,10a2,17139;SOL_COMPUTED,INS_RTKFIXED,0.000,28.000,3.9691,270.792735,0.0620,0*0ae409c8
#BESTVELA,FILE,0,40.5,FINESTEERING,2319,307704.900,02000800,10a2,17139;SOL_COMPUTED,INS_RTKFIXED,0.000,28.000,3.9358,270.511980,0.0537,0*5a4247a8
#BESTVELA,FILE,0,40.5,FINESTEERING,2319,307704.950,02000800,10a2,17139;SOL_COMPUTED,INS_RTKFIXED,0.000,28.000,3.9075,271.012361,0.0076,0*61af9435
#BESTVELA,FILE,0,40.5,FINESTEERING,2319,307705.050,02000800,10a2,17139;SOL_COMPUTED,INS_RTKFIXED,0.000,29.000,3.8759,271.800143,-0.0153,0*ccd42c27
#BESTVELA,FILE,0,40.5,FINESTEERING,2319,307705.150,02000800,10a2,17139;SOL_COMPUTED,INS_RTKFIXED,0.000,29.000,3.8525,271.954156,-0.0483,0*3188ed78
#BESTVELA,FILE,0,42.5,FINESTEERING,2319,307705.250,02000800,10a2,17139;SOL_COMPUTED,INS_RTKFIXED,0.000,29.000,3.8010,271.476175,-0.0515,0*be25fed2
#BESTVELA,FILE,0,42.5,FINESTEERING,2319,307705.350,02000800,10a2,17139;SOL_COMPUTED,INS_RTKFIXED,0.000,29.000,3.8146,271.236821,-0.0420,0*6ac5fb05
#BESTVELA,FILE,0,42.5,FINESTEERING,2319,307705.450,02000800,10a2,17139;SOL_COMPUTED,INS_RTKFIXED,0.000,29.000,3.7936,270.708878,-0.0132,0*37779f54
#BESTVELA,FILE,0,42.5,FINESTEERING,2319,307705.550,02000800,10a2,17139;SOL_COMPUTED,INS_RTKFIXED,0.000,29.000,3.7734,270.346779,-0.0121,0*51c2a0e8
#BESTVELA,FILE,0,42.5,FINESTEERING,2319,307705.650,02000800,10a2,17139;SOL_COMPUTED,INS_RTKFIXED,0.000,29.000,3.7309,270.461587,-0.0044,0*2c5fdf15
#BESTVELA,FILE,0,42.5,FINESTEERING,2319,307705.750,02000800,10a2,17139;SOL_COMPUTED,INS_RTKFIXED,0.000,29.000,3.7197,270.343286,-0.0050,0*f1426a7f
#BESTVELA,FILE,0,42.5,FINESTEERING,2319,307705.850,02000800,10a2,17139;SOL_COMPUTED,INS_RTKFIXED,0.000,29.000,3.6645,270.134357,0.0265,0*4c4aac9d
#BESTVELA,FILE,0,42.5,FINESTEERING,2319,307705.950,02000800,10a2,17139;SOL_COMPUTED,INS_RTKFIXED,0.000,29.000,3.6609,270.590617,-0.0073,0*80fac46f
#BESTVELA,FILE,0,42.5,FINESTEERING,2319,307706.000,02000800,10a2,17139;SOL_COMPUTED,INS_RTKFIXED,0.000,29.000,3.6346,269.839824,-0.0116,0*d8dfff81
#BESTVELA,FILE,0,41.0,FINESTEERING,2319,307706.100,02000800,10a2,17139;SOL_COMPUTED,INS_RTKFIXED,0.000,30.000,3.6175,270.405700,-0.0130,0*72302625
#BESTVELA,FILE,0,41.0,FINESTEERING,2319,307706.200,02000800,10a2,17139;SOL_COMPUTED,INS_RTKFIXED,0.000,30.000,3.6221,270.750739,-0.0179,0*01542c33
#BESTVELA,FILE,0,41.0,FINESTEERING,2319,307706.250,02000800,10a2,17139;SOL_COMPUTED,INS_RTKFIXED,0.000,30.000,3.5577,270.791338,-0.0330,0*e07d6345
#BESTVELA,FILE,0,41.0,FINESTEERING,2319,307706.300,02000800,10a2,17139;SOL_COMPUTED,INS_RTKFIXED,0.000,30.000,3.5761,270.779780,0.0099,0*c8235461
#BESTVELA,FILE,0,41.0,FINESTEERING,2319,307706.350,02000800,10a2,17139;SOL_COMPUTED,INS_RTKFIXED,0.000,30.000,3.5735,270.463777,0.0194,0*b0437153
#BESTVELA,FILE,0,41.0,FINESTEERING,2319,307706.400,02000800,10a2,17139;SOL_COMPUTED,INS_RTKFIXED,0.000,30.000,3.5539,269.801534,0.0273,0*18d1efef
#BESTVELA,FILE,0,41.0,FINESTEERING,2319,307706.450,02000800,10a2,17139;SOL_COMPUTED,INS_RTKFIXED,0.000,30.000,3.5312,269.948842,0.0569,0*cc45b52e
#BESTVELA,FILE,0,41.0,FINESTEERING,2319,307706.500,02000800,10a2,17139;SOL_COMPUTED,INS_RTKFIXED,0.000,30.000,3.5264,269.202431,0.0406,0*5a19fa5b
#BESTVELA,FILE,0,41.0,FINESTEERING,2319,307706.550,02000800,10a2,17139;SOL_COMPUTED,INS_RTKFIXED,0.000,30.000,3.4914,269.698221,0.0242,0*2cf5f915
#BESTVELA,FILE,0,41.0,FINESTEERING,2319,307706.600,02000800,10a2,17139;SOL_COMPUTED,INS_RTKFIXED,0.000,30.000,3.5020,270.030489,-0.0214,0*b91cb1c9
#BESTVELA,FILE,0,41.0,FINESTEERING,2319,307706.650,02000800,10a2,17139;SOL_COMPUTED,INS_RTKFIXED,0.000,30.000,3.4553,269.876964,0.0040,0*373a62e3
#BESTVELA,FILE,0,41.0,FINESTEERING,2319,307706.700,02000000,10a2,17139;SOL_COMPUTED,INS_RTKFIXED,0.000,30.000,3.4554,269.815214,-0.0140,0*143fa307
#BESTVELA,FILE,0,41.0,FINESTEERING,2319,307706.750,02000000,10a2,17139;SOL_COMPUTED,INS_RTKFIXED,0.000,30.000,3.4441,270.198373,-0.0295,0*4824256a
#BESTVELA,FILE,0,41.0,FINESTEERING,2319,307706.800,02000000,10a2,17139;SOL_COMPUTED,INS_RTKFIXED,0.000,30.000,3.4484,270.507861,-0.0354,0*3b2c9898
#BESTVELA,FILE,0,41.0,FINESTEERING,2319,307706.850,02000000,10a2,17139;SOL_COMPUTED,INS_RTKFIXED,0.000,30.000,3.4469,270.700951,-0.0115,0*b72c8f3b
#BESTVELA,FILE,0,41.0,FINESTEERING,2319,307706.900,02000000,10a2,17139;SOL_COMPUTED,INS_RTKFIXED,0.000,30.000,3.4211,270.353750,-0.0310,0*d8e41c7f
#BESTVELA,FILE,0,41.0,FINESTEERING,2319,307706.950,02000000,10a2,17139;SOL_COMPUTED,INS_RTKFIXED,0.000,30.000,3.4285,270.377433,0.0174,0*7cf35dc8
#BESTVELA,FILE,0,41.0,FINESTEERING,2319,307707.000,02000000,10a2,17139;SOL_COMPUTED,INS_RTKFIXED,0.000,30.000,3.4126,269.670243,0.0200,0*ddb6d143
#BESTVELA,FILE,0,41.0,FINESTEERING,2319,307707.050,02000000,10a2,17139;SOL_COMPUTED,INS_RTKFIXED,0.000,31.000,3.4016,270.097429,0.0155,0*212fff34
#BESTVELA,FILE,0,37.5,FINESTEERING,2319,307707.100,02000000,10a2,17139;SOL_COMPUTED,INS_RTKFIXED,0.000,31.000,3.3905,270.922564,-0.0310,0*c0701aad
#BESTVELA,FILE,0,37.5,FINESTEERING,2319,307707.150,02000000,10a2,17139;SOL_COMPUTED,INS_RTKFIXED,0.000,31.000,3.3408,269.901899,0.0313,0*f5a1cb23
#BESTVELA,FILE,0,37.5,FINESTEERING,2319,307707.200,02000000,10a2,17139;SOL_COMPUTED,INS_RTKFIXED,0.000,31.000,3.3391,269.731246,-0.0080,0*cb200b5f
#BESTVELA,FILE,0,37.5,FINESTEERING,2319,307707.250,02000000,10a2,17139;SOL_COMPUTED,INS_RTKFIXED,0.000,31.000,3.3187,269.802836,0.0045,0*54faddad
#BESTVELA,FILE,0,37.5,FINESTEERING,2319,307707.300,02000000,10a2,17139;SOL_COMPUTED,INS_RTKFIXED,0.000,31.000,3.3023,269.818623,-0.0237,0*5652aea8
#BESTVELA,FILE,0,37.5,FINESTEERING,2319,307707.350,02000000,10a2,17139;SOL_COMPUTED,INS_RTKFIXED,0.000,31.000,3.2723,269.639725,0.0025,0*d25e6a20
#BESTVELA,FILE,0,37.5,FINESTEERING,2319,307707.400,02000000,10a2,17139;SOL_COMPUTED,INS_RTKFIXED,0.000,31.000,3.2622,269.347160,0.0033,0*4bc275a5
#BESTVELA,FILE,0,37.5,FINESTEERING,2319,307707.450,02000000,10a2,17139;SOL_COMPUTED,INS_RTKFIXED,0.000,31.000,3.2325,269.736428,0.0067,0*53f6dc28
#BESTVELA,FILE,0,37.5,FINESTEERING,2319,307707.500,02000000,10a2,17139;SOL_COMPUTED,INS_RTKFIXED,0.000,31.000,3.2497,270.313074,-0.0201,0*aae416d4
#BESTVELA,FILE,0,37.5,FINESTEERING,2319,307707.550,02000000,10a2,17139;SOL_COMPUTED,INS_RTKFIXED,0.000,31.000,3.2318,270.088402,-0.0185,0*a1688ce5
#BESTVELA,FILE,0,37.5,FINESTEERING,2319,307707.600,02000000,10a2,17139;SOL_COMPUTED,INS_RTKFIXED,0.000,31.000,3.2264,270.096118,-0.0330,0*df9d795f
#BESTVELA,FILE,0,37.5,FINESTEERING,2319,307707.650,02000000,10a2,17139;SOL_COMPUTED,INS_RTKFIXED,0.000,31.000,3.2079,270.048974,-0.0262,0*c1289d87
#BESTVELA,FILE,0,37.5,FINESTEERING,2319,307707.700,02000000,10a2,17139;SOL_COMPUTED,INS_RTKFIXED,0.000,31.000,3.2003,269.904153,-0.0508,0*bbf53c71
#BESTVELA,FILE,0,37.5,FINESTEERING,2319,307707.750,02000000,10a2,17139;SOL_COMPUTED,INS_RTKFIXED,0.000,31.000,3.1807,269.810378,-0.0314,0*b097fa26
#BESTVELA,FILE,0,37.5,FINESTEERING,2319,307707.800,02000000,10a2,17139;SOL_COMPUTED,INS_RTKFIXED,0.000,31.000,3.2006,270.339486,-0.0421,0*56bd1b43
#BESTVELA,FILE,0,37.5,FINESTEERING,2319,307707.850,02000000,10a2,17139;SOL_COMPUTED,INS_RTKFIXED,0.000,31.000,3.1698,270.072442,-0.0259,0*e972bf05
#BESTVELA,FILE,0,37.5,FINESTEERING,2319,307707.900,02000000,10a2,17139;SOL_COMPUTED,INS_RTKFIXED,0.000,31.000,3.1729,269.447707,0.0003,0*021ed4c9
#BESTVELA,FILE,0,37.5,FINESTEERING,2319,307707.950,02000000,10a2,17139;SOL_COMPUTED,INS_RTKFIXED,0.000,31.000,3.1489,269.650299,0.0056,0*b4817108
#BESTVELA,FILE,0,37.5,FINESTEERING,2319,307708.000,02000000,10a2,17139;SOL_COMPUTED,INS_RTKFIXED,0.000,31.000,3.1518,269.530462,0.0269,0*a80f52c9
#BESTVELA,FILE,0,37.5,FINESTEERING,2319,307708.050,02000000,10a2,17139;SOL_COMPUTED,INS_RTKFIXED,0.000,32.000,3.1506,269.391734,0.0185,0*febf71a4
#BESTVELA,FILE,0,33.0,FINESTEERING,2319,307708.100,02000000,10a2,17139;SOL_COMPUTED,INS_RTKFIXED,0.000,32.000,3.1218,269.377882,0.0178,0*5231eee8
#BESTVELA,FILE,0,33.0,FINESTEERING,2319,307708.150,02000000,10a2,17139;SOL_COMPUTED,INS_RTKFIXED,0.000,32.000,3.1242,269.256642,0.0223,0*112c9d05
#BESTVELA,FILE,0,33.0,FINESTEERING,2319,307708.200,02000000,10a2,17139;SOL_COMPUTED,INS_RTKFIXED,0.000,32.000,3.1090,269.240136,0.0316,0*d5ed609d
#BESTVELA,FILE,0,33.0,FINESTEERING,2319,307708.250,02000000,10a2,17139;SOL_COMPUTED,INS_RTKFIXED,0.000,32.000,3.0901,269.434573,0.0132,0*28aaa700
#BESTVELA,FILE,0,33.0,FINESTEERING,2319,307708.300,02000000,10a2,17139;SOL_COMPUTED,INS_RTKFIXED,0.000,32.000,3.0887,270.445824,-0.0234,0*7fe12b61
#BESTVELA,FILE,0,33.0,FINESTEERING,2319,307708.350,02000000,10a2,17139;SOL_COMPUTED,INS_RTKFIXED,0.000,32.000,3.0522,270.230261,0.0018,0*5e876d99
#BESTVELA,FILE,0,33.0,FINESTEERING,2319,307708.400,02000000,10a2,17139;SOL_COMPUTED,INS_RTKFIXED,0.000,32.000,3.0683,271.171419,-0.0526,0*37849fb3
#BESTVELA,FILE,0,33.0,FINESTEERING,2319,307708.450,02000000,10a2,17139;SOL_COMPUTED,INS_RTKFIXED,0.000,32.000,3.0111,270.662419,-0.0415,0*66189dff
#BESTVELA,FILE,0,33.0,FINESTEERING,2319,307708.500,02000000,10a2,17139;SOL_COMPUTED,INS_RTKFIXED,0.000,32.000,3.0384,270.415763,-0.0440,0*c05f8af1
#BESTVELA,FILE,0,33.0,FINESTEERING,2319,307708.550,02000000,10a2,17139;SOL_COMPUTED,INS_RTKFIXED,0.000,32.000,3.0159,269.818042,-0.0071,0*d68c5d8e
#BESTVELA,FILE,0,33.0,FINESTEERING,2319,307708.600,02000000,10a2,17139;SOL_COMPUTED,INS_RTKFIXED,0.000,32.000,3.0257,270.162507,-0.0207,0*a3ac7aa0
#BESTVELA,FILE,0,33.0,FINESTEERING,2319,307708.650,02000000,10a2,17139;SOL_COMPUTED,INS_RTKFIXED,0.000,32.000,2.9799,269.815434,-0.0147,0*bf1669be
#BESTVELA,FILE,0,33.0,FINESTEERING,2319,307708.700,02000000,10a2,17139;SOL_COMPUTED,INS_RTKFIXED,0.000,32.000,2.9986,269.599453,0.0121,0*e5f5061c
#BESTVELA,FILE,0,33.0,FINESTEERING,2319,307708.750,02000000,10a2,17139;SOL_COMPUTED,INS_RTKFIXED,0.000,32.000,2.9761,268.579014,0.0490,0*7a6f0ca5
#BESTVELA,FILE,0,33.0,FINESTEERING,2319,307708.800,02000000,10a2,17139;SOL_COMPUTED,INS_RTKFIXED,0.000,32.000,2.9940,269.338174,0.0207,0*60831c4c
#BESTVELA,FILE,0,33.0,FINESTEERING,2319,307708.850,02000000,10a2,17139;SOL_COMPUTED,INS_RTKFIXED,0.000,32.000,2.9483,269.040737,0.0117,0*d3342ef2
#BESTVELA,FILE,0,33.0,FINESTEERING,2319,307708.900,02000000,10a2,17139;SOL_COMPUTED,INS_RTKFIXED,0.000,32.000,2.9544,269.428443,-0.0019,0*cd904cd5
#BESTVELA,FILE,0,33.0,FINESTEERING,2319,307708.950,02000000,10a2,17139;SOL_COMPUTED,INS_RTKFIXED,0.000,32.000,2.9439,269.177872,-0.0058,0*5a3a23b5
#BESTVELA,FILE,0,33.0,FINESTEERING,2319,307709.000,02000000,10a2,17139;SOL_COMPUTED,INS_RTKFIXED,0.000,32.000,2.9185,269.070666,0.0169,0*d4c7be6c
#BESTVELA,FILE,0,33.0,FINESTEERING,2319,307709.050,02000000,10a2,17139;SOL_COMPUTED,INS_RTKFIXED,0.000,33.000,2.9210,270.137772,-0.0518,0*dc87f649
#BESTVELA,FILE,0,33.0,FINESTEERING,2319,307709.100,02000000,10a2,17139;SOL_COMPUTED,INS_RTKFIXED,0.000,33.000,2.9099,270.076336,0.0071,0*b64b7c49
#BESTVELA,FILE,0,39.0,FINESTEERING,2319,307709.150,02000000,10a2,17139;SOL_COMPUTED,INS_RTKFIXED,0.000,33.000,2.9401,270.474876,-0.0378,0*85d49e79
#BESTVELA,FILE,0,39.0,FINESTEERING,2319,307709.200,02000000,10a2,17139;SOL_COMPUTED,INS_RTKFIXED,0.000,33.000,2.9091,269.928248,0.0157,0*aab4ee14
#BESTVELA,FILE,0,39.0,FINESTEERING,2319,307709.250,02000000,10a2,17139;SOL_COMPUTED,INS_RTKFIXED,0.000,33.000,2.9249,270.160292,0.0009,0*9def00fc
#BESTVELA,FILE,0,39.0,FINESTEERING,2319,307709.300,02000000,10a2,17139;SOL_COMPUTED,INS_RTKFIXED,0.000,33.000,2.9236,269.915894,0.0101,0*ee6bb560
#BESTVELA,FILE,0,39.0,FINESTEERING,2319,307709.350,02000000,10a2,17139;SOL_COMPUTED,INS_RTKFIXED,0.000,33.000,2.8986,269.871778,0.0016,0*7145b941
#BESTVELA,FILE,0,39.0,FINESTEERING,2319,307709.400,02000000,10a2,17139;SOL_COMPUTED,INS_RTKFIXED,0.000,33.000,2.8758,269.210592,0.0278,0*3757d66b
#BESTVELA,FILE,0,39.0,FINESTEERING,2319,307709.450,02000000,10a2,17139;SOL_COMPUTED,INS_RTKFIXED,0.000,33.000,2.8888,268.803798,0.0075,0*29514797
#BESTVELA,FILE,0,39.0,FINESTEERING,2319,307709.500,02000000,10a2,17139;SOL_COMPUTED,INS_RTKFIXED,0.000,33.000,2.8502,268.754060,0.0135,0*96c22abb
#BESTVELA,FILE,0,39.0,FINESTEERING,2319,307709.550,02000000,10a2,17139;SOL_COMPUTED,INS_RTKFIXED,0.000,33.000,2.8485,268.557893,0.0044,0*c44e9151
#BESTVELA,FILE,0,39.0,FINESTEERING,2319,307709.600,02000000,10a2,17139;SOL_COMPUTED,INS_RTKFIXED,0.000,33.000,2.8425,268.181684,0.0101,0*cf71073b
#BESTVELA,FILE,0,39.0,FINESTEERING,2319,307709.650,02000000,10a2,17139;SOL_COMPUTED,INS_RTKFIXED,0.000,33.000,2.8102,268.399342,-0.0209,0*d3ba0d11
#BESTVELA,FILE,0,39.0,FINESTEERING,2319,307709.700,02000000,10a2,17139;SOL_COMPUTED,INS_RTKFIXED,0.000,33.000,2.7839,268.603257,-0.0240,0*3167e6ee
#BESTVELA,FILE,0,39.0,FINESTEERING,2319,307709.750,02000000,10a2,17139;SOL_COMPUTED,INS_RTKFIXED,0.000,33.000,2.7931,268.770951,-0.0418,0*d644e2ba
#BESTVELA,FILE,0,39.0,FINESTEERING,2319,307709.800,02000000,10a2,17139;SOL_COMPUTED,INS_RTKFIXED,0.000,33.000,2.7632,268.660950,-0.0142,0*b65adab5
#BESTVELA,FILE,0,39.0,FINESTEERING,2319,307709.850,02000000,10a2,17139;SOL_COMPUTED,INS_RTKFIXED,0.000,33.000,2.7825,268.663435,-0.0155,0*1da880c1
#BESTVELA,FILE,0,39.0,FINESTEERING,2319,307709.900,02000000,10a2,17139;SOL_COMPUTED,INS_RTKFIXED,0.000,33.000,2.7514,268.214169,-0.0037,0*3414edf7
#BESTVELA,FILE,0,39.0,FINESTEERING,2319,307709.950,02000000,10a2,17139;SOL_COMPUTED,INS_RTKFIXED,0.000,33.000,2.7882,268.211923,-0.0235,0*8ef05d5f
#BESTVELA,FILE,0,39.0,FINESTEERING,2319,307710.000,02000000,10a2,17139;SOL_COMPUTED,INS_RTKFIXED,0.000,33.000,2.7310,267.635875,-0.0208,0*edb34e7f
#BESTVELA,FILE,0,39.0,FINESTEERING,2319,307710.050,02000000,10a2,17139;SOL_COMPUTED,INS_RTKFIXED,0.000,34.000,2.7361,267.808163,-0.0379,0*f0b68652
#BESTVELA,FILE,0,37.0,FINESTEERING,2319,307710.100,02000000,10a2,17139;SOL_COMPUTED,INS_RTKFIXED,0.000,34.000,2.7239,266.681440,-0.0204,0*b75e93e9
#BESTVELA,FILE,0,37.0,FINESTEERING,2319,307710.150,02000000,10a2,17139;SOL_COMPUTED,INS_RTKFIXED,0.000,34.000,2.7203,266.602406,-0.0363,0*3c0be034
#BESTVELA,FILE,0,37.0,FINESTEERING,2319,307710.200,02000000,10a2,17139;SOL_COMPUTED,INS_RTKFIXED,0.000,34.000,2.6954,266.142894,-0.0215,0*b061d884
#BESTVELA,FILE,0,37.0,FINESTEERING,2319,307710.250,02000000,10a2,17139;SOL_COMPUTED,INS_RTKFIXED,0.000,34.000,2.7128,266.074680,-0.0282,0*950a5e7f
#BESTVELA,FILE,0,37.0,FINESTEERING,2319,307710.300,02000000,10a2,17139;SOL_COMPUTED,INS_RTKFIXED,0.000,34.000,2.6842,265.090853,-0.0007,0*8f8678b3
#BESTVELA,FILE,0,37.0,FINESTEERING,2319,307710.350,02000000,10a2,17139;SOL_COMPUTED,INS_RTKFIXED,0.000,34.000,2.6973,264.723434,0.0089,0*7271cd2c
#BESTVELA,FILE,0,37.0,FINESTEERING,2319,307710.400,02000000,10a2,17139;SOL_COMPUTED,INS_RTKFIXED,0.000,34.000,2.6915,265.234404,-0.0156,0*ed8e599e
#BESTVELA,FILE,0,37.0,FINESTEERING,2319,307710.450,02000000,10a2,17139;SOL_COMPUTED,INS_RTKFIXED,0.000,34.000,2.6664,265.508074,-0.0261,0*62bc3053
#BESTVELA,FILE,0,37.0,FINESTEERING,2319,307710.500,02000000,10a2,17139;SOL_COMPUTED,INS_RTKFIXED,0.000,34.000,2.6562,265.194724,-0.0181,0*4ef19f03
#BESTVELA,FILE,0,37.0,FINESTEERING,2319,307710.550,02000000,10a2,17139;SOL_COMPUTED,INS_RTKFIXED,0.000,34.000,2.6371,264.419732,0.0180,0*e710aee3
#BESTVELA,FILE,0,37.0,FINESTEERING,2319,307710.600,02000000,10a2,17139;SOL_COMPUTED,INS_RTKFIXED,0.000,34.000,2.6432,264.312311,-0.0007,0*cf1393d9
#BESTVELA,FILE,0,37.0,FINESTEERING,2319,307710.650,02000000,10a2,17139;SOL_COMPUTED,INS_RTKFIXED,0.000,34.000,2.6187,263.722201,0.0134,0*1c5cdf91
#BESTVELA,FILE,0,37.0,FINESTEERING,2319,307710.700,02000000,10a2,17139;SOL_COMPUTED,INS_RTKFIXED,0.000,34.000,2.6302,263.589172,0.0116,0*f3501ad5
#BESTVELA,FILE,0,37.0,FINESTEERING,2319,307710.750,02000000,10a2,17139;SOL_COMPUTED,INS_RTKFIXED,0.000,34.000,2.5932,262.475036,0.0320,0*10a4e243
#BESTVELA,FILE,0,37.0,FINESTEERING,2319,307710.800,02000000,10a2,17139;SOL_COMPUTED,INS_RTKFIXED,0.000,34.000,2.5850,262.505911,0.0302,0*ec24ae89
#BESTVELA,FILE,0,37.0,FINESTEERING,2319,307710.850,02000000,10a2,17139;SOL_COMPUTED,INS_RTKFIXED,0.000,34.000,2.5755,262.311562,0.0223,0*ea47ab07
#BESTVELA,FILE,0,37.0,FINESTEERING,2319,307710.900,02000000,10a2,17139;SOL_COMPUTED,INS_RTKFIXED,0.000,34.000,2.5599,262.328009,0.0037,0*d4d236d9
#BESTVELA,FILE,0,37.0,FINESTEERING,2319,307710.950,02000000,10a2,17139;SOL_COMPUTED,INS_RTKFIXED,0.000,34.000,2.5352,261.687270,-0.0096,0*5b76d2c7
#BESTVELA,FILE,0,37.0,FINESTEERING,2319,307711.000,02000000,10a2,17139;SOL_COMPUTED,INS_RTKFIXED,0.000,34.000,2.5262,259.833734,0.0112,0*61614dcf
#BESTVELA,FILE,0,37.0,FINESTEERING,2319,307711.050,02000000,10a2,17139;SOL_COMPUTED,INS_RTKFIXED,0.000,35.000,2.5205,260.005710,-0.0139,0*ad00ab93
#BESTVELA,FILE,0,37.0,FINESTEERING,2319,307711.100,02000000,10a2,17139;SOL_COMPUTED,INS_RTKFIXED,0.000,35.000,2.5040,259.420365,-0.0019,0*020b1806
#BESTVELA,FILE,0,37.0,FINESTEERING,2319,307711.150,02000000,10a2,17139;SOL_COMPUTED,INS_RTKFIXED,0.000,35.000,2.4849,259.454314,0.0014,0*9953cf9a
#BESTVELA,FILE,0,37.0,FINESTEERING,2319,307711.200,02000000,10a2,17139;SOL_COMPUTED,INS_RTKFIXED,0.000,35.000,2.5047,259.179082,-0.0041,0*3a2fee82
#BESTVELA,FILE,0,37.0,FINESTEERING,2319,307711.250,02000000,10a2,17139;SOL_COMPUTED,INS_RTKFIXED,0.000,35.000,2.4796,259.248390,-0.0012,0*e39f1045
#BESTVELA,FILE,0,37.0,FINESTEERING,2319,307711.300,02000000,10a2,17139;SOL_COMPUTED,INS_RTKFIXED,0.000,35.000,2.4685,258.712697,-0.0037,0*e0677b77
#BESTVELA,FILE,0,37.0,FINESTEERING,2319,307711.350,02000000,10a2,17139;SOL_COMPUTED,INS_RTKFIXED,0.000,35.000,2.4701,257.617932,0.0010,0*abf0769d
#BESTVELA,FILE,0,37.0,FINESTEERING,2319,307711.400,02000000,10a2,17139;SOL_COMPUTED,INS_RTKFIXED,0.000,35.000,2.4530,257.264245,0.0049,0*04a0214b
#BESTVELA,FILE,0,37.0,FINESTEERING,2319,307711.450,02000000,10a2,17139;SOL_COMPUTED,INS_RTKFIXED,0.000,35.000,2.4397,256.527713,0.0088,0*d3000dc3
#BESTVELA,FILE,0,37.0,FINESTEERING,2319,307711.500,02000000,10a2,17139;SOL_COMPUTED,INS_RTKFIXED,0.000,35.000,2.4380,255.356140,0.0161,0*745ac771
#BESTVELA,FILE,0,37.0,FINESTEERING,2319,307711.550,02000000,10a2,17139;SOL_COMPUTED,INS_RTKFIXED,0.000,35.000,2.4141,253.980861,0.0322,0*3a92bba2
#BESTVELA,FILE,0,37.0,FINESTEERING,2319,307711.600,02000000,10a2,17139;SOL_COMPUTED,INS_RTKFIXED,0.000,35.000,2.4242,252.867745,0.0610,0*3afbe991
#BESTVELA,FILE,0,37.0,FINESTEERING,2319,307711.650,02000000,10a2,17139;SOL_COMPUTED,INS_RTKFIXED,0.000,35.000,2.3876,251.466364,0.0639,0*c465b88f
#BESTVELA,FILE,0,37.0,FINESTEERING,2319,307711.700,02000000,10a2,17139;SOL_COMPUTED,INS_RTKFIXED,0.000,35.000,2.3628,250.684308,0.0506,0*2eea53c0
#BESTVELA,FILE,0,37.0,FINESTEERING,2319,307711.750,02000000,10a2,17139;SOL_COMPUTED,INS_RTKFIXED,0.000,35.000,2.3685,249.664219,0.0665,0*52925857
#BESTVELA,FILE,0,37.0,FINESTEERING,2319,307711.800,02000000,10a2,17139;SOL_COMPUTED,INS_RTKFIXED,0.000,35.000,2.3575,249.174733,0.0659,0*91c597d3
#BESTVELA,FILE,0,37.0,FINESTEERING,2319,307711.850,02000000,10a2,17139;SOL_COMPUTED,INS_RTKFIXED,0.000,35.000,2.3276,248.561128,0.0445,0*df0c5351
#BESTVELA,FILE,0,37.0,FINESTEERING,2319,307711.900,02000000,10a2,17139;SOL_COMPUTED,INS_RTKFIXED,0.000,35.000,2.2894,248.505248,0.0280,0*4fe06990
#BESTVELA,FILE,0,37.0,FINESTEERING,2319,307711.950,02000000,10a2,17139;SOL_COMPUTED,INS_RTKFIXED,0.000,35.000,2.2669,248.506663,0.0079,0*364bcddd
#BESTVELA,FILE,0,37.0,FINESTEERING,2319,307712.000,02000000,10a2,17139;SOL_COMPUTED,INS_RTKFIXED,0.000,35.000,2.2661,248.811000,-0.0155,0*dea91f6a
#BESTVELA,FILE,0,37.0,FINESTEERING,2319,307712.050,02000000,10a2,17139;SOL_COMPUTED,INS_RTKFIXED,0.000,36.000,2.2528,248.186843,0.0029,0*1dcbbadc
#BESTVELA,FILE,0,37.0,FINESTEERING,2319,307712.100,02000000,10a2,17139;SOL_COMPUTED,INS_RTKFIXED,0.000,36.000,2.2608,246.609292,0.0184,0*a88be185
#BESTVELA,FILE,0,37.5,FINESTEERING,2319,307712.150,02000000,10a2,17139;SOL_COMPUTED,INS_RTKFIXED,0.000,36.000,2.2643,244.634077,0.0221,0*e75d9984
#BESTVELA,FILE,0,37.5,FINESTEERING,2319,307712.200,02000000,10a2,17139;SOL_COMPUTED,INS_RTKFIXED,0.000,36.000,2.2673,243.309751,0.0151,0*72050965
#BESTVELA,FILE,0,37.5,FINESTEERING,2319,307712.250,02000000,10a2,17139;SOL_COMPUTED,INS_RTKFIXED,0.000,36.000,2.2515,241.437287,0.0405,0*3c292a5a
#BESTVELA,FILE,0,37.5,FINESTEERING,2319,307712.300,02000000,10a2,17139;SOL_COMPUTED,INS_RTKFIXED,0.000,36.000,2.2531,239.095164,0.0738,0*1b26af04
#BESTVELA,FILE,0,37.5,FINESTEERING,2319,307712.350,02000000,10a2,17139;SOL_COMPUTED,INS_RTKFIXED,0.000,36.000,2.2598,237.687609,0.0622,0*9aa9bf76
#BESTVELA,FILE,0,37.5,FINESTEERING,2319,307712.400,02000000,10a2,17139;SOL_COMPUTED,INS_RTKFIXED,0.000,36.000,2.2325,235.895298,0.0774,0*364ab7a1
#BESTVELA,FILE,0,37.5,FINESTEERING,2319,307712.450,02000000,10a2,17139;SOL_COMPUTED,INS_RTKFIXED,0.000,36.000,2.2335,235.301033,0.0769,0*04c847af
#BESTVELA,FILE,0,37.5,FINESTEERING,2319,307712.500,02000000,10a2,17139;SOL_COMPUTED,INS_RTKFIXED,0.000,36.000,2.1995,233.843797,0.0818,0*10de6df4
#BESTVELA,FILE,0,37.5,FINESTEERING,2319,307712.550,02000000,10a2,17139;SOL_COMPUTED,INS_RTKFIXED,0.000,36.000,2.1900,233.618931,0.0648,0*e040ba18
#BESTVELA,FILE,0,37.5,FINESTEERING,2319,307712.600,02000000,10a2,17139;SOL_COMPUTED,INS_RTKFIXED,0.000,36.000,2.1706,232.672322,0.0765,0*9eef4e3f
#BESTVELA,FILE,0,37.5,FINESTEERING,2319,307712.650,02000000,10a2,17139;SOL_COMPUTED,INS_RTKFIXED,0.000,36.000,2.1589,233.285313,0.0324,0*7eb310d5
#BESTVELA,FILE,0,37.5,FINESTEERING,2319,307712.700,02000000,10a2,17139;SOL_COMPUTED,INS_RTKFIXED,0.000,36.000,2.1317,232.593520,0.0513,0*7d5fe1b0
#BESTVELA,FILE,0,37.5,FINESTEERING,2319,307712.750,02000000,10a2,17139;SOL_COMPUTED,INS_RTKFIXED,0.000,36.000,2.1545,233.267045,0.0282,0*3e269ec8
#BESTVELA,FILE,0,37.5,FINESTEERING,2319,307712.800,02000000,10a2,17139;SOL_COMPUTED,INS_RTKFIXED,0.000,36.000,2.1658,233.553292,-0.0038,0*05db39e4
#BESTVELA,FILE,0,37.5,FINESTEERING,2319,307712.850,02000000,10a2,17139;SOL_COMPUTED,INS_RTKFIXED,0.000,36.000,2.2200,233.554596,-0.0251,0*acfd496f
#BESTVELA,FILE,0,37.5,FINESTEERING,2319,307712.900,02000000,10a2,17139;SOL_COMPUTED,INS_RTKFIXED,0.000,36.000,2.2424,232.442865,-0.0186,0*7d902be8
#BESTVELA,FILE,0,37.5,FINESTEERING,2319,307712.950,02000000,10a2,17139;SOL_COMPUTED,INS_RTKFIXED,0.000,36.000,2.2876,231.090589,-0.0240,0*d273691e
#BESTVELA,FILE,0,37.5,FINESTEERING,2319,307713.000,02000000,10a2,17139;SOL_COMPUTED,INS_RTKFIXED,0.000,36.000,2.2805,229.479030,-0.0192,0*c2f7edb6
#BESTVELA,FILE,0,37.5,FINESTEERING,2319,307713.050,02000000,10a2,17139;SOL_COMPUTED,INS_RTKFIXED,0.000,37.000,2.2996,228.118525,-0.0296,0*65a41e78
#BESTVELA,FILE,0,32.5,FINESTEERING,2319,307713.100,02000000,10a2,17139;SOL_COMPUTED,INS_RTKFIXED,0.000,37.000,2.2855,225.745134,0.0023,0*c3c0590c
#BESTVELA,FILE,0,32.5,FINESTEERING,2319,307713.150,02000000,10a2,17139;SOL_COMPUTED,INS_RTKFIXED,0.000,37.000,2.2874,223.069386,0.0283,0*3898c288
#BESTVELA,FILE,0,32.5,FINESTEERING,2319,307713.200,02000000,10a2,17139;SOL_COMPUTED,INS_RTKFIXED,0.000,37.000,2.2763,220.443851,0.0258,0*eb807a1c
#BESTVELA,FILE,0,32.5,FINESTEERING,2319,307713.250,02000000,10a2,17139;SOL_COMPUTED,INS_RTKFIXED,0.000,37.000,2.2578,218.443956,0.0203,0*d217f2a5
#BESTVELA,FILE,0,32.5,FINESTEERING,2319,307713.300,02000000,10a2,17139;SOL_COMPUTED,INS_RTKFIXED,0.000,37.000,2.2467,217.404533,-0.0023,0*90f8c85c
#BESTVELA,FILE,0,32.5,FINESTEERING,2319,307713.350,02000000,10a2,17139;SOL_COMPUTED,INS_RTKFIXED,0.000,37.000,2.2547,217.503107,-0.0549,0*ffb006b4
#BESTVELA,FILE,0,32.5,FINESTEERING,2319,307713.400,02000000,10a2,17139;SOL_COMPUTED,INS_RTKFIXED,0.000,37.000,2.2580,217.234042,-0.0493,0*95a58bd9
#BESTVELA,FILE,0,32.5,FINESTEERING,2319,307713.450,02000000,10a2,17139;SOL_COMPUTED,INS_RTKFIXED,0.000,37.000,2.2937,217.089969,-0.0554,0*c64fd0f2
#BESTVELA,FILE,0,32.5,FINESTEERING,2319,307713.500,02000000,10a2,17139;SOL_COMPUTED,INS_RTKFIXED,0.000,37.000,2.3184,216.508523,-0.0759,0*fcd01dba
#BESTVELA,FILE,0,32.5,FINESTEERING,2319,307713.550,02000000,10a2,17139;SOL_COMPUTED,INS_RTKFIXED,0.000,37.000,2.3307,214.925772,-0.0670,0*2fd55c94
#BESTVELA,FILE,0,32.5,FINESTEERING,2319,307713.600,02000000,10a2,17139;SOL_COMPUTED,INS_RTKFIXED,0.000,37.000,2.3573,213.894693,-0.0366,0*e9711ac2
#BESTVELA,FILE,0,32.5,FINESTEERING,2319,307713.650,02000000,10a2,17139;SOL_COMPUTED,INS_RTKFIXED,0.000,37.000,2.3675,213.164975,-0.0377,0*fa5b38fa
#BESTVELA,FILE,0,32.5,FINESTEERING,2319,307713.700,02000000,10a2,17139;SOL_COMPUTED,INS_RTKFIXED,0.000,37.000,2.3750,212.724657,-0.0505,0*a551c218
#BESTVELA,FILE,0,32.5,FINESTEERING,2319,307713.750,02000000,10a2,17139;SOL_COMPUTED,INS_RTKFIXED,0.000,37.000,2.3804,212.977767,-0.1169,0*79b7792c
#BESTVELA,FILE,0,32.5,FINESTEERING,2319,307713.800,02000000,10a2,17139;SOL_COMPUTED,INS_RTKFIXED,0.000,37.000,2.3603,211.671608,-0.1456,0*0c6dc6c7
#BESTVELA,FILE,0,32.5,FINESTEERING,2319,307713.850,02000000,10a2,17139;SOL_COMPUTED,INS_RTKFIXED,0.000,37.000,2.3474,210.780413,-0.2131,0*d7bfbeb3
#BESTVELA,FILE,0,32.5,FINESTEERING,2319,307713.900,02000000,10a2,17139;SOL_COMPUTED,INS_RTKFIXED,0.000,37.000,2.3358,209.557458,-0.2113,0*9a40c07f
#BESTVELA,FILE,0,32.5,FINESTEERING,2319,307713.950,02000000,10a2,17139;SOL_COMPUTED,INS_RTKFIXED,0.000,37.000,2.3199,207.951576,-0.2406,0*288b9bf9
#BESTVELA,FILE,0,32.5,FINESTEERING,2319,307714.000,02000000,10a2,17139;SOL_COMPUTED,INS_RTKFIXED,0.000,37.000,2.3293,205.861697,-0.2202,0*897bd1ab
#BESTVELA,FILE,0,32.5,FINESTEERING,2319,307714.050,02000000,10a2,17139;SOL_COMPUTED,INS_RTKFIXED,0.000,38.000,2.3447,204.764595,-0.2157,0*4bfd94c3
#BESTVELA,FILE,0,30.0,FINESTEERING,2319,307714.100,02000000,10a2,17139;SOL_COMPUTED,INS_RTKFIXED,0.000,38.000,2.3384,204.111150,-0.1935,0*4a1bab0f
#BESTVELA,FILE,0,30.0,FINESTEERING,2319,307714.150,02000000,10a2,17139;SOL_COMPUTED,INS_RTKFIXED,0.000,38.000,2.3824,203.989889,-0.1873,0*0175181b
#BESTVELA,FILE,0,30.0,FINESTEERING,2319,307714.200,02000000,10a2,17139;SOL_COMPUTED,INS_RTKFIXED,0.000,38.000,2.3687,202.368289,-0.1455,0*5c600383
#BESTVELA,FILE,0,30.0,FINESTEERING,2319,307714.250,02000000,10a2,17139;SOL_COMPUTED,INS_RTKFIXED,0.000,38.000,2.4227,201.432082,-0.1568,0*ab1a4a57
#BESTVELA,FILE,0,30.0,FINESTEERING,2319,307714.300,02000000,10a2,17139;SOL_COMPUTED,INS_RTKFIXED,0.000,38.000,2.4174,199.493339,-0.1397,0*3255e0da
#BESTVELA,FILE,0,30.0,FINESTEERING,2319,307714.350,02000000,10a2,17139;SOL_COMPUTED,INS_RTKFIXED,0.000,38.000,2.4206,199.018197,-0.1709,0*1395ccb4
#BESTVELA,FILE,0,30.0,FINESTEERING,2319,307714.400,02000000,10a2,17139;SOL_COMPUTED,INS_RTKFIXED,0.000,38.000,2.4198,198.615881,-0.1915,0*01e3e043
#BESTVELA,FILE,0,30.0,FINESTEERING,2319,307714.450,02000000,10a2,17139;SOL_COMPUTED,INS_RTKFIXED,0.000,38.000,2.4227,197.829101,-0.2096,0*fc1da531
#BESTVELA,FILE,0,30.0,FINESTEERING,2319,307714.500,02000000,10a2,17139;SOL_COMPUTED,INS_RTKFIXED,0.000,38.000,2.3876,196.228874,-0.2095,0*7f3570fe
#BESTVELA,FILE,0,30.0,FINESTEERING,2319,307714.550,02000000,10a2,17139;SOL_COMPUTED,INS_RTKFIXED,0.000,38.000,2.4147,194.954988,-0.2172,0*3f2f17e7
#BESTVELA,FILE,0,30.0,FINESTEERING,2319,307714.600,02000000,10a2,17139;SOL_COMPUTED,INS_RTKFIXED,0.000,38.000,2.4008,195.137929,-0.2330,0*ac4db645
#BESTVELA,FILE,0,30.0,FINESTEERING,2319,307714.650,02000000,10a2,17139;SOL_COMPUTED,INS_RTKFIXED,0.000,38.000,2.4050,194.435396,-0.2247,0*a83598d3
#BESTVELA,FILE,0,30.0,FINESTEERING,2319,307714.700,02000000,10a2,17139;SOL_COMPUTED,INS_RTKFIXED,0.000,38.000,2.4113,193.130706,-0.1813,0*62b8c048
#BESTVELA,FILE,0,30.0,FINESTEERING,2319,307714.750,02000000,10a2,17139;SOL_COMPUTED,INS_RTKFIXED,0.000,38.000,2.4096,191.909246,-0.1796,0*11fb582c
#BESTVELA,FILE,0,30.0,FINESTEERING,2319,307714.800,02000000,10a2,17139;SOL_COMPUTED,INS_RTKFIXED,0.000,38.000,2.3852,191.221301,-0.1712,0*3b37eb74
#BESTVELA,FILE,0,30.0,FINESTEERING,2319,307714.850,02000000,10a2,17139;SOL_COMPUTED,INS_RTKFIXED,0.000,38.000,2.3884,190.336686,-0.1620,0*7ea9b07a
#BESTVELA,FILE,0,30.0,FINESTEERING,2319,307714.900,02000000,10a2,17139;SOL_COMPUTED,INS_RTKFIXED,0.000,38.000,2.3766,189.118837,-0.1302,0*72ef14d5
#BESTVELA,FILE,0,30.0,FINESTEERING,2319,307714.950,02000000,10a2,17139;SOL_COMPUTED,INS_RTKFIXED,0.000,38.000,2.3518,187.926909,-0.1136,0*1eb92703
#BESTVELA,FILE,0,30.0,FINESTEERING,2319,307715.000,02000000,10a2,17139;SOL_COMPUTED,INS_RTKFIXED,0.000,38.000,2.3504,187.283361,-0.1224,0*e33ac012
#BESTVELA,FILE,0,30.0,FINESTEERING,2319,307715.050,02000000,10a2,17139;SOL_COMPUTED,INS_RTKFIXED,0.000,1.000,2.3243,187.003599,-0.1137,0*b119d18b
#BESTVELA,FILE,0,30.0,FINESTEERING,2319,307715.100,02000000,10a2,17139;SOL_COMPUTED,INS_RTKFIXED,0.000,1.000,2.3302,186.562931,-0.1068,0*71870258
#BESTVELA,FILE,0,32.5,FINESTEERING,2319,307715.150,02000000,10a2,17139;SOL_COMPUTED,INS_RTKFIXED,0.000,1.000,2.3053,187.400702,-0.1729,0*bf9fc1bf
#BESTVELA,FILE,0,32.5,FINESTEERING,2319,307715.200,02000000,10a2,17139;SOL_COMPUTED,INS_RTKFIXED,0.000,1.000,2.2829,188.003459,-0.1991,0*6813fbf3
#BESTVELA,FILE,0,32.5,FINESTEERING,2319,307715.250,02000000,10a2,17139;SOL_COMPUTED,INS_RTKFIXED,0.000,1.000,2.2670,188.765532,-0.2511,0*5c5dd9f6
#BESTVELA,FILE,0,32.5,FINESTEERING,2319,307715.300,02000000,10a2,17139;SOL_COMPUTED,INS_RTKFIXED,0.000,1.000,2.2309,188.707490,-0.2288,0*b791cb3b
#BESTVELA,FILE,0,32.5,FINESTEERING,2319,307715.350,02000000,10a2,17139;SOL_COMPUTED,INS_RTKFIXED,0.000,1.000,2.2262,188.339248,-0.2293,0*b653fd96
#BESTVELA,FILE,0,32.5,FINESTEERING,2319,307715.400,02000000,10a2,17139;SOL_COMPUTED,INS_RTKFIXED,0.000,1.000,2.2314,186.909993,-0.1908,0*21e62a5b
#BESTVELA,FILE,0,32.5,FINESTEERING,2319,307715.450,02000000,10a2,17139;SOL_COMPUTED,INS_RTKFIXED,0.000,1.000,2.2204,186.060535,-0.1741,0*1e7d6798
#BESTVELA,FILE,0,32.5,FINESTEERING,2319,307715.500,02000000,10a2,17139;SOL_COMPUTED,INS_RTKFIXED,0.000,1.000,2.2134,184.892760,-0.1375,0*2daec82e
#BESTVELA,FILE,0,32.5,FINESTEERING,2319,307715.550,02000000,10a2,17139;SOL_COMPUTED,INS_RTKFIXED,0.000,1.000,2.2103,183.850471,-0.1383,0*138955c7
#BESTVELA,FILE,0,32.5,FINESTEERING,2319,307715.600,02000000,10a2,17139;SOL_COMPUTED,INS_RTKFIXED,0.000,1.000,2.1939,183.028185,-0.1638,0*7de7e720
#BESTVELA,FILE,0,32.5,FINESTEERING,2319,307715.650,02000000,10a2,17139;SOL_COMPUTED,INS_RTKFIXED,0.000,1.000,2.1842,181.450518,-0.1448,0*d1cfbf24
#BESTVELA,FILE,0,32.5,FINESTEERING,2319,307715.700,02000000,10a2,17139;SOL_COMPUTED,INS_RTKFIXED,0.000,1.000,2.1652,181.844835,-0.1674,0*9988099d
#BESTVELA,FILE,0,32.5,FINESTEERING,2319,307715.750,02000000,10a2,17139;SOL_COMPUTED,INS_RTKFIXED,0.000,1.000,2.1658,181.777817,-0.1686,0*d17c43df
#BESTVELA,FILE,0,32.5,FINESTEERING,2319,307715.800,02000000,10a2,17139;SOL_COMPUTED,INS_RTKFIXED,0.000,1.000,2.1307,181.213940,-0.1730,0*1e630c4d
#BESTVELA,FILE,0,32.5,FINESTEERING,2319,307715.850,02000000,10a2,17139;SOL_COMPUTED,INS_RTKFIXED,0.000,1.000,2.1183,181.255087,-0.1649,0*3e9d28e1
#BESTVELA,FILE,0,32.5,FINESTEERING,2319,307715.900,02000000,10a2,17139;SOL_COMPUTED,INS_RTKFIXED,0.000,1.000,2.0902,181.962045,-0.1760,0*02a265f3
#BESTVELA,FILE,0,32.5,FINESTEERING,2319,307715.950,02000000,10a2,17139;SOL_COMPUTED,INS_RTKFIXED,0.000,1.000,2.0968,183.417135,-0.1831,0*a5a4e346
#BESTVELA,FILE,0,32.5,FINESTEERING,2319,307716.000,02000000,10a2,17139;SOL_COMPUTED,INS_RTKFIXED,0.000,1.000,2.0950,183.488145,-0.1691,0*55f731f1
#BESTVELA,FILE,0,32.5,FINESTEERING,2319,307716.050,02000000,10a2,17139;SOL_COMPUTED,INS_RTKFIXED,0.000,1.000,2.1047,184.542764,-0.1792,0*e4ada32f
#BESTVELA,FILE,0,32.5,FINESTEERING,2319,307716.100,02000000,10a2,17139;SOL_COMPUTED,INS_RTKFIXED,0.000,1.000,2.0939,185.818887,-0.1757,0*048e00f3
#BESTVELA,FILE,0,32.5,FINESTEERING,2319,307716.150,02000000,10a2,17139;SOL_COMPUTED,INS_RTKFIXED,0.000,1.000,2.1090,186.626982,-0.1816,0*d21b7e11
#BESTVELA,FILE,0,32.5,FINESTEERING,2319,307716.200,02000000,10a2,17139;SOL_COMPUTED,INS_RTKFIXED,0.000,1.000,2.0694,186.154637,-0.1859,0*c0f4c93a
#BESTVELA,FILE,0,32.5,FINESTEERING,2319,307716.250,02000000,10a2,17139;SOL_COMPUTED,INS_RTKFIXED,0.000,1.000,2.0462,184.688837,-0.1910,0*a77c130e
#BESTVELA,FILE,0,32.5,FINESTEERING,2319,307716.300,02000000,10a2,17139;SOL_COMPUTED,INS_RTKFIXED,0.000,1.000,2.0305,184.846887,-0.2211,0*8612ecbe
#BESTVELA,FILE,0,32.5,FINESTEERING,2319,307716.350,02000000,10a2,17139;SOL_COMPUTED,INS_RTKFIXED,0.000,1.000,2.0084,184.831354,-0.2130,0*e81fa9b6
#BESTVELA,FILE,0,32.5,FINESTEERING,2319,307716.400,02000000,10a2,17139;SOL_COMPUTED,INS_RTKFIXED,0.000,1.000,1.9932,184.110034,-0.2214,0*e14e1b9b
#BESTVELA,FILE,0,32.5,FINESTEERING,2319,307716.450,02000000,10a2,17139;SOL_COMPUTED,INS_RTKFIXED,0.000,1.000,2.0054,183.677635,-0.2099,0*49cf4e5c
#BESTVELA,FILE,0,32.5,FINESTEERING,2319,307716.500,02000000,10a2,17139;SOL_COMPUTED,INS_RTKFIXED,0.000,1.000,1.9887,182.077216,-0.1908,0*4a488262
#BESTVELA,FILE,0,32.5,FINESTEERING,2319,307716.550,02000000,10a2,17139;SOL_COMPUTED,INS_RTKFIXED,0.000,1.000,1.9905,181.874525,-0.2210,0*0735a3e2
#BESTVELA,FILE,0,32.5,FINESTEERING,2319,307716.600,02000000,10a2,17139;SOL_COMPUTED,INS_RTKFIXED,0.000,1.000,1.9853,181.340384,-0.2027,0*a447c30e
#BESTVELA,FILE,0,32.5,FINESTEERING,2319,307716.650,02000000,10a2,17139;SOL_COMPUTED,INS_RTKFIXED,0.000,1.000,1.9736,181.439225,-0.1858,0*2c5e83a1
#BESTVELA,FILE,0,32.5,FINESTEERING,2319,307716.700,02000000,10a2,17139;SOL_COMPUTED,INS_RTKFIXED,0.000,1.000,1.9811,181.401271,-0.1525,0*975879f3
#BESTVELA,FILE,0,32.5,FINESTEERING,2319,307716.750,02000000,10a2,17139;SOL_COMPUTED,INS_RTKFIXED,0.000,1.000,1.9672,181.619967,-0.1631,0*93b5ca40
#BESTVELA,FILE,0,32.5,FINESTEERING,2319,307716.800,02000000,10a2,17139;SOL_COMPUTED,INS_RTKFIXED,0.000,1.000,1.9034,182.614307,-0.1709,0*5b99d21d
#BESTVELA,FILE,0,32.5,FINESTEERING,2319,307716.850,02000000,10a2,17139;SOL_COMPUTED,INS_RTKFIXED,0.000,1.000,1.8310,184.489722,-0.1989,0*ab9ff5f9
#BESTVELA,FILE,0,32.5,FINESTEERING,2319,307716.900,02000000,10a2,17139;SOL_COMPUTED,INS_RTKFIXED,0.000,1.000,1.7201,187.068950,-0.2130,0*05cac398
#BESTVELA,FILE,0,32.5,FINESTEERING,2319,307716.950,02000000,10a2,17139;SOL_COMPUTED,INS_RTKFIXED,0.000,1.000,1.6233,187.512772,-0.2021,0*d295ca8c
#BESTVELA,FILE,0,32.5,FINESTEERING,2319,307717.000,02000000,10a2,17139;SOL_COMPUTED,INS_RTKFIXED,0.000,1.000,1.5581,187.004056,-0.2147,0*68de5c0c
#BESTVELA,FILE,0,32.5,FINESTEERING,2319,307717.050,02000000,10a2,17139;SOL_COMPUTED,INS_RTKFIXED,0.000,1.000,1.5171,184.430941,-0.1705,0*22269453
#BESTVELA,FILE,0,32.5,FINESTEERING,2319,307717.100,02000000,10a2,17139;SOL_COMPUTED,INS_RTKFIXED,0.000,1.000,1.5254,183.492952,-0.1368,0*d681e918
#BESTVELA,FILE,0,33.0,FINESTEERING,2319,307717.150,02000000,10a2,17139;SOL_COMPUTED,INS_RTKFIXED,0.000,1.000,1.5293,183.860860,-0.1322,0*37c66e45
#BESTVELA,FILE,0,33.0,FINESTEERING,2319,307717.200,02000000,10a2,17139;SOL_COMPUTED,INS_RTKFIXED,0.000,1.000,1.5226,183.234141,-0.1521,0*8c48b0c8
#BESTVELA,FILE,0,33.0,FINESTEERING,2319,307717.250,02000000,10a2,17139;SOL_COMPUTED,INS_RTKFIXED,0.000,1.000,1.5170,182.222100,-0.1497,0*6c267618
#BESTVELA,FILE,0,33.0,FINESTEERING,2319,307717.300,02000000,10a2,17139;SOL_COMPUTED,INS_RTKFIXED,0.000,1.000,1.5192,182.941819,-0.1707,0*410d1abc
#BESTVELA,FILE,0,33.0,FINESTEERING,2319,307717.350,02000000,10a2,17139;SOL_COMPUTED,INS_RTKFIXED,0.000,1.000,1.4722,183.633119,-0.1866,0*cbfd7e7b
#BESTVELA,FILE,0,33.0,FINESTEERING,2319,307717.400,02000000,10a2,17139;SOL_COMPUTED,INS_RTKFIXED,0.000,1.000,1.4780,185.673221,-0.2079,0*cd74d05b
#BESTVELA,FILE,0,33.0,FINESTEERING,2319,307717.450,02000000,10a2,17139;SOL_COMPUTED,INS_RTKFIXED,0.000,1.000,1.4712,189.584765,-0.2265,0*caad4c3f
#BESTVELA,FILE,0,33.0,FINESTEERING,2319,307717.500,02000000,10a2,17139;SOL_COMPUTED,INS_RTKFIXED,0.000,1.000,1.4769,192.445104,-0.2359,0*7f8cac97
#BESTVELA,FILE,0,33.0,FINESTEERING,2319,307717.550,02000000,10a2,17139;SOL_COMPUTED,INS_RTKFIXED,0.000,1.000,1.4659,192.359340,-0.1930,0*0007dfeb
#BESTVELA,FILE,0,33.0,FINESTEERING,2319,307717.600,02000000,10a2,17139;SOL_COMPUTED,INS_RTKFIXED,0.000,1.000,1.4815,190.953116,-0.1427,0*8e15cb4f
#BESTVELA,FILE,0,33.0,FINESTEERING,2319,307717.650,02000000,10a2,17139;SOL_COMPUTED,INS_RTKFIXED,0.000,1.000,1.4793,190.189302,-0.1224,0*57e5419b
#BESTVELA,FILE,0,33.0,FINESTEERING,2319,307717.700,02000000,10a2,17139;SOL_COMPUTED,INS_RTKFIXED,0.000,1.000,1.4973,190.424541,-0.1131,0*0641903b
#BESTVELA,FILE,0,33.0,FINESTEERING,2319,307717.750,02000000,10a2,17139;SOL_COMPUTED,INS_RTKFIXED,0.000,1.000,1.5086,191.019627,-0.1114,0*95aef291
#BESTVELA,FILE,0,33.0,FINESTEERING,2319,307717.800,02000000,10a2,17139;SOL_COMPUTED,INS_RTKFIXED,0.000,1.000,1.5170,190.545764,-0.1255,0*b11559a3
#BESTVELA,FILE,0,33.0,FINESTEERING,2319,307717.850,02000000,10a2,17139;SOL_COMPUTED,INS_RTKFIXED,0.000,1.000,1.5150,190.396627,-0.1293,0*55f59db4
#BESTVELA,FILE,0,33.0,FINESTEERING,2319,307717.900,02000000,10a2,17139;SOL_COMPUTED,INS_RTKFIXED,0.000,1.000,1.5247,191.537090,-0.1632,0*61ace21a
#BESTVELA,FILE,0,33.0,FINESTEERING,2319,307717.950,02000000,10a2,17139;SOL_COMPUTED,INS_RTKFIXED,0.000,1.000,1.5142,193.764250,-0.1950,0*ade1e3d7
#BESTVELA,FILE,0,33.0,FINESTEERING,2319,307718.000,02000000,10a2,17139;SOL_COMPUTED,INS_RTKFIXED,0.000,1.000,1.5185,196.680451,-0.2109,0*21ef9213
#BESTVELA,FILE,0,33.0,FINESTEERING,2319,307718.050,02000000,10a2,17139;SOL_COMPUTED,INS_RTKFIXED,0.000,1.000,1.5010,197.651404,-0.1769,0*e830e121
#BESTVELA,FILE,0,33.0,FINESTEERING,2319,307718.100,02000000,10a2,17139;SOL_COMPUTED,INS_RTKFIXED,0.000,1.000,1.5404,200.653989,-0.1556,0*694efbf4
#BESTVELA,FILE,0,33.5,FINESTEERING,2319,307718.150,02000000,10a2,17139;SOL_COMPUTED,INS_RTKFIXED,0.000,1.000,1.5322,201.829786,-0.0867,0*dc2a69ee
#BESTVELA,FILE,0,33.5,FINESTEERING,2319,307718.200,02000000,10a2,17139;SOL_COMPUTED,INS_RTKFIXED,0.000,1.000,1.5576,203.742450,-0.0108,0*da770508
#BESTVELA,FILE,0,33.5,FINESTEERING,2319,307718.250,02000000,10a2,17139;SOL_COMPUTED,INS_RTKFIXED,0.000,1.000,1.5687,204.820119,0.0532,0*df286ba1
#BESTVELA,FILE,0,33.5,FINESTEERING,2319,307718.300,02000000,10a2,17139;SOL_COMPUTED,INS_RTKFIXED,0.000,1.000,1.5530,206.479215,0.0785,0*379d7dc6
#BESTVELA,FILE,0,33.5,FINESTEERING,2319,307718.350,02000000,10a2,17139;SOL_COMPUTED,INS_RTKFIXED,0.000,1.000,1.5394,207.679969,0.0554,0*ccfae9bb
#BESTVELA,FILE,0,33.5,FINESTEERING,2319,307718.400,02000000,10a2,17139;SOL_COMPUTED,INS_RTKFIXED,0.000,1.000,1.4825,207.576072,0.0342,0*8e6888ad
#BESTVELA,FILE,0,33.5,FINESTEERING,2319,307718.450,02000000,10a2,17139;SOL_COMPUTED,INS_RTKFIXED,0.000,1.000,1.4327,206.773625,-0.0030,0*3f422014
#BESTVELA,FILE,0,33.5,FINESTEERING,2319,307718.500,02000000,10a2,17139;SOL_COMPUTED,INS_RTKFIXED,0.000,1.000,1.3581,205.135742,-0.0337,0*fbbad8f7
#BESTVELA,FILE,0,33.5,FINESTEERING,2319,307718.550,02000000,10a2,17139;SOL_COMPUTED,INS_RTKFIXED,0.000,1.000,1.3113,204.537102,-0.0592,0*6b5f45a0
#BESTVELA,FILE,0,33.5,FINESTEERING,2319,307718.600,02000000,10a2,17139;SOL_COMPUTED,INS_RTKFIXED,0.000,1.000,1.2568,203.798648,-0.0656,0*ef056e4b
#BESTVELA,FILE,0,33.5,FINESTEERING,2319,307718.650,02000000,10a2,17139;SOL_COMPUTED,INS_RTKFIXED,0.000,1.000,1.2174,203.665579,-0.0450,0*13bead87
#BESTVELA,FILE,0,33.5,FINESTEERING,2319,307718.700,02000000,10a2,17139;SOL_COMPUTED,INS_RTKFIXED,0.000,1.000,1.1766,203.376231,-0.0112,0*aba35a6a
#BESTVELA,FILE,0,33.5,FINESTEERING,2319,307718.750,02000000,10a2,17139;SOL_COMPUTED,INS_RTKFIXED,0.000,1.000,1.1535,203.616968,0.0265,0*26b4841e
#BESTVELA,FILE,0,33.5,FINESTEERING,2319,307718.800,02000000,10a2,17139;SOL_COMPUTED,INS_RTKFIXED,0.000,1.000,1.1254,205.029018,0.0539,0*8387df8c
#BESTVELA,FILE,0,33.5,FINESTEERING,2319,307718.850,02000000,10a2,17139;SOL_COMPUTED,INS_RTKFIXED,0.000,1.000,1.0955,207.539049,0.0583,0*a2098ed8
#BESTVELA,FILE,0,33.5,FINESTEERING,2319,307718.900,02000000,10a2,17139;SOL_COMPUTED,INS_RTKFIXED,0.000,1.000,1.0680,210.682914,0.0567,0*03256ada
#BESTVELA,FILE,0,33.5,FINESTEERING,2319,307718.950,02000000,10a2,17139;SOL_COMPUTED,INS_RTKFIXED,0.000,1.000,1.0480,213.911313,0.0398,0*59332410
#BESTVELA,FILE,0,33.5,FINESTEERING,2319,307719.000,02000000,10a2,17139;SOL_COMPUTED,INS_RTKFIXED,0.000,1.000,1.0175,215.920596,0.0156,0*0cd8075d
#BESTVELA,FILE,0,33.5,FINESTEERING,2319,307719.050,02000000,10a2,17139;SOL_COMPUTED,INS_RTKFIXED,0.000,1.000,0.9953,217.339300,-0.0170,0*0f8fa81c
#BESTVELA,FILE,0,33.0,FINESTEERING,2319,307719.100,02000000,10a2,17139;SOL_COMPUTED,INS_RTKFIXED,0.000,1.000,0.9670,218.142764,-0.0386,0*9485150c
#BESTVELA,FILE,0,33.0,FINESTEERING,2319,307719.150,02000000,10a2,17139;SOL_COMPUTED,INS_RTKFIXED,0.000,1.000,0.9456,218.970708,-0.0614,0*d1332c7e
#BESTVELA,FILE,0,33.0,FINESTEERING,2319,307719.200,02000000,10a2,17139;SOL_COMPUTED,INS_RTKFIXED,0.000,1.000,0.9267,218.612985,-0.0585,0*3e4ce436
#BESTVELA,FILE,0,33.0,FINESTEERING,2319,307719.250,02000000,10a2,17139;SOL_COMPUTED,INS_RTKFIXED,0.000,1.000,0.9249,218.849534,-0.0476,0*da171324
#BESTVELA,FILE,0,33.0,FINESTEERING,2319,307719.300,02000000,10a2,17139;SOL_COMPUTED,INS_RTKFIXED,0.000,1.000,0.9228,218.913139,-0.0277,0*5d1f4bad
#BESTVELA,FILE,0,33.0,FINESTEERING,2319,307719.350,02000000,10a2,17139;SOL_COMPUTED,INS_RTKFIXED,0.000,1.000,0.9264,219.294419,-0.0070,0*fa56a270
#BESTVELA,FILE,0,33.0,FINESTEERING,2319,307719.400,02000000,10a2,17139;SOL_COMPUTED,INS_RTKFIXED,0.000,1.000,0.9312,219.822935,0.0100,0*2d4ea437
#BESTVELA,FILE,0,33.0,FINESTEERING,2319,307719.450,02000000,10a2,17139;SOL_COMPUTED,INS_RTKFIXED,0.000,1.000,0.9340,220.910332,0.0158,0*ea49d5b8
#BESTVELA,FILE,0,33.0,FINESTEERING,2319,307719.500,02000000,10a2,17139;SOL_COMPUTED,INS_RTKFIXED,0.000,1.000,0.9280,221.479809,0.0134,0*8c996243
#BESTVELA,FILE,0,33.0,FINESTEERING,2319,307719.550,02000000,10a2,17139;SOL_COMPUTED,INS_RTKFIXED,0.000,1.000,0.9195,222.212212,0.0152,0*8b39eba7
#BESTVELA,FILE,0,33.0,FINESTEERING,2319,307719.600,02000000,10a2,17139;SOL_COMPUTED,INS_RTKFIXED,0.000,1.000,0.9068,223.803767,0.0036,0*035771ed
#BESTVELA,FILE,0,33.0,FINESTEERING,2319,307719.650,02000000,10a2,17139;SOL_COMPUTED,INS_RTKFIXED,0.000,1.000,0.8941,224.698182,0.0023,0*9b31fdc6
#BESTVELA,FILE,0,33.0,FINESTEERING,2319,307719.700,02000000,10a2,17139;SOL_COMPUTED,INS_RTKFIXED,0.000,1.000,0.8878,226.663770,-0.0071,0*2a7ed9c1
#BESTVELA,FILE,0,33.0,FINESTEERING,2319,307719.750,02000000,10a2,17139;SOL_COMPUTED,INS_RTKFIXED,0.000,1.000,0.8737,227.646457,-0.0117,0*613781f6
#BESTVELA,FILE,0,33.0,FINESTEERING,2319,307719.800,02000000,10a2,17139;SOL_COMPUTED,INS_RTKFIXED,0.000,1.000,0.8750,229.795254,-0.0149,0*792d75e0
#BESTVELA,FILE,0,33.0,FINESTEERING,2319,307719.850,02000000,10a2,17139;SOL_COMPUTED,INS_RTKFIXED,0.000,1.000,0.8821,232.924701,-0.0261,0*762525cc
#BESTVELA,FILE,0,33.0,FINESTEERING,2319,307719.900,02000000,10a2,17139;SOL_COMPUTED,INS_RTKFIXED,0.000,1.000,0.8744,235.821963,-0.0276,0*bf4f3ce2
#BESTVELA,FILE,0,33.0,FINESTEERING,2319,307719.950,02000000,10a2,17139;SOL_COMPUTED,INS_RTKFIXED,0.000,1.000,0.8731,237.500897,-0.0207,0*eb072375
#BESTVELA,FILE,0,33.0,FINESTEERING,2319,307720.000,02000000,10a2,17139;SOL_COMPUTED,NARROW_INT,0.025,2.000,1.0171,248.773014,-0.0139,0*b2521c8f
#BESTVELA,FILE,0,33.0,FINESTEERING,2319,307720.050,02000000,10a2,17139;SOL_COMPUTED,NARROW_INT,0.025,2.050,1.0468,249.461055,-0.0091,0*3f34b04f
#BESTVELA,FILE,0,32.5,FINESTEERING,2319,307720.100,02000000,10a2,17139;SOL_COMPUTED,NARROW_INT,0.025,2.100,0.9873,242.155334,0.0825,0*51a4bd7f
#BESTVELA,FILE,0,32.5,FINESTEERING,2319,307720.150,02000000,10a2,17139;SOL_COMPUTED,NARROW_INT,0.025,2.150,1.0151,242.089684,0.0319,0*e666b389
#BESTVELA,FILE,0,32.5,FINESTEERING,2319,307720.200,02000000,10a2,17139;SOL_COMPUTED,NARROW_INT,0.025,2.200,0.9845,243.852128,-0.0035,0*3f58b36c
#BESTVELA,FILE,0,32.5,FINESTEERING,2319,307720.250,02000000,10a2,17139;SOL_COMPUTED,NARROW_INT,0.025,2.250,1.0006,242.580776,0.0946,0*a1ff2e7b
#BESTVELA,FILE,0,32.5,FINESTEERING,2319,307720.300,02000000,10a2,17139;SOL_COMPUTED,NARROW_INT,0.025,2.300,0.9934,244.619254,-0.0015,0*115f83cc
#BESTVELA,FILE,0,32.5,FINESTEERING,2319,307720.350,02000000,10a2,17139;SOL_COMPUTED,NARROW_INT,0.025,2.350,1.0041,242.502259,0.0164,0*c9518344
#BESTVELA,FILE,0,32.5,FINESTEERING,2319,307720.400,02000000,10a2,17139;SOL_COMPUTED,NARROW_INT,0.025,2.400,1.0933,241.027949,-0.0029,0*8df65936
#BESTVELA,FILE,0,32.5,FINESTEERING,2319,307720.450,02000000,10a2,17139;SOL_COMPUTED,NARROW_INT,0.025,2.450,1.0841,245.646523,-0.0075,0*4a0e35b9
#BESTVELA,FILE,0,32.5,FINESTEERING,2319,307720.500,02000000,10a2,17139;SOL_COMPUTED,NARROW_INT,0.025,2.500,1.0394,255.101273,0.0229,0*c68886f9
#BESTVELA,FILE,0,32.5,FINESTEERING,2319,307720.550,02000000,10a2,17139;SOL_COMPUTED,NARROW_INT,0.025,2.550,1.0189,258.042209,0.0021,0*c0e1b64e
#BESTVELA,FILE,0,32.5,FINESTEERING,2319,307720.600,02000000,10a2,17139;SOL_COMPUTED,NARROW_INT,0.025,2.600,0.9416,257.007789,-0.0238,0*26c59f65
#BESTVELA,FILE,0,32.5,FINESTEERING,2319,307720.650,02000000,10a2,17139;SOL_COMPUTED,NARROW_INT,0.025,2.650,0.9090,261.932578,0.0389,0*7e4b8075
#BESTVELA,FILE,0,32.5,FINESTEERING,2319,307720.700,02000000,10a2,17139;SOL_COMPUTED,NARROW_INT,0.025,2.700,0.8776,259.938702,-0.0273,0*b0254b48
#BESTVELA,FILE,0,32.5,FINESTEERING,2319,307720.750,02000000,10a2,17139;SOL_COMPUTED,NARROW_INT,0.025,2.750,0.9245,262.312494,-0.0250,0*521ee445
#BESTVELA,FILE,0,32.5,FINESTEERING,2319,307720.800,02000000,10a2,17139;SOL_COMPUTED,NARROW_INT,0.025,2.800,0.9114,262.988430,-0.0789,0*2e77e9cc
#BESTVELA,FILE,0,32.5,FINESTEERING,2319,307720.850,02000000,10a2,17139;SOL_COMPUTED,NARROW_INT,0.025,2.850,0.8805,260.325974,-0.0946,0*2f4082e3
#BESTVELA,FILE,0,32.5,FINESTEERING,2319,307720.900,02000000,10a2,17139;SOL_COMPUTED,NARROW_INT,0.025,2.900,0.9219,260.224163,-0.0196,0*15829e7e
#BESTVELA,FILE,0,32.5,FINESTEERING,2319,307720.950,02000000,10a2,17139;SOL_COMPUTED,NARROW_INT,0.025,2.950,0.9215,256.210500,0.0113,0*f2e1eab8
#BESTVELA,FILE,0,32.5,FINESTEERING,2319,307721.000,02000000,10a2,17139;SOL_COMPUTED,NARROW_INT,0.025,3.000,0.9142,254.208495,0.0022,0*ba594470
#BESTVELA,FILE,0,32.5,FINESTEERING,2319,307721.050,02000000,10a2,17139;SOL_COMPUTED,NARROW_INT,0.025,3.050,0.9181,254.597318,0.0208,0*c196decb
#BESTVELA,FILE,0,32.5,FINESTEERING,2319,307721.100,02000000,10a2,17139;SOL_COMPUTED,NARROW_INT,0.025,3.100,0.9356,252.404679,0.0442,0*9f24508a
#BESTVELA,FILE,0,33.5,FINESTEERING,2319,307721.150,02000000,10a2,17139;SOL_COMPUTED,NARROW_INT,0.025,3.150,0.9564,256.820659,-0.0546,0*14b7ae18
#BESTVELA,FILE,0,33.5,FINESTEERING,2319,307721.200,02000000,10a2,17139;SOL_COMPUTED,NARROW_INT,0.025,3.200,0.9242,262.159689,-0.0212,0*8808dfba
#BESTVELA,FILE,0,33.5,FINESTEERING,2319,307721.250,02000000,10a2,17139;SOL_COMPUTED,NARROW_INT,0.025,3.250,0.9306,264.619345,0.0471,0*82c09347
#BESTVELA,FILE,0,33.5,FINESTEERING,2319,307721.300,02000000,10a2,17139;SOL_COMPUTED,NARROW_INT,0.025,3.300,0.9653,266.992412,-0.0033,0*b3e63856
#BESTVELA,FILE,0,33.5,FINESTEERING,2319,307721.350,02000000,10a2,17139;SOL_COMPUTED,NARROW_INT,0.025,3.350,0.9250,264.787973,0.0352,0*8b3c260a
#BESTVELA,FILE,0,33.5,FINESTEERING,2319,307721.400,02000000,10a2,17139;SOL_COMPUTED,NARROW_INT,0.025,3.400,0.8984,265.795654,-0.0314,0*1851d7e9
#BESTVELA,FILE,0,33.5,FINESTEERING,2319,307721.450,02000000,10a2,17139;SOL_COMPUTED,NARROW_INT,0.025,3.450,0.9246,267.476961,0.0480,0*e3b5fe70
#BESTVELA,FILE,0,33.5,FINESTEERING,2319,307721.500,02000000,10a2,17139;SOL_COMPUTED,NARROW_INT,0.025,3.500,0.9302,270.666723,0.0529,0*7bfd5fba
#BESTVELA,FILE,0,33.5,FINESTEERING,2319,307721.550,02000000,10a2,17139;SOL_COMPUTED,NARROW_INT,0.025,3.550,0.9352,269.256474,-0.0266,0*dce569ab
#BESTVELA,FILE,0,33.5,FINESTEERING,2319,307721.600,02000000,10a2,17139;SOL_COMPUTED,NARROW_INT,0.025,3.600,0.9536,272.492683,-0.0542,0*b2d700d5
#BESTVELA,FILE,0,33.5,FINESTEERING,2319,307721.650,02000000,10a2,17139;SOL_COMPUTED,NARROW_INT,0.025,3.650,0.9399,270.779967,0.0241,0*6046cb41
#BESTVELA,FILE,0,33.5,FINESTEERING,2319,307721.700,02000000,10a2,17139;SOL_COMPUTED,NARROW_INT,0.025,3.700,0.9436,268.178775,0.0249,0*aeb58e00
#BESTVELA,FILE,0,33.5,FINESTEERING,2319,307721.750,02000000,10a2,17139;SOL_COMPUTED,NARROW_INT,0.025,3.750,0.9333,266.659563,-0.0220,0*2b7ee78f
#BESTVELA,FILE,0,33.5,FINESTEERING,2319,307721.800,02000000,10a2,17139;SOL_COMPUTED,NARROW_INT,0.025,3.800,0.9457,265.799761,0.0296,0*a4b9eeda
#BESTVELA,FILE,0,33.5,FINESTEERING,2319,307721.850,02000000,10a2,17139;SOL_COMPUTED,NARROW_INT,0.025,3.850,0.9796,269.853292,-0.0279,0*d1558ec5
#BESTVELA,FILE,0,33.5,FINESTEERING,2319,307721.900,02000000,10a2,17139;SOL_COMPUTED,NARROW_INT,0.025,3.900,0.9465,270.572257,0.0215,0*8b5465ba
#BESTVELA,FILE,0,33.5,FINESTEERING,2319,307721.950,02000000,10a2,17139;SOL_COMPUTED,NARROW_INT,0.025,3.950,0.9945,269.001514,0.0693,0*51d62801
#BESTVELA,FILE,0,33.5,FINESTEERING,2319,307722.000,02000000,10a2,17139;SOL_COMPUTED,NARROW_INT,0.025,4.000,0.9502,270.368350,-0.0472,0*8393c1a7
#BESTVELA,FILE,0,33.5,FINESTEERING,2319,307722.050,02000000,10a2,17139;SOL_COMPUTED,NARROW_INT,0.025,4.050,1.0026,270.001659,-0.0108,0*f639dc2e
#BESTVELA,FILE,0,33.5,FINESTEERING,2319,307722.100,02000000,10a2,17139;SOL_COMPUTED,NARROW_INT,0.025,4.100,0.9968,270.664169,-0.0108,0*85d80d03
#BESTVELA,FILE,0,33.5,FINESTEERING,2319,307722.150,02000000,10a2,17139;SOL_COMPUTED,NARROW_INT,0.025,4.150,0.9547,272.649766,0.0749,0*fb399c45
#BESTVELA,FILE,0,33.5,FINESTEERING,2319,307722.200,02000000,10a2,17139;SOL_COMPUTED,NARROW_INT,0.025,4.200,0.9740,274.781275,0.0321,0*5c703cb4
#BESTVELA,FILE,0,33.5,FINESTEERING,2319,307722.250,02000000,10a2,17139;SOL_COMPUTED,NARROW_INT,0.025,4.250,1.0112,276.352317,-0.0276,0*34f8e311
#BESTVELA,FILE,0,33.5,FINESTEERING,2319,307722.300,02000000,10a2,17139;SOL_COMPUTED,NARROW_INT,0.025,4.300,0.9757,274.602053,-0.0260,0*253c829c
#BESTVELA,FILE,0,33.5,FINESTEERING,2319,307722.350,02000000,10a2,17139;SOL_COMPUTED,NARROW_INT,0.025,4.350,0.9929,273.575917,0.0460,0*718a9528
#BESTVELA,FILE,0,33.5,FINESTEERING,2319,307722.400,02000000,10a2,17139;SOL_COMPUTED,NARROW_INT,0.025,4.400,1.0045,272.436450,0.0111,0*cec8fcd0
#BESTVELA,FILE,0,33.5,FINESTEERING,2319,307722.450,02000000,10a2,17139;SOL_COMPUTED,NARROW_INT,0.025,4.450,1.0034,270.535718,-0.1121,0*a1f082c2
#BESTVELA,FILE,0,33.5,FINESTEERING,2319,307722.500,02000000,10a2,17139;SOL_COMPUTED,NARROW_INT,0.025,4.500,0.9923,270.398438,-0.0292,0*935e5b6e
#BESTVELA,FILE,0,33.5,FINESTEERING,2319,307722.550,02000000,10a2,17139;SOL_COMPUTED,NARROW_INT,0.025,4.550,0.9871,270.866959,-0.0620,0*7a4270f6
#BESTVELA,FILE,0,33.5,FINESTEERING,2319,307722.600,02000000,10a2,17139;SOL_COMPUTED,NARROW_INT,0.025,4.600,1.0240,277.927851,-0.0727,0*9eb038d0
#BESTVELA,FILE,0,33.5,FINESTEERING,2319,307722.650,02000000,10a2,17139;SOL_COMPUTED,NARROW_INT,0.025,4.650,1.0850,282.147668,-0.0033,0*53cdf364
#BESTVELA,FILE,0,33.5,FINESTEERING,2319,307722.700,02000000,10a2,17139;SOL_COMPUTED,NARROW_INT,0.025,4.700,1.1044,287.090997,0.0455,0*2ca67fe4
#BESTVELA,FILE,0,33.5,FINESTEERING,2319,307722.750,02000000,10a2,17139;SOL_COMPUTED,NARROW_INT,0.025,4.750,1.0950,282.854293,0.0896,0*0605f51e
#BESTVELA,FILE,0,33.5,FINESTEERING,2319,307722.800,02000000,10a2,17139;SOL_COMPUTED,NARROW_INT,0.025,4.800,1.0976,284.519069,0.1056,0*e31b797e
#BESTVELA,FILE,0,33.5,FINESTEERING,2319,307722.850,02000000,10a2,17139;SOL_COMPUTED,NARROW_INT,0.025,4.850,1.0832,281.076528,0.0789,0*78b6221c
#BESTVELA,FILE,0,33.5,FINESTEERING,2319,307722.900,02000000,10a2,17139;SOL_COMPUTED,NARROW_INT,0.025,4.900,1.0270,277.655153,0.0701,0*aca82711
#BESTVELA,FILE,0,33.5,FINESTEERING,2319,307722.950,02000000,10a2,17139;SOL_COMPUTED,NARROW_INT,0.025,4.950,1.0834,273.858352,0.0401,0*833ee5a0
#BESTVELA,FILE,0,33.5,FINESTEERING,2319,307723.000,02000000,10a2,17139;SOL_COMPUTED,NARROW_INT,0.025,5.000,1.0340,270.417113,0.0251,0*869a9fc9
#BESTVELA,FILE,0,33.5,FINESTEERING,2319,307723.050,02000000,10a2,17139;SOL_COMPUTED,NARROW_INT,0.025,5.050,1.0642,268.390585,-0.0268,0*ec13242b
#BESTVELA,FILE,0,33.5,FINESTEERING,2319,307723.100,02000000,10a2,17139;SOL_COMPUTED,NARROW_INT,0.025,5.100,1.0366,266.976682,-0.0327,0*9389aec7
#BESTVELA,FILE,0,33.5,FINESTEERING,2319,307723.150,02000000,10a2,17139;SOL_COMPUTED,NARROW_INT,0.025,5.150,1.0422,268.079529,-0.1047,0*e1f168e9
#BESTVELA,FILE,0,33.5,FINESTEERING,2319,307723.200,02000000,10a2,17139;SOL_COMPUTED,NARROW_INT,0.025,5.200,1.0682,270.787315,0.0108,0*abea0efa
#BESTVELA,FILE,0,33.5,FINESTEERING,2319,307723.250,02000000,10a2,17139;SOL_COMPUTED,NARROW_INT,0.025,5.250,1.0605,275.025129,-0.0200,0*48e83975
#BESTVELA,FILE,0,33.5,FINESTEERING,2319,307723.300,02000000,10a2,17139;SOL_COMPUTED,NARROW_INT,0.025,5.300,1.0857,277.746806,-0.0343,0*820d9d00
#BESTVELA,FILE,0,33.5,FINESTEERING,2319,307723.350,02000000,10a2,17139;SOL_COMPUTED,NARROW_INT,0.025,5.350,1.1621,280.863423,0.0353,0*79032935
#BESTVELA,FILE,0,33.5,FINESTEERING,2319,307723.400,02000000,10a2,17139;SOL_COMPUTED,NARROW_INT,0.025,5.400,1.0997,285.535433,0.0073,0*2fc2746b
#BESTVELA,FILE,0,33.5,FINESTEERING,2319,307723.450,02000000,10a2,17139;SOL_COMPUTED,NARROW_INT,0.025,5.450,1.1567,281.063383,0.0849,0*7f55d90f
#BESTVELA,FILE,0,33.5,FINESTEERING,2319,307723.500,02000000,10a2,17139;SOL_COMPUTED,NARROW_INT,0.025,5.500,1.1424,279.086726,0.0170,0*a58db5e0
#BESTVELA,FILE,0,33.5,FINESTEERING,2319,307723.550,02000000,10a2,17139;SOL_COMPUTED,NARROW_INT,0.025,5.550,1.1180,277.579150,0.0440,0*b8adc788
#BESTVELA,FILE,0,33.5,FINESTEERING,2319,307723.600,02000000,10a2,17139;SOL_COMPUTED,NARROW_INT,0.025,5.600,1.1525,275.823198,0.0417,0*3eb0b02d
#BESTVELA,FILE,0,33.5,FINESTEERING,2319,307723.650,02000000,10a2,17139;SOL_COMPUTED,NARROW_INT,0.025,5.650,1.1192,274.865189,-0.0118,0*ce95b948
#BESTVELA,FILE,0,33.5,FINESTEERING,2319,307723.700,02000000,10a2,17139;SOL_COMPUTED,NARROW_INT,0.025,5.700,1.1220,275.414228,-0.0286,0*d5b2210d
#BESTVELA,FILE,0,33.5,FINESTEERING,2319,307723.750,02000000,10a2,17139;SOL_COMPUTED,NARROW_INT,0.025,5.750,1.1466,273.489991,0.0617,0*bf37230d
#BESTVELA,FILE,0,33.5,FINESTEERING,2319,307723.800,02000000,10a2,17139;SOL_COMPUTED,NARROW_INT,0.025,5.800,1.1598,271.945834,-0.0501,0*99c34f21
#BESTVELA,FILE,0,33.5,FINESTEERING,2319,307723.850,02000000,10a2,17139;SOL_COMPUTED,NARROW_INT,0.025,5.850,1.1819,272.365236,-0.0302,0*bdee73e9
#BESTVELA,FILE,0,33.5,FINESTEERING,2319,307723.900,02000000,10a2,17139;SOL_COMPUTED,NARROW_INT,0.025,5.900,1.1925,274.546090,0.0141,0*23ecbe62
#BESTVELA,FILE,0,33.5,FINESTEERING,2319,307723.950,02000000,10a2,17139;SOL_COMPUTED,NARROW_INT,0.025,5.950,1.1798,274.561176,-0.0100,0*69b901a6
#BESTVELA,FILE,0,33.5,FINESTEERING,2319,307724.000,02000000,10a2,17139;SOL_COMPUTED,NARROW_INT,0.025,6.000,1.2527,274.788734,0.0815,0*604c4c64
#BESTVELA,FILE,0,33.5,FINESTEERING,2319,307724.050,02000000,10a2,17139;SOL_COMPUTED,NARROW_INT,0.025,6.050,1.2470,276.169635,-0.0210,0*ad05a386
#BESTVELA,FILE,0,33.5,FINESTEERING,2319,307724.100,02000000,10a2,17139;SOL_COMPUTED,NARROW_INT,0.025,6.100,1.2783,276.376149,0.0138,0*c0efea4c
#BESTVELA,FILE,0,35.5,FINESTEERING,2319,307724.150,02000000,10a2,17139;SOL_COMPUTED,NARROW_INT,0.025,6.150,1.3305,275.567033,-0.0169,0*ca374159
#BESTVELA,FILE,0,35.5,FINESTEERING,2319,307724.200,02000000,10a2,17139;SOL_COMPUTED,NARROW_INT,0.025,6.200,1.3217,276.463872,0.0243,0*36d2c3e7
#BESTVELA,FILE,0,35.5,FINESTEERING,2319,307724.250,02000000,10a2,17139;SOL_COMPUTED,NARROW_INT,0.025,6.250,1.3407,276.391922,0.0360,0*0fcb71c5
#BESTVELA,FILE,0,35.5,FINESTEERING,2319,307724.300,02000000,10a2,17139;SOL_COMPUTED,NARROW_INT,0.025,6.300,1.3752,274.395704,0.0420,0*9d3b5781
#BESTVELA,FILE,0,35.5,FINESTEERING,2319,307724.350,02000000,10a2,17139;SOL_COMPUTED,NARROW_INT,0.025,6.350,1.3796,273.847852,-0.0655,0*ee481825
#BESTVELA,FILE,0,35.5,FINESTEERING,2319,307724.400,02000000,10a2,17139;SOL_COMPUTED,NARROW_INT,0.025,6.400,1.3898,274.270084,0.0318,0*06b11c59
#BESTVELA,FILE,0,35.5,FINESTEERING,2319,307724.450,02000000,10a2,17139;SOL_COMPUTED,NARROW_INT,0.025,6.450,1.3910,272.675734,0.0209,0*f35ce7da
#BESTVELA,FILE,0,35.5,FINESTEERING,2319,307724.500,02000000,10a2,17139;SOL_COMPUTED,NARROW_INT,0.025,6.500,1.4368,275.177818,0.0006,0*42eca73f
#BESTVELA,FILE,0,35.5,FINESTEERING,2319,307724.550,02000000,10a2,17139;SOL_COMPUTED,NARROW_INT,0.025,6.550,1.4478,275.255825,0.0356,0*bebf32ed
#BESTVELA,FILE,0,35.5,FINESTEERING,2319,307724.600,02000000,10a2,17139;SOL_COMPUTED,NARROW_INT,0.025,6.600,1.4811,273.247795,0.0621,0*0cca3aeb
#BESTVELA,FILE,0,35.5,FINESTEERING,2319,307724.650,02000000,10a2,17139;SOL_COMPUTED,NARROW_INT,0.025,6.650,1.4944,272.747994,-0.0495,0*d48ba434
#BESTVELA,FILE,0,35.5,FINESTEERING,2319,307724.700,02000000,10a2,17139;SOL_COMPUTED,NARROW_INT,0.025,6.700,1.5370,275.044388,0.0337,0*4193bc54
#BESTVELA,FILE,0,35.5,FINESTEERING,2319,307724.750,02000000,10a2,17139;SOL_COMPUTED,NARROW_INT,0.025,6.750,1.5436,273.847218,0.0436,0*0a2474c0
#BESTVELA,FILE,0,35.5,FINESTEERING,2319,307724.800,02000000,10a2,17139;SOL_COMPUTED,NARROW_INT,0.025,6.800,1.5801,273.713745,-0.0250,0*2c3a05c8
