#BESTPOSA,FILE,0,41.0,FINESTEERING,2319,307702.750,02000800,cdba,17139;SOL_COMPUTED,INS_RTKFIXED,17.59828522366,78.12268610943,525.9848,-76.2000,WGS84,0.0624,0.0616,0.0601,"0",26.000,0.000,33,31,31,29,00,20,3f,37*c84582ad
#BESTPOSA,FILE,0,41.0,FINESTEERING,2319,307702.850,02000800,cdba,17139;SOL_COMPUTED,INS_RTKFIXED,17.59828518038,78.12268203856,525.9809,-76.2000,WGS84,0.0624,0.0616,0.0601,"0",26.000,0.000,33,31,31,29,00,20,3f,37*39ef1835
#BESTPOSA,FILE,0,41.0,FINESTEERING,2319,307702.950,02000800,cdba,17139;SOL_COMPUTED,INS_RTKFIXED,17.59828511927,78.12267799217,525.9807,-76.2000,WGS84,0.0624,0.0616,0.0601,"0",26.000,0.000,33,31,31,29,00,20,3f,37*82fd95ef
#BESTPOSA,FILE,0,41.0,FINESTEERING,2319,307703.050,02000800,cdba,17139;SOL_COMPUTED,INS_RTKFIXED,17.59828509119,78.12267396524,525.9818,-76.2000,WGS84,0.0625,0.0615,0.0604,"0",27.000,0.000,33,30,30,28,00,20,3f,37*6634dc9d
#BESTPOSA,FILE,0,40.0,FINESTEERING,2319,307703.150,02000800,cdba,17139;SOL_COMPUTED,INS_RTKFIXED,17.59828508547,78.12266996598,525.9826,-76.2000,WGS84,0.0625,0.0615,0.0604,"0",27.000,0.000,33,30,30,28,00,20,3f,37*e54f07ea
#BESTPOSA,FILE,0,40.0,FINESTEERING,2319,307703.250,02000800,cdba,17139;SOL_COMPUTED,INS_RTKFIXED,17.59828512426,78.12266599062,525.9794,-76.2000,WGS84,0.0625,0.0615,0.0604,"0",27.000,0.000,33,30,30,28,00,20,3f,37*6e383061
#BESTPOSA,FILE,0,40.0,FINESTEERING,2319,307703.350,02000800,cdba,17139;SOL_COMPUTED,INS_RTKFIXED,17.59828518267,78.12266201206,525.9724,-76.2000,WGS84,0.0625,0.0615,0.0604,"0",27.000,0.000,33,30,30,28,00,20,3f,37*420c18bc
#BESTPOSA,FILE,0,40.0,FINESTEERING,2319,307703.450,02000800,cdba,17139;SOL_COMPUTED,INS_RTKFIXED,17.59828522573,78.12265803708,525.9684,-76.2000,WGS84,0.0625,0.0615,0.0604,"0",27.000,0.000,33,30,30,28,00,20,3f,37*f4f02cd6
#BESTPOSA,FILE,0,40.0,FINESTEERING,2319,307703.550,02000800,cdba,17139;SOL_COMPUTED,INS_RTKFIXED,17.59828526804,78.12265405334,525.9693,-76.2000,WGS84,0.0625,0.0615,0.0604,"0",27.000,0.000,33,30,30,28,00,20,3f,37*c9333c87
#BESTPOSA,FILE,0,40.0,FINESTEERING,2319,307703.650,02000800,cdba,17139;SOL_COMPUTED,INS_RTKFIXED,17.59828531758,78.12265007498,525.9746,-76.2000,WGS84,0.0625,0.0615,0.0604,"0",27.000,0.000,33,30,30,28,00,20,3f,37*c984b716
#BESTPOSA,FILE,0,40.0,FINESTEERING,2319,307703.700,02000800,cdba,17139;SOL_COMPUTED,INS_RTKFIXED,17.59828534066,78.12264809869,525.9782,-76.2000,WGS84,0.0625,0.0615,0.0604,"0",27.000,0.000,33,30,30,28,00,20,3f,37*e72e5d75
#BESTPOSA,FILE,0,40.0,FINESTEERING,2319,307703.800,02000800,cdba,17139;SOL_COMPUTED,INS_RTKFIXED,17.59828540745,78.12264415358,525.9829,-76.2000,WGS84,0.0625,0.0615,0.0604,"0",27.000,0.000,33,30,30,28,00,20,3f,37*06188e41
#BESTPOSA,FILE,0,40.0,FINESTEERING,2319,307703.900,02000800,cdba,17139;SOL_COMPUTED,INS_RTKFIXED,17.59828549495,78.12264025462,525.9815,-76.2000,WGS84,0.0625,0.0615,0.0604,"0",27.000,0.000,33,30,30,28,00,20,3f,37*c5e74163
#BESTPOSA,FILE,0,40.0,FINESTEERING,2319,307704.000,02000800,cdba,17139;SOL_COMPUTED,INS_RTKFIXED,17.59828557744,78.12263639859,525.9742,-76.2000,WGS84,0.0625,0.0615,0.0604,"0",27.000,0.000,33,30,30,28,00,20,3f,37*9d0af075
#BESTPOSA,FILE,0,40.0,FINESTEERING,2319,307704.100,02000800,cdba,17139;SOL_COMPUTED,INS_RTKFIXED,17.59828565326,78.12263257343,525.9674,-76.2000,WGS84,0.0626,0.0615,0.0607,"0",28.000,0.000,34,31,31,29,00,20,3f,37*068fd78e
#BESTPOSA,FILE,0,40.5,FINESTEERING,2319,307704.200,02000800,cdba,17139;SOL_COMPUTED,INS_RTKFIXED,17.59828572750,78.12262875104,525.9656,-76.2000,WGS84,0.0626,0.0615,0.0607,"0",28.000,0.000,34,31,31,29,00,20,3f,37*651c6efb
#BESTPOSA,FILE,0,40.5,FINESTEERING,2319,307704.300,02000800,cdba,17139;SOL_COMPUTED,INS_RTKFIXED,17.59828576580,78.12262492496,525.9703,-76.2000,WGS84,0.0626,0.0615,0.0607,"0",28.000,0.000,34,31,31,29,00,20,3f,37*a5e42dec
#BESTPOSA,FILE,0,40.5,FINESTEERING,2319,307704.400,02000800,cdba,17139;SOL_COMPUTED,INS_RTKFIXED,17.59828583186,78.12262111341,525.9722,-76.2000,WGS84,0.0626,0.0615,0.0607,"0",28.000,0.000,34,31,31,29,00,20,3f,37*29990c82
#BESTPOSA,FILE,0,40.5,FINESTEERING,2319,307704.500,02000800,cdba,17139;SOL_COMPUTED,INS_RTKFIXED,17.59828594895,78.12261735333,525.9677,-76.2000,WGS84,0.0626,0.0615,0.0607,"0",28.000,0.000,34,31,31,29,00,20,3f,37*4c6c1742
#BESTPOSA,FILE,0,40.5,FINESTEERING,2319,307704.600,02000800,cdba,17139;SOL_COMPUTED,INS_RTKFIXED,17.59828606693,78.12261360190,525.9622,-76.2000,WGS84,0.0626,0.0615,0.0607,"0",28.000,0.000,34,31,31,29,00,20,3f,37*abb76d5a
#BESTPOSA,FILE,0,40.5,FINESTEERING,2319,307704.650,02000800,cdba,17139;SOL_COMPUTED,INS_RTKFIXED,17.59828611740,78.12261172380,525.9620,-76.2000,WGS84,0.0626,0.0615,0.0607,"0",28.000,0.000,34,31,31,29,00,20,3f,37*f3511b1b
#BESTPOSA,FILE,0,40.5,FINESTEERING,2319,307704.750,02000800,cdba,17139;SOL_COMPUTED,INS_RTKFIXED,17.59828619124,78.12260795603,525.9661,-76.2000,WGS84,0.0626,0.0615,0.0607,"0",28.000,0.000,34,31,31,29,00,20,3f,37*7b41017d
#BESTPOSA,FILE,0,40.5,FINESTEERING,2319,307704.850,02000800,cdba,17139;SOL_COMPUTED,INS_RTKFIXED,17.59828624991,78.12260420797,525.9721,-76.2000,WGS84,0.0626,0.0615,0.0607,"0",28.000,0.000,34,31,31,29,00,20,3f,37*6aac5240
#BESTPOSA,FILE,0,40.5,FINESTEERING,2319,307704.950,02000800,cdba,17139;SOL_COMPUTED,INS_RTKFIXED,17.59828632220,78.12260049204,525.9753,-76.2000,WGS84,0.0626,0.0615,0.0607,"0",28.000,0.000,34,31,31,29,00,20,3f,37*8c86aa1a
#BESTPOSA,FILE,0,40.5,FINESTEERING,2319,307705.050,02000800,cdba,17139;SOL_COMPUTED,INS_RTKFIXED,17.59828643531,78.12259680584,525.9735,-76.2000,WGS84,0.0624,0.0614,0.0610,"0",29.000,0.000,32,31,31,28,00,20,3f,37*2076a483
#BESTPOSA,FILE,0,40.5,FINESTEERING,2319,307705.150,02000800,cdba,17139;SOL_COMPUTED,INS_RTKFIXED,17.59828654797,78.12259314416,525.9704,-76.2000,WGS84,0.0624,0.0614,0.0610,"0",29.000,0.000,32,31,31,28,00,20,3f,37*24008691
#BESTPOSA,FILE,0,42.5,FINESTEERING,2319,307705.250,02000800,cdba,17139;SOL_COMPUTED,INS_RTKFIXED,17.59828664210,78.12258952673,525.9664,-76.2000,WGS84,0.0624,0.0614,0.0610,"0",29.000,0.000,32,31,31,28,00,20,3f,37*7a2572f9
#BESTPOSA,FILE,0,42.5,FINESTEERING,2319,307705.350,02000800,cdba,17139;SOL_COMPUTED,INS_RTKFIXED,17.59828670991,78.12258591145,525.9630,-76.2000,WGS84,0.0624,0.0614,0.0610,"0",29.000,0.000,32,31,31,28,00,20,3f,37*d0e8a56f
#BESTPOSA,FILE,0,42.5,FINESTEERING,2319,307705.450,02000800,cdba,17139;SOL_COMPUTED,INS_RTKFIXED,17.59828676804,78.12258230675,525.9604,-76.2000,WGS84,0.0624,0.0614,0.0610,"0",29.000,0.000,32,31,31,28,00,20,3f,37*b0f324fd
#BESTPOSA,FILE,0,42.5,FINESTEERING,2319,307705.550,02000800,cdba,17139;SOL_COMPUTED,INS_RTKFIXED,17.59828681854,78.12257872015,525.9593,-76.2000,WGS84,0.0624,0.0614,0.0610,"0",29.000,0.000,32,31,31,28,00,20,3f,37*aa35dac9
#BESTPOSA,FILE,0,42.5,FINESTEERING,2319,307705.650,02000800,cdba,17139;SOL_COMPUTED,INS_RTKFIXED,17.59828686840,78.12257517305,525.9567,-76.2000,WGS84,0.0624,0.0614,0.0610,"0",29.000,0.000,32,31,31,28,00,20,3f,37*1757afa0
#BESTPOSA,FILE,0,42.5,FINESTEERING,2319,307705.700,02000800,cdba,17139;SOL_COMPUTED,INS_RTKFIXED,17.59828688092,78.12257341384,525.9563,-76.2000,WGS84,0.0624,0.0614,0.0610,"0",29.000,0.000,32,31,31,28,00,20,3f,37*20b77ee9
#BESTPOSA,FILE,0,42.5,FINESTEERING,2319,307705.850,02000800,cdba,17139;SOL_COMPUTED,INS_RTKFIXED,17.59828691402,78.12256815339,525.9579,-76.2000,WGS84,0.0624,0.0614,0.0610,"0",29.000,0.000,32,31,31,28,00,20,3f,37*45d89c70
#BESTPOSA,FILE,0,42.5,FINESTEERING,2319,307705.900,02000800,cdba,17139;SOL_COMPUTED,INS_RTKFIXED,17.59828693248,78.12256639675,525.9584,-76.2000,WGS84,0.0624,0.0614,0.0610,"0",29.000,0.000,32,31,31,28,00,20,3f,37*89dc0045
#BESTPOSA,FILE,0,42.5,FINESTEERING,2319,307706.000,02000800,cdba,17139;SOL_COMPUTED,INS_RTKFIXED,17.59828695373,78.12256293388,525.9585,-76.2000,WGS84,0.0624,0.0614,0.0610,"0",29.000,0.000,32,31,31,28,00,20,3f,37*1698f18f
#BESTPOSA,FILE,0,41.0,FINESTEERING,2319,307706.100,02000800,cdba,17139;SOL_COMPUTED,INS_RTKFIXED,17.59828698076,78.12255949839,525.9564,-76.2000,WGS84,0.0623,0.0612,0.0612,"0",30.000,0.000,33,30,30,29,00,20,3f,37*2a6bee5d
#BESTPOSA,FILE,0,41.0,FINESTEERING,2319,307706.200,02000800,cdba,17139;SOL_COMPUTED,INS_RTKFIXED,17.59828702262,78.12255608536,525.9539,-76.2000,WGS84,0.0623,0.0612,0.0612,"0",30.000,0.000,33,30,30,29,00,20,3f,37*98535df5
#BESTPOSA,FILE,0,41.0,FINESTEERING,2319,307706.250,02000800,cdba,17139;SOL_COMPUTED,INS_RTKFIXED,17.59828703869,78.12255439588,525.9530,-76.2000,WGS84,0.0623,0.0612,0.0612,"0",30.000,0.000,33,30,30,29,00,20,3f,37*c98587ca
#BESTPOSA,FILE,0,41.0,FINESTEERING,2319,307706.300,02000800,cdba,17139;SOL_COMPUTED,INS_RTKFIXED,17.59828705941,78.12255269764,525.9533,-76.2000,WGS84,0.0623,0.0612,0.0612,"0",30.000,0.000,33,30,30,29,00,20,3f,37*e88569c8
#BESTPOSA,FILE,0,41.0,FINESTEERING,2319,307706.350,02000800,cdba,17139;SOL_COMPUTED,INS_RTKFIXED,17.59828706955,78.12255100964,525.9546,-76.2000,WGS84,0.0623,0.0612,0.0612,"0",30.000,0.000,33,30,30,29,00,20,3f,37*5a3d2234
#BESTPOSA,FILE,0,41.0,FINESTEERING,2319,307706.400,02000800,cdba,17139;SOL_COMPUTED,INS_RTKFIXED,17.59828706756,78.12254932066,525.9563,-76.2000,WGS84,0.0623,0.0612,0.0612,"0",30.000,0.000,33,30,30,29,00,20,3f,37*12fdbc14
#BESTPOSA,FILE,0,41.0,FINESTEERING,2319,307706.450,02000800,cdba,17139;SOL_COMPUTED,INS_RTKFIXED,17.59828707017,78.12254764423,525.9584,-76.2000,WGS84,0.0623,0.0612,0.0612,"0",30.000,0.000,33,30,30,29,00,20,3f,37*c55d932c
#BESTPOSA,FILE,0,41.0,FINESTEERING,2319,307706.500,02000800,cdba,17139;SOL_COMPUTED,INS_RTKFIXED,17.59828704262,78.12254597800,525.9614,-76.2000,WGS84,0.0623,0.0612,0.0612,"0",30.000,0.000,33,30,30,29,00,20,3f,37*75107aa3
#BESTPOSA,FILE,0,41.0,FINESTEERING,2319,307706.550,02000800,cdba,17139;SOL_COMPUTED,INS_RTKFIXED,17.59828703892,78.12254432120,525.9624,-76.2000,WGS84,0.0623,0.0612,0.0612,"0",30.000,0.000,33,30,30,29,00,20,3f,37*d8f2210c
#BESTPOSA,FILE,0,41.0,FINESTEERING,2319,307706.600,02000800,cdba,17139;SOL_COMPUTED,INS_RTKFIXED,17.59828702840,78.12254266505,525.9630,-76.2000,WGS84,0.0623,0.0612,0.0612,"0",30.000,0.000,33,30,30,29,00,20,3f,37*241db045
#BESTPOSA,FILE,0,41.0,FINESTEERING,2319,307706.650,02000800,cdba,17139;SOL_COMPUTED,INS_RTKFIXED,17.59828702686,78.12254102809,525.9630,-76.2000,WGS84,0.0623,0.0612,0.0612,"0",30.000,0.000,33,30,30,29,00,20,3f,37*9b7c0741
#BESTPOSA,FILE,0,41.0,FINESTEERING,2319,307706.700,02000000,cdba,17139;SOL_COMPUTED,INS_RTKFIXED,17.59828701728,78.12253938817,525.9633,-76.2000,WGS84,0.0623,0.0612,0.0612,"0",30.000,0.000,33,30,30,29,00,20,3f,37*e964fbc4
#BESTPOSA,FILE,0,41.0,FINESTEERING,2319,307706.750,02000000,cdba,17139;SOL_COMPUTED,INS_RTKFIXED,17.59828701886,78.12253776119,525.9621,-76.2000,WGS84,0.0623,0.0612,0.0612,"0",30.000,0.000,33,30,30,29,00,20,3f,37*9c546fe1
#BESTPOSA,FILE,0,41.0,FINESTEERING,2319,307706.800,02000000,cdba,17139;SOL_COMPUTED,INS_RTKFIXED,17.59828702400,78.12253613182,525.9609,-76.2000,WGS84,0.0623,0.0612,0.0612,"0",30.000,0.000,33,30,30,29,00,20,3f,37*41cd726d
#BESTPOSA,FILE,0,41.0,FINESTEERING,2319,307706.850,02000000,cdba,17139;SOL_COMPUTED,INS_RTKFIXED,17.59828703558,78.12253450209,525.9599,-76.2000,WGS84,0.0623,0.0612,0.0612,"0",30.000,0.000,33,30,30,29,00,20,3f,37*7997483e
#BESTPOSA,FILE,0,41.0,FINESTEERING,2319,307706.900,02000000,cdba,17139;SOL_COMPUTED,INS_RTKFIXED,17.59828703764,78.12253288195,525.9599,-76.2000,WGS84,0.0623,0.0612,0.0612,"0",30.000,0.000,33,30,30,29,00,20,3f,37*5d9e252b
#BESTPOSA,FILE,0,41.0,FINESTEERING,2319,307706.950,02000000,cdba,17139;SOL_COMPUTED,INS_RTKFIXED,17.59828705360,78.12253125543,525.9597,-76.2000,WGS84,0.0623,0.0612,0.0612,"0",30.000,0.000,33,30,30,29,00,20,3f,37*8ed2e891
#BESTPOSA,FILE,0,41.0,FINESTEERING,2319,307707.000,02000000,cdba,17139;SOL_COMPUTED,INS_RTKFIXED,17.59828704172,78.12252963984,525.9613,-76.2000,WGS84,0.0623,0.0612,0.0612,"0",30.000,0.000,33,30,30,29,00,20,3f,37*1e315d0a
#BESTPOSA,FILE,0,41.0,FINESTEERING,2319,307707.050,02000000,cdba,17139;SOL_COMPUTED,INS_RTKFIXED,17.59828706276,78.12252802042,525.9611,-76.2000,WGS84,0.0622,0.0611,0.0614,"0",31.000,0.000,32,31,31,30,00,20,3f,37*f9a27828
#BESTPOSA,FILE,0,37.5,FINESTEERING,2319,307707.100,02000000,cdba,17139;SOL_COMPUTED,INS_RTKFIXED,17.59828708674,78.12252642039,525.9596,-76.2000,WGS84,0.0622,0.0611,0.0614,"0",31.000,0.000,32,31,31,30,00,20,3f,37*381de0dd
#BESTPOSA,FILE,0,37.5,FINESTEERING,2319,307707.150,02000000,cdba,17139;SOL_COMPUTED,INS_RTKFIXED,17.59828709238,78.12252483164,525.9602,-76.2000,WGS84,0.0622,0.0611,0.0614,"0",31.000,0.000,32,31,31,30,00,20,3f,37*fb0a5a4a
#BESTPOSA,FILE,0,37.5,FINESTEERING,2319,307707.200,02000000,cdba,17139;SOL_COMPUTED,INS_RTKFIXED,17.59828709084,78.12252324770,525.9608,-76.2000,WGS84,0.0622,0.0611,0.0614,"0",31.000,0.000,32,31,31,30,00,20,3f,37*05c057ab
#BESTPOSA,FILE,0,37.5,FINESTEERING,2319,307707.250,02000000,cdba,17139;SOL_COMPUTED,INS_RTKFIXED,17.59828710031,78.12252167607,525.9604,-76.2000,WGS84,0.0622,0.0611,0.0614,"0",31.000,0.000,32,31,31,30,00,20,3f,37*8e1a005e
#BESTPOSA,FILE,0,37.5,FINESTEERING,2319,307707.300,02000000,cdba,17139;SOL_COMPUTED,INS_RTKFIXED,17.59828710161,78.12252011838,525.9598,-76.2000,WGS84,0.0622,0.0611,0.0614,"0",31.000,0.000,32,31,31,30,00,20,3f,37*352cb404
#BESTPOSA,FILE,0,37.5,FINESTEERING,2319,307707.350,02000000,cdba,17139;SOL_COMPUTED,INS_RTKFIXED,17.59828709959,78.12251856373,525.9595,-76.2000,WGS84,0.0622,0.0611,0.0614,"0",31.000,0.000,32,31,31,30,00,20,3f,37*ad13c0c3
#BESTPOSA,FILE,0,37.5,FINESTEERING,2319,307707.400,02000000,cdba,17139;SOL_COMPUTED,INS_RTKFIXED,17.59828708668,78.12251701896,525.9604,-76.2000,WGS84,0.0622,0.0611,0.0614,"0",31.000,0.000,32,31,31,30,00,20,3f,37*c14827ce
#BESTPOSA,FILE,0,37.5,FINESTEERING,2319,307707.450,02000000,cdba,17139;SOL_COMPUTED,INS_RTKFIXED,17.59828708671,78.12251548073,525.9607,-76.2000,WGS84,0.0622,0.0611,0.0614,"0",31.000,0.000,32,31,31,30,00,20,3f,37*73bac0cc
#BESTPOSA,FILE,0,37.5,FINESTEERING,2319,307707.500,02000000,cdba,17139;SOL_COMPUTED,INS_RTKFIXED,17.59828709377,78.12251393719,525.9602,-76.2000,WGS84,0.0622,0.0611,0.0614,"0",31.000,0.000,32,31,31,30,00,20,3f,37*4babc65b
#BESTPOSA,FILE,0,37.5,FINESTEERING,2319,307707.550,02000000,cdba,17139;SOL_COMPUTED,INS_RTKFIXED,17.59828709257,78.12251240565,525.9596,-76.2000,WGS84,0.0622,0.0611,0.0614,"0",31.000,0.000,32,31,31,30,00,20,3f,37*188dadda
#BESTPOSA,FILE,0,37.5,FINESTEERING,2319,307707.600,02000000,cdba,17139;SOL_COMPUTED,INS_RTKFIXED,17.59828709261,78.12251087998,525.9587,-76.2000,WGS84,0.0622,0.0611,0.0614,"0",31.000,0.000,32,31,31,30,00,20,3f,37*77bed029
#BESTPOSA,FILE,0,37.5,FINESTEERING,2319,307707.650,02000000,cdba,17139;SOL_COMPUTED,INS_RTKFIXED,17.59828709999,78.12250936140,525.9575,-76.2000,WGS84,0.0622,0.0611,0.0614,"0",31.000,0.000,32,31,31,30,00,20,3f,37*7c3751c6
#BESTPOSA,FILE,0,37.5,FINESTEERING,2319,307707.700,02000000,cdba,17139;SOL_COMPUTED,INS_RTKFIXED,17.59828711197,78.12250784406,525.9551,-76.2000,WGS84,0.0622,0.0611,0.0614,"0",31.000,0.000,32,31,31,30,00,20,3f,37*079f894d
#BESTPOSA,FILE,0,37.5,FINESTEERING,2319,307707.750,02000000,cdba,17139;SOL_COMPUTED,INS_RTKFIXED,17.59828711994,78.12250633397,525.9525,-76.2000,WGS84,0.0622,0.0611,0.0614,"0",31.000,0.000,32,31,31,30,00,20,3f,37*402d3b8e
#BESTPOSA,FILE,0,37.5,FINESTEERING,2319,307707.800,02000000,cdba,17139;SOL_COMPUTED,INS_RTKFIXED,17.59828712485,78.12250482304,525.9504,-76.2000,WGS84,0.0622,0.0611,0.0614,"0",31.000,0.000,32,31,31,30,00,20,3f,37*b2c652bb
#BESTPOSA,FILE,0,37.5,FINESTEERING,2319,307707.850,02000000,cdba,17139;SOL_COMPUTED,INS_RTKFIXED,17.59828713065,78.12250332264,525.9488,-76.2000,WGS84,0.0622,0.0611,0.0614,"0",31.000,0.000,32,31,31,30,00,20,3f,37*abf1df49
#BESTPOSA,FILE,0,37.5,FINESTEERING,2319,307707.900,02000000,cdba,17139;SOL_COMPUTED,INS_RTKFIXED,17.59828712144,78.12250181464,525.9488,-76.2000,WGS84,0.0622,0.0611,0.0614,"0",31.000,0.000,32,31,31,30,00,20,3f,37*c22f8458
#BESTPOSA,FILE,0,37.5,FINESTEERING,2319,307707.950,02000000,cdba,17139;SOL_COMPUTED,INS_RTKFIXED,17.59828711413,78.12250032350,525.9488,-76.2000,WGS84,0.0622,0.0611,0.0614,"0",31.000,0.000,32,31,31,30,00,20,3f,37*a2a45f34
#BESTPOSA,FILE,0,37.5,FINESTEERING,2319,307708.000,02000000,cdba,17139;SOL_COMPUTED,INS_RTKFIXED,17.59828710500,78.12249882873,525.9499,-76.2000,WGS84,0.0622,0.0611,0.0614,"0",31.000,0.000,32,31,31,30,00,20,3f,37*9a88778e
#BESTPOSA,FILE,0,37.5,FINESTEERING,2319,307708.050,02000000,cdba,17139;SOL_COMPUTED,INS_RTKFIXED,17.59828708959,78.12249734573,525.9515,-76.2000,WGS84,0.0622,0.0611,0.0616,"0",32.000,0.000,32,31,31,30,00,20,3f,37*17e2614d
#BESTPOSA,FILE,0,33.0,FINESTEERING,2319,307708.100,02000000,cdba,17139;SOL_COMPUTED,INS_RTKFIXED,17.59828707170,78.12249586182,525.9531,-76.2000,WGS84,0.0622,0.0611,0.0616,"0",32.000,0.000,32,31,31,30,00,20,3f,37*fbbd5f87
#BESTPOSA,FILE,0,33.0,FINESTEERING,2319,307708.150,02000000,cdba,17139;SOL_COMPUTED,INS_RTKFIXED,17.59828705331,78.12249437846,525.9546,-76.2000,WGS84,0.0622,0.0611,0.0616,"0",32.000,0.000,32,31,31,30,00,20,3f,37*7983974d
#BESTPOSA,FILE,0,33.0,FINESTEERING,2319,307708.200,02000000,cdba,17139;SOL_COMPUTED,INS_RTKFIXED,17.59828703740,78.12249291305,525.9560,-76.2000,WGS84,0.0622,0.0611,0.0616,"0",32.000,0.000,32,31,31,30,00,20,3f,37*ecc71371
#BESTPOSA,FILE,0,33.0,FINESTEERING,2319,307708.250,02000000,cdba,17139;SOL_COMPUTED,INS_RTKFIXED,17.59828703357,78.12249144727,525.9567,-76.2000,WGS84,0.0622,0.0611,0.0616,"0",32.000,0.000,32,31,31,30,00,20,3f,37*cc53a6ad
#BESTPOSA,FILE,0,33.0,FINESTEERING,2319,307708.300,02000000,cdba,17139;SOL_COMPUTED,INS_RTKFIXED,17.59828704632,78.12248999556,525.9551,-76.2000,WGS84,0.0622,0.0611,0.0616,"0",32.000,0.000,32,31,31,30,00,20,3f,37*c11f48aa
#BESTPOSA,FILE,0,33.0,FINESTEERING,2319,307708.350,02000000,cdba,17139;SOL_COMPUTED,INS_RTKFIXED,17.59828705232,78.12248854516,525.9545,-76.2000,WGS84,0.0622,0.0611,0.0616,"0",32.000,0.000,32,31,31,30,00,20,3f,37*62870b7d
#BESTPOSA,FILE,0,33.0,FINESTEERING,2319,307708.400,02000000,cdba,17139;SOL_COMPUTED,INS_RTKFIXED,17.59828707532,78.12248709895,525.9523,-76.2000,WGS84,0.0622,0.0611,0.0616,"0",32.000,0.000,32,31,31,30,00,20,3f,37*452bb563
#BESTPOSA,FILE,0,33.0,FINESTEERING,2319,307708.450,02000000,cdba,17139;SOL_COMPUTED,INS_RTKFIXED,17.59828709087,78.12248566933,525.9508,-76.2000,WGS84,0.0622,0.0611,0.0616,"0",32.000,0.000,32,31,31,30,00,20,3f,37*47bbb496
#BESTPOSA,FILE,0,33.0,FINESTEERING,2319,307708.500,02000000,cdba,17139;SOL_COMPUTED,INS_RTKFIXED,17.59828710243,78.12248422822,525.9493,-76.2000,WGS84,0.0622,0.0611,0.0616,"0",32.000,0.000,32,31,31,30,00,20,3f,37*3539dcce
#BESTPOSA,FILE,0,33.0,FINESTEERING,2319,307708.550,02000000,cdba,17139;SOL_COMPUTED,INS_RTKFIXED,17.59828710348,78.12248280402,525.9488,-76.2000,WGS84,0.0622,0.0611,0.0616,"0",32.000,0.000,32,31,31,30,00,20,3f,37*063b6196
#BESTPOSA,FILE,0,33.0,FINESTEERING,2319,307708.600,02000000,cdba,17139;SOL_COMPUTED,INS_RTKFIXED,17.59828710722,78.12248137971,525.9477,-76.2000,WGS84,0.0622,0.0611,0.0616,"0",32.000,0.000,32,31,31,30,00,20,3f,37*7e0c15d9
#BESTPOSA,FILE,0,33.0,FINESTEERING,2319,307708.650,02000000,cdba,17139;SOL_COMPUTED,INS_RTKFIXED,17.59828710413,78.12247996410,525.9471,-76.2000,WGS84,0.0622,0.0611,0.0616,"0",32.000,0.000,32,31,31,30,00,20,3f,37*e4ef400e
#BESTPOSA,FILE,0,33.0,FINESTEERING,2319,307708.700,02000000,cdba,17139;SOL_COMPUTED,INS_RTKFIXED,17.59828709466,78.12247854171,525.9471,-76.2000,WGS84,0.0622,0.0611,0.0616,"0",32.000,0.000,32,31,31,30,00,20,3f,37*fad0e0f2
#BESTPOSA,FILE,0,33.0,FINESTEERING,2319,307708.750,02000000,cdba,17139;SOL_COMPUTED,INS_RTKFIXED,17.59828706182,78.12247713704,525.9499,-76.2000,WGS84,0.0622,0.0611,0.0616,"0",32.000,0.000,32,31,31,30,00,20,3f,37*94c4572f
#BESTPOSA,FILE,0,33.0,FINESTEERING,2319,307708.800,02000000,cdba,17139;SOL_COMPUTED,INS_RTKFIXED,17.59828704820,78.12247572266,525.9512,-76.2000,WGS84,0.0622,0.0611,0.0616,"0",32.000,0.000,32,31,31,30,00,20,3f,37*228c7a9e
#BESTPOSA,FILE,0,33.0,FINESTEERING,2319,307708.850,02000000,cdba,17139;SOL_COMPUTED,INS_RTKFIXED,17.59828702991,78.12247432797,525.9525,-76.2000,WGS84,0.0622,0.0611,0.0616,"0",32.000,0.000,32,31,31,30,00,20,3f,37*d93680d9
#BESTPOSA,FILE,0,33.0,FINESTEERING,2319,307708.900,02000000,cdba,17139;SOL_COMPUTED,INS_RTKFIXED,17.59828701894,78.12247292239,525.9526,-76.2000,WGS84,0.0622,0.0611,0.0616,"0",32.000,0.000,32,31,31,30,00,20,3f,37*3788382e
#BESTPOSA,FILE,0,33.0,FINESTEERING,2319,307708.950,02000000,cdba,17139;SOL_COMPUTED,INS_RTKFIXED,17.59828700148,78.12247153765,525.9528,-76.2000,WGS84,0.0622,0.0611,0.0616,"0",32.000,0.000,32,31,31,30,00,20,3f,37*ea6c7f3d
#BESTPOSA,FILE,0,33.0,FINESTEERING,2319,307709.000,02000000,cdba,17139;SOL_COMPUTED,INS_RTKFIXED,17.59828698674,78.12247015759,525.9530,-76.2000,WGS84,0.0622,0.0611,0.0616,"0",32.000,0.000,32,31,31,30,00,20,3f,37*170ed84e
#BESTPOSA,FILE,0,33.0,FINESTEERING,2319,307709.050,02000000,cdba,17139;SOL_COMPUTED,INS_RTKFIXED,17.59828698398,78.12246877936,525.9514,-76.2000,WGS84,0.0623,0.0612,0.0617,"0",33.000,0.000,32,30,30,29,00,20,3f,37*291643c0
#BESTPOSA,FILE,0,33.0,FINESTEERING,2319,307709.100,02000000,cdba,17139;SOL_COMPUTED,INS_RTKFIXED,17.59828699605,78.12246740459,525.9504,-76.2000,WGS84,0.0623,0.0612,0.0617,"0",33.000,0.000,32,30,30,29,00,20,3f,37*b17f031b
#BESTPOSA,FILE,0,39.0,FINESTEERING,2319,307709.150,02000000,cdba,17139;SOL_COMPUTED,INS_RTKFIXED,17.59828700525,78.12246601956,525.9493,-76.2000,WGS84,0.0623,0.0612,0.0617,"0",33.000,0.000,32,30,30,29,00,20,3f,37*fae56db3
#BESTPOSA,FILE,0,39.0,FINESTEERING,2319,307709.200,02000000,cdba,17139;SOL_COMPUTED,INS_RTKFIXED,17.59828702227,78.12246464490,525.9483,-76.2000,WGS84,0.0623,0.0612,0.0617,"0",33.000,0.000,32,30,30,29,00,20,3f,37*aa771241
#BESTPOSA,FILE,0,39.0,FINESTEERING,2319,307709.250,02000000,cdba,17139;SOL_COMPUTED,INS_RTKFIXED,17.59828703084,78.12246325750,525.9481,-76.2000,WGS84,0.0623,0.0612,0.0617,"0",33.000,0.000,32,30,30,29,00,20,3f,37*ba34f5ce
#BESTPOSA,FILE,0,39.0,FINESTEERING,2319,307709.300,02000000,cdba,17139;SOL_COMPUTED,INS_RTKFIXED,17.59828703256,78.12246188549,525.9483,-76.2000,WGS84,0.0623,0.0612,0.0617,"0",33.000,0.000,32,30,30,29,00,20,3f,37*081f0a95
#BESTPOSA,FILE,0,39.0,FINESTEERING,2319,307709.350,02000000,cdba,17139;SOL_COMPUTED,INS_RTKFIXED,17.59828703315,78.12246051718,525.9484,-76.2000,WGS84,0.0623,0.0612,0.0617,"0",33.000,0.000,32,30,30,29,00,20,3f,37*36d88f42
#BESTPOSA,FILE,0,39.0,FINESTEERING,2319,307709.400,02000000,cdba,17139;SOL_COMPUTED,INS_RTKFIXED,17.59828702242,78.12245915520,525.9497,-76.2000,WGS84,0.0623,0.0612,0.0617,"0",33.000,0.000,32,30,30,29,00,20,3f,37*5792b40a
#BESTPOSA,FILE,0,39.0,FINESTEERING,2319,307709.450,02000000,cdba,17139;SOL_COMPUTED,INS_RTKFIXED,17.59828700175,78.12245779057,525.9508,-76.2000,WGS84,0.0623,0.0612,0.0617,"0",33.000,0.000,32,30,30,29,00,20,3f,37*6b7647fc
#BESTPOSA,FILE,0,39.0,FINESTEERING,2319,307709.500,02000000,cdba,17139;SOL_COMPUTED,INS_RTKFIXED,17.59828698292,78.12245644862,525.9513,-76.2000,WGS84,0.0623,0.0612,0.0617,"0",33.000,0.000,32,30,30,29,00,20,3f,37*bd13903f
#BESTPOSA,FILE,0,39.0,FINESTEERING,2319,307709.550,02000000,cdba,17139;SOL_COMPUTED,INS_RTKFIXED,17.59828695835,78.12245509607,525.9517,-76.2000,WGS84,0.0623,0.0612,0.0617,"0",33.000,0.000,32,30,30,29,00,20,3f,37*2d8251fa
#BESTPOSA,FILE,0,39.0,FINESTEERING,2319,307709.600,02000000,cdba,17139;SOL_COMPUTED,INS_RTKFIXED,17.59828692453,78.12245375779,525.9522,-76.2000,WGS84,0.0623,0.0612,0.0617,"0",33.000,0.000,32,30,30,29,00,20,3f,37*3f79c721
#BESTPOSA,FILE,0,39.0,FINESTEERING,2319,307709.650,02000000,cdba,17139;SOL_COMPUTED,INS_RTKFIXED,17.59828688914,78.12245243027,525.9519,-76.2000,WGS84,0.0623,0.0612,0.0617,"0",33.000,0.000,32,30,30,29,00,20,3f,37*f7cf2295
#BESTPOSA,FILE,0,39.0,FINESTEERING,2319,307709.700,02000000,cdba,17139;SOL_COMPUTED,INS_RTKFIXED,17.59828686052,78.12245110956,525.9509,-76.2000,WGS84,0.0623,0.0612,0.0617,"0",33.000,0.000,32,30,30,29,00,20,3f,37*ea1708a9
#BESTPOSA,FILE,0,39.0,FINESTEERING,2319,307709.750,02000000,cdba,17139;SOL_COMPUTED,INS_RTKFIXED,17.59828682906,78.12244979426,525.9495,-76.2000,WGS84,0.0623,0.0612,0.0617,"0",33.000,0.000,32,30,30,29,00,20,3f,37*6726b480
#BESTPOSA,FILE,0,39.0,FINESTEERING,2319,307709.800,02000000,cdba,17139;SOL_COMPUTED,INS_RTKFIXED,17.59828680372,78.12244848844,525.9484,-76.2000,WGS84,0.0623,0.0612,0.0617,"0",33.000,0.000,32,30,30,29,00,20,3f,37*d8f7d1d4
#BESTPOSA,FILE,0,39.0,FINESTEERING,2319,307709.850,02000000,cdba,17139;SOL_COMPUTED,INS_RTKFIXED,17.59828677288,78.12244717453,525.9479,-76.2000,WGS84,0.0623,0.0612,0.0617,"0",33.000,0.000,32,30,30,29,00,20,3f,37*74ff8506
#BESTPOSA,FILE,0,39.0,FINESTEERING,2319,307709.900,02000000,cdba,17139;SOL_COMPUTED,INS_RTKFIXED,17.59828674267,78.12244586852,525.9474,-76.2000,WGS84,0.0623,0.0612,0.0617,"0",33.000,0.000,32,30,30,29,00,20,3f,37*2c980d35
#BESTPOSA,FILE,0,39.0,FINESTEERING,2319,307709.950,02000000,cdba,17139;SOL_COMPUTED,INS_RTKFIXED,17.59828671093,78.12244455933,525.9460,-76.2000,WGS84,0.0623,0.0612,0.0617,"0",33.000,0.000,32,30,30,29,00,20,3f,37*563be5ad
#BESTPOSA,FILE,0,39.0,FINESTEERING,2319,307710.000,02000000,cdba,17139;SOL_COMPUTED,INS_RTKFIXED,17.59828666639,78.12244327260,525.9448,-76.2000,WGS84,0.0623,0.0612,0.0617,"0",33.000,0.000,32,30,30,29,00,20,3f,37*7b9dc55c
#BESTPOSA,FILE,0,39.0,FINESTEERING,2319,307710.050,02000000,cdba,17139;SOL_COMPUTED,INS_RTKFIXED,17.59828661920,78.12244198198,525.9428,-76.2000,WGS84,0.0625,0.0613,0.0619,"0",34.000,0.000,32,29,29,28,00,20,3f,37*0e6f7d7e
#BESTPOSA,FILE,0,37.0,FINESTEERING,2319,307710.100,02000000,cdba,17139;SOL_COMPUTED,INS_RTKFIXED,17.59828655013,78.12244070645,525.9419,-76.2000,WGS84,0.0625,0.0613,0.0619,"0",34.000,0.000,32,29,29,28,00,20,3f,37*31efb684
#BESTPOSA,FILE,0,37.0,FINESTEERING,2319,307710.150,02000000,cdba,17139;SOL_COMPUTED,INS_RTKFIXED,17.59828647997,78.12243943151,525.9398,-76.2000,WGS84,0.0625,0.0613,0.0619,"0",34.000,0.000,32,29,29,28,00,20,3f,37*ab7bee93
#BESTPOSA,FILE,0,37.0,FINESTEERING,2319,307710.200,02000000,cdba,17139;SOL_COMPUTED,INS_RTKFIXED,17.59828639993,78.12243816917,525.9382,-76.2000,WGS84,0.0625,0.0613,0.0619,"0",34.000,0.000,32,29,29,28,00,20,3f,37*2c551f40
#BESTPOSA,FILE,0,37.0,FINESTEERING,2319,307710.250,02000000,cdba,17139;SOL_COMPUTED,INS_RTKFIXED,17.59828631561,78.12243690141,525.9366,-76.2000,WGS84,0.0625,0.0613,0.0619,"0",34.000,0.000,32,29,29,28,00,20,3f,37*f187d970
#BESTPOSA,FILE,0,37.0,FINESTEERING,2319,307710.300,02000000,cdba,17139;SOL_COMPUTED,INS_RTKFIXED,17.59828620885,78.12243564494,525.9365,-76.2000,WGS84,0.0625,0.0613,0.0619,"0",34.000,0.000,32,29,29,28,00,20,3f,37*bfc02f5f
#BESTPOSA,FILE,0,37.0,FINESTEERING,2319,307710.350,02000000,cdba,17139;SOL_COMPUTED,INS_RTKFIXED,17.59828609746,78.12243437817,525.9369,-76.2000,WGS84,0.0625,0.0613,0.0619,"0",34.000,0.000,32,29,29,28,00,20,3f,37*e0a47519
#BESTPOSA,FILE,0,37.0,FINESTEERING,2319,307710.400,02000000,cdba,17139;SOL_COMPUTED,INS_RTKFIXED,17.59828599460,78.12243312393,525.9367,-76.2000,WGS84,0.0625,0.0613,0.0619,"0",34.000,0.000,32,29,29,28,00,20,3f,37*4576dc1c
#BESTPOSA,FILE,0,37.0,FINESTEERING,2319,307710.450,02000000,cdba,17139;SOL_COMPUTED,INS_RTKFIXED,17.59828590227,78.12243187521,525.9353,-76.2000,WGS84,0.0625,0.0613,0.0619,"0",34.000,0.000,32,29,29,28,00,20,3f,37*2096a891
#BESTPOSA,FILE,0,37.0,FINESTEERING,2319,307710.500,02000000,cdba,17139;SOL_COMPUTED,INS_RTKFIXED,17.59828580483,78.12243063087,525.9342,-76.2000,WGS84,0.0625,0.0613,0.0619,"0",34.000,0.000,32,29,29,28,00,20,3f,37*39c2a3b9
#BESTPOSA,FILE,0,37.0,FINESTEERING,2319,307710.550,02000000,cdba,17139;SOL_COMPUTED,INS_RTKFIXED,17.59828569308,78.12242939187,525.9345,-76.2000,WGS84,0.0625,0.0613,0.0619,"0",34.000,0.000,32,29,29,28,00,20,3f,37*e11026fe
#BESTPOSA,FILE,0,37.0,FINESTEERING,2319,307710.600,02000000,cdba,17139;SOL_COMPUTED,INS_RTKFIXED,17.59828557523,78.12242815504,525.9347,-76.2000,WGS84,0.0625,0.0613,0.0619,"0",34.000,0.000,32,29,29,28,00,20,3f,37*c9c341f7
#BESTPOSA,FILE,0,37.0,FINESTEERING,2319,307710.650,02000000,cdba,17139;SOL_COMPUTED,INS_RTKFIXED,17.59828545234,78.12242692942,525.9351,-76.2000,WGS84,0.0625,0.0613,0.0619,"0",34.000,0.000,32,29,29,28,00,20,3f,37*80efebf8
#BESTPOSA,FILE,0,37.0,FINESTEERING,2319,307710.700,02000000,cdba,17139;SOL_COMPUTED,INS_RTKFIXED,17.59828532097,78.12242570220,525.9357,-76.2000,WGS84,0.0625,0.0613,0.0619,"0",34.000,0.000,32,29,29,28,00,20,3f,37*d993453a
#BESTPOSA,FILE,0,37.0,FINESTEERING,2319,307710.750,02000000,cdba,17139;SOL_COMPUTED,INS_RTKFIXED,17.59828517318,78.12242449193,525.9375,-76.2000,WGS84,0.0625,0.0613,0.0619,"0",34.000,0.000,32,29,29,28,00,20,3f,37*07bc5270
#BESTPOSA,FILE,0,37.0,FINESTEERING,2319,307710.800,02000000,cdba,17139;SOL_COMPUTED,INS_RTKFIXED,17.59828502743,78.12242328017,525.9386,-76.2000,WGS84,0.0625,0.0613,0.0619,"0",34.000,0.000,32,29,29,28,00,20,3f,37*9e6d46b1
#BESTPOSA,FILE,0,37.0,FINESTEERING,2319,307710.850,02000000,cdba,17139;SOL_COMPUTED,INS_RTKFIXED,17.59828487489,78.12242208364,525.9397,-76.2000,WGS84,0.0625,0.0613,0.0619,"0",34.000,0.000,32,29,29,28,00,20,3f,37*f725d819
#BESTPOSA,FILE,0,37.0,FINESTEERING,2319,307710.900,02000000,cdba,17139;SOL_COMPUTED,INS_RTKFIXED,17.59828472493,78.12242088914,525.9400,-76.2000,WGS84,0.0625,0.0613,0.0619,"0",34.000,0.000,32,29,29,28,00,20,3f,37*3e96cd2a
#BESTPOSA,FILE,0,37.0,FINESTEERING,2319,307710.950,02000000,cdba,17139;SOL_COMPUTED,INS_RTKFIXED,17.59828455652,78.12241970765,525.9403,-76.2000,WGS84,0.0625,0.0613,0.0619,"0",34.000,0.000,32,29,29,28,00,20,3f,37*8930c5e1
#BESTPOSA,FILE,0,37.0,FINESTEERING,2319,307711.000,02000000,cdba,17139;SOL_COMPUTED,INS_RTKFIXED,17.59828436413,78.12241853407,525.9413,-76.2000,WGS84,0.0625,0.0613,0.0619,"0",34.000,0.000,32,29,29,28,00,20,3f,37*3e8be28b
#BESTPOSA,FILE,0,37.0,FINESTEERING,2319,307711.050,02000000,cdba,17139;SOL_COMPUTED,INS_RTKFIXED,17.59828416646,78.12241737151,525.9407,-76.2000,WGS84,0.0633,0.0621,0.0620,"0",35.000,0.000,35,32,32,31,00,20,3f,37*1de85046
#BESTPOSA,FILE,0,37.0,FINESTEERING,2319,307711.100,02000000,cdba,17139;SOL_COMPUTED,INS_RTKFIXED,17.59828395502,78.12241622699,525.9401,-76.2000,WGS84,0.0633,0.0621,0.0620,"0",35.000,0.000,35,32,32,31,00,20,3f,37*c73ea575
#BESTPOSA,FILE,0,37.0,FINESTEERING,2319,307711.150,02000000,cdba,17139;SOL_COMPUTED,INS_RTKFIXED,17.59828374306,78.12241509112,525.9394,-76.2000,WGS84,0.0633,0.0621,0.0620,"0",35.000,0.000,35,32,32,31,00,20,3f,37*36301317
#BESTPOSA,FILE,0,37.0,FINESTEERING,2319,307711.200,02000000,cdba,17139;SOL_COMPUTED,INS_RTKFIXED,17.59828351839,78.12241394794,525.9390,-76.2000,WGS84,0.0633,0.0621,0.0620,"0",35.000,0.000,35,32,32,31,00,20,3f,37*13b58967
#BESTPOSA,FILE,0,37.0,FINESTEERING,2319,307711.250,02000000,cdba,17139;SOL_COMPUTED,INS_RTKFIXED,17.59828330298,78.12241281610,525.9383,-76.2000,WGS84,0.0633,0.0621,0.0620,"0",35.000,0.000,35,32,32,31,00,20,3f,37*25359902
#BESTPOSA,FILE,0,37.0,FINESTEERING,2319,307711.300,02000000,cdba,17139;SOL_COMPUTED,INS_RTKFIXED,17.59828307747,78.12241168496,525.9380,-76.2000,WGS84,0.0633,0.0621,0.0620,"0",35.000,0.000,35,32,32,31,00,20,3f,37*9eb753dd
#BESTPOSA,FILE,0,37.0,FINESTEERING,2319,307711.350,02000000,cdba,17139;SOL_COMPUTED,INS_RTKFIXED,17.59828283467,78.12241056015,525.9379,-76.2000,WGS84,0.0633,0.0621,0.0620,"0",35.000,0.000,35,32,32,31,00,20,3f,37*576fbb7d
#BESTPOSA,FILE,0,37.0,FINESTEERING,2319,307711.400,02000000,cdba,17139;SOL_COMPUTED,INS_RTKFIXED,17.59828258447,78.12240944490,525.9376,-76.2000,WGS84,0.0633,0.0621,0.0620,"0",35.000,0.000,35,32,32,31,00,20,3f,37*0105d4ff
#BESTPOSA,FILE,0,37.0,FINESTEERING,2319,307711.450,02000000,cdba,17139;SOL_COMPUTED,INS_RTKFIXED,17.59828231876,78.12240834208,525.9376,-76.2000,WGS84,0.0633,0.0621,0.0620,"0",35.000,0.000,35,32,32,31,00,20,3f,37*b702b97f
#BESTPOSA,FILE,0,37.0,FINESTEERING,2319,307711.500,02000000,cdba,17139;SOL_COMPUTED,INS_RTKFIXED,17.59828203547,78.12240724332,525.9382,-76.2000,WGS84,0.0633,0.0621,0.0620,"0",35.000,0.000,35,32,32,31,00,20,3f,37*c30f1c2c
#BESTPOSA,FILE,0,37.0,FINESTEERING,2319,307711.550,02000000,cdba,17139;SOL_COMPUTED,INS_RTKFIXED,17.59828172964,78.12240615736,525.9394,-76.2000,WGS84,0.0633,0.0621,0.0620,"0",35.000,0.000,35,32,32,31,00,20,3f,37*b41d629f
#BESTPOSA,FILE,0,37.0,FINESTEERING,2319,307711.600,02000000,cdba,17139;SOL_COMPUTED,INS_RTKFIXED,17.59828140017,78.12240507771,525.9416,-76.2000,WGS84,0.0633,0.0621,0.0620,"0",35.000,0.000,35,32,32,31,00,20,3f,37*84d0c802
#BESTPOSA,FILE,0,37.0,FINESTEERING,2319,307711.650,02000000,cdba,17139;SOL_COMPUTED,INS_RTKFIXED,17.59828105306,78.12240402780,525.9444,-76.2000,WGS84,0.0633,0.0621,0.0620,"0",35.000,0.000,35,32,32,31,00,20,3f,37*0f1f3674
#BESTPOSA,FILE,0,37.0,FINESTEERING,2319,307711.700,02000000,cdba,17139;SOL_COMPUTED,INS_RTKFIXED,17.59828069154,78.12240298252,525.9469,-76.2000,WGS84,0.0633,0.0621,0.0620,"0",35.000,0.000,35,32,32,31,00,20,3f,37*ad783f5b
#BESTPOSA,FILE,0,37.0,FINESTEERING,2319,307711.750,02000000,cdba,17139;SOL_COMPUTED,INS_RTKFIXED,17.59828031610,78.12240194710,525.9497,-76.2000,WGS84,0.0633,0.0621,0.0620,"0",35.000,0.000,35,32,32,31,00,20,3f,37*e4fbb9b3
#BESTPOSA,FILE,0,37.0,FINESTEERING,2319,307711.800,02000000,cdba,17139;SOL_COMPUTED,INS_RTKFIXED,17.59827993350,78.12240092418,525.9526,-76.2000,WGS84,0.0633,0.0621,0.0620,"0",35.000,0.000,35,32,32,31,00,20,3f,37*97d94c0a
#BESTPOSA,FILE,0,37.0,FINESTEERING,2319,307711.850,02000000,cdba,17139;SOL_COMPUTED,INS_RTKFIXED,17.59827954438,78.12239991526,525.9550,-76.2000,WGS84,0.0633,0.0621,0.0620,"0",35.000,0.000,35,32,32,31,00,20,3f,37*ce30ac4d
#BESTPOSA,FILE,0,37.0,FINESTEERING,2319,307711.900,02000000,cdba,17139;SOL_COMPUTED,INS_RTKFIXED,17.59827916010,78.12239892081,525.9563,-76.2000,WGS84,0.0633,0.0621,0.0620,"0",35.000,0.000,35,32,32,31,00,20,3f,37*006871cf
#BESTPOSA,FILE,0,37.0,FINESTEERING,2319,307711.950,02000000,cdba,17139;SOL_COMPUTED,INS_RTKFIXED,17.59827877730,78.12239793506,525.9570,-76.2000,WGS84,0.0633,0.0621,0.0620,"0",35.000,0.000,35,32,32,31,00,20,3f,37*a7a87cc2
#BESTPOSA,FILE,0,37.0,FINESTEERING,2319,307712.000,02000000,cdba,17139;SOL_COMPUTED,INS_RTKFIXED,17.59827840098,78.12239695319,525.9561,-76.2000,WGS84,0.0633,0.0621,0.0620,"0",35.000,0.000,35,32,32,31,00,20,3f,37*022152cb
#BESTPOSA,FILE,0,37.0,FINESTEERING,2319,307712.050,02000000,cdba,17139;SOL_COMPUTED,INS_RTKFIXED,17.59827800777,78.12239598428,525.9557,-76.2000,WGS84,0.0663,0.0749,0.0624,"0",36.000,0.000,35,33,33,31,00,20,3f,37*00a978be
#BESTPOSA,FILE,0,37.0,FINESTEERING,2319,307712.100,02000000,cdba,17139;SOL_COMPUTED,INS_RTKFIXED,17.59827758289,78.12239502536,525.9564,-76.2000,WGS84,0.0663,0.0749,0.0624,"0",36.000,0.000,35,33,33,31,00,20,3f,37*fe8511d0
#BESTPOSA,FILE,0,37.5,FINESTEERING,2319,307712.150,02000000,cdba,17139;SOL_COMPUTED,INS_RTKFIXED,17.59827712681,78.12239407893,525.9578,-76.2000,WGS84,0.0663,0.0749,0.0624,"0",36.000,0.000,35,33,33,31,00,20,3f,37*2e0ed24d
#BESTPOSA,FILE,0,37.5,FINESTEERING,2319,307712.200,02000000,cdba,17139;SOL_COMPUTED,INS_RTKFIXED,17.59827664829,78.12239314526,525.9591,-76.2000,WGS84,0.0663,0.0749,0.0624,"0",36.000,0.000,35,33,33,31,00,20,3f,37*2e5d3076
#BESTPOSA,FILE,0,37.5,FINESTEERING,2319,307712.250,02000000,cdba,17139;SOL_COMPUTED,INS_RTKFIXED,17.59827614288,78.12239223652,525.9612,-76.2000,WGS84,0.0663,0.0749,0.0624,"0",36.000,0.000,35,33,33,31,00,20,3f,37*ca41fa43
#BESTPOSA,FILE,0,37.5,FINESTEERING,2319,307712.300,02000000,cdba,17139;SOL_COMPUTED,INS_RTKFIXED,17.59827560226,78.12239134129,525.9646,-76.2000,WGS84,0.0663,0.0749,0.0624,"0",36.000,0.000,35,33,33,31,00,20,3f,37*d8cc9629
#BESTPOSA,FILE,0,37.5,FINESTEERING,2319,307712.350,02000000,cdba,17139;SOL_COMPUTED,INS_RTKFIXED,17.59827503883,78.12239046332,525.9679,-76.2000,WGS84,0.0663,0.0749,0.0624,"0",36.000,0.000,35,33,33,31,00,20,3f,37*f176416a
#BESTPOSA,FILE,0,37.5,FINESTEERING,2319,307712.400,02000000,cdba,17139;SOL_COMPUTED,INS_RTKFIXED,17.59827445749,78.12238960463,525.9715,-76.2000,WGS84,0.0663,0.0749,0.0624,"0",36.000,0.000,35,33,33,31,00,20,3f,37*b186aab5
#BESTPOSA,FILE,0,37.5,FINESTEERING,2319,307712.450,02000000,cdba,17139;SOL_COMPUTED,INS_RTKFIXED,17.59827386331,78.12238875896,525.9751,-76.2000,WGS84,0.0663,0.0749,0.0624,"0",36.000,0.000,35,33,33,31,00,20,3f,37*53118fbe
#BESTPOSA,FILE,0,37.5,FINESTEERING,2319,307712.500,02000000,cdba,17139;SOL_COMPUTED,INS_RTKFIXED,17.59827325537,78.12238794232,525.9795,-76.2000,WGS84,0.0663,0.0749,0.0624,"0",36.000,0.000,35,33,33,31,00,20,3f,37*487a8b57
#BESTPOSA,FILE,0,37.5,FINESTEERING,2319,307712.550,02000000,cdba,17139;SOL_COMPUTED,INS_RTKFIXED,17.59827264193,78.12238713533,525.9833,-76.2000,WGS84,0.0663,0.0749,0.0624,"0",36.000,0.000,35,33,33,31,00,20,3f,37*2fee003e
#BESTPOSA,FILE,0,37.5,FINESTEERING,2319,307712.600,02000000,cdba,17139;SOL_COMPUTED,INS_RTKFIXED,17.59827202495,78.12238633957,525.9875,-76.2000,WGS84,0.0663,0.0749,0.0624,"0",36.000,0.000,35,33,33,31,00,20,3f,37*fd27543d
#BESTPOSA,FILE,0,37.5,FINESTEERING,2319,307712.650,02000000,cdba,17139;SOL_COMPUTED,INS_RTKFIXED,17.59827142441,78.12238554406,525.9897,-76.2000,WGS84,0.0663,0.0749,0.0624,"0",36.000,0.000,35,33,33,31,00,20,3f,37*2532c687
#BESTPOSA,FILE,0,37.5,FINESTEERING,2319,307712.700,02000000,cdba,17139;SOL_COMPUTED,INS_RTKFIXED,17.59827081958,78.12238475603,525.9920,-76.2000,WGS84,0.0663,0.0749,0.0624,"0",36.000,0.000,35,33,33,31,00,20,3f,37*b59918be
#BESTPOSA,FILE,0,37.5,FINESTEERING,2319,307712.750,02000000,cdba,17139;SOL_COMPUTED,INS_RTKFIXED,17.59827021899,78.12238396251,525.9932,-76.2000,WGS84,0.0663,0.0749,0.0624,"0",36.000,0.000,35,33,33,31,00,20,3f,37*62f6c98a
#BESTPOSA,FILE,0,37.5,FINESTEERING,2319,307712.800,02000000,cdba,17139;SOL_COMPUTED,INS_RTKFIXED,17.59826961568,78.12238316266,525.9938,-76.2000,WGS84,0.0663,0.0749,0.0624,"0",36.000,0.000,35,33,33,31,00,20,3f,37*ac5c9d07
#BESTPOSA,FILE,0,37.5,FINESTEERING,2319,307712.850,02000000,cdba,17139;SOL_COMPUTED,INS_RTKFIXED,17.59826900375,78.12238234437,525.9930,-76.2000,WGS84,0.0663,0.0749,0.0624,"0",36.000,0.000,35,33,33,31,00,20,3f,37*4aa8d948
#BESTPOSA,FILE,0,37.5,FINESTEERING,2319,307712.900,02000000,cdba,17139;SOL_COMPUTED,INS_RTKFIXED,17.59826837162,78.12238152265,525.9918,-76.2000,WGS84,0.0663,0.0749,0.0624,"0",36.000,0.000,35,33,33,31,00,20,3f,37*1ceaf9c7
#BESTPOSA,FILE,0,37.5,FINESTEERING,2319,307712.950,02000000,cdba,17139;SOL_COMPUTED,INS_RTKFIXED,17.59826771580,78.12238070432,525.9904,-76.2000,WGS84,0.0663,0.0749,0.0624,"0",36.000,0.000,35,33,33,31,00,20,3f,37*0e36853a
#BESTPOSA,FILE,0,37.5,FINESTEERING,2319,307713.000,02000000,cdba,17139;SOL_COMPUTED,INS_RTKFIXED,17.59826703121,78.12237989986,525.9893,-76.2000,WGS84,0.0663,0.0749,0.0624,"0",36.000,0.000,35,33,33,31,00,20,3f,37*138d3805
#BESTPOSA,FILE,0,37.5,FINESTEERING,2319,307713.050,02000000,cdba,17139;SOL_COMPUTED,INS_RTKFIXED,17.59826631849,78.12237911050,525.9876,-76.2000,WGS84,0.0707,0.0986,0.0633,"0",37.000,0.000,35,32,32,30,00,20,3f,37*ed660531
#BESTPOSA,FILE,0,32.5,FINESTEERING,2319,307713.100,02000000,cdba,17139;SOL_COMPUTED,INS_RTKFIXED,17.59826557475,78.12237835129,525.9872,-76.2000,WGS84,0.0707,0.0986,0.0633,"0",37.000,0.000,35,32,32,30,00,20,3f,37*a566f93e
#BESTPOSA,FILE,0,32.5,FINESTEERING,2319,307713.150,02000000,cdba,17139;SOL_COMPUTED,INS_RTKFIXED,17.59826480265,78.12237762548,525.9880,-76.2000,WGS84,0.0707,0.0986,0.0633,"0",37.000,0.000,35,32,32,30,00,20,3f,37*258ca203
#BESTPOSA,FILE,0,32.5,FINESTEERING,2319,307713.200,02000000,cdba,17139;SOL_COMPUTED,INS_RTKFIXED,17.59826400271,78.12237693759,525.9892,-76.2000,WGS84,0.0707,0.0986,0.0633,"0",37.000,0.000,35,32,32,30,00,20,3f,37*d63e09cf
#BESTPOSA,FILE,0,32.5,FINESTEERING,2319,307713.250,02000000,cdba,17139;SOL_COMPUTED,INS_RTKFIXED,17.59826318480,78.12237628943,525.9902,-76.2000,WGS84,0.0707,0.0986,0.0633,"0",37.000,0.000,35,32,32,30,00,20,3f,37*1f25f37a
#BESTPOSA,FILE,0,32.5,FINESTEERING,2319,307713.300,02000000,cdba,17139;SOL_COMPUTED,INS_RTKFIXED,17.59826235510,78.12237565938,525.9901,-76.2000,WGS84,0.0707,0.0986,0.0633,"0",37.000,0.000,35,32,32,30,00,20,3f,37*0d68f8cb
#BESTPOSA,FILE,0,32.5,FINESTEERING,2319,307713.350,02000000,cdba,17139;SOL_COMPUTED,INS_RTKFIXED,17.59826152358,78.12237503341,525.9878,-76.2000,WGS84,0.0707,0.0986,0.0633,"0",37.000,0.000,35,32,32,30,00,20,3f,37*e837b3df
#BESTPOSA,FILE,0,32.5,FINESTEERING,2319,307713.400,02000000,cdba,17139;SOL_COMPUTED,INS_RTKFIXED,17.59826068590,78.12237440834,525.9849,-76.2000,WGS84,0.0707,0.0986,0.0633,"0",37.000,0.000,35,32,32,30,00,20,3f,37*a3f4f97a
#BESTPOSA,FILE,0,32.5,FINESTEERING,2319,307713.450,02000000,cdba,17139;SOL_COMPUTED,INS_RTKFIXED,17.59825983757,78.12237377825,525.9818,-76.2000,WGS84,0.0707,0.0986,0.0633,"0",37.000,0.000,35,32,32,30,00,20,3f,37*3bec3f02
#BESTPOSA,FILE,0,32.5,FINESTEERING,2319,307713.500,02000000,cdba,17139;SOL_COMPUTED,INS_RTKFIXED,17.59825897610,78.12237314613,525.9778,-76.2000,WGS84,0.0707,0.0986,0.0633,"0",37.000,0.000,35,32,32,30,00,20,3f,37*44c4e833
#BESTPOSA,FILE,0,32.5,FINESTEERING,2319,307713.550,02000000,cdba,17139;SOL_COMPUTED,INS_RTKFIXED,17.59825809438,78.12237252748,525.9739,-76.2000,WGS84,0.0707,0.0986,0.0633,"0",37.000,0.000,35,32,32,30,00,20,3f,37*5279c3b6
#BESTPOSA,FILE,0,32.5,FINESTEERING,2319,307713.600,02000000,cdba,17139;SOL_COMPUTED,INS_RTKFIXED,17.59825719256,78.12237191657,525.9707,-76.2000,WGS84,0.0707,0.0986,0.0633,"0",37.000,0.000,35,32,32,30,00,20,3f,37*cee8545f
#BESTPOSA,FILE,0,32.5,FINESTEERING,2319,307713.650,02000000,cdba,17139;SOL_COMPUTED,INS_RTKFIXED,17.59825627552,78.12237132084,525.9684,-76.2000,WGS84,0.0707,0.0986,0.0633,"0",37.000,0.000,35,32,32,30,00,20,3f,37*5270a92c
#BESTPOSA,FILE,0,32.5,FINESTEERING,2319,307713.700,02000000,cdba,17139;SOL_COMPUTED,INS_RTKFIXED,17.59825534723,78.12237072476,525.9658,-76.2000,WGS84,0.0707,0.0986,0.0633,"0",37.000,0.000,35,32,32,30,00,20,3f,37*258abadd
#BESTPOSA,FILE,0,32.5,FINESTEERING,2319,307713.750,02000000,cdba,17139;SOL_COMPUTED,INS_RTKFIXED,17.59825442461,78.12237013436,525.9609,-76.2000,WGS84,0.0707,0.0986,0.0633,"0",37.000,0.000,35,32,32,30,00,20,3f,37*77eb51f5
#BESTPOSA,FILE,0,32.5,FINESTEERING,2319,307713.800,02000000,cdba,17139;SOL_COMPUTED,INS_RTKFIXED,17.59825349558,78.12236956322,525.9543,-76.2000,WGS84,0.0707,0.0986,0.0633,"0",37.000,0.000,35,32,32,30,00,20,3f,37*a41e8925
#BESTPOSA,FILE,0,32.5,FINESTEERING,2319,307713.850,02000000,cdba,17139;SOL_COMPUTED,INS_RTKFIXED,17.59825256002,78.12236900811,525.9449,-76.2000,WGS84,0.0707,0.0986,0.0633,"0",37.000,0.000,35,32,32,30,00,20,3f,37*cc475a57
#BESTPOSA,FILE,0,32.5,FINESTEERING,2319,307713.900,02000000,cdba,17139;SOL_COMPUTED,INS_RTKFIXED,17.59825162789,78.12236846907,525.9338,-76.2000,WGS84,0.0707,0.0986,0.0633,"0",37.000,0.000,35,32,32,30,00,20,3f,37*8b2b949e
#BESTPOSA,FILE,0,32.5,FINESTEERING,2319,307713.950,02000000,cdba,17139;SOL_COMPUTED,INS_RTKFIXED,17.59825068293,78.12236796660,525.9221,-76.2000,WGS84,0.0707,0.0986,0.0633,"0",37.000,0.000,35,32,32,30,00,20,3f,37*15639b86
#BESTPOSA,FILE,0,32.5,FINESTEERING,2319,307714.000,02000000,cdba,17139;SOL_COMPUTED,INS_RTKFIXED,17.59824971223,78.12236748701,525.9104,-76.2000,WGS84,0.0707,0.0986,0.0633,"0",37.000,0.000,35,32,32,30,00,20,3f,37*07c17f1e
#BESTPOSA,FILE,0,32.5,FINESTEERING,2319,307714.050,02000000,cdba,17139;SOL_COMPUTED,INS_RTKFIXED,17.59824874294,78.12236703933,525.8998,-76.2000,WGS84,0.0739,0.1289,0.0648,"0",38.000,0.000,36,33,33,31,00,20,3f,37*f3500e89
#BESTPOSA,FILE,0,30.0,FINESTEERING,2319,307714.100,02000000,cdba,17139;SOL_COMPUTED,INS_RTKFIXED,17.59824777315,78.12236659596,525.8895,-76.2000,WGS84,0.0739,0.1289,0.0648,"0",38.000,0.000,36,33,33,31,00,20,3f,37*2b69cdc6
#BESTPOSA,FILE,0,30.0,FINESTEERING,2319,307714.150,02000000,cdba,17139;SOL_COMPUTED,INS_RTKFIXED,17.59824678958,78.12236616029,525.8796,-76.2000,WGS84,0.0739,0.1289,0.0648,"0",38.000,0.000,36,33,33,31,00,20,3f,37*3f41e850
#BESTPOSA,FILE,0,30.0,FINESTEERING,2319,307714.200,02000000,cdba,17139;SOL_COMPUTED,INS_RTKFIXED,17.59824579843,78.12236574650,525.8717,-76.2000,WGS84,0.0739,0.1289,0.0648,"0",38.000,0.000,36,33,33,31,00,20,3f,37*e7770e86
#BESTPOSA,FILE,0,30.0,FINESTEERING,2319,307714.250,02000000,cdba,17139;SOL_COMPUTED,INS_RTKFIXED,17.59824477548,78.12236533866,525.8639,-76.2000,WGS84,0.0739,0.1289,0.0648,"0",38.000,0.000,36,33,33,31,00,20,3f,37*75632143
#BESTPOSA,FILE,0,30.0,FINESTEERING,2319,307714.300,02000000,cdba,17139;SOL_COMPUTED,INS_RTKFIXED,17.59824374737,78.12236496359,525.8569,-76.2000,WGS84,0.0739,0.1289,0.0648,"0",38.000,0.000,36,33,33,31,00,20,3f,37*6ec52867
#BESTPOSA,FILE,0,30.0,FINESTEERING,2319,307714.350,02000000,cdba,17139;SOL_COMPUTED,INS_RTKFIXED,17.59824270892,78.12236459910,525.8485,-76.2000,WGS84,0.0739,0.1289,0.0648,"0",38.000,0.000,36,33,33,31,00,20,3f,37*a82a05f9
#BESTPOSA,FILE,0,30.0,FINESTEERING,2319,307714.400,02000000,cdba,17139;SOL_COMPUTED,INS_RTKFIXED,17.59824167007,78.12236425172,525.8394,-76.2000,WGS84,0.0739,0.1289,0.0648,"0",38.000,0.000,36,33,33,31,00,20,3f,37*f855e866
#BESTPOSA,FILE,0,30.0,FINESTEERING,2319,307714.450,02000000,cdba,17139;SOL_COMPUTED,INS_RTKFIXED,17.59824062517,78.12236391708,525.8298,-76.2000,WGS84,0.0739,0.1289,0.0648,"0",38.000,0.000,36,33,33,31,00,20,3f,37*4cb405e7
#BESTPOSA,FILE,0,30.0,FINESTEERING,2319,307714.500,02000000,cdba,17139;SOL_COMPUTED,INS_RTKFIXED,17.59823958100,78.12236361275,525.8203,-76.2000,WGS84,0.0739,0.1289,0.0648,"0",38.000,0.000,36,33,33,31,00,20,3f,37*c8e78808
#BESTPOSA,FILE,0,30.0,FINESTEERING,2319,307714.550,02000000,cdba,17139;SOL_COMPUTED,INS_RTKFIXED,17.59823852519,78.12236332248,525.8098,-76.2000,WGS84,0.0739,0.1289,0.0648,"0",38.000,0.000,36,33,33,31,00,20,3f,37*9a9e3397
#BESTPOSA,FILE,0,30.0,FINESTEERING,2319,307714.600,02000000,cdba,17139;SOL_COMPUTED,INS_RTKFIXED,17.59823747965,78.12236303854,525.7979,-76.2000,WGS84,0.0739,0.1289,0.0648,"0",38.000,0.000,36,33,33,31,00,20,3f,37*1aa78e00
#BESTPOSA,FILE,0,30.0,FINESTEERING,2319,307714.650,02000000,cdba,17139;SOL_COMPUTED,INS_RTKFIXED,17.59823641990,78.12236276588,525.7864,-76.2000,WGS84,0.0739,0.1289,0.0648,"0",38.000,0.000,36,33,33,31,00,20,3f,37*771715c5
#BESTPOSA,FILE,0,30.0,FINESTEERING,2319,307714.700,02000000,cdba,17139;SOL_COMPUTED,INS_RTKFIXED,17.59823535580,78.12236251159,525.7763,-76.2000,WGS84,0.0739,0.1289,0.0648,"0",38.000,0.000,36,33,33,31,00,20,3f,37*9960709f
#BESTPOSA,FILE,0,30.0,FINESTEERING,2319,307714.750,02000000,cdba,17139;SOL_COMPUTED,INS_RTKFIXED,17.59823428869,78.12236228495,525.7672,-76.2000,WGS84,0.0739,0.1289,0.0648,"0",38.000,0.000,36,33,33,31,00,20,3f,37*72e7f626
#BESTPOSA,FILE,0,30.0,FINESTEERING,2319,307714.800,02000000,cdba,17139;SOL_COMPUTED,INS_RTKFIXED,17.59823322534,78.12236207457,525.7584,-76.2000,WGS84,0.0739,0.1289,0.0648,"0",38.000,0.000,36,33,33,31,00,20,3f,37*7a528ee8
#BESTPOSA,FILE,0,30.0,FINESTEERING,2319,307714.850,02000000,cdba,17139;SOL_COMPUTED,INS_RTKFIXED,17.59823215569,78.12236188443,525.7505,-76.2000,WGS84,0.0739,0.1289,0.0648,"0",38.000,0.000,36,33,33,31,00,20,3f,37*4dcf805e
#BESTPOSA,FILE,0,30.0,FINESTEERING,2319,307714.900,02000000,cdba,17139;SOL_COMPUTED,INS_RTKFIXED,17.59823109144,78.12236171764,525.7437,-76.2000,WGS84,0.0739,0.1289,0.0648,"0",38.000,0.000,36,33,33,31,00,20,3f,37*9863b562
#BESTPOSA,FILE,0,30.0,FINESTEERING,2319,307714.950,02000000,cdba,17139;SOL_COMPUTED,INS_RTKFIXED,17.59823002515,78.12236157095,525.7377,-76.2000,WGS84,0.0739,0.1289,0.0648,"0",38.000,0.000,36,33,33,31,00,20,3f,37*cc32b780
#BESTPOSA,FILE,0,30.0,FINESTEERING,2319,307715.000,02000000,cdba,17139;SOL_COMPUTED,INS_RTKFIXED,17.59822896964,78.12236144081,525.7317,-76.2000,WGS84,0.0739,0.1289,0.0648,"0",38.000,0.000,36,33,33,31,00,20,3f,37*51b2d130
#BESTPOSA,FILE,0,30.0,FINESTEERING,2319,307715.050,02000000,cdba,17139;SOL_COMPUTED,INS_RTKFIXED,17.59822793371,78.12236133173,525.7253,-76.2000,WGS84,0.0730,0.1530,0.0664,"0",1.000,0.000,38,35,35,33,00,20,3f,37*92b19334
#BESTPOSA,FILE,0,30.0,FINESTEERING,2319,307715.100,02000000,cdba,17139;SOL_COMPUTED,INS_RTKFIXED,17.59822691679,78.12236124950,525.7201,-76.2000,WGS84,0.0730,0.1530,0.0664,"0",1.000,0.000,38,35,35,33,00,20,3f,37*08f484d2
#BESTPOSA,FILE,0,32.5,FINESTEERING,2319,307715.150,02000000,cdba,17139;SOL_COMPUTED,INS_RTKFIXED,17.59822590398,78.12236115775,525.7132,-76.2000,WGS84,0.0730,0.1530,0.0664,"0",1.000,0.000,38,35,35,33,00,20,3f,37*331b7eae
#BESTPOSA,FILE,0,32.5,FINESTEERING,2319,307715.200,02000000,cdba,17139;SOL_COMPUTED,INS_RTKFIXED,17.59822490899,78.12236104735,525.7044,-76.2000,WGS84,0.0730,0.1530,0.0664,"0",1.000,0.000,38,35,35,33,00,20,3f,37*70284608
#BESTPOSA,FILE,0,32.5,FINESTEERING,2319,307715.250,02000000,cdba,17139;SOL_COMPUTED,INS_RTKFIXED,17.59822391329,78.12236092818,525.6933,-76.2000,WGS84,0.0730,0.1530,0.0664,"0",1.000,0.000,38,35,35,33,00,20,3f,37*0fbf1338
#BESTPOSA,FILE,0,32.5,FINESTEERING,2319,307715.300,02000000,cdba,17139;SOL_COMPUTED,INS_RTKFIXED,17.59822294408,78.12236080835,525.6821,-76.2000,WGS84,0.0730,0.1530,0.0664,"0",1.000,0.000,38,35,35,33,00,20,3f,37*262c50dc
#BESTPOSA,FILE,0,32.5,FINESTEERING,2319,307715.350,02000000,cdba,17139;SOL_COMPUTED,INS_RTKFIXED,17.59822196018,78.12236069255,525.6711,-76.2000,WGS84,0.0730,0.1530,0.0664,"0",1.000,0.000,38,35,35,33,00,20,3f,37*d1292fbd
#BESTPOSA,FILE,0,32.5,FINESTEERING,2319,307715.400,02000000,cdba,17139;SOL_COMPUTED,INS_RTKFIXED,17.59822098703,78.12236059310,525.6615,-76.2000,WGS84,0.0730,0.1530,0.0664,"0",1.000,0.000,38,35,35,33,00,20,3f,37*74d8106b
#BESTPOSA,FILE,0,32.5,FINESTEERING,2319,307715.450,02000000,cdba,17139;SOL_COMPUTED,INS_RTKFIXED,17.59822000522,78.12236050764,525.6527,-76.2000,WGS84,0.0730,0.1530,0.0664,"0",1.000,0.000,38,35,35,33,00,20,3f,37*d19c7937
#BESTPOSA,FILE,0,32.5,FINESTEERING,2319,307715.500,02000000,cdba,17139;SOL_COMPUTED,INS_RTKFIXED,17.59821903601,78.12236044841,525.6455,-76.2000,WGS84,0.0730,0.1530,0.0664,"0",1.000,0.000,38,35,35,33,00,20,3f,37*8dde21a5
#BESTPOSA,FILE,0,32.5,FINESTEERING,2319,307715.550,02000000,cdba,17139;SOL_COMPUTED,INS_RTKFIXED,17.59821805766,78.12236040999,525.6389,-76.2000,WGS84,0.0730,0.1530,0.0664,"0",1.000,0.000,38,35,35,33,00,20,3f,37*7d234ac8
#BESTPOSA,FILE,0,32.5,FINESTEERING,2319,307715.600,02000000,cdba,17139;SOL_COMPUTED,INS_RTKFIXED,17.59821709287,78.12236039772,525.6319,-76.2000,WGS84,0.0730,0.1530,0.0664,"0",1.000,0.000,38,35,35,33,00,20,3f,37*fe57d68d
#BESTPOSA,FILE,0,32.5,FINESTEERING,2319,307715.650,02000000,cdba,17139;SOL_COMPUTED,INS_RTKFIXED,17.59821612394,78.12236041056,525.6254,-76.2000,WGS84,0.0730,0.1530,0.0664,"0",1.000,0.000,38,35,35,33,00,20,3f,37*161c1c20
#BESTPOSA,FILE,0,32.5,FINESTEERING,2319,307715.700,02000000,cdba,17139;SOL_COMPUTED,INS_RTKFIXED,17.59821516300,78.12236042113,525.6181,-76.2000,WGS84,0.0730,0.1530,0.0664,"0",1.000,0.000,38,35,35,33,00,20,3f,37*7cbd12a0
#BESTPOSA,FILE,0,32.5,FINESTEERING,2319,307715.750,02000000,cdba,17139;SOL_COMPUTED,INS_RTKFIXED,17.59821420596,78.12236042269,525.6099,-76.2000,WGS84,0.0730,0.1530,0.0664,"0",1.000,0.000,38,35,35,33,00,20,3f,37*76e5ad7c
#BESTPOSA,FILE,0,32.5,FINESTEERING,2319,307715.800,02000000,cdba,17139;SOL_COMPUTED,INS_RTKFIXED,17.59821326227,78.12236043529,525.6016,-76.2000,WGS84,0.0730,0.1530,0.0664,"0",1.000,0.000,38,35,35,33,00,20,3f,37*2f5c2f55
#BESTPOSA,FILE,0,32.5,FINESTEERING,2319,307715.850,02000000,cdba,17139;SOL_COMPUTED,INS_RTKFIXED,17.59821232483,78.12236044933,525.5931,-76.2000,WGS84,0.0730,0.1530,0.0664,"0",1.000,0.000,38,35,35,33,00,20,3f,37*d407febd
#BESTPOSA,FILE,0,32.5,FINESTEERING,2319,307715.900,02000000,cdba,17139;SOL_COMPUTED,INS_RTKFIXED,17.59821139935,78.12236044904,525.5843,-76.2000,WGS84,0.0730,0.1530,0.0664,"0",1.000,0.000,38,35,35,33,00,20,3f,37*1cca6b57
#BESTPOSA,FILE,0,32.5,FINESTEERING,2319,307715.950,02000000,cdba,17139;SOL_COMPUTED,INS_RTKFIXED,17.59821047614,78.12236042652,525.5748,-76.2000,WGS84,0.0730,0.1530,0.0664,"0",1.000,0.000,38,35,35,33,00,20,3f,37*30223d0d
#BESTPOSA,FILE,0,32.5,FINESTEERING,2319,307716.000,02000000,cdba,17139;SOL_COMPUTED,INS_RTKFIXED,17.59820954785,78.12236041050,525.5669,-76.2000,WGS84,0.0730,0.1530,0.0664,"0",1.000,0.000,38,35,35,33,00,20,3f,37*b493c078
#BESTPOSA,FILE,0,32.5,FINESTEERING,2319,307716.050,02000000,cdba,17139;SOL_COMPUTED,INS_RTKFIXED,17.59820862396,78.12236036453,525.5585,-76.2000,WGS84,0.0685,0.1657,0.0686,"0",1.000,0.000,38,37,37,35,00,20,3f,37*ec2fd0bc
#BESTPOSA,FILE,0,32.5,FINESTEERING,2319,307716.100,02000000,cdba,17139;SOL_COMPUTED,INS_RTKFIXED,17.59820770845,78.12236028399,525.5496,-76.2000,WGS84,0.0685,0.1657,0.0686,"0",1.000,0.000,38,37,37,35,00,20,3f,37*727c79fc
#BESTPOSA,FILE,0,32.5,FINESTEERING,2319,307716.150,02000000,cdba,17139;SOL_COMPUTED,INS_RTKFIXED,17.59820678568,78.12236017929,525.5399,-76.2000,WGS84,0.0685,0.1657,0.0686,"0",1.000,0.000,38,37,37,35,00,20,3f,37*6a1b9af3
#BESTPOSA,FILE,0,32.5,FINESTEERING,2319,307716.200,02000000,cdba,17139;SOL_COMPUTED,INS_RTKFIXED,17.59820587716,78.12236008638,525.5304,-76.2000,WGS84,0.0685,0.1657,0.0686,"0",1.000,0.000,38,37,37,35,00,20,3f,37*2b3072c7
#BESTPOSA,FILE,0,32.5,FINESTEERING,2319,307716.250,02000000,cdba,17139;SOL_COMPUTED,INS_RTKFIXED,17.59820497910,78.12236002346,525.5213,-76.2000,WGS84,0.0685,0.1657,0.0686,"0",1.000,0.000,38,37,37,35,00,20,3f,37*c9d3de3a
#BESTPOSA,FILE,0,32.5,FINESTEERING,2319,307716.300,02000000,cdba,17139;SOL_COMPUTED,INS_RTKFIXED,17.59820408827,78.12235996174,525.5108,-76.2000,WGS84,0.0685,0.1657,0.0686,"0",1.000,0.000,38,37,37,35,00,20,3f,37*476d3aa4
#BESTPOSA,FILE,0,32.5,FINESTEERING,2319,307716.350,02000000,cdba,17139;SOL_COMPUTED,INS_RTKFIXED,17.59820321047,78.12235989963,525.5003,-76.2000,WGS84,0.0685,0.1657,0.0686,"0",1.000,0.000,38,37,37,35,00,20,3f,37*d9f84f5a
#BESTPOSA,FILE,0,32.5,FINESTEERING,2319,307716.400,02000000,cdba,17139;SOL_COMPUTED,INS_RTKFIXED,17.59820233014,78.12235984319,525.4895,-76.2000,WGS84,0.0685,0.1657,0.0686,"0",1.000,0.000,38,37,37,35,00,20,3f,37*a987048a
#BESTPOSA,FILE,0,32.5,FINESTEERING,2319,307716.450,02000000,cdba,17139;SOL_COMPUTED,INS_RTKFIXED,17.59820145354,78.12235979185,525.4784,-76.2000,WGS84,0.0685,0.1657,0.0686,"0",1.000,0.000,38,37,37,35,00,20,3f,37*29b97a5c
#BESTPOSA,FILE,0,32.5,FINESTEERING,2319,307716.500,02000000,cdba,17139;SOL_COMPUTED,INS_RTKFIXED,17.59820057938,78.12235976808,525.4688,-76.2000,WGS84,0.0685,0.1657,0.0686,"0",1.000,0.000,38,37,37,35,00,20,3f,37*ca98f5af
#BESTPOSA,FILE,0,32.5,FINESTEERING,2319,307716.550,02000000,cdba,17139;SOL_COMPUTED,INS_RTKFIXED,17.59819970347,78.12235975458,525.4583,-76.2000,WGS84,0.0685,0.1657,0.0686,"0",1.000,0.000,38,37,37,35,00,20,3f,37*ca304fe8
#BESTPOSA,FILE,0,32.5,FINESTEERING,2319,307716.600,02000000,cdba,17139;SOL_COMPUTED,INS_RTKFIXED,17.59819883037,78.12235974501,525.4480,-76.2000,WGS84,0.0685,0.1657,0.0686,"0",1.000,0.000,38,37,37,35,00,20,3f,37*b57112ac
#BESTPOSA,FILE,0,32.5,FINESTEERING,2319,307716.650,02000000,cdba,17139;SOL_COMPUTED,INS_RTKFIXED,17.59819795965,78.12235973614,525.4383,-76.2000,WGS84,0.0685,0.1657,0.0686,"0",1.000,0.000,38,37,37,35,00,20,3f,37*47f63f55
#BESTPOSA,FILE,0,32.5,FINESTEERING,2319,307716.700,02000000,cdba,17139;SOL_COMPUTED,INS_RTKFIXED,17.59819708552,78.12235972850,525.4298,-76.2000,WGS84,0.0685,0.1657,0.0686,"0",1.000,0.000,38,37,37,35,00,20,3f,37*9e74e924
#BESTPOSA,FILE,0,32.5,FINESTEERING,2319,307716.750,02000000,cdba,17139;SOL_COMPUTED,INS_RTKFIXED,17.59819621875,78.12235971875,525.4214,-76.2000,WGS84,0.0685,0.1657,0.0686,"0",1.000,0.000,38,37,37,35,00,20,3f,37*b7559b31
#BESTPOSA,FILE,0,32.5,FINESTEERING,2319,307716.800,02000000,cdba,17139;SOL_COMPUTED,INS_RTKFIXED,17.59819537306,78.12235969043,525.4122,-76.2000,WGS84,0.0685,0.1657,0.0686,"0",1.000,0.000,38,37,37,35,00,20,3f,37*d30dbf8d
#BESTPOSA,FILE,0,32.5,FINESTEERING,2319,307716.850,02000000,cdba,17139;SOL_COMPUTED,INS_RTKFIXED,17.59819455957,78.12235964098,525.4024,-76.2000,WGS84,0.0685,0.1657,0.0686,"0",1.000,0.000,38,37,37,35,00,20,3f,37*1bcb58ee
#BESTPOSA,FILE,0,32.5,FINESTEERING,2319,307716.900,02000000,cdba,17139;SOL_COMPUTED,INS_RTKFIXED,17.59819380137,78.12235956238,525.3915,-76.2000,WGS84,0.0685,0.1657,0.0686,"0",1.000,0.000,38,37,37,35,00,20,3f,37*4ed189cf
#BESTPOSA,FILE,0,32.5,FINESTEERING,2319,307716.950,02000000,cdba,17139;SOL_COMPUTED,INS_RTKFIXED,17.59819308894,78.12235948425,525.3813,-76.2000,WGS84,0.0685,0.1657,0.0686,"0",1.000,0.000,38,37,37,35,00,20,3f,37*85c8e5d7
#BESTPOSA,FILE,0,32.5,FINESTEERING,2319,307717.000,02000000,cdba,17139;SOL_COMPUTED,INS_RTKFIXED,17.59819240195,78.12235941521,525.3711,-76.2000,WGS84,0.0685,0.1657,0.0686,"0",1.000,0.000,38,37,37,35,00,20,3f,37*2d07e48c
#BESTPOSA,FILE,0,32.5,FINESTEERING,2319,307717.050,02000000,cdba,17139;SOL_COMPUTED,INS_RTKFIXED,17.59819173036,78.12235936601,525.3620,-76.2000,WGS84,0.0665,0.1747,0.0702,"0",1.000,0.000,38,37,37,35,00,20,3f,37*0496d5b5
#BESTPOSA,FILE,0,32.5,FINESTEERING,2319,307717.100,02000000,cdba,17139;SOL_COMPUTED,INS_RTKFIXED,17.59819105425,78.12235933000,525.3543,-76.2000,WGS84,0.0665,0.1747,0.0702,"0",1.000,0.000,38,37,37,35,00,20,3f,37*8ea2afe0
#BESTPOSA,FILE,0,33.0,FINESTEERING,2319,307717.150,02000000,cdba,17139;SOL_COMPUTED,INS_RTKFIXED,17.59819038133,78.12235929614,525.3472,-76.2000,WGS84,0.0665,0.1747,0.0702,"0",1.000,0.000,38,37,37,35,00,20,3f,37*5d3cc723
#BESTPOSA,FILE,0,33.0,FINESTEERING,2319,307717.200,02000000,cdba,17139;SOL_COMPUTED,INS_RTKFIXED,17.59818970278,78.12235927395,525.3399,-76.2000,WGS84,0.0665,0.1747,0.0702,"0",1.000,0.000,38,37,37,35,00,20,3f,37*e18265f8
#BESTPOSA,FILE,0,33.0,FINESTEERING,2319,307717.250,02000000,cdba,17139;SOL_COMPUTED,INS_RTKFIXED,17.59818902713,78.12235925917,525.3325,-76.2000,WGS84,0.0665,0.1747,0.0702,"0",1.000,0.000,38,37,37,35,00,20,3f,37*88c64ba5
#BESTPOSA,FILE,0,33.0,FINESTEERING,2319,307717.300,02000000,cdba,17139;SOL_COMPUTED,INS_RTKFIXED,17.59818835903,78.12235924180,525.3240,-76.2000,WGS84,0.0665,0.1747,0.0702,"0",1.000,0.000,38,37,37,35,00,20,3f,37*4b4faa47
#BESTPOSA,FILE,0,33.0,FINESTEERING,2319,307717.350,02000000,cdba,17139;SOL_COMPUTED,INS_RTKFIXED,17.59818770865,78.12235921944,525.3148,-76.2000,WGS84,0.0665,0.1747,0.0702,"0",1.000,0.000,38,37,37,35,00,20,3f,37*1bafb54e
#BESTPOSA,FILE,0,33.0,FINESTEERING,2319,307717.400,02000000,cdba,17139;SOL_COMPUTED,INS_RTKFIXED,17.59818705753,78.12235917414,525.3048,-76.2000,WGS84,0.0665,0.1747,0.0702,"0",1.000,0.000,38,37,37,35,00,20,3f,37*1a4f958d
#BESTPOSA,FILE,0,33.0,FINESTEERING,2319,307717.450,02000000,cdba,17139;SOL_COMPUTED,INS_RTKFIXED,17.59818642062,78.12235908766,525.2935,-76.2000,WGS84,0.0665,0.1747,0.0702,"0",1.000,0.000,38,37,37,35,00,20,3f,37*dc15ccc5
#BESTPOSA,FILE,0,33.0,FINESTEERING,2319,307717.500,02000000,cdba,17139;SOL_COMPUTED,INS_RTKFIXED,17.59818578457,78.12235896696,525.2818,-76.2000,WGS84,0.0665,0.1747,0.0702,"0",1.000,0.000,38,37,37,35,00,20,3f,37*ee4224c0
#BESTPOSA,FILE,0,33.0,FINESTEERING,2319,307717.550,02000000,cdba,17139;SOL_COMPUTED,INS_RTKFIXED,17.59818515233,78.12235883627,525.2715,-76.2000,WGS84,0.0665,0.1747,0.0702,"0",1.000,0.000,38,37,37,35,00,20,3f,37*16b71957
#BESTPOSA,FILE,0,33.0,FINESTEERING,2319,307717.600,02000000,cdba,17139;SOL_COMPUTED,INS_RTKFIXED,17.59818451507,78.12235871465,525.2635,-76.2000,WGS84,0.0665,0.1747,0.0702,"0",1.000,0.000,38,37,37,35,00,20,3f,37*fd5b149f
#BESTPOSA,FILE,0,33.0,FINESTEERING,2319,307717.650,02000000,cdba,17139;SOL_COMPUTED,INS_RTKFIXED,17.59818387840,78.12235860645,525.2568,-76.2000,WGS84,0.0665,0.1747,0.0702,"0",1.000,0.000,38,37,37,35,00,20,3f,37*6081a1f1
#BESTPOSA,FILE,0,33.0,FINESTEERING,2319,307717.700,02000000,cdba,17139;SOL_COMPUTED,INS_RTKFIXED,17.59818322859,78.12235849430,525.2506,-76.2000,WGS84,0.0665,0.1747,0.0702,"0",1.000,0.000,38,37,37,35,00,20,3f,37*46bab90a
#BESTPOSA,FILE,0,33.0,FINESTEERING,2319,307717.750,02000000,cdba,17139;SOL_COMPUTED,INS_RTKFIXED,17.59818257281,78.12235838088,525.2449,-76.2000,WGS84,0.0665,0.1747,0.0702,"0",1.000,0.000,38,37,37,35,00,20,3f,37*6939b8e5
#BESTPOSA,FILE,0,33.0,FINESTEERING,2319,307717.800,02000000,cdba,17139;SOL_COMPUTED,INS_RTKFIXED,17.59818191435,78.12235827554,525.2391,-76.2000,WGS84,0.0665,0.1747,0.0702,"0",1.000,0.000,38,37,37,35,00,20,3f,37*58027c11
