#CORRIMUDATAA,FILE,0,41.0,FINESTEERING,2319,307702.750,02000800,e5fc,17139;2319,307702.750000000,0.0002489734806066,-0.0005189340242324,-0.0008258150307303,0.0027206658215520,-0.0088478975130566,0.0109167443534746*b9f1e084
#CORRIMUDATAA,FILE,0,41.0,FINESTEERING,2319,307702.850,02000800,e5fc,17139;2319,307702.850000000,0.0001662900376898,-0.0004452347826123,-0.0009167497386268,0.0009397983267532,-0.0087320463513296,-0.0045608143522128*d4cc0866
#CORRIMUDATAA,FILE,0,41.0,FINESTEERING,2319,307702.950,02000800,e5fc,17139;2319,307702.950000000,-0.0000187596842788,-0.0009045004959126,-0.0011889046736346,-0.0077627779136016,-0.0085763712902236,0.0279576839433764*962bc277
#CORRIMUDATAA,FILE,0,41.0,FINESTEERING,2319,307703.050,02000800,e5fc,17139;2319,307703.050000000,0.0006514739472549,-0.0010899026337335,-0.0014637861614083,0.0166461060931988,-0.0066854154169498,-0.0159404883360062*69f18369
#CORRIMUDATAA,FILE,0,40.0,FINESTEERING,2319,307703.150,02000800,e5fc,17139;2319,307703.150000000,0.0011278171875106,-0.0007274632764018,-0.0010928191121965,0.0119425098499364,-0.0088315254676528,-0.0032095695406454*52a5b14d
#CORRIMUDATAA,FILE,0,40.0,FINESTEERING,2319,307703.200,02000800,e5fc,17139;2319,307703.200000000,0.0009146168921071,-0.0001105421873656,-0.0011108082170277,0.0022286787705686,-0.0058668370236783,-0.0110606296984195*4661f46c
#CORRIMUDATAA,FILE,0,40.0,FINESTEERING,2319,307703.300,02000800,e5fc,17139;2319,307703.300000000,0.0009018390870505,0.0013467027470314,-0.0010340363579331,0.0086017959088638,-0.0051435710314077,-0.0181923666159133*dc99a062
#CORRIMUDATAA,FILE,0,40.0,FINESTEERING,2319,307703.400,02000800,e5fc,17139;2319,307703.400000000,0.0002346730464325,0.0006110467100057,-0.0012548369792997,-0.0086081275347839,-0.0108645067693163,0.0290543631511941*4c42524e
#CORRIMUDATAA,FILE,0,40.0,FINESTEERING,2319,307703.500,02000800,e5fc,17139;2319,307703.500000000,-0.0008234702319966,0.0007763751647258,-0.0012064246381197,0.0047225866954726,-0.0112101950778549,0.0071273633458674*e15cf741
#CORRIMUDATAA,FILE,0,40.0,FINESTEERING,2319,307703.600,02000800,e5fc,17139;2319,307703.600000000,-0.0016281067409858,-0.0004758381776974,-0.0006871002092622,0.0051098903178106,-0.0135855552687238,0.0030584927802942*95f90715
#CORRIMUDATAA,FILE,0,40.0,FINESTEERING,2319,307703.700,02000800,e5fc,17139;2319,307703.700000000,-0.0014563722579477,-0.0005046547483658,-0.0006378534124560,-0.0041898894670044,-0.0154392505857739,0.0087865590103222*dcb73735
#CORRIMUDATAA,FILE,0,40.0,FINESTEERING,2319,307703.800,02000800,e5fc,17139;2319,307703.800000000,-0.0008339677297907,0.0003486572219669,-0.0007541720473658,0.0060380682952040,-0.0090049068310296,-0.0294583207040648*4456c6ab
#CORRIMUDATAA,FILE,0,40.0,FINESTEERING,2319,307703.900,02000800,e5fc,17139;2319,307703.900000000,-0.0002121274016565,0.0011803990408762,-0.0006830296473796,0.0133542306739741,-0.0030734511548970,-0.0420016651888791*d84add53
#CORRIMUDATAA,FILE,0,40.0,FINESTEERING,2319,307704.000,02000800,e5fc,17139;2319,307704.000000000,0.0009204177068863,-0.0000796095892792,-0.0005460955118808,-0.0037849090786524,-0.0108807194396238,-0.0259075197033077*90c21cea
#CORRIMUDATAA,FILE,0,40.0,FINESTEERING,2319,307704.100,02000800,e5fc,17139;2319,307704.100000000,0.0014033080844344,-0.0002797492824357,-0.0004280666200709,0.0090006171559670,-0.0147011012887221,0.0060418292681556*018cc5e1
#CORRIMUDATAA,FILE,0,40.5,FINESTEERING,2319,307704.200,02000800,e5fc,17139;2319,307704.200000000,0.0005994617274574,-0.0004934284206258,-0.0004038964393607,-0.0021153359658141,-0.0168614376645141,0.0259133668128092*afba3629
#CORRIMUDATAA,FILE,0,40.5,FINESTEERING,2319,307704.250,02000800,e5fc,17139;2319,307704.250000000,-0.0000786474933217,-0.0012029109999044,-0.0006742117159375,-0.0189667275965149,-0.0099443415570356,0.0329032681580906*271add39
#CORRIMUDATAA,FILE,0,40.5,FINESTEERING,2319,307704.350,02000800,e5fc,17139;2319,307704.350000000,-0.0005620799189561,-0.0005464056809759,-0.0006347518907555,0.0192818652402353,-0.0100725217462030,-0.0143758003572147*04574fc3
#CORRIMUDATAA,FILE,0,40.5,FINESTEERING,2319,307704.450,02000800,e5fc,17139;2319,307704.450000000,0.0004964579264460,0.0004100491461027,-0.0001003651982059,-0.0012578167506780,-0.0114957268167405,-0.0064753996890622*ad2973b3
#CORRIMUDATAA,FILE,0,40.5,FINESTEERING,2319,307704.550,02000800,e5fc,17139;2319,307704.550000000,0.0008236452639363,0.0014136511966267,-0.0002984610412021,-0.0006037013382311,-0.0094547984210813,-0.0013542698815784*bb5e9470
#CORRIMUDATAA,FILE,0,40.5,FINESTEERING,2319,307704.650,02000800,e5fc,17139;2319,307704.650000000,-0.0002123101715215,0.0005156412529308,-0.0001408510424170,-0.0019055383130682,-0.0173213722902513,0.0350453590340964*04716a25
#CORRIMUDATAA,FILE,0,40.5,FINESTEERING,2319,307704.750,02000800,e5fc,17139;2319,307704.750000000,-0.0015565751482843,-0.0000054840424603,-0.0002184660059565,-0.0073204910888586,-0.0154576591080230,0.0380085157333119*b5671934
#CORRIMUDATAA,FILE,0,40.5,FINESTEERING,2319,307704.850,02000800,e5fc,17139;2319,307704.850000000,-0.0015433037432629,-0.0007680474174294,-0.0003375396484060,0.0072069447507016,-0.0092110961558641,-0.0218558154925155*e171486c
#CORRIMUDATAA,FILE,0,40.5,FINESTEERING,2319,307704.950,02000800,e5fc,17139;2319,307704.950000000,-0.0007878736641338,-0.0005796087288364,0.0003092154320741,0.0049335035312794,-0.0096126280684639,-0.0191910636920577*067d3792
#CORRIMUDATAA,FILE,0,40.5,FINESTEERING,2319,307705.050,02000800,e5fc,17139;2319,307705.050000000,0.0001968427227201,0.0004116931500332,0.0009312025310929,0.0029043070460649,-0.0171635719259836,0.0065080256672242*e0dee5e2
#CORRIMUDATAA,FILE,0,40.5,FINESTEERING,2319,307705.100,02000800,e5fc,17139;2319,307705.100000000,0.0000669857737522,0.0001779553631794,0.0010668086023081,0.0104565870495360,-0.0103315746151157,-0.0113123323005501*4eda5aa3
#CORRIMUDATAA,FILE,0,42.5,FINESTEERING,2319,307705.200,02000800,e5fc,17139;2319,307705.200000000,0.0009713368114911,0.0005860352094987,0.0008743143718560,-0.0195804836279005,-0.0064246059962716,0.0103530574061426*220b7014
#CORRIMUDATAA,FILE,0,42.5,FINESTEERING,2319,307705.300,02000800,e5fc,17139;2319,307705.300000000,0.0005629173965409,0.0005106894011141,0.0005706675255061,-0.0033537969775107,-0.0112275166421011,0.0098525581581762*567d8e3a
#CORRIMUDATAA,FILE,0,42.5,FINESTEERING,2319,307705.400,02000800,e5fc,17139;2319,307705.400000000,0.0003471156484760,-0.0005900298241930,0.0011136383116994,0.0077644204748051,-0.0113741528117238,-0.0066058126547392*1edd6314
#CORRIMUDATAA,FILE,0,42.5,FINESTEERING,2319,307705.500,02000800,e5fc,17139;2319,307705.500000000,0.0002801947221510,-0.0003818641932406,0.0014567107887464,-0.0097944543001483,-0.0131997716700701,0.0142259716128912*ec8d9543
#CORRIMUDATAA,FILE,0,42.5,FINESTEERING,2319,307705.600,02000800,e5fc,17139;2319,307705.600000000,0.0003705683154647,0.0002863399027354,0.0010500441002542,-0.0110393879626881,-0.0137978017842483,-0.0060381294002465*f93e6320
#CORRIMUDATAA,FILE,0,42.5,FINESTEERING,2319,307705.700,02000800,e5fc,17139;2319,307705.700000000,0.0004700944451928,-0.0000661513281720,0.0002918430210711,-0.0110283750175466,-0.0113424002481218,0.0022361488401786*cfef9f7e
#CORRIMUDATAA,FILE,0,42.5,FINESTEERING,2319,307705.800,02000800,e5fc,17139;2319,307705.800000000,0.0007084917990552,-0.0006385779269084,0.0005229020663016,0.0026919954566372,-0.0133811089870713,0.0173057474753961*f1ea0c20
#CORRIMUDATAA,FILE,0,42.5,FINESTEERING,2319,307705.900,02000800,e5fc,17139;2319,307705.900000000,-0.0001071041611333,-0.0005367910678666,0.0008600603934447,0.0006010449190561,-0.0135985926886014,-0.0049160791386592*1d9a8073
#CORRIMUDATAA,FILE,0,42.5,FINESTEERING,2319,307706.000,02000800,e5fc,17139;2319,307706.000000000,0.0000880227007590,0.0001418693725401,0.0005748560211974,-0.0124748891927993,-0.0082864886193940,0.0003191972002641*c582f337
#CORRIMUDATAA,FILE,0,41.0,FINESTEERING,2319,307706.100,02000800,e5fc,17139;2319,307706.100000000,0.0003664937972400,0.0004383041181971,0.0002350056899529,-0.0054861588688188,-0.0122550385830546,0.0016323659505150*2aed040a
#CORRIMUDATAA,FILE,0,41.0,FINESTEERING,2319,307706.200,02000800,e5fc,17139;2319,307706.200000000,0.0004817327855737,0.0009275412765186,0.0001783113021211,0.0070909181743460,-0.0091457865168696,0.0113420541719471*cd05e705
#CORRIMUDATAA,FILE,0,41.0,FINESTEERING,2319,307706.250,02000800,e5fc,17139;2319,307706.250000000,-0.0001829653043944,0.0007421507266059,0.0003368149991427,0.0036184477654946,-0.0154589950977463,-0.0108698949243707*c6444ec2
#CORRIMUDATAA,FILE,0,41.0,FINESTEERING,2319,307706.300,02000800,e5fc,17139;2319,307706.300000000,-0.0002672109094870,0.0009720033094908,0.0005543803622647,0.0021820366825166,-0.0162129600566660,0.0338653161788511*c95769be
#CORRIMUDATAA,FILE,0,41.0,FINESTEERING,2319,307706.350,02000800,e5fc,17139;2319,307706.350000000,-0.0002521947600059,0.0003495343771209,0.0005776953011202,-0.0024076800606717,-0.0142363702098558,0.0075954811708815*581e47df
#CORRIMUDATAA,FILE,0,41.0,FINESTEERING,2319,307706.400,02000800,e5fc,17139;2319,307706.400000000,-0.0010716823586408,-0.0000290128436896,0.0004784438090292,-0.0104668871065954,-0.0118288284116891,-0.0041337377222566*797edaef
#CORRIMUDATAA,FILE,0,41.0,FINESTEERING,2319,307706.450,02000800,e5fc,17139;2319,307706.450000000,-0.0009675280279881,-0.0000387730982876,0.0002786880969594,-0.0051284798172305,-0.0241975782425861,0.0194440243672502*7b60ef6b
#CORRIMUDATAA,FILE,0,41.0,FINESTEERING,2319,307706.500,02000800,e5fc,17139;2319,307706.500000000,-0.0004849704029737,-0.0014930272526301,0.0000853119024063,-0.0059398722127784,-0.0055961472070636,-0.0154308325380526*669126c5
#CORRIMUDATAA,FILE,0,41.0,FINESTEERING,2319,307706.550,02000800,e5fc,17139;2319,307706.550000000,-0.0005786349481685,-0.0002509159557762,0.0000018805374882,-0.0161653905541986,-0.0102844672578765,-0.0081643311215811*b149bb40
#CORRIMUDATAA,FILE,0,41.0,FINESTEERING,2319,307706.600,02000800,e5fc,17139;2319,307706.600000000,-0.0000969934195729,-0.0002867042453372,-0.0000882741413038,0.0052093590083071,-0.0072583835322763,-0.0213159544998558*df75cfb9
#CORRIMUDATAA,FILE,0,41.0,FINESTEERING,2319,307706.650,02000800,e5fc,17139;2319,307706.650000000,0.0001545166772590,0.0002979250616506,0.0001804973940838,0.0106965916839085,-0.0133731287474246,-0.0010478944797478*c0d3a213
#CORRIMUDATAA,FILE,0,41.0,FINESTEERING,2319,307706.700,02000000,e5fc,17139;2319,307706.700000000,0.0001643057477670,-0.0007920931596352,0.0002251411254749,0.0050945648174958,-0.0122915738392748,-0.0047959009282725*5e3258cf
#CORRIMUDATAA,FILE,0,41.0,FINESTEERING,2319,307706.750,02000000,e5fc,17139;2319,307706.750000000,0.0006728914090326,-0.0002186520659097,0.0002398274070095,-0.0111671542619730,-0.0097645157448126,-0.0161327164864114*4f893d2a
#CORRIMUDATAA,FILE,0,41.0,FINESTEERING,2319,307706.800,02000000,e5fc,17139;2319,307706.800000000,0.0004242853857009,0.0005174006394454,0.0001594331863394,0.0072614293151654,-0.0077246281864036,0.0018521855468836*43b61ad6
#CORRIMUDATAA,FILE,0,41.0,FINESTEERING,2319,307706.850,02000000,e5fc,17139;2319,307706.850000000,-0.0000543696715433,0.0005519370550793,0.0004759722601805,0.0086601799213752,-0.0176148469736793,0.0089971148379036*8aabc4c0
#CORRIMUDATAA,FILE,0,41.0,FINESTEERING,2319,307706.900,02000000,e5fc,17139;2319,307706.900000000,-0.0002307962105702,0.0002879096164435,0.0003168127919980,-0.0086480055445483,-0.0085249786893479,0.0063008862703636*c2a9112e
#CORRIMUDATAA,FILE,0,41.0,FINESTEERING,2319,307706.950,02000000,e5fc,17139;2319,307706.950000000,-0.0008551783627427,0.0011628168395648,0.0002497261870391,-0.0003191597367679,-0.0178406770089200,0.0186524388303110*cee84988
#CORRIMUDATAA,FILE,0,41.0,FINESTEERING,2319,307707.000,02000000,e5fc,17139;2319,307707.000000000,-0.0009322397941099,-0.0003415246755610,0.0001307125318300,-0.0055076523232896,-0.0130118450273821,0.0062703905443023*6e009700
#CORRIMUDATAA,FILE,0,41.0,FINESTEERING,2319,307707.050,02000000,e5fc,17139;2319,307707.050000000,-0.0013683565977132,0.0012350208606358,0.0002234585908223,-0.0045547383725402,-0.0115077162893070,-0.0010192882329724*dd036236
#CORRIMUDATAA,FILE,0,37.5,FINESTEERING,2319,307707.100,02000000,e5fc,17139;2319,307707.100000000,-0.0001792237180045,0.0009840776181176,0.0001641875997440,0.0057779617419740,-0.0129043471707785,-0.0278834981211992*4531704b
#CORRIMUDATAA,FILE,0,37.5,FINESTEERING,2319,307707.150,02000000,e5fc,17139;2319,307707.150000000,-0.0005422015087763,0.0006121011659756,0.0002086156343757,0.0019281162707312,-0.0206225760882930,0.0243347138119266*bd7a7c8e
#CORRIMUDATAA,FILE,0,37.5,FINESTEERING,2319,307707.200,02000000,e5fc,17139;2319,307707.200000000,-0.0001699812384573,-0.0005983040773991,0.0001074822998167,-0.0075712347915966,-0.0125935243191201,-0.0118514000371543*646ddc71
#CORRIMUDATAA,FILE,0,37.5,FINESTEERING,2319,307707.250,02000000,e5fc,17139;2319,307707.250000000,0.0000770511374534,0.0004583747278865,0.0000577132407283,-0.0025574906505617,-0.0158417188263441,-0.0068161137277010*572b2ab6
#CORRIMUDATAA,FILE,0,37.5,FINESTEERING,2319,307707.300,02000000,e5fc,17139;2319,307707.300000000,0.0007389525390350,-0.0002491986964093,0.0002057228436387,-0.0009891773459659,-0.0101208911175394,-0.0152554942186221*24ad1838
#CORRIMUDATAA,FILE,0,37.5,FINESTEERING,2319,307707.350,02000000,e5fc,17139;2319,307707.350000000,0.0002793315246612,-0.0003031641006420,0.0002990621651636,0.0008003355506933,-0.0221103185795629,0.0058297175998967*4b97c67d
#CORRIMUDATAA,FILE,0,37.5,FINESTEERING,2319,307707.400,02000000,e5fc,17139;2319,307707.400000000,0.0005224487879368,-0.0011083827184761,0.0002511697094845,-0.0061592694772039,-0.0114307737550853,0.0123855724390923*3291a9cb
#CORRIMUDATAA,FILE,0,37.5,FINESTEERING,2319,307707.450,02000000,e5fc,17139;2319,307707.450000000,0.0001785640703040,-0.0003178470732762,0.0001413057005783,-0.0060818245170617,-0.0151077237515887,0.0062471039479217*f73bfd17
#CORRIMUDATAA,FILE,0,37.5,FINESTEERING,2319,307707.500,02000000,e5fc,17139;2319,307707.500000000,0.0001788999093018,0.0003270263383068,0.0001138100583655,-0.0022596817226265,-0.0079314535756251,-0.0091911650681050*b416d3b8
#CORRIMUDATAA,FILE,0,37.5,FINESTEERING,2319,307707.550,02000000,e5fc,17139;2319,307707.550000000,0.0002075875277872,0.0000695641513756,0.0000453671995471,0.0077117066705240,-0.0127635419744309,-0.0120177781821051*8e3dfd05
#CORRIMUDATAA,FILE,0,37.5,FINESTEERING,2319,307707.600,02000000,e5fc,17139;2319,307707.600000000,0.0004553205397363,-0.0003867391737894,0.0001505438632733,0.0025186778253318,-0.0083574789498586,-0.0079720242322327*63f17e4b
#CORRIMUDATAA,FILE,0,37.5,FINESTEERING,2319,307707.650,02000000,e5fc,17139;2319,307707.650000000,0.0004429520795052,0.0004512718361274,0.0001147696245685,-0.0015505550902313,-0.0089907146202766,0.0043830872179870*a30b0076
#CORRIMUDATAA,FILE,0,37.5,FINESTEERING,2319,307707.700,02000000,e5fc,17139;2319,307707.700000000,0.0005164133701438,0.0008140531961042,0.0001948192903023,0.0030737504149232,-0.0045885170205742,-0.0227250135288379*9e5eb9e4
#CORRIMUDATAA,FILE,0,37.5,FINESTEERING,2319,307707.750,02000000,e5fc,17139;2319,307707.750000000,0.0005070246053892,0.0005806152799544,0.0001073487818828,-0.0053783044391118,-0.0152724803666688,-0.0023017486660932*6940567b
#CORRIMUDATAA,FILE,0,37.5,FINESTEERING,2319,307707.800,02000000,e5fc,17139;2319,307707.800000000,0.0006793879150739,0.0000566414384299,0.0001452781711891,0.0014034820015956,-0.0094752509518730,0.0040095950526359*1c1065f8
#CORRIMUDATAA,FILE,0,37.5,FINESTEERING,2319,307707.850,02000000,e5fc,17139;2319,307707.850000000,0.0003527585679801,0.0005959478839008,0.0002403536799349,-0.0022644031733120,-0.0101914012679168,0.0114165869971591*8ddcc19e
#CORRIMUDATAA,FILE,0,37.5,FINESTEERING,2319,307707.900,02000000,e5fc,17139;2319,307707.900000000,-0.0001789521123081,-0.0003986550768576,0.0001374674569941,0.0034665560608578,-0.0130973898222239,0.0134295931618781*2645a04d
#CORRIMUDATAA,FILE,0,37.5,FINESTEERING,2319,307707.950,02000000,e5fc,17139;2319,307707.950000000,0.0001583069369102,-0.0008950917087202,0.0001712608640716,-0.0074030023114413,-0.0144694874875850,0.0074657949860773*46a75006
#CORRIMUDATAA,FILE,0,37.5,FINESTEERING,2319,307708.000,02000000,e5fc,17139;2319,307708.000000000,-0.0000983119415134,-0.0004443809655428,0.0001032684009636,-0.0072144117001451,-0.0126229312435032,0.0208067874983461*4adabb44
#CORRIMUDATAA,FILE,0,37.5,FINESTEERING,2319,307708.050,02000000,e5fc,17139;2319,307708.050000000,0.0001340869492186,-0.0007490503043208,0.0001867289534767,-0.0013453780496984,-0.0071326800853882,0.0024857819069597*03517ca9
#CORRIMUDATAA,FILE,0,33.0,FINESTEERING,2319,307708.100,02000000,e5fc,17139;2319,307708.100000000,-0.0007610300682704,-0.0008104835174981,0.0001243040185844,-0.0038127908049899,-0.0106412766063090,0.0001598718226327*24eec287
#CORRIMUDATAA,FILE,0,33.0,FINESTEERING,2319,307708.150,02000000,e5fc,17139;2319,307708.150000000,-0.0006660025750747,-0.0008726230890706,0.0001589545472157,0.0022174398399537,-0.0133331956077555,-0.0004407657477571*9034336a
#CORRIMUDATAA,FILE,0,33.0,FINESTEERING,2319,307708.200,02000000,e5fc,17139;2319,307708.200000000,-0.0000477348577198,-0.0010129101052088,0.0001684663505933,0.0093918009164143,-0.0110076142148867,-0.0020094201336646*2541282a
#CORRIMUDATAA,FILE,0,33.0,FINESTEERING,2319,307708.250,02000000,e5fc,17139;2319,307708.250000000,-0.0004256926589912,-0.0003098839913569,0.0003460793592622,-0.0019271773617936,-0.0122046277740621,-0.0026378120341523*5730e025
#CORRIMUDATAA,FILE,0,33.0,FINESTEERING,2319,307708.300,02000000,e5fc,17139;2319,307708.300000000,0.0005121902324007,0.0006785304230234,0.0001124112260371,0.0006946100250530,-0.0062185003253280,-0.0259381960114829*8315a617
#CORRIMUDATAA,FILE,0,33.0,FINESTEERING,2319,307708.350,02000000,e5fc,17139;2319,307708.350000000,-0.0001592462563780,0.0008694101734670,0.0002305500961012,0.0065456666974141,-0.0172476761544692,0.0095844468967558*8896bc51
#CORRIMUDATAA,FILE,0,33.0,FINESTEERING,2319,307708.400,02000000,e5fc,17139;2319,307708.400000000,0.0004206107508747,0.0013370985602587,0.0000933018510749,-0.0025838005304300,-0.0057249660451631,-0.0166612274445250*7d5de603
#CORRIMUDATAA,FILE,0,33.0,FINESTEERING,2319,307708.450,02000000,e5fc,17139;2319,307708.450000000,0.0002523816384540,0.0015706611794689,0.0002743685570345,0.0113676896096877,-0.0154385458391716,-0.0007139891430960*518246a5
#CORRIMUDATAA,FILE,0,33.0,FINESTEERING,2319,307708.500,02000000,e5fc,17139;2319,307708.500000000,0.0001792907527149,0.0007305060420646,0.0001167149889790,-0.0057357893218169,-0.0071296922895445,-0.0031896274570039*ad6c6d74
#CORRIMUDATAA,FILE,0,33.0,FINESTEERING,2319,307708.550,02000000,e5fc,17139;2319,307708.550000000,0.0002051746606405,0.0006913718254290,-0.0000502847623785,-0.0149848240679645,-0.0159197902213317,0.0183793233259623*7b74e8d6
#CORRIMUDATAA,FILE,0,33.0,FINESTEERING,2319,307708.600,02000000,e5fc,17139;2319,307708.600000000,0.0002815238267677,0.0006765297405295,-0.0002148991195341,-0.0073234978837095,-0.0016860468610332,-0.0039214297094320*f8c4ee9d
#CORRIMUDATAA,FILE,0,33.0,FINESTEERING,2319,307708.650,02000000,e5fc,17139;2319,307708.650000000,-0.0000962024910784,0.0005643142863380,0.0000037999475102,0.0047155234375842,-0.0163600041043554,-0.0018114000765758*717628a0
#CORRIMUDATAA,FILE,0,33.0,FINESTEERING,2319,307708.700,02000000,e5fc,17139;2319,307708.700000000,-0.0001671491594312,-0.0001933810344295,-0.0000036400415640,-0.0006194951465114,-0.0143349916018136,0.0069767919033642*97b6274e
#CORRIMUDATAA,FILE,0,33.0,FINESTEERING,2319,307708.750,02000000,e5fc,17139;2319,307708.750000000,-0.0001464941687888,-0.0015298349976060,0.0000932339159488,-0.0071146230930841,-0.0166589008012341,0.0324127336569030*1c376d8c
#CORRIMUDATAA,FILE,0,33.0,FINESTEERING,2319,307708.800,02000000,e5fc,17139;2319,307708.800000000,-0.0005291884602471,-0.0009111966921642,0.0001266080256163,-0.0049700424112523,-0.0046561739383398,-0.0079432264406565*b366ddaf
#CORRIMUDATAA,FILE,0,33.0,FINESTEERING,2319,307708.850,02000000,e5fc,17139;2319,307708.850000000,-0.0002830579338361,-0.0002695320380802,0.0001676047308776,-0.0082986388876362,-0.0092295315321665,-0.0030053780240250*b0628ace
#CORRIMUDATAA,FILE,0,33.0,FINESTEERING,2319,307708.900,02000000,e5fc,17139;2319,307708.900000000,-0.0006700500375557,-0.0000914934797436,0.0000746346913662,0.0035747112200591,-0.0119379467173454,-0.0173376319112537*a103d3ba
#CORRIMUDATAA,FILE,0,33.0,FINESTEERING,2319,307708.950,02000000,e5fc,17139;2319,307708.950000000,0.0002359736132339,-0.0004796041862948,0.0000293875400265,0.0052912628501563,-0.0089397867278607,-0.0075911365458886*88de531f
#CORRIMUDATAA,FILE,0,33.0,FINESTEERING,2319,307709.000,02000000,e5fc,17139;2319,307709.000000000,-0.0001006421172328,-0.0005522256631191,-0.0000462083098183,0.0020887547757855,-0.0140246303165730,0.0067955091805418*fec4acce
#CORRIMUDATAA,FILE,0,33.0,FINESTEERING,2319,307709.050,02000000,e5fc,17139;2319,307709.050000000,0.0001912191738858,-0.0001321378630997,0.0000324533603758,-0.0133375001820048,-0.0054736744659269,-0.0237293109195440*006e26c3
#CORRIMUDATAA,FILE,0,33.0,FINESTEERING,2319,307709.100,02000000,e5fc,17139;2319,307709.100000000,-0.0001036306411696,0.0016275145295564,0.0005692300201772,0.0188508837170623,-0.0150034585759094,0.0245694558583527*9a1799e5
#CORRIMUDATAA,FILE,0,39.0,FINESTEERING,2319,307709.150,02000000,e5fc,17139;2319,307709.150000000,-0.0002080430808237,0.0002092056447530,0.0013155144023214,0.0153643811175800,-0.0065448790471004,-0.0188175558267278*7335469e
#CORRIMUDATAA,FILE,0,39.0,FINESTEERING,2319,307709.200,02000000,e5fc,17139;2319,307709.200000000,-0.0006135929083302,0.0013378419945060,0.0016404564399694,-0.0026431840421319,-0.0120504637701747,0.0165811574576564*95da00c8
#CORRIMUDATAA,FILE,0,39.0,FINESTEERING,2319,307709.250,02000000,e5fc,17139;2319,307709.250000000,-0.0012602008903796,0.0004056033496849,0.0017077627116440,-0.0078285314996985,-0.0165406978372642,0.0052949429505133*48d81b2e
#CORRIMUDATAA,FILE,0,39.0,FINESTEERING,2319,307709.300,02000000,e5fc,17139;2319,307709.300000000,-0.0008272450480982,0.0006871997761070,0.0017102584845870,-0.0112160952352608,-0.0061828408186025,0.0058072727502573*1332dfa4
#CORRIMUDATAA,FILE,0,39.0,FINESTEERING,2319,307709.350,02000000,e5fc,17139;2319,307709.350000000,-0.0009571075424000,0.0004091062786681,0.0020837916372140,-0.0033582540490436,-0.0101204070269744,-0.0049678772766454*79cdfba1
#CORRIMUDATAA,FILE,0,39.0,FINESTEERING,2319,307709.400,02000000,e5fc,17139;2319,307709.400000000,-0.0009240529297624,0.0002769472968064,0.0022178044235123,-0.0085542452015450,-0.0135993451628141,0.0159512495220212*66807291
#CORRIMUDATAA,FILE,0,39.0,FINESTEERING,2319,307709.450,02000000,e5fc,17139;2319,307709.450000000,-0.0008033950631059,-0.0005761535509246,0.0024381109495371,-0.0064205528524532,-0.0056384454749772,-0.0152108229003632*2cb84960
#CORRIMUDATAA,FILE,0,39.0,FINESTEERING,2319,307709.500,02000000,e5fc,17139;2319,307709.500000000,-0.0002570160871271,-0.0002833344507379,0.0025023798000991,-0.0099840109671400,-0.0115992890801037,-0.0030553831849666*26ab519e
#CORRIMUDATAA,FILE,0,39.0,FINESTEERING,2319,307709.550,02000000,e5fc,17139;2319,307709.550000000,-0.0006969838414234,-0.0002412511840444,0.0026131221015210,-0.0138862321033359,-0.0094547421009685,-0.0024406373980524*3bbf1600
#CORRIMUDATAA,FILE,0,39.0,FINESTEERING,2319,307709.600,02000000,e5fc,17139;2319,307709.600000000,-0.0002613653932366,-0.0004798624252211,0.0025773592292080,-0.0103239957321324,-0.0123656946702744,-0.0036345470614725*f9e77eb1
#CORRIMUDATAA,FILE,0,39.0,FINESTEERING,2319,307709.650,02000000,e5fc,17139;2319,307709.650000000,-0.0001068599050461,-0.0006227590480184,0.0026368146477081,-0.0076772089348098,-0.0080312482562551,-0.0139533733778252*cfc92320
#CORRIMUDATAA,FILE,0,39.0,FINESTEERING,2319,307709.700,02000000,e5fc,17139;2319,307709.700000000,0.0001624978507036,0.0000674744134193,0.0028065156794713,-0.0039446273523894,-0.0156691809624037,-0.0058481023811730*30e762cc
#CORRIMUDATAA,FILE,0,39.0,FINESTEERING,2319,307709.750,02000000,e5fc,17139;2319,307709.750000000,0.0008223383421223,0.0000279770078522,0.0029036401567258,-0.0076188973931396,-0.0052260794396496,-0.0088845768932371*d8d1a147
#CORRIMUDATAA,FILE,0,39.0,FINESTEERING,2319,307709.800,02000000,e5fc,17139;2319,307709.800000000,0.0005768481389409,0.0007320300673787,0.0031290914866643,0.0052610740104703,-0.0174414305554128,0.0123670476028041*34b4880d
#CORRIMUDATAA,FILE,0,39.0,FINESTEERING,2319,307709.850,02000000,e5fc,17139;2319,307709.850000000,0.0003590635854930,-0.0000453648477881,0.0034603980109770,0.0031112010879258,-0.0074205274199772,0.0046621424648766*854922da
#CORRIMUDATAA,FILE,0,39.0,FINESTEERING,2319,307709.900,02000000,e5fc,17139;2319,307709.900000000,-0.0000687216021265,0.0004957265676344,0.0037412398441443,-0.0167271065554418,-0.0168503397367942,0.0068655983151316*b9762450
#CORRIMUDATAA,FILE,0,39.0,FINESTEERING,2319,307709.950,02000000,e5fc,17139;2319,307709.950000000,0.0003355275709899,0.0008730368225618,0.0036074759664346,-0.0223370080138133,-0.0014516187651844,-0.0102755762046312*037d401e
#CORRIMUDATAA,FILE,0,39.0,FINESTEERING,2319,307710.000,02000000,e5fc,17139;2319,307710.000000000,0.0003050103113943,0.0007592048652163,0.0036644797226617,-0.0056115271744743,-0.0145107854054928,-0.0070103424428157*a8dee951
#CORRIMUDATAA,FILE,0,39.0,FINESTEERING,2319,307710.050,02000000,e5fc,17139;2319,307710.050000000,0.0002958877613450,0.0005160550022058,0.0038276678101668,-0.0037214833962230,-0.0081394675345922,-0.0159872948710221*2b383685
#CORRIMUDATAA,FILE,0,37.0,FINESTEERING,2319,307710.100,02000000,e5fc,17139;2319,307710.100000000,0.0006440139568278,-0.0004771151822651,0.0044174212286269,0.0001074746863245,-0.0134080591055641,-0.0000884227546957*ed77d4d0
#CORRIMUDATAA,FILE,0,37.0,FINESTEERING,2319,307710.150,02000000,e5fc,17139;2319,307710.150000000,0.0006062800415724,-0.0006007822246591,0.0046295270534427,-0.0297825050397205,-0.0081343431032423,-0.0112380476702725*38ac87f8
#CORRIMUDATAA,FILE,0,37.0,FINESTEERING,2319,307710.200,02000000,e5fc,17139;2319,307710.200000000,0.0007550058609002,-0.0000054732319352,0.0046826328454115,-0.0280318952898522,-0.0135191267665786,0.0125216447292529*aaba5b89
#CORRIMUDATAA,FILE,0,37.0,FINESTEERING,2319,307710.250,02000000,e5fc,17139;2319,307710.250000000,0.0006064955025275,0.0000121525465805,0.0047629760855174,-0.0095102474222691,-0.0053576939939935,-0.0034738764452572*bca084f7
#CORRIMUDATAA,FILE,0,37.0,FINESTEERING,2319,307710.300,02000000,e5fc,17139;2319,307710.300000000,0.0002916789709201,-0.0009988950003951,0.0048797927969837,-0.0060862069409306,-0.0151098775156185,0.0093689834426448*1e79aee1
#CORRIMUDATAA,FILE,0,37.0,FINESTEERING,2319,307710.350,02000000,e5fc,17139;2319,307710.350000000,-0.0002528372601784,-0.0015495765812395,0.0052407881033553,-0.0118239832068087,-0.0117283162817551,0.0103952812205748*cb3a7a23
#CORRIMUDATAA,FILE,0,37.0,FINESTEERING,2319,307710.400,02000000,e5fc,17139;2319,307710.400000000,0.0001633875963052,-0.0008656474544006,0.0054039788837941,-0.0168948058213181,-0.0089428677129121,0.0011732793464118*31ea37e3
#CORRIMUDATAA,FILE,0,37.0,FINESTEERING,2319,307710.450,02000000,e5fc,17139;2319,307710.450000000,0.0002591871537136,0.0005178274124549,0.0057712061922851,-0.0079063837523376,-0.0101970911889138,-0.0069877601419472*d693129a
#CORRIMUDATAA,FILE,0,37.0,FINESTEERING,2319,307710.500,02000000,e5fc,17139;2319,307710.500000000,0.0004355144851448,0.0006669552893098,0.0059654088681124,-0.0012438339999598,-0.0115637387304709,0.0014005315042978*2b0baefe
#CORRIMUDATAA,FILE,0,37.0,FINESTEERING,2319,307710.550,02000000,e5fc,17139;2319,307710.550000000,0.0000588726747131,-0.0000765812811093,0.0061301136398388,-0.0104670564271080,-0.0198216578655313,0.0167861069760720*639ac8ad
#CORRIMUDATAA,FILE,0,37.0,FINESTEERING,2319,307710.600,02000000,e5fc,17139;2319,307710.600000000,0.0000835003927214,-0.0003357531439108,0.0062582134390846,-0.0324801455440468,-0.0091431677337518,0.0020820910475041*d2d1fa1b
#CORRIMUDATAA,FILE,0,37.0,FINESTEERING,2319,307710.650,02000000,e5fc,17139;2319,307710.650000000,-0.0000140755556138,0.0007073890974391,0.0062644723813791,-0.0239253856097013,-0.0154605950177499,0.0087935030874247*9853a634
#CORRIMUDATAA,FILE,0,37.0,FINESTEERING,2319,307710.700,02000000,e5fc,17139;2319,307710.700000000,-0.0000726739985354,0.0002009893759304,0.0065788639864460,-0.0064543797898392,-0.0132560951639902,-0.0021874219103621*5847dd29
#CORRIMUDATAA,FILE,0,37.0,FINESTEERING,2319,307710.750,02000000,e5fc,17139;2319,307710.750000000,-0.0001933283710939,-0.0003218661196931,0.0067855803365527,-0.0119202298033078,-0.0164101718335004,0.0085055076191061*a5273555
#CORRIMUDATAA,FILE,0,37.0,FINESTEERING,2319,307710.800,02000000,e5fc,17139;2319,307710.800000000,-0.0003240083745581,-0.0005397507732447,0.0071191140342223,-0.0130038235782568,-0.0203311205839751,-0.0039351345170933*5cac2ee9
#CORRIMUDATAA,FILE,0,37.0,FINESTEERING,2319,307710.850,02000000,e5fc,17139;2319,307710.850000000,0.0001955195601457,-0.0003761052183869,0.0074789971577584,-0.0238000357627641,-0.0149200106264614,0.0003353711275055*5307dae9
#CORRIMUDATAA,FILE,0,37.0,FINESTEERING,2319,307710.900,02000000,e5fc,17139;2319,307710.900000000,-0.0000302363943297,0.0006371220577474,0.0080343573060412,-0.0257296727159278,-0.0162641072292997,-0.0033970114164865*fd43b234
#CORRIMUDATAA,FILE,0,37.0,FINESTEERING,2319,307710.950,02000000,e5fc,17139;2319,307710.950000000,0.0001709222058079,0.0001922468135692,0.0083731512954294,-0.0137587248922795,-0.0163401401797712,-0.0185221296891372*fbe24788
#CORRIMUDATAA,FILE,0,37.0,FINESTEERING,2319,307711.000,02000000,e5fc,17139;2319,307711.000000000,0.0001957488639342,-0.0008067629886175,0.0087436486540237,-0.0177145258194395,-0.0105721148420184,-0.0026326628163289*dd6562c3
#CORRIMUDATAA,FILE,0,37.0,FINESTEERING,2319,307711.050,02000000,e5fc,17139;2319,307711.050000000,0.0000148681104573,-0.0007450481803152,0.0088191830485850,-0.0302840060418576,-0.0156177498522846,-0.0160658106051794*c0868cc7
#CORRIMUDATAA,FILE,0,37.0,FINESTEERING,2319,307711.100,02000000,e5fc,17139;2319,307711.100000000,0.0002012761648901,-0.0002801885988610,0.0090807060378836,-0.0234811669035593,-0.0155065045902063,0.0064174363639325*a6a10b0d
#CORRIMUDATAA,FILE,0,37.0,FINESTEERING,2319,307711.150,02000000,e5fc,17139;2319,307711.150000000,0.0002296135071328,-0.0000502981095734,0.0092558950698363,-0.0169911415726086,-0.0176189521524097,0.0031753487056412*22efa491
#CORRIMUDATAA,FILE,0,37.0,FINESTEERING,2319,307711.200,02000000,e5fc,17139;2319,307711.200000000,-0.0000845787488597,-0.0003028191749500,0.0098218114246935,-0.0072946086981759,-0.0099471231801883,-0.0030826629118147*07d9ce4a
#CORRIMUDATAA,FILE,0,37.0,FINESTEERING,2319,307711.250,02000000,e5fc,17139;2319,307711.250000000,-0.0001474216391876,0.0005165096209394,0.0103692841589046,-0.0193161694223956,-0.0184553923235706,0.0086223644310971*0b252077
#CORRIMUDATAA,FILE,0,37.0,FINESTEERING,2319,307711.300,02000000,e5fc,17139;2319,307711.300000000,-0.0003672822927808,0.0008084631152628,0.0108846721073939,-0.0237049380931930,-0.0137533091016609,0.0092064941503558*3fb99209
#CORRIMUDATAA,FILE,0,37.0,FINESTEERING,2319,307711.350,02000000,e5fc,17139;2319,307711.350000000,-0.0004281041420671,0.0006822095493721,0.0111213172930695,-0.0273369090274380,-0.0116377986473332,-0.0038880556549654*3f870379
#CORRIMUDATAA,FILE,0,37.0,FINESTEERING,2319,307711.400,02000000,e5fc,17139;2319,307711.400000000,-0.0004889044218467,0.0005401549628020,0.0115277209160288,-0.0287652395136859,-0.0188489039506613,-0.0001387056399819*e333e3fe
#CORRIMUDATAA,FILE,0,37.0,FINESTEERING,2319,307711.450,02000000,e5fc,17139;2319,307711.450000000,-0.0003507653016165,0.0004160656551787,0.0118755440282004,-0.0286397975519328,-0.0155356670121376,0.0022360395732454*27ff319e
#CORRIMUDATAA,FILE,0,37.0,FINESTEERING,2319,307711.500,02000000,e5fc,17139;2319,307711.500000000,-0.0005989224543564,0.0001342414782709,0.0123580321940518,-0.0206923963279538,-0.0127143888339111,-0.0009112626549984*6f58be3e
#CORRIMUDATAA,FILE,0,37.0,FINESTEERING,2319,307711.550,02000000,e5fc,17139;2319,307711.550000000,-0.0009316239147032,-0.0007841537371428,0.0127103741444660,-0.0314157958788887,-0.0195394590319509,0.0008552846957932*e96c0792
#CORRIMUDATAA,FILE,0,37.0,FINESTEERING,2319,307711.600,02000000,e5fc,17139;2319,307711.600000000,-0.0010738923551489,-0.0017520096831206,0.0130840101581441,-0.0332381052127366,-0.0197516443500303,0.0103625698249818*f181cc2c
#CORRIMUDATAA,FILE,0,37.0,FINESTEERING,2319,307711.650,02000000,e5fc,17139;2319,307711.650000000,-0.0008315071978232,-0.0022694418027130,0.0133696768442660,-0.0416456574028075,-0.0177653845691408,0.0063873722132791*030884bf
#CORRIMUDATAA,FILE,0,37.0,FINESTEERING,2319,307711.700,02000000,e5fc,17139;2319,307711.700000000,-0.0011558287272251,-0.0020769197751056,0.0134915359316899,-0.0404730395613105,-0.0154019568361459,-0.0079361192022849*688129eb
#CORRIMUDATAA,FILE,0,37.0,FINESTEERING,2319,307711.750,02000000,e5fc,17139;2319,307711.750000000,-0.0009538406418092,-0.0019955659245363,0.0136856243874680,-0.0312340628976457,-0.0145923472730672,0.0080669800162066*d9f5428b
#CORRIMUDATAA,FILE,0,37.0,FINESTEERING,2319,307711.800,02000000,e5fc,17139;2319,307711.800000000,-0.0009925843477877,-0.0021254936398504,0.0136887096448749,-0.0219398176663135,-0.0136702195833672,0.0005436670647270*501b8f65
#CORRIMUDATAA,FILE,0,37.0,FINESTEERING,2319,307711.850,02000000,e5fc,17139;2319,307711.850000000,-0.0009440054450639,-0.0019294525175060,0.0137753211385037,-0.0295515281350370,-0.0124673531196353,-0.0097380999799944*4734a796
#CORRIMUDATAA,FILE,0,37.0,FINESTEERING,2319,307711.900,02000000,e5fc,17139;2319,307711.900000000,-0.0004480621247209,-0.0010635902825443,0.0136060881454070,-0.0307619458442067,-0.0142957335288957,-0.0075963103780555*d7af5754
#CORRIMUDATAA,FILE,0,37.0,FINESTEERING,2319,307711.950,02000000,e5fc,17139;2319,307711.950000000,-0.0000868974359609,-0.0001674572851376,0.0137825398972144,-0.0232491784229578,-0.0158107238869927,-0.0034795451992522*3dab491f
#CORRIMUDATAA,FILE,0,37.0,FINESTEERING,2319,307712.000,02000000,e5fc,17139;2319,307712.000000000,0.0004015310791141,0.0006764254923574,0.0141738986376104,-0.0090308286458808,-0.0127406456855961,-0.0195930058758700*16e34c4d
#CORRIMUDATAA,FILE,0,37.0,FINESTEERING,2319,307712.050,02000000,e5fc,17139;2319,307712.050000000,0.0002061326492900,0.0006691178516237,0.0151517246388154,-0.0086089045660757,-0.0233504012471813,0.0021204425388032*11aeb81c
#CORRIMUDATAA,FILE,0,37.0,FINESTEERING,2319,307712.100,02000000,e5fc,17139;2319,307712.100000000,-0.0003570945305442,-0.0001831032557437,0.0160156635378459,-0.0235767023979275,-0.0167197079278085,0.0034046244388650*d2bc0282
#CORRIMUDATAA,FILE,0,37.5,FINESTEERING,2319,307712.150,02000000,e5fc,17139;2319,307712.150000000,-0.0010493180591276,-0.0011927936578618,0.0163504881238020,-0.0488328267777300,-0.0129708614711255,0.0003949611953862*78acb046
#CORRIMUDATAA,FILE,0,37.5,FINESTEERING,2319,307712.200,02000000,e5fc,17139;2319,307712.200000000,-0.0015553970839614,-0.0014047834780636,0.0163210673722955,-0.0593180387358761,-0.0117894752851180,-0.0027417125459308*8dfba930
#CORRIMUDATAA,FILE,0,37.5,FINESTEERING,2319,307712.250,02000000,e5fc,17139;2319,307712.250000000,-0.0018047571198231,-0.0018523931028336,0.0161634309260517,-0.0418464440424027,-0.0130797705139424,0.0067429530280490*a47cc118
#CORRIMUDATAA,FILE,0,37.5,FINESTEERING,2319,307712.300,02000000,e5fc,17139;2319,307712.300000000,-0.0024272404310771,-0.0031750711635933,0.0163488039823717,-0.0362841018208377,-0.0085466804951099,0.0056590635703073*6f6227cc
#CORRIMUDATAA,FILE,0,37.5,FINESTEERING,2319,307712.350,02000000,e5fc,17139;2319,307712.350000000,-0.0023900357122399,-0.0044249022772709,0.0163555033931131,-0.0391182376797778,-0.0019645503389826,-0.0130730154740028*d52d8cd8
#CORRIMUDATAA,FILE,0,37.5,FINESTEERING,2319,307712.400,02000000,e5fc,17139;2319,307712.400000000,-0.0026076516926975,-0.0044506887927161,0.0164937263520018,-0.0496985264354486,-0.0107657556464585,0.0087257212162422*905510dc
#CORRIMUDATAA,FILE,0,37.5,FINESTEERING,2319,307712.450,02000000,e5fc,17139;2319,307712.450000000,-0.0023360324826026,-0.0047352707380583,0.0164300218334603,-0.0316822638252088,-0.0096168063430898,-0.0007188116461576*b628ee09
#CORRIMUDATAA,FILE,0,37.5,FINESTEERING,2319,307712.500,02000000,e5fc,17139;2319,307712.500000000,-0.0020314600155418,-0.0053927789505400,0.0166372892379177,-0.0242284955505945,-0.0103449869329351,0.0006628444685635*230d034c
#CORRIMUDATAA,FILE,0,37.5,FINESTEERING,2319,307712.550,02000000,e5fc,17139;2319,307712.550000000,-0.0015465827455558,-0.0056654473606188,0.0166482729584249,-0.0250303532314406,-0.0024343138000053,-0.0061578186991065*248b8f15
#CORRIMUDATAA,FILE,0,37.5,FINESTEERING,2319,307712.600,02000000,e5fc,17139;2319,307712.600000000,-0.0013079707151487,-0.0052261406364520,0.0169784983194944,-0.0229243605604742,-0.0088358074501869,0.0129010398759752*4c60bba6
#CORRIMUDATAA,FILE,0,37.5,FINESTEERING,2319,307712.650,02000000,e5fc,17139;2319,307712.650000000,-0.0006674329686454,-0.0036330880627524,0.0169039604746174,-0.0390658586338706,0.0018075503068328,-0.0108684013626432*4adf381b
#CORRIMUDATAA,FILE,0,37.5,FINESTEERING,2319,307712.700,02000000,e5fc,17139;2319,307712.700000000,-0.0009043903059947,-0.0021507032712539,0.0167736314502452,-0.0279313042433184,-0.0112907130086967,0.0132222055482431*c761f529
#CORRIMUDATAA,FILE,0,37.5,FINESTEERING,2319,307712.750,02000000,e5fc,17139;2319,307712.750000000,-0.0006317620518475,-0.0013753758407588,0.0167827239014497,-0.0229883557887196,-0.0017530215371745,-0.0049795588858069*dfc165b5
#CORRIMUDATAA,FILE,0,37.5,FINESTEERING,2319,307712.800,02000000,e5fc,17139;2319,307712.800000000,-0.0011408882075803,-0.0000019295480901,0.0172344325100819,-0.0197594616987670,-0.0007028491062874,-0.0038079446312404*14900def
#CORRIMUDATAA,FILE,0,37.5,FINESTEERING,2319,307712.850,02000000,e5fc,17139;2319,307712.850000000,-0.0016510840005582,0.0012395103148913,0.0177036390412569,-0.0148814631358874,0.0138634816523589,-0.0130206862225111*d1a7388c
#CORRIMUDATAA,FILE,0,37.5,FINESTEERING,2319,307712.900,02000000,e5fc,17139;2319,307712.900000000,-0.0027392392636024,0.0016171298937220,0.0179857175211025,-0.0251761311247105,0.0040825780280843,-0.0048016104222224*821f1432
#CORRIMUDATAA,FILE,0,37.5,FINESTEERING,2319,307712.950,02000000,e5fc,17139;2319,307712.950000000,-0.0033042350862897,0.0014168497764193,0.0180170244657011,-0.0319715720876922,0.0134689937665900,-0.0065743974763579*36b0768f
#CORRIMUDATAA,FILE,0,37.5,FINESTEERING,2319,307713.000,02000000,e5fc,17139;2319,307713.000000000,-0.0044442002022745,0.0008386724359841,0.0178720992675677,-0.0458200448791906,0.0034731364807309,0.0005808715461289*d9a0a413
#CORRIMUDATAA,FILE,0,37.5,FINESTEERING,2319,307713.050,02000000,e5fc,17139;2319,307713.050000000,-0.0044917546864478,0.0006131745589157,0.0178919791254761,-0.0471201168027372,0.0072031649601506,-0.0047540560610172*dbc47139
#CORRIMUDATAA,FILE,0,32.5,FINESTEERING,2319,307713.100,02000000,e5fc,17139;2319,307713.100000000,-0.0046538038071144,-0.0003825264208357,0.0180655546693374,-0.0445692910383200,-0.0027742229570597,0.0141295516929248*7bad7e29
#CORRIMUDATAA,FILE,0,32.5,FINESTEERING,2319,307713.150,02000000,e5fc,17139;2319,307713.150000000,-0.0042999547980511,-0.0016345948999192,0.0183144716424557,-0.0601015948638725,0.0057271630636392,0.0159197984586773*16f48018
#CORRIMUDATAA,FILE,0,32.5,FINESTEERING,2319,307713.200,02000000,e5fc,17139;2319,307713.200000000,-0.0038149899296825,-0.0029605555488845,0.0182660667911435,-0.0514489389268277,0.0121549502887239,-0.0128565190962390*55755ab8
#CORRIMUDATAA,FILE,0,32.5,FINESTEERING,2319,307713.250,02000000,e5fc,17139;2319,307713.250000000,-0.0026421314213916,-0.0048001038738735,0.0183728946425796,-0.0393786349045021,0.0117775225677799,-0.0216524448618727*846d5801
#CORRIMUDATAA,FILE,0,32.5,FINESTEERING,2319,307713.300,02000000,e5fc,17139;2319,307713.300000000,-0.0018313895807764,-0.0054631702475348,0.0188595511987906,-0.0390110069555414,0.0100609273789710,-0.0187573006525983*7a882ee0
#CORRIMUDATAA,FILE,0,32.5,FINESTEERING,2319,307713.350,02000000,e5fc,17139;2319,307713.350000000,-0.0009711644271208,-0.0047693766391913,0.0192828920527305,-0.0401543256274327,0.0138036042239860,-0.0286348849912838*66e1cc6c
#CORRIMUDATAA,FILE,0,32.5,FINESTEERING,2319,307713.400,02000000,e5fc,17139;2319,307713.400000000,-0.0009935639706121,-0.0034765544410200,0.0196989733534311,-0.0222934056873703,0.0062017594981144,0.0018687148662080*6b8d5a1c
#CORRIMUDATAA,FILE,0,32.5,FINESTEERING,2319,307713.450,02000000,e5fc,17139;2319,307713.450000000,-0.0010207072754915,-0.0031591431311552,0.0200516550948163,-0.0146646341404355,0.0173397999627662,0.0037587278370097*4f4a6072
#CORRIMUDATAA,FILE,0,32.5,FINESTEERING,2319,307713.500,02000000,e5fc,17139;2319,307713.500000000,-0.0013988680295395,-0.0022559888167785,0.0199109687851297,-0.0377260138646247,0.0259067205107944,-0.0030948837673632*ba90a5c9
#CORRIMUDATAA,FILE,0,32.5,FINESTEERING,2319,307713.550,02000000,e5fc,17139;2319,307713.550000000,-0.0018327139141647,-0.0016090876524452,0.0191692303896253,-0.0472463129795937,0.0191593341152915,0.0062702213912565*da3bd001
#CORRIMUDATAA,FILE,0,32.5,FINESTEERING,2319,307713.600,02000000,e5fc,17139;2319,307713.600000000,-0.0024156219064730,-0.0013058131077032,0.0186245184089685,-0.0476681594117821,0.0068875426511987,0.0274100144790267*c2de5dff
#CORRIMUDATAA,FILE,0,32.5,FINESTEERING,2319,307713.650,02000000,e5fc,17139;2319,307713.650000000,-0.0029741246386670,-0.0012518110106525,0.0184411137015758,-0.0428893837926246,0.0031771733012119,0.0196199667364192*431a5ddb
#CORRIMUDATAA,FILE,0,32.5,FINESTEERING,2319,307713.700,02000000,e5fc,17139;2319,307713.700000000,-0.0035538717279183,-0.0002206066230383,0.0187605845672436,-0.0306906494038215,0.0027885655820324,0.0074352225572523*2eb44fd5
#CORRIMUDATAA,FILE,0,32.5,FINESTEERING,2319,307713.750,02000000,e5fc,17139;2319,307713.750000000,-0.0024887230033081,0.0002592983159978,0.0192643429227698,-0.0176445714158829,0.0163444534375896,-0.0423671577460878*5496a209
#CORRIMUDATAA,FILE,0,32.5,FINESTEERING,2319,307713.800,02000000,e5fc,17139;2319,307713.800000000,-0.0017213253867830,0.0001780272298735,0.0198132763363456,-0.0138087048829936,0.0221945394483887,-0.0431576528077855*eccb6450
#CORRIMUDATAA,FILE,0,32.5,FINESTEERING,2319,307713.850,02000000,e5fc,17139;2319,307713.850000000,-0.0006947779309274,-0.0003727197319539,0.0199046583251187,-0.0337299053194150,0.0230078102971571,-0.0564761647330658*624eb7db
#CORRIMUDATAA,FILE,0,32.5,FINESTEERING,2319,307713.900,02000000,e5fc,17139;2319,307713.900000000,0.0005306407672304,0.0004700117466977,0.0197062600142575,-0.0451064772580666,0.0148050132557739,-0.0197316449223450*4aad1ef8
#CORRIMUDATAA,FILE,0,32.5,FINESTEERING,2319,307713.950,02000000,e5fc,17139;2319,307713.950000000,0.0011791927648435,-0.0002756701245224,0.0191219844460495,-0.0565626193265429,0.0231929943291143,-0.0223743317643015*1147eff1
#CORRIMUDATAA,FILE,0,32.5,FINESTEERING,2319,307714.000,02000000,e5fc,17139;2319,307714.000000000,0.0007833428899040,-0.0003250028227323,0.0184960696273587,-0.0561032289263298,0.0113567099509944,0.0011020106397154*ee0f055d
#CORRIMUDATAA,FILE,0,32.5,FINESTEERING,2319,307714.050,02000000,e5fc,17139;2319,307714.050000000,0.0013230147063006,-0.0009326363124556,0.0178772310523030,-0.0534418435251301,0.0156426089509944,0.0181133668086321*76390ba8
#CORRIMUDATAA,FILE,0,30.0,FINESTEERING,2319,307714.100,02000000,e5fc,17139;2319,307714.100000000,0.0006858769696418,-0.0000601507097868,0.0175215889428622,-0.0329094237638422,0.0071310178162904,0.0151572042506016*1dd796af
#CORRIMUDATAA,FILE,0,30.0,FINESTEERING,2319,307714.150,02000000,e5fc,17139;2319,307714.150000000,0.0009681354165796,-0.0005149490123466,0.0174826549389948,-0.0191695319925664,0.0120355244463763,0.0076499230961697*99d45313
#CORRIMUDATAA,FILE,0,30.0,FINESTEERING,2319,307714.200,02000000,e5fc,17139;2319,307714.200000000,0.0004118682741240,-0.0003231016045407,0.0172189027281948,-0.0340314053765064,0.0066851546470053,0.0344818676710683*fb2fb843
#CORRIMUDATAA,FILE,0,30.0,FINESTEERING,2319,307714.250,02000000,e5fc,17139;2319,307714.250000000,-0.0005055617859821,-0.0004916104642562,0.0168377288848275,-0.0393073810209881,0.0148899775514176,0.0073838198926395*26536a05
#CORRIMUDATAA,FILE,0,30.0,FINESTEERING,2319,307714.300,02000000,e5fc,17139;2319,307714.300000000,-0.0009019107629131,-0.0004281867213664,0.0160190730430523,-0.0535191242000429,0.0098163920172186,0.0089027257865620*1ab23870
#CORRIMUDATAA,FILE,0,30.0,FINESTEERING,2319,307714.350,02000000,e5fc,17139;2319,307714.350000000,-0.0011825185890061,-0.0004143611062152,0.0154634276830891,-0.0410133169035477,0.0093021845853794,-0.0184550407147192*9c3c5f44
#CORRIMUDATAA,FILE,0,30.0,FINESTEERING,2319,307714.400,02000000,e5fc,17139;2319,307714.400000000,-0.0008339876231389,-0.0002728988401138,0.0151139119483730,-0.0328312344599741,0.0057493591416724,-0.0152419194885324*8faf1501
#CORRIMUDATAA,FILE,0,30.0,FINESTEERING,2319,307714.450,02000000,e5fc,17139;2319,307714.450000000,-0.0007800752981465,-0.0001199690389362,0.0151011966880815,-0.0213317340948963,0.0087476566493768,-0.0128001459037071*ef5d63a2
#CORRIMUDATAA,FILE,0,30.0,FINESTEERING,2319,307714.500,02000000,e5fc,17139;2319,307714.500000000,-0.0006620602053391,-0.0010262729515362,0.0148279298951557,-0.0233417449820592,0.0027764040002825,-0.0146683692394084*564d5a5e
#CORRIMUDATAA,FILE,0,30.0,FINESTEERING,2319,307714.550,02000000,e5fc,17139;2319,307714.550000000,-0.0002194288616395,-0.0011726440077798,0.0145341042143579,-0.0449026458874392,0.0168151338153792,-0.0108043672629854*1ac34a9a
#CORRIMUDATAA,FILE,0,30.0,FINESTEERING,2319,307714.600,02000000,e5fc,17139;2319,307714.600000000,0.0002844566160900,-0.0005088997622917,0.0139758195065000,-0.0408177956979144,0.0106773553462535,-0.0089814160948029*5ad253ff
#CORRIMUDATAA,FILE,0,30.0,FINESTEERING,2319,307714.650,02000000,e5fc,17139;2319,307714.650000000,-0.0001773458343123,0.0002878514506386,0.0134997284846632,-0.0249556166211857,0.0068584404012481,0.0080944152257191*7c920efb
#CORRIMUDATAA,FILE,0,30.0,FINESTEERING,2319,307714.700,02000000,e5fc,17139;2319,307714.700000000,-0.0004476182091511,-0.0001280202000739,0.0129828162018161,-0.0212794316384096,-0.0039342041272214,0.0213337211580910*bd132f60
#CORRIMUDATAA,FILE,0,30.0,FINESTEERING,2319,307714.750,02000000,e5fc,17139;2319,307714.750000000,-0.0005437049884312,-0.0009348562924023,0.0122150174899570,-0.0436171726321443,0.0031335208063243,0.0111610030619141*13a9bd6e
#CORRIMUDATAA,FILE,0,30.0,FINESTEERING,2319,307714.800,02000000,e5fc,17139;2319,307714.800000000,-0.0007206582328469,-0.0008063510235851,0.0115333772890350,-0.0349077726078070,-0.0034953484664318,0.0072334806021017*bdc6f862
#CORRIMUDATAA,FILE,0,30.0,FINESTEERING,2319,307714.850,02000000,e5fc,17139;2319,307714.850000000,-0.0008054093692988,-0.0011654473307539,0.0110480056806849,-0.0298166456822359,-0.0039508276192232,0.0131722757299611*513de4e1
#CORRIMUDATAA,FILE,0,30.0,FINESTEERING,2319,307714.900,02000000,e5fc,17139;2319,307714.900000000,-0.0007797192065981,-0.0015644463337808,0.0104838109749972,-0.0250605223200581,-0.0062070833587840,0.0163572445761442*770c6f7f
#CORRIMUDATAA,FILE,0,30.0,FINESTEERING,2319,307714.950,02000000,e5fc,17139;2319,307714.950000000,-0.0014624787480169,-0.0022197352327441,0.0097534664171292,-0.0289918266925554,-0.0138775304136663,0.0089054961556255*e7f6daff
#CORRIMUDATAA,FILE,0,30.0,FINESTEERING,2319,307715.000,02000000,e5fc,17139;2319,307715.000000000,-0.0009627403754723,-0.0023871355231497,0.0088131485653209,-0.0294436843241323,-0.0018991226309016,-0.0026089695559910*9b8d6d5e
#CORRIMUDATAA,FILE,0,30.0,FINESTEERING,2319,307715.050,02000000,e5fc,17139;2319,307715.050000000,-0.0014465386279367,-0.0018319196276804,0.0079448628752964,-0.0287297921536291,-0.0104140033833603,-0.0014323685842386*30545c8f
#CORRIMUDATAA,FILE,0,30.0,FINESTEERING,2319,307715.100,02000000,e5fc,17139;2319,307715.100000000,-0.0013812847161056,-0.0020179368840019,0.0070276487692100,-0.0177817749916453,-0.0056467609085799,0.0121320217314364*3d57f806
#CORRIMUDATAA,FILE,0,32.5,FINESTEERING,2319,307715.150,02000000,e5fc,17139;2319,307715.150000000,-0.0018427572045320,-0.0015204164767091,0.0064671920724444,-0.0091015194087625,-0.0022177500840153,-0.0285410039148788*005bbb83
#CORRIMUDATAA,FILE,0,32.5,FINESTEERING,2319,307715.200,02000000,e5fc,17139;2319,307715.200000000,-0.0011889715167772,0.0004780118308991,0.0058933623347528,-0.0033985469946807,0.0014832169248922,-0.0168730350127157*0f1fffcb
#CORRIMUDATAA,FILE,0,32.5,FINESTEERING,2319,307715.250,02000000,e5fc,17139;2319,307715.250000000,-0.0013588619350811,0.0012670658269215,0.0052825613700629,-0.0024884560451031,-0.0042674928021553,-0.0371870791274097*69baa6be
#CORRIMUDATAA,FILE,0,32.5,FINESTEERING,2319,307715.300,02000000,e5fc,17139;2319,307715.300000000,-0.0002940601231902,0.0018452800886755,0.0048608372772364,0.0080985902484880,-0.0064224270521979,-0.0017403164442541*a59a1e4f
#CORRIMUDATAA,FILE,0,32.5,FINESTEERING,2319,307715.350,02000000,e5fc,17139;2319,307715.350000000,-0.0011002088193006,0.0014188910012965,0.0046708150478273,-0.0059472569977638,-0.0110237821833490,0.0032334938466325*93f0aeac
#CORRIMUDATAA,FILE,0,32.5,FINESTEERING,2319,307715.400,02000000,e5fc,17139;2319,307715.400000000,-0.0006264600674134,0.0013921555439736,0.0043973463532698,-0.0218671120059322,-0.0056837901155803,0.0225916716913061*6717c9b3
#CORRIMUDATAA,FILE,0,32.5,FINESTEERING,2319,307715.450,02000000,e5fc,17139;2319,307715.450000000,-0.0015918238616029,0.0010050328555470,0.0039461378642187,-0.0312814632561284,-0.0096134458237673,0.0173583757445937*bbea9e72
#CORRIMUDATAA,FILE,0,32.5,FINESTEERING,2319,307715.500,02000000,e5fc,17139;2319,307715.500000000,-0.0010303447173906,0.0002458794838964,0.0035220382972433,-0.0193567883708757,-0.0063280722549208,0.0162214826582358*a085548f
#CORRIMUDATAA,FILE,0,32.5,FINESTEERING,2319,307715.550,02000000,e5fc,17139;2319,307715.550000000,-0.0015174784873290,-0.0008333716589278,0.0032798596044872,-0.0217102861097855,-0.0019120291944409,0.0005007381340055*68b9746c
#CORRIMUDATAA,FILE,0,32.5,FINESTEERING,2319,307715.600,02000000,e5fc,17139;2319,307715.600000000,-0.0007408483576028,-0.0020626465926939,0.0030105117836708,-0.0158246207102733,0.0002169532189316,-0.0301041140374925*33666bd1
#CORRIMUDATAA,FILE,0,32.5,FINESTEERING,2319,307715.650,02000000,e5fc,17139;2319,307715.650000000,-0.0008453576690916,-0.0033601024222795,0.0030520386956120,-0.0067387621058747,-0.0031698499818800,-0.0076246371108641*5888bcb2
#CORRIMUDATAA,FILE,0,32.5,FINESTEERING,2319,307715.700,02000000,e5fc,17139;2319,307715.700000000,-0.0006320708351061,-0.0038431766372794,0.0029784842794788,-0.0078224384422677,-0.0075996635561378,-0.0127662299887088*c47b875c
#CORRIMUDATAA,FILE,0,32.5,FINESTEERING,2319,307715.750,02000000,e5fc,17139;2319,307715.750000000,-0.0003785557096237,-0.0027624046645815,0.0028925811929527,-0.0067148239445070,-0.0022832379998865,-0.0038057686847175*7ee79141
#CORRIMUDATAA,FILE,0,32.5,FINESTEERING,2319,307715.800,02000000,e5fc,17139;2319,307715.800000000,-0.0003797543413677,-0.0027736267369013,0.0020526161058040,-0.0103070368172404,-0.0105359601633576,-0.0098385318623095*32b6efae
#CORRIMUDATAA,FILE,0,32.5,FINESTEERING,2319,307715.850,02000000,e5fc,17139;2319,307715.850000000,-0.0002425011035926,-0.0028453624168266,0.0013184403096550,-0.0031585857997437,-0.0074415272183673,-0.0020907929381386*dd250759
#CORRIMUDATAA,FILE,0,32.5,FINESTEERING,2319,307715.900,02000000,e5fc,17139;2319,307715.900000000,-0.0001348569148298,-0.0019825310640543,0.0007117433288842,-0.0007894701477074,-0.0077850331008563,0.0038639508319234*3d9cd59c
#CORRIMUDATAA,FILE,0,32.5,FINESTEERING,2319,307715.950,02000000,e5fc,17139;2319,307715.950000000,-0.0000165982883310,-0.0004053738243508,0.0001142895698406,-0.0050984084997288,-0.0016168563450188,0.0081202022385148*1880ab84
#CORRIMUDATAA,FILE,0,32.5,FINESTEERING,2319,307716.000,02000000,e5fc,17139;2319,307716.000000000,-0.0008286463244094,-0.0003191644647867,-0.0004711627343925,0.0111330025210720,-0.0081655971678952,0.0224501145682803*06e4156d
#CORRIMUDATAA,FILE,0,32.5,FINESTEERING,2319,307716.050,02000000,e5fc,17139;2319,307716.050000000,-0.0011173834476965,0.0000718583119956,-0.0004854175478706,0.0145750490442732,-0.0067853370113515,0.0037579539670422*3edfc1d1
#CORRIMUDATAA,FILE,0,32.5,FINESTEERING,2319,307716.100,02000000,e5fc,17139;2319,307716.100000000,-0.0011484522831313,0.0013953935175615,-0.0000576779629870,0.0129295662661222,-0.0067524342090691,0.0109743508407274*30968d58
#CORRIMUDATAA,FILE,0,32.5,FINESTEERING,2319,307716.150,02000000,e5fc,17139;2319,307716.150000000,-0.0014605480323431,0.0030841274307796,0.0003159136925524,0.0068119974404501,-0.0023128673057150,0.0055248527899534*7a4855de
#CORRIMUDATAA,FILE,0,32.5,FINESTEERING,2319,307716.200,02000000,e5fc,17139;2319,307716.200000000,-0.0013586512805265,0.0027896120090543,0.0001511566612407,0.0046174069553407,-0.0129357639746845,-0.0141325199355901*071bb25a
#CORRIMUDATAA,FILE,0,32.5,FINESTEERING,2319,307716.250,02000000,e5fc,17139;2319,307716.250000000,-0.0005496916193495,0.0008808491678766,-0.0001262396286381,-0.0033018153329217,-0.0013648897417334,-0.0206010720357999*3c02f2d9
#CORRIMUDATAA,FILE,0,32.5,FINESTEERING,2319,307716.300,02000000,e5fc,17139;2319,307716.300000000,0.0001037999346957,0.0001395718466091,-0.0001668410306594,-0.0053338808938310,-0.0028335688709018,-0.0283001205592285*1de4e523
#CORRIMUDATAA,FILE,0,32.5,FINESTEERING,2319,307716.350,02000000,e5fc,17139;2319,307716.350000000,0.0007520054935956,0.0005752066065971,0.0000718681078448,-0.0058565578196451,-0.0065337880081010,0.0026148916227400*8194e141
#CORRIMUDATAA,FILE,0,32.5,FINESTEERING,2319,307716.400,02000000,e5fc,17139;2319,307716.400000000,0.0006455424373231,0.0006103139102343,0.0002591138757189,-0.0043453593119362,-0.0044472675584680,-0.0106381601779968*1d5bc345
#CORRIMUDATAA,FILE,0,32.5,FINESTEERING,2319,307716.450,02000000,e5fc,17139;2319,307716.450000000,0.0010652912518084,0.0003962800727125,-0.0000551148403790,-0.0059875478102302,-0.0007427384517918,-0.0064775606292614*bc0208ff
#CORRIMUDATAA,FILE,0,32.5,FINESTEERING,2319,307716.500,02000000,e5fc,17139;2319,307716.500000000,0.0006763487018084,-0.0010069408774968,-0.0005709947051980,-0.0095912252877570,-0.0050334151606774,0.0076701300805145*a9160327
#CORRIMUDATAA,FILE,0,32.5,FINESTEERING,2319,307716.550,02000000,e5fc,17139;2319,307716.550000000,0.0005913169732953,-0.0018596585029512,-0.0012891407045236,-0.0202151260864057,0.0042831880145683,-0.0197774629226578*bc7f1002
#CORRIMUDATAA,FILE,0,32.5,FINESTEERING,2319,307716.600,02000000,e5fc,17139;2319,307716.600000000,0.0005635432260235,-0.0013847969611769,-0.0017037485660460,-0.0088208131318931,-0.0013539722187196,0.0050398533473063*fe995ca7
#CORRIMUDATAA,FILE,0,32.5,FINESTEERING,2319,307716.650,02000000,e5fc,17139;2319,307716.650000000,0.0003132472704453,-0.0015595785896744,-0.0020747366541133,0.0021360607475612,-0.0101421489650361,0.0133786577756024*213709ea
#CORRIMUDATAA,FILE,0,32.5,FINESTEERING,2319,307716.700,02000000,e5fc,17139;2319,307716.700000000,-0.0000422401705720,-0.0019923723914815,-0.0021638124560020,0.0199262241978433,-0.0099794937566390,0.0177289086246679*36041663
#CORRIMUDATAA,FILE,0,32.5,FINESTEERING,2319,307716.750,02000000,e5fc,17139;2319,307716.750000000,-0.0000450935582626,-0.0026449001380105,-0.0024183863072091,0.0129253394612270,-0.0061039793289988,-0.0057614504248054*1813bb40
#CORRIMUDATAA,FILE,0,32.5,FINESTEERING,2319,307716.800,02000000,e5fc,17139;2319,307716.800000000,0.0001444715124822,-0.0015867266122705,-0.0029537087642475,-0.0040490520935324,-0.0210541063483346,-0.0013925932428150*eea82b2d
#CORRIMUDATAA,FILE,0,32.5,FINESTEERING,2319,307716.850,02000000,e5fc,17139;2319,307716.850000000,0.0011073073481205,0.0001579230010127,-0.0038765561073105,-0.0048481679728185,-0.0307599495918023,0.0032815644794524*4c0ac279
#CORRIMUDATAA,FILE,0,32.5,FINESTEERING,2319,307716.900,02000000,e5fc,17139;2319,307716.900000000,0.0030543541505987,0.0024779015979241,-0.0046861694286297,0.0145163931096343,-0.0411944974098523,-0.0063929483475554*b9781ba9
#CORRIMUDATAA,FILE,0,32.5,FINESTEERING,2319,307716.950,02000000,e5fc,17139;2319,307716.950000000,0.0051525695512945,0.0027082674695174,-0.0052201377258071,0.0339459096037320,-0.0368307724949173,-0.0055866148405640*07650942
#CORRIMUDATAA,FILE,0,32.5,FINESTEERING,2319,307717.000,02000000,e5fc,17139;2319,307717.000000000,0.0063466134860117,0.0015595653524881,-0.0057841128065069,0.0208251667420513,-0.0284018241376238,-0.0206775844036082*3faa8797
#CORRIMUDATAA,FILE,0,32.5,FINESTEERING,2319,307717.050,02000000,e5fc,17139;2319,307717.050000000,0.0067172550259429,0.0005916839287064,-0.0063776113738287,-0.0087475269246087,-0.0348341103104102,0.0119742689261337*d8b60f4b
#CORRIMUDATAA,FILE,0,32.5,FINESTEERING,2319,307717.100,02000000,e5fc,17139;2319,307717.100000000,0.0058890379894330,-0.0001897938134765,-0.0071387142990371,-0.0168943754870379,-0.0340352560919694,0.0268443987221186*9cf004ec
#CORRIMUDATAA,FILE,0,33.0,FINESTEERING,2319,307717.150,02000000,e5fc,17139;2319,307717.150000000,0.0048516598487937,-0.0004798805045664,-0.0074454861803597,0.0035459002486347,-0.0266490952863915,0.0081102467316266*3e755a7a
#CORRIMUDATAA,FILE,0,33.0,FINESTEERING,2319,307717.200,02000000,e5fc,17139;2319,307717.200000000,0.0034052148316681,-0.0012679019007087,-0.0078192219344240,0.0100337351144084,-0.0219893295543945,-0.0191603165531931*3c8446fd
#CORRIMUDATAA,FILE,0,33.0,FINESTEERING,2319,307717.250,02000000,e5fc,17139;2319,307717.250000000,0.0025196490282289,-0.0020060713566257,-0.0084152748589910,0.0112187828130131,-0.0224583043966525,-0.0150959369704288*bd566290
#CORRIMUDATAA,FILE,0,33.0,FINESTEERING,2319,307717.300,02000000,e5fc,17139;2319,307717.300000000,0.0023609769277359,-0.0026885030782761,-0.0093456550556461,0.0071311652205819,-0.0067520003725437,-0.0201063203260294*d2d53c17
#CORRIMUDATAA,FILE,0,33.0,FINESTEERING,2319,307717.350,02000000,e5fc,17139;2319,307717.350000000,0.0022994838907389,-0.0021104078244098,-0.0104462513917638,0.0018233724674165,-0.0031854684106434,-0.0091815730515690*7e56d705
#CORRIMUDATAA,FILE,0,33.0,FINESTEERING,2319,307717.400,02000000,e5fc,17139;2319,307717.400000000,0.0024913467675885,-0.0008751614564956,-0.0114156043142717,0.0133260483296920,0.0099013986888217,-0.0013092273662040*028d40ad
#CORRIMUDATAA,FILE,0,33.0,FINESTEERING,2319,307717.450,02000000,e5fc,17139;2319,307717.450000000,0.0031190921122243,0.0009622894624462,-0.0117577551398140,0.0387911965677167,0.0126828132196850,-0.0005587404606376*f4810d18
#CORRIMUDATAA,FILE,0,33.0,FINESTEERING,2319,307717.500,02000000,e5fc,17139;2319,307717.500000000,0.0034679760432902,0.0021965657562588,-0.0115661925679791,0.0550668064059061,0.0127202975564518,-0.0011213896225530*61876b23
#CORRIMUDATAA,FILE,0,33.0,FINESTEERING,2319,307717.550,02000000,e5fc,17139;2319,307717.550000000,0.0035728558892458,0.0021731565285775,-0.0115378767235433,0.0426640554208784,-0.0019592527233023,0.0242097218235110*779317e5
#CORRIMUDATAA,FILE,0,33.0,FINESTEERING,2319,307717.600,02000000,e5fc,17139;2319,307717.600000000,0.0033897054528569,0.0011721372043198,-0.0122386117516671,0.0033220051093466,0.0007695485173135,0.0370393774267666*80a366a7
#CORRIMUDATAA,FILE,0,33.0,FINESTEERING,2319,307717.650,02000000,e5fc,17139;2319,307717.650000000,0.0030236748247493,0.0005266814015000,-0.0134377180310020,-0.0130160621487981,0.0076162867470945,0.0233084818887857*6b34d83e
#CORRIMUDATAA,FILE,0,33.0,FINESTEERING,2319,307717.700,02000000,e5fc,17139;2319,307717.700000000,0.0023244798325141,0.0007250781811398,-0.0142721213937721,0.0012961584784786,0.0134164243085380,0.0134045927047383*fe129249
