#INSPVAXA,FILE,0,41.0,FINESTEERING,2319,307702.750,02000800,46eb,17139;INS_SOLUTION_GOOD,INS_RTKFIXED,17.59827951026,78.12268595300,524.6327,-76.2000,-0.0443,-4.3085,-0.0325,1.395643195,-0.656732445,267.963802031,0.0624,0.0616,0.0601,0.0178,0.0175,0.0133,0.0179,0.0179,0.4585,ab000241,0*fa8449a8
#INSPVAXA,FILE,0,41.0,FINESTEERING,2319,307702.850,02000800,46eb,17139;INS_SOLUTION_GOOD,INS_RTKFIXED,17.59827947709,78.12268187475,524.6283,-76.2000,-0.0362,-4.2908,-0.0444,1.350037838,-0.673411357,268.067301593,0.0624,0.0616,0.0601,0.0178,0.0175,0.0133,0.0179,0.0179,0.4585,ab000241,0*ad2ff53e
#INSPVAXA,FILE,0,41.0,FINESTEERING,2319,307702.950,02000800,46eb,17139;INS_SOLUTION_GOOD,INS_RTKFIXED,17.59827944329,78.12267781248,524.6266,-76.2000,-0.0524,-4.2789,-0.0074,1.223478103,-0.665103281,268.195065173,0.0624,0.0616,0.0601,0.0178,0.0175,0.0133,0.0179,0.0179,0.4585,ab000241,0*28aaee26
#INSPVAXA,FILE,0,41.0,FINESTEERING,2319,307703.050,02000800,46eb,17139;INS_SOLUTION_GOOD,INS_RTKFIXED,17.59827941888,78.12267376503,524.6276,-76.2000,-0.0289,-4.2629,0.0091,1.205869806,-0.652684931,268.364264281,0.0625,0.0615,0.0604,0.0176,0.0173,0.0133,0.0180,0.0180,0.4586,ab000241,0*37204f85
#INSPVAXA,FILE,0,40.0,FINESTEERING,2319,307703.100,02000800,46eb,17139;INS_SOLUTION_GOOD,INS_RTKFIXED,17.59827942140,78.12267174662,524.6277,-76.2000,-0.0160,-4.2482,-0.0059,1.175437845,-0.630927060,268.440835261,0.0625,0.0615,0.0604,0.0176,0.0173,0.0133,0.0180,0.0180,0.4586,ab000241,0*edb68f66
#INSPVAXA,FILE,0,40.0,FINESTEERING,2319,307703.200,02000800,46eb,17139;INS_SOLUTION_GOOD,INS_RTKFIXED,17.59827943792,78.12266772126,524.6270,-76.2000,-0.0024,-4.2342,-0.0254,1.145800861,-0.511758071,268.565462565,0.0625,0.0615,0.0604,0.0176,0.0173,0.0133,0.0180,0.0180,0.4586,ab000241,0*dc3df9a2
#INSPVAXA,FILE,0,40.0,FINESTEERING,2319,307703.300,02000800,46eb,17139;INS_SOLUTION_GOOD,INS_RTKFIXED,17.59827946745,78.12266370726,524.6228,-76.2000,0.0177,-4.2249,-0.0587,1.286026727,-0.381901791,268.685687511,0.0625,0.0615,0.0604,0.0176,0.0173,0.0133,0.0180,0.0180,0.4586,ab000241,0*17069544
#INSPVAXA,FILE,0,40.0,FINESTEERING,2319,307703.400,02000800,46eb,17139;INS_SOLUTION_GOOD,INS_RTKFIXED,17.59827950213,78.12265970780,524.6177,-76.2000,0.0016,-4.2032,-0.0270,1.338905636,-0.362653801,268.829698146,0.0625,0.0615,0.0604,0.0176,0.0173,0.0133,0.0180,0.0180,0.4586,ab000241,0*c637905c
#INSPVAXA,FILE,0,40.0,FINESTEERING,2319,307703.500,02000800,46eb,17139;INS_SOLUTION_GOOD,INS_RTKFIXED,17.59827953098,78.12265572679,524.6154,-76.2000,0.0229,-4.1809,-0.0184,1.432807463,-0.422213094,268.970443924,0.0625,0.0615,0.0604,0.0176,0.0173,0.0133,0.0180,0.0180,0.4586,ab000241,0*b6fcfd8e
#INSPVAXA,FILE,0,40.0,FINESTEERING,2319,307703.600,02000800,46eb,17139;INS_SOLUTION_GOOD,INS_RTKFIXED,17.59827958662,78.12265176890,524.6194,-76.2000,0.0366,-4.1615,0.0555,1.377987712,-0.566389365,269.040761342,0.0625,0.0615,0.0604,0.0176,0.0173,0.0133,0.0180,0.0180,0.4586,ab000241,0*c0691568
#INSPVAXA,FILE,0,40.0,FINESTEERING,2319,307703.700,02000800,46eb,17139;INS_SOLUTION_GOOD,INS_RTKFIXED,17.59827964044,78.12264783043,524.6256,-76.2000,0.0281,-4.1407,0.0649,1.352965120,-0.691046625,269.110658014,0.0625,0.0615,0.0604,0.0176,0.0173,0.0133,0.0180,0.0180,0.4586,ab000241,0*437d003e
#INSPVAXA,FILE,0,40.0,FINESTEERING,2319,307703.800,02000800,46eb,17139;INS_SOLUTION_GOOD,INS_RTKFIXED,17.59827969887,78.12264390917,524.6306,-76.2000,0.0449,-4.1223,0.0319,1.396253637,-0.835770699,269.191824706,0.0625,0.0615,0.0604,0.0176,0.0173,0.0133,0.0180,0.0180,0.4586,ab000241,0*27dfca21
#INSPVAXA,FILE,0,40.0,FINESTEERING,2319,307703.900,02000800,46eb,17139;INS_SOLUTION_GOOD,INS_RTKFIXED,17.59827976710,78.12264000186,524.6303,-76.2000,0.0684,-4.1145,-0.0483,1.488376863,-0.832680070,269.266890568,0.0625,0.0615,0.0604,0.0176,0.0173,0.0133,0.0180,0.0180,0.4586,ab000241,0*aa732505
#INSPVAXA,FILE,0,40.0,FINESTEERING,2319,307704.000,02000800,46eb,17139;INS_SOLUTION_GOOD,INS_RTKFIXED,17.59827984744,78.12263611034,524.6231,-76.2000,0.0645,-4.0911,-0.1035,1.498416388,-0.701031552,269.327164310,0.0625,0.0615,0.0604,0.0176,0.0173,0.0133,0.0180,0.0180,0.4586,ab000241,0*5828ca49
#INSPVAXA,FILE,0,40.0,FINESTEERING,2319,307704.050,02000800,46eb,17139;INS_SOLUTION_GOOD,INS_RTKFIXED,17.59827988474,78.12263417118,524.6197,-76.2000,0.0559,-4.0935,-0.0728,1.510073624,-0.587610994,269.358164090,0.0626,0.0615,0.0607,0.0174,0.0172,0.0134,0.0181,0.0181,0.4588,ab000241,0*70e2a5f7
#INSPVAXA,FILE,0,40.0,FINESTEERING,2319,307704.150,02000800,46eb,17139;INS_SOLUTION_GOOD,INS_RTKFIXED,17.59827996329,78.12263031304,524.6147,-76.2000,0.0706,-4.0623,-0.0087,1.504899284,-0.441788401,269.394272073,0.0626,0.0615,0.0607,0.0174,0.0172,0.0134,0.0181,0.0181,0.4588,ab000241,0*d5fb08da
#INSPVAXA,FILE,0,40.5,FINESTEERING,2319,307704.250,02000800,46eb,17139;INS_SOLUTION_GOOD,INS_RTKFIXED,17.59828003126,78.12262647952,524.6163,-76.2000,0.0407,-4.0354,0.0344,1.377821229,-0.456744271,269.470130798,0.0626,0.0615,0.0607,0.0174,0.0172,0.0134,0.0181,0.0181,0.4588,ab000241,0*2dca6bb4
#INSPVAXA,FILE,0,40.5,FINESTEERING,2319,307704.350,02000800,46eb,17139;INS_SOLUTION_GOOD,INS_RTKFIXED,17.59828010023,78.12262266637,524.6194,-76.2000,0.0681,-4.0171,0.0308,1.351582881,-0.530764688,269.547415228,0.0626,0.0615,0.0607,0.0174,0.0172,0.0134,0.0181,0.0181,0.4588,ab000241,0*7f266be1
#INSPVAXA,FILE,0,40.5,FINESTEERING,2319,307704.450,02000800,46eb,17139;INS_SOLUTION_GOOD,INS_RTKFIXED,17.59828018813,78.12261887212,524.6184,-76.2000,0.0839,-3.9934,-0.0205,1.376009083,-0.483256413,269.566643749,0.0626,0.0615,0.0607,0.0174,0.0172,0.0134,0.0181,0.0181,0.4588,ab000241,0*968e3f0b
#INSPVAXA,FILE,0,40.5,FINESTEERING,2319,307704.550,02000800,46eb,17139;INS_SOLUTION_GOOD,INS_RTKFIXED,17.59828027998,78.12261509040,524.6137,-76.2000,0.0930,-3.9837,-0.0565,1.502996848,-0.376101180,269.609208148,0.0626,0.0615,0.0607,0.0174,0.0172,0.0134,0.0181,0.0181,0.4588,ab000241,0*6e74c10a
#INSPVAXA,FILE,0,40.5,FINESTEERING,2319,307704.650,02000800,46eb,17139;INS_SOLUTION_GOOD,INS_RTKFIXED,17.59828037534,78.12261133488,524.6119,-76.2000,0.0910,-3.9490,0.0060,1.560038879,-0.393234958,269.637110931,0.0626,0.0615,0.0607,0.0174,0.0172,0.0134,0.0181,0.0181,0.4588,ab000241,0*aba07b24
#INSPVAXA,FILE,0,40.5,FINESTEERING,2319,307704.750,02000800,46eb,17139;INS_SOLUTION_GOOD,INS_RTKFIXED,17.59828045612,78.12260760476,524.6155,-76.2000,0.0666,-3.9247,0.0630,1.529379184,-0.573801761,269.660434731,0.0626,0.0615,0.0607,0.0174,0.0172,0.0134,0.0181,0.0181,0.4588,ab000241,0*78ca9d1f
#INSPVAXA,FILE,0,40.5,FINESTEERING,2319,307704.850,02000800,46eb,17139;INS_SOLUTION_GOOD,INS_RTKFIXED,17.59828053343,78.12260389520,524.6204,-76.2000,0.0770,-3.9069,0.0179,1.443965818,-0.764070991,269.696586193,0.0626,0.0615,0.0607,0.0174,0.0172,0.0134,0.0181,0.0181,0.4588,ab000241,0*6d23a0e6
#INSPVAXA,FILE,0,40.5,FINESTEERING,2319,307704.950,02000800,46eb,17139;INS_SOLUTION_GOOD,INS_RTKFIXED,17.59828061937,78.12260020311,524.6229,-76.2000,0.0805,-3.8894,0.0019,1.379787018,-0.855236869,269.662406050,0.0626,0.0615,0.0607,0.0174,0.0172,0.0134,0.0181,0.0181,0.4588,ab000241,0*076b765b
#INSPVAXA,FILE,0,40.5,FINESTEERING,2319,307705.000,02000800,46eb,17139;INS_SOLUTION_GOOD,INS_RTKFIXED,17.59828066483,78.12259836422,524.6225,-76.2000,0.0896,-3.8771,-0.0208,1.426586394,-0.889079177,269.623530184,0.0626,0.0615,0.0607,0.0174,0.0172,0.0134,0.0181,0.0181,0.4588,ab000241,0*d6012c74
#INSPVAXA,FILE,0,40.5,FINESTEERING,2319,307705.100,02000800,46eb,17139;INS_SOLUTION_GOOD,INS_RTKFIXED,17.59828076029,78.12259470091,524.6215,-76.2000,0.1009,-3.8544,-0.0248,1.471265884,-0.851624088,269.500424801,0.0624,0.0614,0.0610,0.0174,0.0172,0.0134,0.0182,0.0183,0.4589,ab000241,0*9528d5de
#INSPVAXA,FILE,0,42.5,FINESTEERING,2319,307705.200,02000800,46eb,17139;INS_SOLUTION_GOOD,INS_RTKFIXED,17.59828084616,78.12259105551,524.6188,-76.2000,0.0658,-3.8377,-0.0276,1.560272067,-0.759988470,269.394089407,0.0624,0.0614,0.0610,0.0174,0.0172,0.0134,0.0182,0.0183,0.4589,ab000241,0*5f9eb4b4
#INSPVAXA,FILE,0,42.5,FINESTEERING,2319,307705.300,02000800,46eb,17139;INS_SOLUTION_GOOD,INS_RTKFIXED,17.59828090841,78.12258742854,524.6159,-76.2000,0.0596,-3.8168,-0.0243,1.667818426,-0.708422752,269.334161542,0.0624,0.0614,0.0610,0.0174,0.0172,0.0134,0.0182,0.0183,0.4589,ab000241,0*4b05df48
#INSPVAXA,FILE,0,42.5,FINESTEERING,2319,307705.400,02000800,46eb,17139;INS_SOLUTION_GOOD,INS_RTKFIXED,17.59828097556,78.12258382135,524.6119,-76.2000,0.0675,-3.7915,-0.0510,1.634620455,-0.634816130,269.216455304,0.0624,0.0614,0.0610,0.0174,0.0172,0.0134,0.0182,0.0183,0.4589,ab000241,0*fa36bdec
#INSPVAXA,FILE,0,42.5,FINESTEERING,2319,307705.500,02000800,46eb,17139;INS_SOLUTION_GOOD,INS_RTKFIXED,17.59828104252,78.12258023836,524.6103,-76.2000,0.0577,-3.7738,-0.0058,1.598708128,-0.599445371,269.051256708,0.0624,0.0614,0.0610,0.0174,0.0172,0.0134,0.0182,0.0183,0.4589,ab000241,0*5c6815b1
#INSPVAXA,FILE,0,42.5,FINESTEERING,2319,307705.600,02000800,46eb,17139;INS_SOLUTION_GOOD,INS_RTKFIXED,17.59828109401,78.12257667418,524.6077,-76.2000,0.0311,-3.7446,-0.0198,1.613311807,-0.618064520,268.928489686,0.0624,0.0614,0.0610,0.0174,0.0172,0.0134,0.0182,0.0183,0.4589,ab000241,0*205548f9
#INSPVAXA,FILE,0,42.5,FINESTEERING,2319,307705.700,02000800,46eb,17139;INS_SOLUTION_GOOD,INS_RTKFIXED,17.59828112736,78.12257313349,524.6065,-76.2000,0.0195,-3.7213,-0.0116,1.596730510,-0.533552447,268.898999552,0.0624,0.0614,0.0610,0.0174,0.0172,0.0134,0.0182,0.0183,0.4589,ab000241,0*8e6c3e7a
#INSPVAXA,FILE,0,42.5,FINESTEERING,2319,307705.750,02000800,46eb,17139;INS_SOLUTION_GOOD,INS_RTKFIXED,17.59828114221,78.12257137173,524.6060,-76.2000,0.0309,-3.7004,-0.0094,1.582328029,-0.558410381,268.893109911,0.0624,0.0614,0.0610,0.0174,0.0172,0.0134,0.0182,0.0183,0.4589,ab000241,0*e9d18a90
#INSPVAXA,FILE,0,42.5,FINESTEERING,2319,307705.850,02000800,46eb,17139;INS_SOLUTION_GOOD,INS_RTKFIXED,17.59828117827,78.12256786929,524.6071,-76.2000,0.0323,-3.6882,0.0159,1.510441489,-0.482622343,268.823366247,0.0624,0.0614,0.0610,0.0174,0.0172,0.0134,0.0182,0.0183,0.4589,ab000241,0*1abbf062
#INSPVAXA,FILE,0,42.5,FINESTEERING,2319,307706.000,02000800,46eb,17139;INS_SOLUTION_GOOD,INS_RTKFIXED,17.59828122784,78.12256265989,524.6072,-76.2000,0.0122,-3.6499,-0.0218,1.461697631,-0.476659397,268.711303272,0.0624,0.0614,0.0610,0.0174,0.0172,0.0134,0.0182,0.0183,0.4589,ab000241,0*5624981c
#INSPVAXA,FILE,0,41.0,FINESTEERING,2319,307706.100,02000800,46eb,17139;INS_SOLUTION_GOOD,INS_RTKFIXED,17.59828124156,78.12255922319,524.6059,-76.2000,0.0151,-3.6213,-0.0080,1.524484342,-0.455262094,268.681606420,0.0623,0.0612,0.0612,0.0173,0.0172,0.0132,0.0184,0.0184,0.4590,ab000241,0*ffc47375
#INSPVAXA,FILE,0,41.0,FINESTEERING,2319,307706.150,02000800,46eb,17139;INS_SOLUTION_GOOD,INS_RTKFIXED,17.59828124318,78.12255751692,524.6052,-76.2000,0.0159,-3.5971,-0.0024,1.674565372,-0.466760242,268.665833334,0.0623,0.0612,0.0612,0.0173,0.0172,0.0132,0.0184,0.0184,0.4590,ab000241,0*1cee2a47
#INSPVAXA,FILE,0,41.0,FINESTEERING,2319,307706.250,02000800,46eb,17139;INS_SOLUTION_GOOD,INS_RTKFIXED,17.59828125478,78.12255412136,524.6047,-76.2000,0.0256,-3.5726,-0.0216,1.732863398,-0.431626937,268.633550900,0.0623,0.0612,0.0612,0.0173,0.0172,0.0132,0.0184,0.0184,0.4590,ab000241,0*c446d922
#INSPVAXA,FILE,0,41.0,FINESTEERING,2319,307706.300,02000800,46eb,17139;INS_SOLUTION_GOOD,INS_RTKFIXED,17.59828126423,78.12255243553,524.6056,-76.2000,0.0292,-3.5597,0.0188,1.785972438,-0.469642068,268.597852226,0.0623,0.0612,0.0612,0.0173,0.0172,0.0132,0.0184,0.0184,0.4590,ab000241,0*846ecc16
#INSPVAXA,FILE,0,41.0,FINESTEERING,2319,307706.350,02000800,46eb,17139;INS_SOLUTION_GOOD,INS_RTKFIXED,17.59828127223,78.12255075616,524.6070,-76.2000,0.0225,-3.5459,0.0219,1.795837684,-0.491780123,268.562868804,0.0623,0.0612,0.0612,0.0173,0.0172,0.0132,0.0184,0.0184,0.4590,ab000241,0*09e20f62
#INSPVAXA,FILE,0,41.0,FINESTEERING,2319,307706.400,02000800,46eb,17139;INS_SOLUTION_GOOD,INS_RTKFIXED,17.59828127567,78.12254908271,524.6084,-76.2000,0.0100,-3.5318,0.0163,1.771243386,-0.551197085,268.539186484,0.0623,0.0612,0.0612,0.0173,0.0172,0.0132,0.0184,0.0184,0.4590,ab000241,0*5d0dcf22
#INSPVAXA,FILE,0,41.0,FINESTEERING,2319,307706.450,02000800,46eb,17139;INS_SOLUTION_GOOD,INS_RTKFIXED,17.59828127681,78.12254741999,524.6105,-76.2000,0.0068,-3.5109,0.0518,1.779180869,-0.605673601,268.524000947,0.0623,0.0612,0.0612,0.0173,0.0172,0.0132,0.0184,0.0184,0.4590,ab000241,0*807b1b32
#INSPVAXA,FILE,0,41.0,FINESTEERING,2319,307706.500,02000800,46eb,17139;INS_SOLUTION_GOOD,INS_RTKFIXED,17.59828127453,78.12254576027,524.6122,-76.2000,0.0015,-3.5047,0.0162,1.660949836,-0.636281406,268.521276381,0.0623,0.0612,0.0612,0.0173,0.0172,0.0132,0.0184,0.0184,0.4590,ab000241,0*d28fd10b
#INSPVAXA,FILE,0,41.0,FINESTEERING,2319,307706.550,02000800,46eb,17139;INS_SOLUTION_GOOD,INS_RTKFIXED,17.59828126571,78.12254410612,524.6134,-76.2000,-0.0164,-3.4966,0.0233,1.685343125,-0.649209783,268.524419508,0.0623,0.0612,0.0612,0.0173,0.0172,0.0132,0.0184,0.0184,0.4590,ab000241,0*39f70caa
#INSPVAXA,FILE,0,41.0,FINESTEERING,2319,307706.600,02000800,46eb,17139;INS_SOLUTION_GOOD,INS_RTKFIXED,17.59828125796,78.12254245477,524.6139,-76.2000,-0.0008,-3.4841,-0.0205,1.672890912,-0.671978392,268.526112426,0.0623,0.0612,0.0612,0.0173,0.0172,0.0132,0.0184,0.0184,0.4590,ab000241,0*9883b807
#INSPVAXA,FILE,0,41.0,FINESTEERING,2319,307706.650,02000800,46eb,17139;INS_SOLUTION_GOOD,INS_RTKFIXED,17.59828125577,78.12254081024,524.6140,-76.2000,0.0080,-3.4747,-0.0029,1.674611825,-0.632069493,268.513891635,0.0623,0.0612,0.0612,0.0173,0.0172,0.0132,0.0184,0.0184,0.4590,ab000241,0*cec1529f
#INSPVAXA,FILE,0,41.0,FINESTEERING,2319,307706.700,02000000,46eb,17139;INS_SOLUTION_GOOD,INS_RTKFIXED,17.59828125670,78.12253917140,524.6137,-76.2000,0.0100,-3.4630,-0.0239,1.624899241,-0.631823013,268.500862623,0.0623,0.0612,0.0612,0.0173,0.0172,0.0132,0.0184,0.0184,0.4590,ab000241,0*9cf94716
#INSPVAXA,FILE,0,41.0,FINESTEERING,2319,307706.750,02000000,46eb,17139;INS_SOLUTION_GOOD,INS_RTKFIXED,17.59828125351,78.12253753705,524.6127,-76.2000,-0.0085,-3.4516,-0.0197,1.645987654,-0.592326944,268.488421558,0.0623,0.0612,0.0612,0.0173,0.0172,0.0132,0.0184,0.0184,0.4590,ab000241,0*aa78385d
#INSPVAXA,FILE,0,41.0,FINESTEERING,2319,307706.800,02000000,46eb,17139;INS_SOLUTION_GOOD,INS_RTKFIXED,17.59828125248,78.12253590617,524.6119,-76.2000,0.0120,-3.4396,-0.0268,1.674434949,-0.580147004,268.478266708,0.0623,0.0612,0.0612,0.0173,0.0172,0.0132,0.0184,0.0184,0.4590,ab000241,0*a785b286
#INSPVAXA,FILE,0,41.0,FINESTEERING,2319,307706.850,02000000,46eb,17139;INS_SOLUTION_GOOD,INS_RTKFIXED,17.59828125570,78.12253428253,524.6114,-76.2000,0.0149,-3.4237,0.0010,1.713392087,-0.590943607,268.444832499,0.0623,0.0612,0.0612,0.0173,0.0172,0.0132,0.0184,0.0184,0.4590,ab000241,0*2ddee81c
#INSPVAXA,FILE,0,41.0,FINESTEERING,2319,307706.900,02000000,46eb,17139;INS_SOLUTION_GOOD,INS_RTKFIXED,17.59828125623,78.12253266405,524.6114,-76.2000,0.0056,-3.4159,-0.0237,1.720402813,-0.593792840,268.435285329,0.0623,0.0612,0.0612,0.0173,0.0172,0.0132,0.0184,0.0184,0.4590,ab000241,0*836b5a04
#INSPVAXA,FILE,0,41.0,FINESTEERING,2319,307706.950,02000000,46eb,17139;INS_SOLUTION_GOOD,INS_RTKFIXED,17.59828125702,78.12253105414,524.6120,-76.2000,-0.0000,-3.4016,0.0277,1.793320019,-0.659203390,268.418494181,0.0623,0.0612,0.0612,0.0173,0.0172,0.0132,0.0184,0.0184,0.4590,ab000241,0*7ba41531
#INSPVAXA,FILE,0,41.0,FINESTEERING,2319,307707.000,02000000,46eb,17139;INS_SOLUTION_GOOD,INS_RTKFIXED,17.59828125543,78.12252945040,524.6130,-76.2000,-0.0080,-3.3903,0.0141,1.746011753,-0.709375605,268.409278225,0.0623,0.0612,0.0612,0.0173,0.0172,0.0132,0.0184,0.0184,0.4590,ab000241,0*9dc01872
#INSPVAXA,FILE,0,41.0,FINESTEERING,2319,307707.050,02000000,46eb,17139;INS_SOLUTION_GOOD,INS_RTKFIXED,17.59828125678,78.12252785022,524.6138,-76.2000,-0.0101,-3.3821,0.0228,1.839134795,-0.784356650,268.393385366,0.0622,0.0611,0.0614,0.0175,0.0173,0.0133,0.0185,0.0185,0.4592,ab000241,0*51e16219
#INSPVAXA,FILE,0,37.5,FINESTEERING,2319,307707.100,02000000,46eb,17139;INS_SOLUTION_GOOD,INS_RTKFIXED,17.59828126327,78.12252625529,524.6133,-76.2000,0.0065,-3.3616,-0.0084,1.921922131,-0.800701680,268.382785165,0.0622,0.0611,0.0614,0.0175,0.0173,0.0133,0.0185,0.0185,0.4592,ab000241,0*9ecb5da2
#INSPVAXA,FILE,0,37.5,FINESTEERING,2319,307707.150,02000000,46eb,17139;INS_SOLUTION_GOOD,INS_RTKFIXED,17.59828127119,78.12252466951,524.6137,-76.2000,0.0022,-3.3423,0.0275,1.911356730,-0.809029375,268.371497196,0.0622,0.0611,0.0614,0.0175,0.0173,0.0133,0.0185,0.0185,0.4592,ab000241,0*001a53d5
#INSPVAXA,FILE,0,37.5,FINESTEERING,2319,307707.200,02000000,46eb,17139;INS_SOLUTION_GOOD,INS_RTKFIXED,17.59828127652,78.12252309021,524.6140,-76.2000,-0.0101,-3.3293,-0.0108,1.879575903,-0.829485678,268.368770573,0.0622,0.0611,0.0614,0.0175,0.0173,0.0133,0.0185,0.0185,0.4592,ab000241,0*c17b528a
#INSPVAXA,FILE,0,37.5,FINESTEERING,2319,307707.250,02000000,46eb,17139;INS_SOLUTION_GOOD,INS_RTKFIXED,17.59828128031,78.12252151762,524.6139,-76.2000,-0.0063,-3.3112,0.0019,1.906099356,-0.821325146,268.361648710,0.0622,0.0611,0.0614,0.0175,0.0173,0.0133,0.0185,0.0185,0.4592,ab000241,0*cbb8534f
#INSPVAXA,FILE,0,37.5,FINESTEERING,2319,307707.300,02000000,46eb,17139;INS_SOLUTION_GOOD,INS_RTKFIXED,17.59828128371,78.12251995035,524.6131,-76.2000,-0.0089,-3.3014,-0.0245,1.894764508,-0.773358733,268.351089972,0.0622,0.0611,0.0614,0.0175,0.0173,0.0133,0.0185,0.0185,0.4592,ab000241,0*53c68169
#INSPVAXA,FILE,0,37.5,FINESTEERING,2319,307707.350,02000000,46eb,17139;INS_SOLUTION_GOOD,INS_RTKFIXED,17.59828128783,78.12251839297,524.6125,-76.2000,-0.0035,-3.2754,-0.0056,1.865014184,-0.752073148,268.330771296,0.0622,0.0611,0.0614,0.0175,0.0173,0.0133,0.0185,0.0185,0.4592,ab000241,0*2c76c46f
#INSPVAXA,FILE,0,37.5,FINESTEERING,2319,307707.400,02000000,46eb,17139;INS_SOLUTION_GOOD,INS_RTKFIXED,17.59828128976,78.12251684169,524.6127,-76.2000,-0.0107,-3.2700,-0.0092,1.794206135,-0.720743888,268.323008830,0.0622,0.0611,0.0614,0.0175,0.0173,0.0133,0.0185,0.0185,0.4592,ab000241,0*c50270d1
#INSPVAXA,FILE,0,37.5,FINESTEERING,2319,307707.450,02000000,46eb,17139;INS_SOLUTION_GOOD,INS_RTKFIXED,17.59828128900,78.12251529832,524.6130,-76.2000,-0.0148,-3.2604,0.0070,1.796997650,-0.693147557,268.313719154,0.0622,0.0611,0.0614,0.0175,0.0173,0.0133,0.0185,0.0185,0.4592,ab000241,0*8141ee1c
#INSPVAXA,FILE,0,37.5,FINESTEERING,2319,307707.500,02000000,46eb,17139;INS_SOLUTION_GOOD,INS_RTKFIXED,17.59828128710,78.12251375817,524.6129,-76.2000,-0.0107,-3.2499,-0.0066,1.839622699,-0.706039041,268.310520767,0.0622,0.0611,0.0614,0.0175,0.0173,0.0133,0.0185,0.0185,0.4592,ab000241,0*ae6e0a4a
#INSPVAXA,FILE,0,37.5,FINESTEERING,2319,307707.550,02000000,46eb,17139;INS_SOLUTION_GOOD,INS_RTKFIXED,17.59828128872,78.12251222352,524.6122,-76.2000,-0.0016,-3.2360,-0.0153,1.825995092,-0.691283930,268.308090267,0.0622,0.0611,0.0614,0.0175,0.0173,0.0133,0.0185,0.0185,0.4592,ab000241,0*3b99757e
#INSPVAXA,FILE,0,37.5,FINESTEERING,2319,307707.600,02000000,46eb,17139;INS_SOLUTION_GOOD,INS_RTKFIXED,17.59828129198,78.12251069313,524.6111,-76.2000,-0.0086,-3.2283,-0.0263,1.809965966,-0.666164466,268.299068515,0.0622,0.0611,0.0614,0.0175,0.0173,0.0133,0.0185,0.0185,0.4592,ab000241,0*19e904ee
#INSPVAXA,FILE,0,37.5,FINESTEERING,2319,307707.650,02000000,46eb,17139;INS_SOLUTION_GOOD,INS_RTKFIXED,17.59828129447,78.12250916746,524.6102,-76.2000,-0.0066,-3.2221,-0.0215,1.831929213,-0.631053423,268.293514830,0.0622,0.0611,0.0614,0.0175,0.0173,0.0133,0.0185,0.0185,0.4592,ab000241,0*8dc8fea4
#INSPVAXA,FILE,0,37.5,FINESTEERING,2319,307707.700,02000000,46eb,17139;INS_SOLUTION_GOOD,INS_RTKFIXED,17.59828129746,78.12250764418,524.6083,-76.2000,-0.0080,-3.2179,-0.0493,1.873198550,-0.597651514,268.281539334,0.0622,0.0611,0.0614,0.0175,0.0173,0.0133,0.0185,0.0185,0.4592,ab000241,0*f50572ee
#INSPVAXA,FILE,0,37.5,FINESTEERING,2319,307707.750,02000000,46eb,17139;INS_SOLUTION_GOOD,INS_RTKFIXED,17.59828129789,78.12250612765,524.6061,-76.2000,-0.0148,-3.2024,-0.0290,1.907820390,-0.565611577,268.277076545,0.0622,0.0611,0.0614,0.0175,0.0173,0.0133,0.0185,0.0185,0.4592,ab000241,0*5a02151d
#INSPVAXA,FILE,0,37.5,FINESTEERING,2319,307707.800,02000000,46eb,17139;INS_SOLUTION_GOOD,INS_RTKFIXED,17.59828129845,78.12250461499,524.6042,-76.2000,-0.0049,-3.1877,-0.0309,1.927761618,-0.552157486,268.266042439,0.0622,0.0611,0.0614,0.0175,0.0173,0.0133,0.0185,0.0185,0.4592,ab000241,0*2e213161
#INSPVAXA,FILE,0,37.5,FINESTEERING,2319,307707.850,02000000,46eb,17139;INS_SOLUTION_GOOD,INS_RTKFIXED,17.59828129893,78.12250310740,524.6030,-76.2000,-0.0074,-3.1804,-0.0202,1.951673194,-0.515121885,268.257660630,0.0622,0.0611,0.0614,0.0175,0.0173,0.0133,0.0185,0.0185,0.4592,ab000241,0*bf67b3b3
#INSPVAXA,FILE,0,37.5,FINESTEERING,2319,307707.900,02000000,46eb,17139;INS_SOLUTION_GOOD,INS_RTKFIXED,17.59828130140,78.12250160567,524.6023,-76.2000,-0.0023,-3.1648,-0.0134,1.897262239,-0.539785914,268.246760266,0.0622,0.0611,0.0614,0.0175,0.0173,0.0133,0.0185,0.0185,0.4592,ab000241,0*8facf0bf
#INSPVAXA,FILE,0,37.5,FINESTEERING,2319,307707.950,02000000,46eb,17139;INS_SOLUTION_GOOD,INS_RTKFIXED,17.59828130134,78.12250011109,524.6020,-76.2000,-0.0115,-3.1525,0.0019,1.862480101,-0.521776739,268.239387381,0.0622,0.0611,0.0614,0.0175,0.0173,0.0133,0.0185,0.0185,0.4592,ab000241,0*51ed98fc
#INSPVAXA,FILE,0,37.5,FINESTEERING,2319,307708.000,02000000,46eb,17139;INS_SOLUTION_GOOD,INS_RTKFIXED,17.59828129825,78.12249862195,524.6028,-76.2000,-0.0144,-3.1334,0.0211,1.834704840,-0.544469476,268.232017513,0.0622,0.0611,0.0614,0.0175,0.0173,0.0133,0.0185,0.0185,0.4592,ab000241,0*27b75183
#INSPVAXA,FILE,0,37.5,FINESTEERING,2319,307708.050,02000000,46eb,17139;INS_SOLUTION_GOOD,INS_RTKFIXED,17.59828129302,78.12249713807,524.6038,-76.2000,-0.0153,-3.1321,0.0096,1.786414011,-0.535862210,268.219990551,0.0622,0.0611,0.0616,0.0177,0.0175,0.0134,0.0186,0.0186,0.4594,ab000241,0*824e2b99
#INSPVAXA,FILE,0,33.0,FINESTEERING,2319,307708.100,02000000,46eb,17139;INS_SOLUTION_GOOD,INS_RTKFIXED,17.59828128490,78.12249566080,524.6048,-76.2000,-0.0177,-3.1235,0.0101,1.741213116,-0.564178011,268.214012339,0.0622,0.0611,0.0616,0.0177,0.0175,0.0134,0.0186,0.0186,0.4594,ab000241,0*6f8be1af
#INSPVAXA,FILE,0,33.0,FINESTEERING,2319,307708.150,02000000,46eb,17139;INS_SOLUTION_GOOD,INS_RTKFIXED,17.59828127840,78.12249418944,524.6057,-76.2000,-0.0180,-3.1100,0.0114,1.686717686,-0.615987250,268.206012081,0.0622,0.0611,0.0616,0.0177,0.0175,0.0134,0.0186,0.0186,0.4594,ab000241,0*4cfdb5b7
#INSPVAXA,FILE,0,33.0,FINESTEERING,2319,307708.200,02000000,46eb,17139;INS_SOLUTION_GOOD,INS_RTKFIXED,17.59828127617,78.12249272396,524.6064,-76.2000,-0.0107,-3.1020,0.0170,1.621975116,-0.609957247,268.190283158,0.0622,0.0611,0.0616,0.0177,0.0175,0.0134,0.0186,0.0186,0.4594,ab000241,0*5751de4a
#INSPVAXA,FILE,0,33.0,FINESTEERING,2319,307708.250,02000000,46eb,17139;INS_SOLUTION_GOOD,INS_RTKFIXED,17.59828127335,78.12249126440,524.6070,-76.2000,-0.0163,-3.0894,0.0065,1.617539931,-0.629432978,268.171930327,0.0622,0.0611,0.0616,0.0177,0.0175,0.0134,0.0186,0.0186,0.4594,ab000241,0*2a859cb6
#INSPVAXA,FILE,0,33.0,FINESTEERING,2319,307708.300,02000000,46eb,17139;INS_SOLUTION_GOOD,INS_RTKFIXED,17.59828126944,78.12248980783,524.6064,-76.2000,-0.0094,-3.0833,-0.0077,1.694999045,-0.602811757,268.166396515,0.0622,0.0611,0.0616,0.0177,0.0175,0.0134,0.0186,0.0186,0.4594,ab000241,0*20f02ca2
#INSPVAXA,FILE,0,33.0,FINESTEERING,2319,307708.350,02000000,46eb,17139;INS_SOLUTION_GOOD,INS_RTKFIXED,17.59828126834,78.12248835817,524.6061,-76.2000,-0.0008,-3.0630,0.0082,1.728072264,-0.598781622,268.152692831,0.0622,0.0611,0.0616,0.0177,0.0175,0.0134,0.0186,0.0186,0.4594,ab000241,0*2850a214
#INSPVAXA,FILE,0,33.0,FINESTEERING,2319,307708.400,02000000,46eb,17139;INS_SOLUTION_GOOD,INS_RTKFIXED,17.59828126647,78.12248691182,524.6052,-76.2000,0.0007,-3.0546,-0.0233,1.844909658,-0.593176407,268.148810884,0.0622,0.0611,0.0616,0.0177,0.0175,0.0134,0.0186,0.0186,0.4594,ab000241,0*4a13aaf0
#INSPVAXA,FILE,0,33.0,FINESTEERING,2319,307708.450,02000000,46eb,17139;INS_SOLUTION_GOOD,INS_RTKFIXED,17.59828126965,78.12248547275,524.6044,-76.2000,0.0131,-3.0443,-0.0306,1.901245659,-0.540601440,268.131531537,0.0622,0.0611,0.0616,0.0177,0.0175,0.0134,0.0186,0.0186,0.4594,ab000241,0*be693e45
#INSPVAXA,FILE,0,33.0,FINESTEERING,2319,307708.500,02000000,46eb,17139;INS_SOLUTION_GOOD,INS_RTKFIXED,17.59828127152,78.12248403718,524.6034,-76.2000,-0.0038,-3.0329,-0.0317,1.947708802,-0.564959734,268.132722109,0.0622,0.0611,0.0616,0.0177,0.0175,0.0134,0.0186,0.0186,0.4594,ab000241,0*629fd849
#INSPVAXA,FILE,0,33.0,FINESTEERING,2319,307708.550,02000000,46eb,17139;INS_SOLUTION_GOOD,INS_RTKFIXED,17.59828126732,78.12248260877,524.6031,-76.2000,-0.0167,-3.0190,-0.0036,1.971964734,-0.547034037,268.136376761,0.0622,0.0611,0.0616,0.0177,0.0175,0.0134,0.0186,0.0186,0.4594,ab000241,0*7a916ca8
#INSPVAXA,FILE,0,33.0,FINESTEERING,2319,307708.600,02000000,46eb,17139;INS_SOLUTION_GOOD,INS_RTKFIXED,17.59828125942,78.12248118185,524.6027,-76.2000,-0.0183,-3.0178,-0.0079,2.026944761,-0.541228236,268.152111360,0.0622,0.0611,0.0616,0.0177,0.0175,0.0134,0.0186,0.0186,0.4594,ab000241,0*9209b8a9
#INSPVAXA,FILE,0,33.0,FINESTEERING,2319,307708.650,02000000,46eb,17139;INS_SOLUTION_GOOD,INS_RTKFIXED,17.59828125370,78.12247976232,524.6022,-76.2000,-0.0120,-3.0020,-0.0132,2.038575230,-0.520301753,268.146111334,0.0622,0.0611,0.0616,0.0177,0.0175,0.0134,0.0186,0.0186,0.4594,ab000241,0*1e6e7dc5
#INSPVAXA,FILE,0,33.0,FINESTEERING,2319,307708.700,02000000,46eb,17139;INS_SOLUTION_GOOD,INS_RTKFIXED,17.59828124822,78.12247834908,524.6020,-76.2000,-0.0142,-2.9810,0.0086,2.021106262,-0.562871826,268.147480601,0.0622,0.0611,0.0616,0.0177,0.0175,0.0134,0.0186,0.0186,0.4594,ab000241,0*acff46fd
#INSPVAXA,FILE,0,33.0,FINESTEERING,2319,307708.750,02000000,46eb,17139;INS_SOLUTION_GOOD,INS_RTKFIXED,17.59828124116,78.12247694391,524.6034,-76.2000,-0.0253,-2.9710,0.0257,1.899364128,-0.560478888,268.140144227,0.0622,0.0611,0.0616,0.0177,0.0175,0.0134,0.0186,0.0186,0.4594,ab000241,0*1a463017
#INSPVAXA,FILE,0,33.0,FINESTEERING,2319,307708.800,02000000,46eb,17139;INS_SOLUTION_GOOD,INS_RTKFIXED,17.59828123136,78.12247554141,524.6045,-76.2000,-0.0292,-2.9634,0.0177,1.882718390,-0.609141227,268.128652765,0.0622,0.0611,0.0616,0.0177,0.0175,0.0134,0.0186,0.0186,0.4594,ab000241,0*6562f047
#INSPVAXA,FILE,0,33.0,FINESTEERING,2319,307708.850,02000000,46eb,17139;INS_SOLUTION_GOOD,INS_RTKFIXED,17.59828121809,78.12247414387,524.6056,-76.2000,-0.0342,-2.9585,0.0046,1.858486407,-0.593837209,268.122087259,0.0622,0.0611,0.0616,0.0177,0.0175,0.0134,0.0186,0.0186,0.4594,ab000241,0*20a05a40
#INSPVAXA,FILE,0,33.0,FINESTEERING,2319,307708.900,02000000,46eb,17139;INS_SOLUTION_GOOD,INS_RTKFIXED,17.59828120613,78.12247275127,524.6057,-76.2000,-0.0279,-2.9428,-0.0028,1.864915449,-0.650019519,268.117329699,0.0622,0.0611,0.0616,0.0177,0.0175,0.0134,0.0186,0.0186,0.4594,ab000241,0*b3b6086b
#INSPVAXA,FILE,0,33.0,FINESTEERING,2319,307708.950,02000000,46eb,17139;INS_SOLUTION_GOOD,INS_RTKFIXED,17.59828119688,78.12247136299,524.6055,-76.2000,-0.0263,-2.9349,-0.0135,1.825818707,-0.635916829,268.118949823,0.0622,0.0611,0.0616,0.0177,0.0175,0.0134,0.0186,0.0186,0.4594,ab000241,0*d5fc3cec
#INSPVAXA,FILE,0,33.0,FINESTEERING,2319,307709.000,02000000,46eb,17139;INS_SOLUTION_GOOD,INS_RTKFIXED,17.59828118926,78.12246998111,524.6053,-76.2000,-0.0293,-2.9242,0.0084,1.792053654,-0.629122746,268.119901923,0.0622,0.0611,0.0616,0.0177,0.0175,0.0134,0.0186,0.0186,0.4594,ab000241,0*b12f8a8c
#INSPVAXA,FILE,0,33.0,FINESTEERING,2319,307709.050,02000000,46eb,17139;INS_SOLUTION_GOOD,INS_RTKFIXED,17.59828117723,78.12246860306,524.6042,-76.2000,-0.0368,-2.9133,-0.0311,1.834735878,-0.627073249,268.116670919,0.0623,0.0612,0.0617,0.0178,0.0175,0.0134,0.0187,0.0187,0.4595,ab000241,0*11566d4a
#INSPVAXA,FILE,0,33.0,FINESTEERING,2319,307709.100,02000000,46eb,17139;INS_SOLUTION_GOOD,INS_RTKFIXED,17.59828117465,78.12246723281,524.6040,-76.2000,-0.0092,-2.9055,0.0133,1.902965468,-0.621557843,268.066340920,0.0623,0.0612,0.0617,0.0178,0.0175,0.0134,0.0187,0.0187,0.4595,ab000241,0*5f05f276
#INSPVAXA,FILE,0,39.0,FINESTEERING,2319,307709.150,02000000,46eb,17139;INS_SOLUTION_GOOD,INS_RTKFIXED,17.59828117864,78.12246586544,524.6031,-76.2000,-0.0023,-2.8939,-0.0256,1.927599648,-0.657345461,267.975936366,0.0623,0.0612,0.0617,0.0178,0.0175,0.0134,0.0187,0.0187,0.4595,ab000241,0*9f8d604d
#INSPVAXA,FILE,0,39.0,FINESTEERING,2319,307709.200,02000000,46eb,17139;INS_SOLUTION_GOOD,INS_RTKFIXED,17.59828118266,78.12246450413,524.6028,-76.2000,-0.0100,-2.8872,0.0185,1.988230165,-0.669021753,267.878395166,0.0623,0.0612,0.0617,0.0178,0.0175,0.0134,0.0187,0.0187,0.4595,ab000241,0*82d787a6
#INSPVAXA,FILE,0,39.0,FINESTEERING,2319,307709.250,02000000,46eb,17139;INS_SOLUTION_GOOD,INS_RTKFIXED,17.59828118322,78.12246314955,524.6029,-76.2000,-0.0165,-2.8650,0.0122,2.028718020,-0.766038021,267.774155756,0.0623,0.0612,0.0617,0.0178,0.0175,0.0134,0.0187,0.0187,0.4595,ab000241,0*d90dd2a9
#INSPVAXA,FILE,0,39.0,FINESTEERING,2319,307709.300,02000000,46eb,17139;INS_SOLUTION_GOOD,INS_RTKFIXED,17.59828117837,78.12246179838,524.6035,-76.2000,-0.0181,-2.8624,0.0162,2.060775100,-0.810636738,267.673114038,0.0623,0.0612,0.0617,0.0178,0.0175,0.0134,0.0187,0.0187,0.4595,ab000241,0*1f3c4f7d
#INSPVAXA,FILE,0,39.0,FINESTEERING,2319,307709.350,02000000,46eb,17139;INS_SOLUTION_GOOD,INS_RTKFIXED,17.59828117268,78.12246045235,524.6039,-76.2000,-0.0274,-2.8485,0.0114,2.091296481,-0.848624764,267.544980303,0.0623,0.0612,0.0617,0.0178,0.0175,0.0134,0.0187,0.0187,0.4595,ab000241,0*add002fc
#INSPVAXA,FILE,0,39.0,FINESTEERING,2319,307709.400,02000000,46eb,17139;INS_SOLUTION_GOOD,INS_RTKFIXED,17.59828116337,78.12245911280,524.6051,-76.2000,-0.0321,-2.8373,0.0240,2.085777553,-0.886752448,267.413177769,0.0623,0.0612,0.0617,0.0178,0.0175,0.0134,0.0187,0.0187,0.4595,ab000241,0*a8720a7b
#INSPVAXA,FILE,0,39.0,FINESTEERING,2319,307709.450,02000000,46eb,17139;INS_SOLUTION_GOOD,INS_RTKFIXED,17.59828115127,78.12245777605,524.6057,-76.2000,-0.0426,-2.8273,-0.0012,2.047655698,-0.944445665,267.268000750,0.0623,0.0612,0.0617,0.0178,0.0175,0.0134,0.0187,0.0187,0.4595,ab000241,0*29216ac0
#INSPVAXA,FILE,0,39.0,FINESTEERING,2319,307709.500,02000000,46eb,17139;INS_SOLUTION_GOOD,INS_RTKFIXED,17.59828113454,78.12245644549,524.6061,-76.2000,-0.0495,-2.8218,0.0075,2.036809810,-0.925779505,267.121452650,0.0623,0.0612,0.0617,0.0178,0.0175,0.0134,0.0187,0.0187,0.4595,ab000241,0*c58324a2
#INSPVAXA,FILE,0,39.0,FINESTEERING,2319,307709.550,02000000,46eb,17139;INS_SOLUTION_GOOD,INS_RTKFIXED,17.59828111197,78.12245511924,524.6064,-76.2000,-0.0638,-2.8049,0.0006,2.029965081,-0.973079671,266.971820813,0.0623,0.0612,0.0617,0.0178,0.0175,0.0134,0.0187,0.0187,0.4595,ab000241,0*edc02263
#INSPVAXA,FILE,0,39.0,FINESTEERING,2319,307709.600,02000000,46eb,17139;INS_SOLUTION_GOOD,INS_RTKFIXED,17.59828108504,78.12245379910,524.6065,-76.2000,-0.0740,-2.7957,0.0024,1.998484983,-0.983944696,266.820798934,0.0623,0.0612,0.0617,0.0178,0.0175,0.0134,0.0187,0.0187,0.4595,ab000241,0*252b354c
#INSPVAXA,FILE,0,39.0,FINESTEERING,2319,307709.650,02000000,46eb,17139;INS_SOLUTION_GOOD,INS_RTKFIXED,17.59828105421,78.12245248331,524.6061,-76.2000,-0.0772,-2.7870,-0.0214,1.976527721,-0.965778665,266.670264923,0.0623,0.0612,0.0617,0.0178,0.0175,0.0134,0.0187,0.0187,0.4595,ab000241,0*c9a5a773
#INSPVAXA,FILE,0,39.0,FINESTEERING,2319,307709.700,02000000,46eb,17139;INS_SOLUTION_GOOD,INS_RTKFIXED,17.59828102196,78.12245117468,524.6053,-76.2000,-0.0794,-2.7708,-0.0184,1.992972853,-0.940108889,266.504991570,0.0623,0.0612,0.0617,0.0178,0.0175,0.0134,0.0187,0.0187,0.4595,ab000241,0*48dc4c88
#INSPVAXA,FILE,0,39.0,FINESTEERING,2319,307709.750,02000000,46eb,17139;INS_SOLUTION_GOOD,INS_RTKFIXED,17.59828098649,78.12244986878,524.6041,-76.2000,-0.0865,-2.7605,-0.0288,2.010431317,-0.902424059,266.340256577,0.0623,0.0612,0.0617,0.0178,0.0175,0.0134,0.0187,0.0187,0.4595,ab000241,0*adf2663d
#INSPVAXA,FILE,0,39.0,FINESTEERING,2319,307709.800,02000000,46eb,17139;INS_SOLUTION_GOOD,INS_RTKFIXED,17.59828095367,78.12244857068,524.6034,-76.2000,-0.0778,-2.7477,-0.0077,2.043302085,-0.846011813,266.154597493,0.0623,0.0612,0.0617,0.0178,0.0175,0.0134,0.0187,0.0187,0.4595,ab000241,0*da239ba4
#INSPVAXA,FILE,0,39.0,FINESTEERING,2319,307709.850,02000000,46eb,17139;INS_SOLUTION_GOOD,INS_RTKFIXED,17.59828092247,78.12244727630,524.6029,-76.2000,-0.0793,-2.7412,-0.0083,2.045834106,-0.835188349,265.948957974,0.0623,0.0612,0.0617,0.0178,0.0175,0.0134,0.0187,0.0187,0.4595,ab000241,0*646a8fde
#INSPVAXA,FILE,0,39.0,FINESTEERING,2319,307709.900,02000000,46eb,17139;INS_SOLUTION_GOOD,INS_RTKFIXED,17.59828088546,78.12244598996,524.6028,-76.2000,-0.1027,-2.7251,0.0047,2.078677682,-0.818386376,265.733981952,0.0623,0.0612,0.0617,0.0178,0.0175,0.0134,0.0187,0.0187,0.4595,ab000241,0*05caafa6
#INSPVAXA,FILE,0,39.0,FINESTEERING,2319,307709.950,02000000,46eb,17139;INS_SOLUTION_GOOD,INS_RTKFIXED,17.59828083885,78.12244470542,524.6022,-76.2000,-0.1254,-2.7183,-0.0043,2.151825532,-0.826665711,265.530617805,0.0623,0.0612,0.0617,0.0178,0.0175,0.0134,0.0187,0.0187,0.4595,ab000241,0*f633844f
#INSPVAXA,FILE,0,39.0,FINESTEERING,2319,307710.000,02000000,46eb,17139;INS_SOLUTION_GOOD,INS_RTKFIXED,17.59828078911,78.12244342795,524.6013,-76.2000,-0.1246,-2.7062,-0.0147,2.174013948,-0.763356539,265.316964577,0.0623,0.0612,0.0617,0.0178,0.0175,0.0134,0.0187,0.0187,0.4595,ab000241,0*564530f2
#INSPVAXA,FILE,0,39.0,FINESTEERING,2319,307710.050,02000000,46eb,17139;INS_SOLUTION_GOOD,INS_RTKFIXED,17.59828073438,78.12244215848,524.5997,-76.2000,-0.1220,-2.6934,-0.0289,2.212041358,-0.750237628,265.094176941,0.0625,0.0613,0.0619,0.0179,0.0176,0.0133,0.0188,0.0189,0.4597,ab000241,0*629a0726
#INSPVAXA,FILE,0,37.0,FINESTEERING,2319,307710.100,02000000,46eb,17139;INS_SOLUTION_GOOD,INS_RTKFIXED,17.59828067788,78.12244089841,524.5982,-76.2000,-0.1308,-2.6830,-0.0328,2.151495938,-0.695700337,264.827464982,0.0625,0.0613,0.0619,0.0179,0.0176,0.0133,0.0188,0.0189,0.4597,ab000241,0*670e53b4
#INSPVAXA,FILE,0,37.0,FINESTEERING,2319,307710.150,02000000,46eb,17139;INS_SOLUTION_GOOD,INS_RTKFIXED,17.59828060927,78.12243964326,524.5960,-76.2000,-0.1638,-2.6679,-0.0343,2.144893319,-0.658184143,264.563981199,0.0625,0.0613,0.0619,0.0179,0.0176,0.0133,0.0188,0.0189,0.4597,ab000241,0*eea32566
#INSPVAXA,FILE,0,37.0,FINESTEERING,2319,307710.200,02000000,46eb,17139;INS_SOLUTION_GOOD,INS_RTKFIXED,17.59828052878,78.12243839558,524.5945,-76.2000,-0.1825,-2.6538,-0.0203,2.145497257,-0.594814875,264.296842080,0.0625,0.0613,0.0619,0.0179,0.0176,0.0133,0.0188,0.0189,0.4597,ab000241,0*6121c891
#INSPVAXA,FILE,0,37.0,FINESTEERING,2319,307710.250,02000000,46eb,17139;INS_SOLUTION_GOOD,INS_RTKFIXED,17.59828044348,78.12243715120,524.5930,-76.2000,-0.1889,-2.6475,-0.0256,2.152493439,-0.566891126,264.022184832,0.0625,0.0613,0.0619,0.0179,0.0176,0.0133,0.0188,0.0189,0.4597,ab000241,0*74502f8a
#INSPVAXA,FILE,0,37.0,FINESTEERING,2319,307710.300,02000000,46eb,17139;INS_SOLUTION_GOOD,INS_RTKFIXED,17.59828035596,78.12243591408,524.5919,-76.2000,-0.1910,-2.6336,-0.0185,2.062621016,-0.526457874,263.738837576,0.0625,0.0613,0.0619,0.0179,0.0176,0.0133,0.0188,0.0189,0.4597,ab000241,0*565c07c5
#INSPVAXA,FILE,0,37.0,FINESTEERING,2319,307710.350,02000000,46eb,17139;INS_SOLUTION_GOOD,INS_RTKFIXED,17.59828026454,78.12243468292,524.5914,-76.2000,-0.2072,-2.6183,-0.0092,1.977420846,-0.549201866,263.432153530,0.0625,0.0613,0.0619,0.0179,0.0176,0.0133,0.0188,0.0189,0.4597,ab000241,0*0c01bfef
#INSPVAXA,FILE,0,37.0,FINESTEERING,2319,307710.400,02000000,46eb,17139;INS_SOLUTION_GOOD,INS_RTKFIXED,17.59828016618,78.12243345709,524.5909,-76.2000,-0.2203,-2.6084,-0.0153,1.961582720,-0.528307257,263.117566939,0.0625,0.0613,0.0619,0.0179,0.0176,0.0133,0.0188,0.0189,0.4597,ab000241,0*eab37a1f
#INSPVAXA,FILE,0,37.0,FINESTEERING,2319,307710.450,02000000,46eb,17139;INS_SOLUTION_GOOD,INS_RTKFIXED,17.59828006447,78.12243223641,524.5901,-76.2000,-0.2270,-2.5958,-0.0157,2.010374194,-0.487938354,262.782162854,0.0625,0.0613,0.0619,0.0179,0.0176,0.0133,0.0188,0.0189,0.4597,ab000241,0*8b8b8ba1
#INSPVAXA,FILE,0,37.0,FINESTEERING,2319,307710.500,02000000,46eb,17139;INS_SOLUTION_GOOD,INS_RTKFIXED,17.59827996231,78.12243102137,524.5894,-76.2000,-0.2241,-2.5840,-0.0155,2.038244906,-0.450143520,262.436006513,0.0625,0.0613,0.0619,0.0179,0.0176,0.0133,0.0188,0.0189,0.4597,ab000241,0*d209e023
#INSPVAXA,FILE,0,37.0,FINESTEERING,2319,307710.550,02000000,46eb,17139;INS_SOLUTION_GOOD,INS_RTKFIXED,17.59827985683,78.12242981576,524.5895,-76.2000,-0.2344,-2.5639,0.0094,2.017566724,-0.433194104,262.081418104,0.0625,0.0613,0.0619,0.0179,0.0176,0.0133,0.0188,0.0189,0.4597,ab000241,0*dcf8a6bc
#INSPVAXA,FILE,0,37.0,FINESTEERING,2319,307710.600,02000000,46eb,17139;INS_SOLUTION_GOOD,INS_RTKFIXED,17.59827973887,78.12242861655,524.5898,-76.2000,-0.2729,-2.5478,0.0075,2.030177570,-0.429333032,261.723056201,0.0625,0.0613,0.0619,0.0179,0.0176,0.0133,0.0188,0.0189,0.4597,ab000241,0*7fa8824c
#INSPVAXA,FILE,0,37.0,FINESTEERING,2319,307710.650,02000000,46eb,17139;INS_SOLUTION_GOOD,INS_RTKFIXED,17.59827961105,78.12242742602,524.5906,-76.2000,-0.2873,-2.5305,0.0166,2.064465440,-0.409671151,261.362873270,0.0625,0.0613,0.0619,0.0179,0.0176,0.0133,0.0188,0.0189,0.4597,ab000241,0*1851908c
#INSPVAXA,FILE,0,37.0,FINESTEERING,2319,307710.700,02000000,46eb,17139;INS_SOLUTION_GOOD,INS_RTKFIXED,17.59827948044,78.12242624220,524.5914,-76.2000,-0.2896,-2.5136,0.0138,2.078115520,-0.417730134,260.975509577,0.0625,0.0613,0.0619,0.0179,0.0176,0.0133,0.0188,0.0189,0.4597,ab000241,0*7d315b12
#INSPVAXA,FILE,0,37.0,FINESTEERING,2319,307710.750,02000000,46eb,17139;INS_SOLUTION_GOOD,INS_RTKFIXED,17.59827934568,78.12242506707,524.5926,-76.2000,-0.2987,-2.4986,0.0156,2.029789348,-0.396375509,260.585261805,0.0625,0.0613,0.0619,0.0179,0.0176,0.0133,0.0188,0.0189,0.4597,ab000241,0*8f11a01c
#INSPVAXA,FILE,0,37.0,FINESTEERING,2319,307710.800,02000000,46eb,17139;INS_SOLUTION_GOOD,INS_RTKFIXED,17.59827920709,78.12242390170,524.5936,-76.2000,-0.3127,-2.4728,0.0228,2.017476917,-0.407858223,260.167101792,0.0625,0.0613,0.0619,0.0179,0.0176,0.0133,0.0188,0.0189,0.4597,ab000241,0*fc7ec899
#INSPVAXA,FILE,0,37.0,FINESTEERING,2319,307710.850,02000000,46eb,17139;INS_SOLUTION_GOOD,INS_RTKFIXED,17.59827905944,78.12242274545,524.5946,-76.2000,-0.3348,-2.4545,0.0226,2.011838713,-0.381244241,259.730084319,0.0625,0.0613,0.0619,0.0179,0.0176,0.0133,0.0188,0.0189,0.4597,ab000241,0*9ec4dc7a
#INSPVAXA,FILE,0,37.0,FINESTEERING,2319,307710.900,02000000,46eb,17139;INS_SOLUTION_GOOD,INS_RTKFIXED,17.59827890173,78.12242159887,524.5956,-76.2000,-0.3558,-2.4346,0.0160,2.071183888,-0.361489546,259.259390085,0.0625,0.0613,0.0619,0.0179,0.0176,0.0133,0.0188,0.0189,0.4597,ab000241,0*37501d80
#INSPVAXA,FILE,0,37.0,FINESTEERING,2319,307710.950,02000000,46eb,17139;INS_SOLUTION_GOOD,INS_RTKFIXED,17.59827873843,78.12242046133,524.5959,-76.2000,-0.3609,-2.4145,-0.0068,2.068581624,-0.327595346,258.774343578,0.0625,0.0613,0.0619,0.0179,0.0176,0.0133,0.0188,0.0189,0.4597,ab000241,0*d7f153b2
#INSPVAXA,FILE,0,37.0,FINESTEERING,2319,307711.000,02000000,46eb,17139;INS_SOLUTION_GOOD,INS_RTKFIXED,17.59827856894,78.12241933075,524.5960,-76.2000,-0.3894,-2.4022,-0.0106,1.983529881,-0.296110646,258.268260589,0.0625,0.0613,0.0619,0.0179,0.0176,0.0133,0.0188,0.0189,0.4597,ab000241,0*1039b4f9
#INSPVAXA,FILE,0,37.0,FINESTEERING,2319,307711.050,02000000,46eb,17139;INS_SOLUTION_GOOD,INS_RTKFIXED,17.59827838076,78.12241821819,524.5952,-76.2000,-0.4121,-2.3768,-0.0191,1.972205649,-0.287717340,257.759955306,0.0633,0.0621,0.0620,0.0181,0.0176,0.0132,0.0190,0.0190,0.4599,ab000241,0*26d0931a
#INSPVAXA,FILE,0,37.0,FINESTEERING,2319,307711.100,02000000,46eb,17139;INS_SOLUTION_GOOD,INS_RTKFIXED,17.59827817900,78.12241712104,524.5945,-76.2000,-0.4299,-2.3579,-0.0089,1.955134248,-0.255394944,257.236947696,0.0633,0.0621,0.0620,0.0181,0.0176,0.0132,0.0190,0.0190,0.4599,ab000241,0*17ab647c
#INSPVAXA,FILE,0,37.0,FINESTEERING,2319,307711.150,02000000,46eb,17139;INS_SOLUTION_GOOD,INS_RTKFIXED,17.59827797096,78.12241603377,524.5939,-76.2000,-0.4407,-2.3411,0.0022,1.966928554,-0.216613653,256.701129252,0.0633,0.0621,0.0620,0.0181,0.0176,0.0132,0.0190,0.0190,0.4599,ab000241,0*86985e3a
#INSPVAXA,FILE,0,37.0,FINESTEERING,2319,307711.200,02000000,46eb,17139;INS_SOLUTION_GOOD,INS_RTKFIXED,17.59827776006,78.12241495196,524.5933,-76.2000,-0.4424,-2.3238,-0.0068,1.947506021,-0.223881739,256.122342958,0.0633,0.0621,0.0620,0.0181,0.0176,0.0132,0.0190,0.0190,0.4599,ab000241,0*6ed753cd
#INSPVAXA,FILE,0,37.0,FINESTEERING,2319,307711.250,02000000,46eb,17139;INS_SOLUTION_GOOD,INS_RTKFIXED,17.59827754330,78.12241388082,524.5932,-76.2000,-0.4594,-2.3037,0.0082,1.998406413,-0.198773223,255.518500253,0.0633,0.0621,0.0620,0.0181,0.0176,0.0132,0.0190,0.0190,0.4599,ab000241,0*f986dca7
#INSPVAXA,FILE,0,37.0,FINESTEERING,2319,307711.300,02000000,46eb,17139;INS_SOLUTION_GOOD,INS_RTKFIXED,17.59827731848,78.12241281859,524.5935,-76.2000,-0.4831,-2.2829,0.0083,2.051186737,-0.197115908,254.886579011,0.0633,0.0621,0.0620,0.0181,0.0176,0.0132,0.0190,0.0190,0.4599,ab000241,0*8cab1bd2
#INSPVAXA,FILE,0,37.0,FINESTEERING,2319,307711.350,02000000,46eb,17139;INS_SOLUTION_GOOD,INS_RTKFIXED,17.59827708337,78.12241176510,524.5937,-76.2000,-0.5072,-2.2648,0.0040,2.078028362,-0.207581208,254.242564186,0.0633,0.0621,0.0620,0.0181,0.0176,0.0132,0.0190,0.0190,0.4599,ab000241,0*77d5bbf8
#INSPVAXA,FILE,0,37.0,FINESTEERING,2319,307711.400,02000000,46eb,17139;INS_SOLUTION_GOOD,INS_RTKFIXED,17.59827683814,78.12241072341,524.5939,-76.2000,-0.5294,-2.2363,0.0149,2.122785124,-0.210738342,253.572669348,0.0633,0.0621,0.0620,0.0181,0.0176,0.0132,0.0190,0.0190,0.4599,ab000241,0*2168d564
#INSPVAXA,FILE,0,37.0,FINESTEERING,2319,307711.450,02000000,46eb,17139;INS_SOLUTION_GOOD,INS_RTKFIXED,17.59827658251,78.12240969269,524.5942,-76.2000,-0.5508,-2.2142,0.0170,2.145741363,-0.204833973,252.885221363,0.0633,0.0621,0.0620,0.0181,0.0176,0.0132,0.0190,0.0190,0.4599,ab000241,0*54bff7ee
#INSPVAXA,FILE,0,37.0,FINESTEERING,2319,307711.500,02000000,46eb,17139;INS_SOLUTION_GOOD,INS_RTKFIXED,17.59827631913,78.12240867098,524.5946,-76.2000,-0.5675,-2.1960,0.0110,2.133993819,-0.216821455,252.163445590,0.0633,0.0621,0.0620,0.0181,0.0176,0.0132,0.0190,0.0190,0.4599,ab000241,0*2e7dfd06
#INSPVAXA,FILE,0,37.0,FINESTEERING,2319,307711.550,02000000,46eb,17139;INS_SOLUTION_GOOD,INS_RTKFIXED,17.59827604529,78.12240766199,524.5951,-76.2000,-0.5927,-2.1664,0.0156,2.072308207,-0.240690434,251.429721226,0.0633,0.0621,0.0620,0.0181,0.0176,0.0132,0.0190,0.0190,0.4599,ab000241,0*4be1cf8d
#INSPVAXA,FILE,0,37.0,FINESTEERING,2319,307711.600,02000000,46eb,17139;INS_SOLUTION_GOOD,INS_RTKFIXED,17.59827576047,78.12240666621,524.5960,-76.2000,-0.6191,-2.1301,0.0397,1.968742932,-0.300912810,250.667087549,0.0633,0.0621,0.0620,0.0181,0.0176,0.0132,0.0190,0.0190,0.4599,ab000241,0*ba426293
#INSPVAXA,FILE,0,37.0,FINESTEERING,2319,307711.650,02000000,46eb,17139;INS_SOLUTION_GOOD,INS_RTKFIXED,17.59827546136,78.12240568522,524.5974,-76.2000,-0.6595,-2.1054,0.0384,1.833665491,-0.302504845,249.898583852,0.0633,0.0621,0.0620,0.0181,0.0176,0.0132,0.0190,0.0190,0.4599,ab000241,0*af1f1e20
#INSPVAXA,FILE,0,37.0,FINESTEERING,2319,307711.700,02000000,46eb,17139;INS_SOLUTION_GOOD,INS_RTKFIXED,17.59827514687,78.12240471782,524.5986,-76.2000,-0.6854,-2.0762,0.0273,1.721912314,-0.337815287,249.118190222,0.0633,0.0621,0.0620,0.0181,0.0176,0.0132,0.0190,0.0190,0.4599,ab000241,0*94f33285
#INSPVAXA,FILE,0,37.0,FINESTEERING,2319,307711.750,02000000,46eb,17139;INS_SOLUTION_GOOD,INS_RTKFIXED,17.59827482171,78.12240376210,524.6001,-76.2000,-0.7086,-2.0521,0.0383,1.605002191,-0.387059745,248.333886576,0.0633,0.0621,0.0620,0.0181,0.0176,0.0132,0.0190,0.0190,0.4599,ab000241,0*40ee428d
#INSPVAXA,FILE,0,37.0,FINESTEERING,2319,307711.800,02000000,46eb,17139;INS_SOLUTION_GOOD,INS_RTKFIXED,17.59827448906,78.12240281620,524.6017,-76.2000,-0.7227,-2.0301,0.0396,1.491283719,-0.424800358,247.544240684,0.0633,0.0621,0.0620,0.0181,0.0176,0.0132,0.0190,0.0190,0.4599,ab000241,0*3babd5fb
#INSPVAXA,FILE,0,37.0,FINESTEERING,2319,307711.850,02000000,46eb,17139;INS_SOLUTION_GOOD,INS_RTKFIXED,17.59827414635,78.12240188122,524.6030,-76.2000,-0.7476,-2.0065,0.0231,1.393794558,-0.446812588,246.756583109,0.0633,0.0621,0.0620,0.0181,0.0176,0.0132,0.0190,0.0190,0.4599,ab000241,0*f557f8cc
#INSPVAXA,FILE,0,37.0,FINESTEERING,2319,307711.900,02000000,46eb,17139;INS_SOLUTION_GOOD,INS_RTKFIXED,17.59827379355,78.12240095823,524.6040,-76.2000,-0.7684,-1.9798,0.0207,1.361727580,-0.436953120,245.978165643,0.0633,0.0621,0.0620,0.0181,0.0176,0.0132,0.0190,0.0190,0.4599,ab000241,0*a4b7a27c
#INSPVAXA,FILE,0,37.0,FINESTEERING,2319,307711.950,02000000,46eb,17139;INS_SOLUTION_GOOD,INS_RTKFIXED,17.59827343378,78.12240004645,524.6048,-76.2000,-0.7806,-1.9588,0.0106,1.374542893,-0.414291242,245.184683068,0.0633,0.0621,0.0620,0.0181,0.0176,0.0132,0.0190,0.0190,0.4599,ab000241,0*00a9b5dc
#INSPVAXA,FILE,0,37.0,FINESTEERING,2319,307712.000,02000000,46eb,17139;INS_SOLUTION_GOOD,INS_RTKFIXED,17.59827307192,78.12239914243,524.6046,-76.2000,-0.7801,-1.9432,-0.0037,1.434492032,-0.373831288,244.357973912,0.0633,0.0621,0.0620,0.0181,0.0176,0.0132,0.0190,0.0190,0.4599,ab000241,0*a46ead6e
#INSPVAXA,FILE,0,37.0,FINESTEERING,2319,307712.050,02000000,46eb,17139;INS_SOLUTION_GOOD,INS_RTKFIXED,17.59827270364,78.12239825476,524.6045,-76.2000,-0.7777,-1.9161,0.0078,1.466451156,-0.339738173,243.467123655,0.0663,0.0749,0.0624,0.0186,0.0191,0.0132,0.0193,0.0191,0.4601,ab000241,0*f19bdca0
#INSPVAXA,FILE,0,37.0,FINESTEERING,2319,307712.100,02000000,46eb,17139;INS_SOLUTION_GOOD,INS_RTKFIXED,17.59827232079,78.12239738529,524.6049,-76.2000,-0.8016,-1.8884,0.0111,1.441080203,-0.351179724,242.535006084,0.0663,0.0749,0.0624,0.0186,0.0191,0.0132,0.0193,0.0191,0.4601,ab000241,0*b08a4ce3
#INSPVAXA,FILE,0,37.5,FINESTEERING,2319,307712.150,02000000,46eb,17139;INS_SOLUTION_GOOD,INS_RTKFIXED,17.59827192246,78.12239653120,524.6055,-76.2000,-0.8446,-1.8493,0.0058,1.364161592,-0.404807241,241.593370063,0.0663,0.0749,0.0624,0.0186,0.0191,0.0132,0.0193,0.0191,0.4601,ab000241,0*0edec735
#INSPVAXA,FILE,0,37.5,FINESTEERING,2319,307712.200,02000000,46eb,17139;INS_SOLUTION_GOOD,INS_RTKFIXED,17.59827150379,78.12239569505,524.6059,-76.2000,-0.8900,-1.8090,0.0036,1.299491823,-0.489900301,240.661394130,0.0663,0.0749,0.0624,0.0186,0.0191,0.0132,0.0193,0.0191,0.4601,ab000241,0*437de749
#INSPVAXA,FILE,0,37.5,FINESTEERING,2319,307712.250,02000000,46eb,17139;INS_SOLUTION_GOOD,INS_RTKFIXED,17.59827107068,78.12239487440,524.6067,-76.2000,-0.9155,-1.7832,0.0130,1.173052151,-0.569617656,239.731102457,0.0663,0.0749,0.0624,0.0186,0.0191,0.0132,0.0193,0.0191,0.4601,ab000241,0*6192faba
#INSPVAXA,FILE,0,37.5,FINESTEERING,2319,307712.300,02000000,46eb,17139;INS_SOLUTION_GOOD,INS_RTKFIXED,17.59827062519,78.12239406621,524.6076,-76.2000,-0.9459,-1.7574,0.0243,0.962312671,-0.699005644,238.791115544,0.0663,0.0749,0.0624,0.0186,0.0191,0.0132,0.0193,0.0191,0.4601,ab000241,0*a074e911
#INSPVAXA,FILE,0,37.5,FINESTEERING,2319,307712.350,02000000,46eb,17139;INS_SOLUTION_GOOD,INS_RTKFIXED,17.59827016542,78.12239326871,524.6081,-76.2000,-0.9805,-1.7331,0.0095,0.713850615,-0.828413195,237.846919412,0.0663,0.0749,0.0624,0.0186,0.0191,0.0132,0.0193,0.0191,0.4601,ab000241,0*ad2cbdad
#INSPVAXA,FILE,0,37.5,FINESTEERING,2319,307712.400,02000000,46eb,17139;INS_SOLUTION_GOOD,INS_RTKFIXED,17.59826968963,78.12239248729,524.6090,-76.2000,-1.0171,-1.6950,0.0199,0.462246628,-0.957859979,236.903068364,0.0663,0.0749,0.0624,0.0186,0.0191,0.0132,0.0193,0.0191,0.4601,ab000241,0*404e28f0
#INSPVAXA,FILE,0,37.5,FINESTEERING,2319,307712.450,02000000,46eb,17139;INS_SOLUTION_GOOD,INS_RTKFIXED,17.59826920326,78.12239171811,524.6099,-76.2000,-1.0301,-1.6708,0.0226,0.211679031,-1.096192486,235.956020787,0.0663,0.0749,0.0624,0.0186,0.0191,0.0132,0.0193,0.0191,0.4601,ab000241,0*d918412d
#INSPVAXA,FILE,0,37.5,FINESTEERING,2319,307712.500,02000000,46eb,17139;INS_SOLUTION_GOOD,INS_RTKFIXED,17.59826871006,78.12239095959,524.6109,-76.2000,-1.0469,-1.6522,0.0174,-0.099886623,-1.189484491,235.001968946,0.0663,0.0749,0.0624,0.0186,0.0191,0.0132,0.0193,0.0191,0.4601,ab000241,0*621e5007
#INSPVAXA,FILE,0,37.5,FINESTEERING,2319,307712.550,02000000,46eb,17139;INS_SOLUTION_GOOD,INS_RTKFIXED,17.59826820815,78.12239020942,524.6118,-76.2000,-1.0608,-1.6378,0.0083,-0.392016629,-1.277310322,234.043557565,0.0663,0.0749,0.0624,0.0186,0.0191,0.0132,0.0193,0.0191,0.4601,ab000241,0*69c37b24
#INSPVAXA,FILE,0,37.5,FINESTEERING,2319,307712.600,02000000,46eb,17139;INS_SOLUTION_GOOD,INS_RTKFIXED,17.59826770036,78.12238946856,524.6131,-76.2000,-1.0796,-1.6115,0.0207,-0.670186415,-1.353391373,233.067440762,0.0663,0.0749,0.0624,0.0186,0.0191,0.0132,0.0193,0.0191,0.4601,ab000241,0*8a31ca5c
#INSPVAXA,FILE,0,37.5,FINESTEERING,2319,307712.650,02000000,46eb,17139;INS_SOLUTION_GOOD,INS_RTKFIXED,17.59826717912,78.12238873825,524.6139,-76.2000,-1.1142,-1.5882,0.0065,-0.801077567,-1.396001524,232.102648283,0.0663,0.0749,0.0624,0.0186,0.0191,0.0132,0.0193,0.0191,0.4601,ab000241,0*9c0e89ea
#INSPVAXA,FILE,0,37.5,FINESTEERING,2319,307712.700,02000000,46eb,17139;INS_SOLUTION_GOOD,INS_RTKFIXED,17.59826665031,78.12238802012,524.6153,-76.2000,-1.1264,-1.5628,0.0271,-0.898515665,-1.451848977,231.143786277,0.0663,0.0749,0.0624,0.0186,0.0191,0.0132,0.0193,0.0191,0.4601,ab000241,0*86ef726e
#INSPVAXA,FILE,0,37.5,FINESTEERING,2319,307712.750,02000000,46eb,17139;INS_SOLUTION_GOOD,INS_RTKFIXED,17.59826611393,78.12238730953,524.6164,-76.2000,-1.1477,-1.5475,0.0273,-0.908800172,-1.518532996,230.179011685,0.0663,0.0749,0.0624,0.0186,0.0191,0.0132,0.0193,0.0191,0.4601,ab000241,0*6ef67043
#INSPVAXA,FILE,0,37.5,FINESTEERING,2319,307712.800,02000000,46eb,17139;INS_SOLUTION_GOOD,INS_RTKFIXED,17.59826557047,78.12238660562,524.6174,-76.2000,-1.1606,-1.5376,0.0088,-0.857556560,-1.601475553,229.179294674,0.0663,0.0749,0.0624,0.0186,0.0191,0.0132,0.0193,0.0191,0.4601,ab000241,0*644b7b6a
#INSPVAXA,FILE,0,37.5,FINESTEERING,2319,307712.850,02000000,46eb,17139;INS_SOLUTION_GOOD,INS_RTKFIXED,17.59826501804,78.12238590227,524.6178,-76.2000,-1.1825,-1.5410,-0.0026,-0.739184577,-1.735742123,228.158347174,0.0663,0.0749,0.0624,0.0186,0.0191,0.0132,0.0193,0.0191,0.4601,ab000241,0*1db8c47f
#INSPVAXA,FILE,0,37.5,FINESTEERING,2319,307712.900,02000000,46eb,17139;INS_SOLUTION_GOOD,INS_RTKFIXED,17.59826445613,78.12238520459,524.6178,-76.2000,-1.2056,-1.5186,0.0029,-0.617171706,-1.923932926,227.125772944,0.0663,0.0749,0.0624,0.0186,0.0191,0.0132,0.0193,0.0191,0.4601,ab000241,0*4fa091fb
#INSPVAXA,FILE,0,37.5,FINESTEERING,2319,307712.950,02000000,46eb,17139;INS_SOLUTION_GOOD,INS_RTKFIXED,17.59826388039,78.12238451286,524.6175,-76.2000,-1.2444,-1.5063,-0.0044,-0.505463271,-2.148318602,226.095625017,0.0663,0.0749,0.0624,0.0186,0.0191,0.0132,0.0193,0.0191,0.4601,ab000241,0*b2c7e9fd
#INSPVAXA,FILE,0,37.5,FINESTEERING,2319,307713.000,02000000,46eb,17139;INS_SOLUTION_GOOD,INS_RTKFIXED,17.59826328866,78.12238383371,524.6172,-76.2000,-1.2804,-1.4710,-0.0016,-0.423615049,-2.410149846,225.075458393,0.0663,0.0749,0.0624,0.0186,0.0191,0.0132,0.0193,0.0191,0.4601,ab000241,0*60d29f41
#INSPVAXA,FILE,0,37.5,FINESTEERING,2319,307713.050,02000000,46eb,17139;INS_SOLUTION_GOOD,INS_RTKFIXED,17.59826267605,78.12238316890,524.6164,-76.2000,-1.3163,-1.4436,-0.0113,-0.344962160,-2.686272935,224.049123159,0.0707,0.0986,0.0633,0.0198,0.0213,0.0133,0.0199,0.0193,0.4602,ab000241,0*1daf7880
#INSPVAXA,FILE,0,32.5,FINESTEERING,2319,307713.100,02000000,46eb,17139;INS_SOLUTION_GOOD,INS_RTKFIXED,17.59826204689,78.12238251801,524.6159,-76.2000,-1.3427,-1.4075,0.0029,-0.351934015,-2.953269301,223.007924467,0.0707,0.0986,0.0633,0.0198,0.0213,0.0133,0.0199,0.0193,0.4602,ab000241,0*41fe17c7
#INSPVAXA,FILE,0,32.5,FINESTEERING,2319,307713.150,02000000,46eb,17139;INS_SOLUTION_GOOD,INS_RTKFIXED,17.59826139790,78.12238188551,524.6162,-76.2000,-1.3967,-1.3675,0.0155,-0.416845081,-3.199678255,221.956999538,0.0707,0.0986,0.0633,0.0198,0.0213,0.0133,0.0199,0.0193,0.4602,ab000241,0*b1da894b
#INSPVAXA,FILE,0,32.5,FINESTEERING,2319,307713.200,02000000,46eb,17139;INS_SOLUTION_GOOD,INS_RTKFIXED,17.59826072971,78.12238126784,524.6159,-76.2000,-1.4343,-1.3391,-0.0083,-0.567838445,-3.411136635,220.910744885,0.0707,0.0986,0.0633,0.0198,0.0213,0.0133,0.0199,0.0193,0.4602,ab000241,0*968b82f2
#INSPVAXA,FILE,0,32.5,FINESTEERING,2319,307713.250,02000000,46eb,17139;INS_SOLUTION_GOOD,INS_RTKFIXED,17.59826004613,78.12238066136,524.6145,-76.2000,-1.4677,-1.3177,-0.0280,-0.806847960,-3.547984953,219.850879582,0.0707,0.0986,0.0633,0.0198,0.0213,0.0133,0.0199,0.0193,0.4602,ab000241,0*ad6de3ce
#INSPVAXA,FILE,0,32.5,FINESTEERING,2319,307713.300,02000000,46eb,17139;INS_SOLUTION_GOOD,INS_RTKFIXED,17.59825934818,78.12238006584,524.6121,-76.2000,-1.4999,-1.2928,-0.0479,-1.048194755,-3.650847062,218.758440056,0.0707,0.0986,0.0633,0.0198,0.0213,0.0133,0.0199,0.0193,0.4602,ab000241,0*30f913b7
#INSPVAXA,FILE,0,32.5,FINESTEERING,2319,307713.350,02000000,46eb,17139;INS_SOLUTION_GOOD,INS_RTKFIXED,17.59825863484,78.12237948144,524.6082,-76.2000,-1.5321,-1.2692,-0.0800,-1.212960560,-3.725561299,217.643844868,0.0707,0.0986,0.0633,0.0198,0.0213,0.0133,0.0199,0.0193,0.4602,ab000241,0*35d5b5ba
#INSPVAXA,FILE,0,32.5,FINESTEERING,2319,307713.400,02000000,46eb,17139;INS_SOLUTION_GOOD,INS_RTKFIXED,17.59825791213,78.12237890440,524.6042,-76.2000,-1.5439,-1.2635,-0.0713,-1.333083287,-3.802948313,216.504816085,0.0707,0.0986,0.0633,0.0198,0.0213,0.0133,0.0199,0.0193,0.4602,ab000241,0*69994c84
#INSPVAXA,FILE,0,32.5,FINESTEERING,2319,307713.450,02000000,46eb,17139;INS_SOLUTION_GOOD,INS_RTKFIXED,17.59825717971,78.12237832854,524.6002,-76.2000,-1.5743,-1.2598,-0.0677,-1.420326702,-3.899051466,215.349708496,0.0707,0.0986,0.0633,0.0198,0.0213,0.0133,0.0199,0.0193,0.4602,ab000241,0*62e810a1
#INSPVAXA,FILE,0,32.5,FINESTEERING,2319,307713.500,02000000,46eb,17139;INS_SOLUTION_GOOD,INS_RTKFIXED,17.59825642888,78.12237775962,524.5961,-76.2000,-1.6224,-1.2369,-0.0756,-1.448381858,-4.012866369,214.219103171,0.0707,0.0986,0.0633,0.0198,0.0213,0.0133,0.0199,0.0193,0.4602,ab000241,0*84d4a3ff
#INSPVAXA,FILE,0,32.5,FINESTEERING,2319,307713.550,02000000,46eb,17139;INS_SOLUTION_GOOD,INS_RTKFIXED,17.59825565889,78.12237720342,524.5921,-76.2000,-1.6644,-1.2050,-0.0697,-1.469848247,-4.150696026,213.137760357,0.0707,0.0986,0.0633,0.0198,0.0213,0.0133,0.0199,0.0193,0.4602,ab000241,0*6312ca42
#INSPVAXA,FILE,0,32.5,FINESTEERING,2319,307713.600,02000000,46eb,17139;INS_SOLUTION_GOOD,INS_RTKFIXED,17.59825487344,78.12237666362,524.5892,-76.2000,-1.6937,-1.1678,-0.0332,-1.457655393,-4.338387629,212.079050478,0.0707,0.0986,0.0633,0.0198,0.0213,0.0133,0.0199,0.0193,0.4602,ab000241,0*2ba9c8f6
#INSPVAXA,FILE,0,32.5,FINESTEERING,2319,307713.650,02000000,46eb,17139;INS_SOLUTION_GOOD,INS_RTKFIXED,17.59825407563,78.12237614016,524.5873,-76.2000,-1.7199,-1.1334,-0.0252,-1.433122841,-4.541879208,211.024139941,0.0707,0.0986,0.0633,0.0198,0.0213,0.0133,0.0199,0.0193,0.4602,ab000241,0*2f5d1243
#INSPVAXA,FILE,0,32.5,FINESTEERING,2319,307713.700,02000000,46eb,17139;INS_SOLUTION_GOOD,INS_RTKFIXED,17.59825326861,78.12237562894,524.5858,-76.2000,-1.7356,-1.1141,-0.0315,-1.348490290,-4.770883496,209.939803246,0.0707,0.0986,0.0633,0.0198,0.0213,0.0133,0.0199,0.0193,0.4602,ab000241,0*7ae53c79
#INSPVAXA,FILE,0,32.5,FINESTEERING,2319,307713.750,02000000,46eb,17139;INS_SOLUTION_GOOD,INS_RTKFIXED,17.59825245290,78.12237512248,524.5823,-76.2000,-1.7545,-1.1103,-0.0854,-1.217099073,-4.926087026,208.823153797,0.0707,0.0986,0.0633,0.0198,0.0213,0.0133,0.0199,0.0193,0.4602,ab000241,0*9ea39a79
#INSPVAXA,FILE,0,32.5,FINESTEERING,2319,307713.800,02000000,46eb,17139;INS_SOLUTION_GOOD,INS_RTKFIXED,17.59825162758,78.12237461725,524.5766,-76.2000,-1.7820,-1.1045,-0.1281,-1.132770554,-5.012623253,207.675875075,0.0707,0.0986,0.0633,0.0198,0.0213,0.0133,0.0199,0.0193,0.4602,ab000241,0*086fded7
#INSPVAXA,FILE,0,32.5,FINESTEERING,2319,307713.850,02000000,46eb,17139;INS_SOLUTION_GOOD,INS_RTKFIXED,17.59825078838,78.12237412097,524.5682,-76.2000,-1.8135,-1.0769,-0.1938,-1.048780087,-5.054957599,206.534188141,0.0707,0.0986,0.0633,0.0198,0.0213,0.0133,0.0199,0.0193,0.4602,ab000241,0*e8c15cb3
#INSPVAXA,FILE,0,32.5,FINESTEERING,2319,307713.900,02000000,46eb,17139;INS_SOLUTION_GOOD,INS_RTKFIXED,17.59824993497,78.12237364033,524.5583,-76.2000,-1.8481,-1.0401,-0.1922,-0.921141292,-5.027293294,205.404793463,0.0707,0.0986,0.0633,0.0198,0.0213,0.0133,0.0199,0.0193,0.4602,ab000241,0*bd24d614
#INSPVAXA,FILE,0,32.5,FINESTEERING,2319,307713.950,02000000,46eb,17139;INS_SOLUTION_GOOD,INS_RTKFIXED,17.59824906274,78.12237317903,524.5473,-76.2000,-1.8933,-0.9973,-0.2251,-0.845587273,-4.955997263,204.320296432,0.0707,0.0986,0.0633,0.0198,0.0213,0.0133,0.0199,0.0193,0.4602,ab000241,0*1ca5cf2a
#INSPVAXA,FILE,0,32.5,FINESTEERING,2319,307714.000,02000000,46eb,17139;INS_SOLUTION_GOOD,INS_RTKFIXED,17.59824817508,78.12237273924,524.5361,-76.2000,-1.9228,-0.9458,-0.2137,-0.790273934,-4.937275013,203.269417349,0.0707,0.0986,0.0633,0.0198,0.0213,0.0133,0.0199,0.0193,0.4602,ab000241,0*591de9aa
#INSPVAXA,FILE,0,32.5,FINESTEERING,2319,307714.050,02000000,46eb,17139;INS_SOLUTION_GOOD,INS_RTKFIXED,17.59824728089,78.12237232194,524.5258,-76.2000,-1.9592,-0.9090,-0.2063,-0.750654273,-4.878152741,202.249924127,0.0739,0.1289,0.0648,0.0217,0.0240,0.0137,0.0209,0.0200,0.4603,ab000241,0*d7927454
#INSPVAXA,FILE,0,30.0,FINESTEERING,2319,307714.100,02000000,46eb,17139;INS_SOLUTION_GOOD,INS_RTKFIXED,17.59824638613,78.12237191855,524.5163,-76.2000,-1.9738,-0.8899,-0.1850,-0.669451936,-4.844790919,201.248696556,0.0739,0.1289,0.0648,0.0217,0.0240,0.0137,0.0209,0.0200,0.4603,ab000241,0*6244c2cc
#INSPVAXA,FILE,0,30.0,FINESTEERING,2319,307714.150,02000000,46eb,17139;INS_SOLUTION_GOOD,INS_RTKFIXED,17.59824548253,78.12237152164,524.5072,-76.2000,-1.9937,-0.8718,-0.1671,-0.594857922,-4.825565298,200.240341622,0.0739,0.1289,0.0648,0.0217,0.0240,0.0137,0.0209,0.0200,0.4603,ab000241,0*36f617c9
#INSPVAXA,FILE,0,30.0,FINESTEERING,2319,307714.200,02000000,46eb,17139;INS_SOLUTION_GOOD,INS_RTKFIXED,17.59824457022,78.12237113773,524.4996,-76.2000,-2.0194,-0.8382,-0.1366,-0.550020184,-4.797967808,199.261601081,0.0739,0.1289,0.0648,0.0217,0.0240,0.0137,0.0209,0.0200,0.4603,ab000241,0*8af32407
#INSPVAXA,FILE,0,30.0,FINESTEERING,2319,307714.250,02000000,46eb,17139;INS_SOLUTION_GOOD,INS_RTKFIXED,17.59824364524,78.12237076913,524.4926,-76.2000,-2.0440,-0.8004,-0.1411,-0.488433189,-4.874808244,198.300907142,0.0739,0.1289,0.0648,0.0217,0.0240,0.0137,0.0209,0.0200,0.4603,ab000241,0*289cc070
#INSPVAXA,FILE,0,30.0,FINESTEERING,2319,307714.300,02000000,46eb,17139;INS_SOLUTION_GOOD,INS_RTKFIXED,17.59824270823,78.12237042261,524.4859,-76.2000,-2.0722,-0.7542,-0.1355,-0.455799703,-4.930301964,197.399957156,0.0739,0.1289,0.0648,0.0217,0.0240,0.0137,0.0209,0.0200,0.4603,ab000241,0*ee96ab17
#INSPVAXA,FILE,0,30.0,FINESTEERING,2319,307714.350,02000000,46eb,17139;INS_SOLUTION_GOOD,INS_RTKFIXED,17.59824176183,78.12237009366,524.4784,-76.2000,-2.0868,-0.7213,-0.1582,-0.387868439,-5.008311899,196.518937578,0.0739,0.1289,0.0648,0.0217,0.0240,0.0137,0.0209,0.0200,0.4603,ab000241,0*95d22db1
#INSPVAXA,FILE,0,30.0,FINESTEERING,2319,307714.400,02000000,46eb,17139;INS_SOLUTION_GOOD,INS_RTKFIXED,17.59824080896,78.12236977917,524.4701,-76.2000,-2.0971,-0.6951,-0.1726,-0.316353777,-5.061328849,195.653365650,0.0739,0.1289,0.0648,0.0217,0.0240,0.0137,0.0209,0.0200,0.4603,ab000241,0*c7a88d68
#INSPVAXA,FILE,0,30.0,FINESTEERING,2319,307714.450,02000000,46eb,17139;INS_SOLUTION_GOOD,INS_RTKFIXED,17.59823985041,78.12236947366,524.4612,-76.2000,-2.1085,-0.6772,-0.1947,-0.254245029,-5.109771930,194.787602606,0.0739,0.1289,0.0648,0.0217,0.0240,0.0137,0.0209,0.0200,0.4603,ab000241,0*f675d901
